{"timestamp": 1773729541.0086408, "keyword": "IT company", "location": "delhi", "cell_idx": 103, "results": [{"place_id": "0x390d195b3d2c83ab:0x3dedc435b1e10e51", "name": "Gemini Solutions pvt ltd", "category": "Software company", "street": "Plot No. 119", "city": "Udyog Vihar, Phase I, Sector 20", "phone": "08800998042", "website": "https://geminisolutions.com/", "rating": 4.2, "review_count": "", "latitude": 28.5133342, "longitude": 77.08256279999999, "maps_url": "https://www.google.com/maps/place/?q=place_id:0x390d195b3d2c83ab:0x3dedc435b1e10e51"}, {"place_id": "0x390d19472c0ed765:0x3448f98cc74febf6", "name": "Vichara Technology", "category": "Software company", "street": "Infotech Center", "city": "Old Delhi Gurugram Rd", "phone": "08887631346", "website": "http://www.vichara.com/", "rating": 4.1, "review_count": "", "latitude": 28.5110438, "longitude": 77.07454489999999, "maps_url": "https://www.google.com/maps/place/?q=place_id:0x390d19472c0ed765:0x3448f98cc74febf6"}, {"place_id": "0x390d195e4483ae05:0xec67b2579bb38803", "name": "eXtendCode - Software Development Company", "category": "Software company", "street": "Plot 63, Second Floor, Udyog Vihar Phase -1,", "city": "Gurugram, Haryana 122016", "phone": "01244261219", "website": "http://www.extendcode.com/", "rating": 4.1, "review_count": "", "latitude": 28.514535199999997, "longitude": 77.0815075, "maps_url": "https://www.google.com/maps/place/?q=place_id:0x390d195e4483ae05:0xec67b2579bb38803"}, {"place_id": "0x390d195c57ccd5e1:0x1b2c706c8f63247e", "name": "Byteprojects - Technologies", "category": "Software company", "street": "Skootr Offices", "city": "PlotNo. 264", "phone": "07876435599", "website": "http://byteprojects.in/", "rating": 4.8, "review_count": "", "latitude": 28.5101685, "longitude": 77.0828891, "maps_url": "https://www.google.com/maps/place/?q=place_id:0x390d195c57ccd5e1:0x1b2c706c8f63247e"}, {"place_id": "0x390d0545d4cea0e5:0x362dfe0a58f4bcef", "name": "StartxLabs Technologies", "category": "Software company", "street": "Plot No 264", "city": "Udyog Vihar Phase 1, Udyog Vihar, Sector 20", "phone": "09818788321", "website": "", "rating": 4.5, "review_count": "", "latitude": 28.5101685, "longitude": 77.0828891, "maps_url": "https://www.google.com/maps/place/?q=place_id:0x390d0545d4cea0e5:0x362dfe0a58f4bcef"}, {"place_id": "0x390d18d8a17a296f:0x232df7fc3447d545", "name": "Tech-Fi Technologies", "category": "BPO Company", "street": "264", "city": "Udyog Vihar Phase 1, Udyog Vihar, Sector 20", "phone": "08586860979", "website": "http://techfi.in/", "rating": 4.2, "review_count": "", "latitude": 28.5101685, "longitude": 77.0828891, "maps_url": "https://www.google.com/maps/place/?q=place_id:0x390d18d8a17a296f:0x232df7fc3447d545"}, {"place_id": "0x390d184cde473ae9:0x5e9aa69790935890", "name": "AIRCOM International (A TEOCO Company)", "category": "Software company", "street": "Infotech Center", "city": "Old Delhi Gurugram Rd", "phone": "", "website": "https://www.teoco.com/", "rating": 4.5, "review_count": "", "latitude": 28.5107358, "longitude": 77.0751057, "maps_url": "https://www.google.com/maps/place/?q=place_id:0x390d184cde473ae9:0x5e9aa69790935890"}, {"place_id": "0x390d19437cb628b3:0x12e71803eb09ac16", "name": "Clavax Technologies", "category": "Software company", "street": "727", "city": "Udyog Vihar, Phase 5", "phone": "+18444252829", "website": "http://www.clavax.com/", "rating": 4.1, "review_count": "", "latitude": 28.5052123, "longitude": 77.0850025, "maps_url": "https://www.google.com/maps/place/?q=place_id:0x390d19437cb628b3:0x12e71803eb09ac16"}, {"place_id": "0x390d194215555555:0x98aab7d8cd2f09a6", "name": "EON Technologies Pvt Ltd", "category": "Software company", "street": "733, Udyog Vihar Phase V Rd", "city": "Phase V, Udyog Vihar, Sector 19", "phone": "01242345191", "website": "", "rating": 3.7, "review_count": "", "latitude": 28.5047027, "longitude": 77.08575359999999, "maps_url": "https://www.google.com/maps/place/?q=place_id:0x390d194215555555:0x98aab7d8cd2f09a6"}, {"place_id": "0x390d18895e47a5a9:0x498fa0445e22352", "name": "IGT Solutions Pvt Ltd", "category": "Corporate office", "street": "2nd Floor InfoTech Centre Old Delhi Gurgaon Road Sector 21 Milestone 14/2", "city": "Old Delhi Gurugram Rd", "phone": "01244587000", "website": "https://www.igtsolutions.com/", "rating": 3.9, "review_count": "", "latitude": 28.5106535, "longitude": 77.0752528, "maps_url": "https://www.google.com/maps/place/?q=place_id:0x390d18895e47a5a9:0x498fa0445e22352"}, {"place_id": "0x390d191100000001:0x83e113ab96f792a6", "name": "Aithent Technologies Private Limited", "category": "Software company", "street": "Plot 8 & 9", "city": "Electronic City, Udyog Vihar, Sector 18", "phone": "01244514600", "website": "", "rating": 4.3, "review_count": "", "latitude": 28.4992287, "longitude": 77.0683609, "maps_url": "https://www.google.com/maps/place/?q=place_id:0x390d191100000001:0x83e113ab96f792a6"}, {"place_id": "0x390d1940d3eedd27:0x273be397fffe3696", "name": "Wipro Limited", "category": "Software company", "street": "480-481 480", "city": "Phase III, Udyog Vihar, Sector 19", "phone": "01243084000", "website": "https://www.wipro.com/", "rating": 4.3, "review_count": "", "latitude": 28.5105306, "longitude": 77.0881143, "maps_url": "https://www.google.com/maps/place/?q=place_id:0x390d1940d3eedd27:0x273be397fffe3696"}, {"place_id": "0x390d195c26bfa369:0x69bd8efd2e3a31fe", "name": "Radical Minds Technologies Pvt. Ltd.", "category": "BPO Company", "street": "368", "city": "Phase II, Udyog Vihar, Sector 20", "phone": "01244338366", "website": "http://www.radicalminds.in/", "rating": 4.2, "review_count": "", "latitude": 28.506335099999998, "longitude": 77.0877546, "maps_url": "https://www.google.com/maps/place/?q=place_id:0x390d195c26bfa369:0x69bd8efd2e3a31fe"}, {"place_id": "0x390d1944a3689949:0x63200da406e47fac", "name": "DCM Infotech Limited", "category": "Computer support and services", "street": "316, Udyog Vihar II Rd", "city": "Phase II, Udyog Vihar, Sector 20", "phone": "01244122800", "website": "http://dcminfotech.com/", "rating": 3.8, "review_count": "", "latitude": 28.506505399999998, "longitude": 77.0857503, "maps_url": "https://www.google.com/maps/place/?q=place_id:0x390d1944a3689949:0x63200da406e47fac"}, {"place_id": "0x390d195d72012637:0x9e97ddd8beb14800", "name": "Qandle", "category": "Software company", "street": "Ground Floor", "city": "PDS Towers", "phone": "09015865865", "website": "https://www.qandle.com/?utm_source=gmb&utm_medium=organic&utm_campaign=gmb", "rating": 4.3, "review_count": "", "latitude": 28.509372, "longitude": 77.0805465, "maps_url": "https://www.google.com/maps/place/?q=place_id:0x390d195d72012637:0x9e97ddd8beb14800"}, {"place_id": "0x390d1956221df1e9:0xb53bfcaf2a093cd2", "name": "Nityo Infotech", "category": "Corporate office", "street": "1st floor, Infotech Center", "city": "Nityo Infotech Services Pvt. Ltd", "phone": "", "website": "http://www.nityo.com/", "rating": 4.4, "review_count": "", "latitude": 28.5106446, "longitude": 77.0749368, "maps_url": "https://www.google.com/maps/place/?q=place_id:0x390d1956221df1e9:0xb53bfcaf2a093cd2"}, {"place_id": "0x390d195d982ffc3f:0x106c4552c02facd0", "name": "Inxee Systems Private Limited", "category": "Corporate office", "street": "Plot No 144", "city": "Udyog Vihar Phase 1, Udyog Vihar, Sector 20", "phone": "01244488856", "website": "http://www.inxee.com/", "rating": 4.2, "review_count": "", "latitude": 28.5104239, "longitude": 77.0808879, "maps_url": "https://www.google.com/maps/place/?q=place_id:0x390d195d982ffc3f:0x106c4552c02facd0"}, {"place_id": "0x390d19619942c021:0x565035cc765054b6", "name": "Quayo Technologies Private Limited", "category": "Software company", "street": "264", "city": "Udyog Vihar Phase 1, Udyog Vihar, Sector 20", "phone": "", "website": "", "rating": 4.8, "review_count": "", "latitude": 28.5099882, "longitude": 77.0828683, "maps_url": "https://www.google.com/maps/place/?q=place_id:0x390d19619942c021:0x565035cc765054b6"}, {"place_id": "0x390d1966954592b7:0x9d806c595f0dd9ca", "name": "Bhavyansh Infotech", "category": "Software company", "street": "1st floor", "city": "Infotech Center", "phone": "09818114030", "website": "http://bhavyansh.net/", "rating": 3.6, "review_count": "", "latitude": 28.5107358, "longitude": 77.0751057, "maps_url": "https://www.google.com/maps/place/?q=place_id:0x390d1966954592b7:0x9d806c595f0dd9ca"}, {"place_id": "0x390d1927c918c30d:0x77c4c1a35f67593b", "name": "Ajath Infotech | Mobile App Development Company", "category": "Software company", "street": "WeWork DLF Forum, Cybercity", "city": "Phase III", "phone": "07838518049", "website": "", "rating": 4.9, "review_count": "", "latitude": 28.4969054, "longitude": 77.0918947, "maps_url": "https://www.google.com/maps/place/?q=place_id:0x390d1927c918c30d:0x77c4c1a35f67593b"}, {"place_id": "0x390d194c2cdbf5ad:0x3b413d400419216", "name": "Japanese Standard Processing Pvt Ltd", "category": "Corporate office", "street": "891", "city": "Udyog Vihar Phase 1, Dundahera Village, Sector 20", "phone": "07303645618", "website": "", "rating": 4.6, "review_count": "", "latitude": 28.5117269, "longitude": 77.07540999999999, "maps_url": "https://www.google.com/maps/place/?q=place_id:0x390d194c2cdbf5ad:0x3b413d400419216"}, {"place_id": "0x390d1905cf9418ab:0x68c73ef2c55c6a92", "name": "Dixinfotech | Best Web Development Company in Gurgaon", "category": "Software company", "street": "Plot No. 96, 1st Floor", "city": "Udyog Vihar Phase 1, Sector 20", "phone": "09717106162", "website": "https://www.dixinfotech.com/website-designing-company-in-gurgaon", "rating": 5, "review_count": "", "latitude": 28.5169219, "longitude": 77.0803425, "maps_url": "https://www.google.com/maps/place/?q=place_id:0x390d1905cf9418ab:0x68c73ef2c55c6a92"}, {"place_id": "0x390d19a28a8d0625:0xd2d7cf5fb9a91af9", "name": "ZABI INFOTECH", "category": "Computer accessories store", "street": "Second Floor, Tara Complex", "city": "Shop No-2,3", "phone": "07011698685", "website": "https://zabiinfotech.co.in/", "rating": 4.8, "review_count": "", "latitude": 28.5125536, "longitude": 77.0801659, "maps_url": "https://www.google.com/maps/place/?q=place_id:0x390d19a28a8d0625:0xd2d7cf5fb9a91af9"}, {"place_id": "0x390d19155d87f373:0x787046048573bb92", "name": "Urban Company", "category": "Corporate office", "street": "7th Floor", "city": "183, Udyog Vihar II Rd", "phone": "", "website": "https://www.urbancompany.com/delhi-ncr?utm_source=googlemaps&utm_campaign=gmb_pages&utm_medium=homepage", "rating": 4, "review_count": "", "latitude": 28.5124048, "longitude": 77.08398679999999, "maps_url": "https://www.google.com/maps/place/?q=place_id:0x390d19155d87f373:0x787046048573bb92"}, {"place_id": "0x390d1942b6e6798b:0xfb5bae698a2366da", "name": "Lappy support", "category": "Computer repair service", "street": "Plot 1011 ,dundahera", "city": "near by jatav choupal", "phone": "09718727509", "website": "https://laptopontime.store/", "rating": 4.8, "review_count": "", "latitude": 28.5129642, "longitude": 77.07947349999999, "maps_url": "https://www.google.com/maps/place/?q=place_id:0x390d1942b6e6798b:0xfb5bae698a2366da"}, {"place_id": "0x390d194215555547:0x8e2a3ef830a56e76", "name": "Digital Web Solutions (P) Ltd.", "category": "Marketing agency", "street": "174, Udyog Vihar, Phase I", "city": "Gurugram, Haryana 122016", "phone": "08826357773", "website": "http://www.digitalwebsolutions.com/", "rating": 4.2, "review_count": "", "latitude": 28.5108973, "longitude": 77.0826276, "maps_url": "https://www.google.com/maps/place/?q=place_id:0x390d194215555547:0x8e2a3ef830a56e76"}, {"place_id": "0x390d19a6d0cd5b3f:0xfcb2ab3c1c513941", "name": "Avighnity Technologies | Digital Marketing, PPC, Social Media, Website Designing, SEO Agency in Gurgaon", "category": "Software company", "street": "Building 96, First Floor", "city": "Udyog Vihar Phase 1, Udyog Vihar, Sector 20", "phone": "08595364679", "website": "https://www.avighnity.com/", "rating": 4.3, "review_count": "", "latitude": 28.5116326, "longitude": 77.083787, "maps_url": "https://www.google.com/maps/place/?q=place_id:0x390d19a6d0cd5b3f:0xfcb2ab3c1c513941"}, {"place_id": "0x390d19d53fed1853:0x489946d71f2cd136", "name": "Globiva Services Private Limited", "category": "BPO Company", "street": "5th", "city": "Infotech Center", "phone": "18003090109", "website": "https://www.globiva.com/", "rating": 3.8, "review_count": "", "latitude": 28.5107014, "longitude": 77.0753776, "maps_url": "https://www.google.com/maps/place/?q=place_id:0x390d19d53fed1853:0x489946d71f2cd136"}, {"place_id": "0x390d195c405a28cd:0x601d98b0e3748746", "name": "SupportMart Global Services Pvt Ltd", "category": "Computer service", "street": "29", "city": "Udyog Vihar Phase 1, Dundahera Village, Sector 20", "phone": "01244618200", "website": "", "rating": 3.7, "review_count": "", "latitude": 28.512702599999997, "longitude": 77.0800531, "maps_url": "https://www.google.com/maps/place/?q=place_id:0x390d195c405a28cd:0x601d98b0e3748746"}, {"place_id": "0x390d1911e7367765:0xc7ce7f4559c1f5e", "name": "Workify Offices", "category": "Coworking space", "street": "264", "city": "Udyog Vihar Phase 1, Udyog Vihar, Sector 20", "phone": "", "website": "", "rating": 4.5, "review_count": "", "latitude": 28.5102232, "longitude": 77.08286079999999, "maps_url": "https://www.google.com/maps/place/?q=place_id:0x390d1911e7367765:0xc7ce7f4559c1f5e"}, {"place_id": "0x390d195cd6481e61:0x5b640296bd2b1bdc", "name": "Lappy Services Online", "category": "Computer repair service", "street": "Tara complex", "city": "Udyog Vihar, Dundahera", "phone": "", "website": "https://www.lappyservices.online/", "rating": 4.5, "review_count": "", "latitude": 28.512366699999998, "longitude": 77.0785923, "maps_url": "https://www.google.com/maps/place/?q=place_id:0x390d195cd6481e61:0x5b640296bd2b1bdc"}, {"place_id": "0x390ce458d0000001:0xf2123bd299ec4501", "name": "IT Company India", "category": "Software company", "street": "D56", "city": "D Block, Sector 10", "phone": "09999244854", "website": "https://www.itcompanyindia.in/", "rating": 4.7, "review_count": "", "latitude": 28.589917699999997, "longitude": 77.3351153, "maps_url": "https://www.google.com/maps/place/?q=place_id:0x390ce458d0000001:0xf2123bd299ec4501"}, {"place_id": "0x390d193c3a36e523:0xe68f8d2568faeaad", "name": "Espire Infolabs Pvt. Ltd.", "category": "Software company", "street": "486 & 487", "city": "Phase III, Udyog Vihar III, Sector 20", "phone": "01247173000", "website": "http://www.espire.com/", "rating": 4.1, "review_count": "", "latitude": 28.5119516, "longitude": 77.0899661, "maps_url": "https://www.google.com/maps/place/?q=place_id:0x390d193c3a36e523:0xe68f8d2568faeaad"}, {"place_id": "0x390d198e09cdee0d:0x6ebdde749f57a13e", "name": "WebTech Solutionss", "category": "Software company", "street": "Agarwal Sweets", "city": "467, Backside Street", "phone": "08571010282", "website": "http://webtechsolutionss.com/", "rating": "", "review_count": "", "latitude": 28.512158799999998, "longitude": 77.07595649999999, "maps_url": "https://www.google.com/maps/place/?q=place_id:0x390d198e09cdee0d:0x6ebdde749f57a13e"}, {"place_id": "0x390d195c5f7eac3d:0x5e68912226add580", "name": "Internet Exports India LLP", "category": "Exporter", "street": "Plot No 202", "city": "Udyog Vihar Phase 1, Udyog Vihar, Sector 20", "phone": "01244276467", "website": "https://www.internetexportsindia.com/", "rating": 4.5, "review_count": "", "latitude": 28.510384799999997, "longitude": 77.08360549999999, "maps_url": "https://www.google.com/maps/place/?q=place_id:0x390d195c5f7eac3d:0x5e68912226add580"}, {"place_id": "0x390d19ec527ca367:0xd2462fe853ceac25", "name": "Shree Computer And Cartridge Solution.Printer and Laptop ,Macbook Chip Level Repairing ,CCTV,Networking, Cartridge Refilling", "category": "Computer repair service", "street": "Shop No 11, 1st Floor,Hanuman Mandir", "city": "Market, Hanuman Chowk", "phone": "09911175006", "website": "", "rating": 5, "review_count": "", "latitude": 28.511962099999998, "longitude": 77.0745895, "maps_url": "https://www.google.com/maps/place/?q=place_id:0x390d19ec527ca367:0xd2462fe853ceac25"}, {"place_id": "0x390d195c57ccd5e1:0x140624c9fcaa2cd1", "name": "Unbox Data Centers Pvt. Ltd.", "category": "Web hosting company", "street": "264", "city": "Udyog Vihar Phase 1, Udyog Vihar, Sector 20", "phone": "18001202530", "website": "http://www.unboxdatacenters.com/", "rating": 4.5, "review_count": "", "latitude": 28.5101685, "longitude": 77.0828891, "maps_url": "https://www.google.com/maps/place/?q=place_id:0x390d195c57ccd5e1:0x140624c9fcaa2cd1"}, {"place_id": "0x390d195c4d06afbf:0x39a6763cae215363", "name": "Rankwatch", "category": "Software company", "street": "174, Shankar Chowk Rd", "city": "Udyog Vihar Phase 1, Udyog Vihar, Sector 20", "phone": "07042633422", "website": "", "rating": 4, "review_count": "", "latitude": 28.509004899999997, "longitude": 77.0803837, "maps_url": "https://www.google.com/maps/place/?q=place_id:0x390d195c4d06afbf:0x39a6763cae215363"}, {"place_id": "0x390d195dba19327d:0xd5adead09ba65ae9", "name": "Neovation Graphics Private Limited", "category": "Custom label printer", "street": "148, Udyog Vihar II Rd", "city": "Udyog Vihar Phase 1, Udyog Vihar, Sector 20", "phone": "09811100477", "website": "", "rating": 4.7, "review_count": "", "latitude": 28.511125399999997, "longitude": 77.0812212, "maps_url": "https://www.google.com/maps/place/?q=place_id:0x390d195dba19327d:0xd5adead09ba65ae9"}, {"place_id": "0x390d194054f2b9b3:0x7c88fab621eb44f6", "name": "SGS India Private Limited", "category": "Business to business service", "street": "226", "city": "Udyog Vihar Phase 1, Udyog Vihar, Sector 20", "phone": "08069388888", "website": "https://www.sgs.com/en-in/?utm_source=googlemybusiness&utm_medium=Referral_GMB&utm_campaign=SGSIN38", "rating": 4.3, "review_count": "", "latitude": 28.5088659, "longitude": 77.0815416, "maps_url": "https://www.google.com/maps/place/?q=place_id:0x390d194054f2b9b3:0x7c88fab621eb44f6"}, {"place_id": "0x390ce458d0000001:0xf2123bd299ec4501", "name": "IT Company India", "category": "Software company", "street": "D56", "city": "D Block, Sector 10", "phone": "09999244854", "website": "https://www.itcompanyindia.in/", "rating": 4.7, "review_count": "", "latitude": 28.589917699999997, "longitude": 77.3351153, "maps_url": "https://www.google.com/maps/place/?q=place_id:0x390ce458d0000001:0xf2123bd299ec4501"}, {"place_id": "0x390d1990db19986d:0x76f7bda3736fe4c4", "name": "Panchisoft", "category": "Software company", "street": "H-166, Street No. 2", "city": "I Block, H- Block, Dharam Colony, Palam Vihar Extension", "phone": "09810735390", "website": "https://www.panchisoft.com/", "rating": 5, "review_count": "", "latitude": 28.5014164, "longitude": 77.0380527, "maps_url": "https://www.google.com/maps/place/?q=place_id:0x390d1990db19986d:0x76f7bda3736fe4c4"}, {"place_id": "0x390d195cf14b04db:0xc512664f814f1e10", "name": "Ritika Private Limited", "category": "Corporate office", "street": "260", "city": "Udyog Vihar Phase 1, Udyog Vihar, Sector 20", "phone": "", "website": "", "rating": 4.5, "review_count": "", "latitude": 28.5097894, "longitude": 77.0833506, "maps_url": "https://www.google.com/maps/place/?q=place_id:0x390d195cf14b04db:0xc512664f814f1e10"}, {"place_id": "0x390d19fac62c1f25:0xb366f8f85e515ae3", "name": "Minter CSTech PVT. LTD. - Laptop On Rent In Gurgaon, Gaming PC On Rent In Gurgaon, Computer On Rent In Gurgaon.", "category": "Computer service", "street": "4th Floor", "city": "Enkay Global", "phone": "09871227552", "website": "https://www.mintercstech.com/", "rating": 5, "review_count": "", "latitude": 28.5112621, "longitude": 77.08168289999999, "maps_url": "https://www.google.com/maps/place/?q=place_id:0x390d19fac62c1f25:0xb366f8f85e515ae3"}, {"place_id": "0x390d195e81156c9f:0x465deb5e9cb341f0", "name": "Livguard - Energy Technologies Pvt. Ltd.", "category": "Battery Store", "street": "Plot No 221", "city": "Udyog Vihar Phase 1, Udyog Vihar, Sector 20", "phone": "01244987400", "website": "https://www.livguard.com/battery-inverter-dealers/livguard-energy-technologies-pvt-ltd-battery-store-sector-20-gurugram-329558/Home", "rating": 3.8, "review_count": "", "latitude": 28.5098211, "longitude": 77.0833816, "maps_url": "https://www.google.com/maps/place/?q=place_id:0x390d195e81156c9f:0x465deb5e9cb341f0"}, {"place_id": "0x390d1971411777a1:0x4bbbfbc1d5880186", "name": "Exceed Solutions", "category": "Computer support and services", "street": "264", "city": "Udyog Vihar Phase 1, Udyog Vihar, Sector 20", "phone": "08595851017", "website": "http://exceedsolutions.co.in/", "rating": 4.3, "review_count": "", "latitude": 28.510133099999997, "longitude": 77.0826735, "maps_url": "https://www.google.com/maps/place/?q=place_id:0x390d1971411777a1:0x4bbbfbc1d5880186"}, {"place_id": "0x390d19de4a04032f:0x3e428b2e7570c263", "name": "Nextwave Innovation", "category": "Corporate office", "street": "166", "city": "Udyog Vihar Phase 1, Udyog Vihar, Sector 20", "phone": "", "website": "", "rating": 4.2, "review_count": "", "latitude": 28.5108633, "longitude": 77.0817017, "maps_url": "https://www.google.com/maps/place/?q=place_id:0x390d19de4a04032f:0x3e428b2e7570c263"}, {"place_id": "0x390d19e593eaaaab:0x72d0adf9a106c3ec", "name": "13sqft", "category": "Warehouse", "street": "PLOT #174 (Ground Floor", "city": "Udyog Vihar Phase 1, Sector 20", "phone": "08700471705", "website": "https://13sqft.com/", "rating": 4.5, "review_count": "", "latitude": 28.510786799999998, "longitude": 77.0826708, "maps_url": "https://www.google.com/maps/place/?q=place_id:0x390d19e593eaaaab:0x72d0adf9a106c3ec"}, {"place_id": "0x390d19001214c59b:0xa3b1fe7814ad0ef1", "name": "Triburg Sourcing", "category": "Corporate office", "street": "182", "city": "Udyog Vihar Phase 1, Udyog Vihar, Mehrauli", "phone": "01244859500", "website": "http://www.triburg.co.in/", "rating": 4.5, "review_count": "", "latitude": 28.5124154, "longitude": 77.08350399999999, "maps_url": "https://www.google.com/maps/place/?q=place_id:0x390d19001214c59b:0xa3b1fe7814ad0ef1"}, {"place_id": "0x390d193feaaaaaab:0x4e28aa188afa3de6", "name": "Saffron Global Limited", "category": "Telephone Marketing Agency", "street": "113, Udyog Vihar, Phase-1", "city": "Gurugram, Haryana 122016", "phone": "", "website": "", "rating": 3.5, "review_count": "", "latitude": 28.5116326, "longitude": 77.0837871, "maps_url": "https://www.google.com/maps/place/?q=place_id:0x390d193feaaaaaab:0x4e28aa188afa3de6"}, {"place_id": "0x390d19829391d66b:0xd55f794ec4ef29d8", "name": "Rosmerta Technologies Limted - IT", "category": "Corporate office", "street": "Plot Number 166", "city": "Udyog Vihar Phase 1, Udyog Vihar, Sector 20", "phone": "", "website": "", "rating": "", "review_count": "", "latitude": 28.510889799999998, "longitude": 77.0816837, "maps_url": "https://www.google.com/maps/place/?q=place_id:0x390d19829391d66b:0xd55f794ec4ef29d8"}, {"place_id": "0x390d195dbc116f6d:0xdbbc31d8058bbdb8", "name": "Johnson Lifts Private Limited", "category": "Elevator Manufacturer", "street": "147", "city": "Udyog Vihar Phase 1, Udyog Vihar, Sector 20", "phone": "07200333250", "website": "http://www.johnsonliftsltd.com/", "rating": 4.1, "review_count": "", "latitude": 28.510962, "longitude": 77.0812091, "maps_url": "https://www.google.com/maps/place/?q=place_id:0x390d195dbc116f6d:0xdbbc31d8058bbdb8"}, {"place_id": "0x390d190012f4efe3:0x887ffd9e6f4cdece", "name": "TrucksUp Solutions Private Limited", "category": "Corporate office", "street": "136", "city": "near Ram chowk sector 20", "phone": "08062516016", "website": "https://trucksup.com/", "rating": 4.7, "review_count": "", "latitude": 28.5102032, "longitude": 77.0795933, "maps_url": "https://www.google.com/maps/place/?q=place_id:0x390d190012f4efe3:0x887ffd9e6f4cdece"}, {"place_id": "0x390d1940d3eedd27:0xef9da64249e3eec1", "name": "Synchronized Supply Systems Ltd.", "category": "Corporate office", "street": "Plot - 174", "city": "Udyog Vihar Phase 1, Udyog Vihar, Sector 20", "phone": "", "website": "http://synchronized.in/", "rating": 4.4, "review_count": "", "latitude": 28.510772799999998, "longitude": 77.0826383, "maps_url": "https://www.google.com/maps/place/?q=place_id:0x390d1940d3eedd27:0xef9da64249e3eec1"}, {"place_id": "0x390d195c57ccd42f:0x4233bb4b743b06d8", "name": "Hello2Hosting - VPS Web Hosting", "category": "Web hosting company", "street": "264", "city": "Udyog Vihar Phase 1, Udyog Vihar, Sector 20", "phone": "18001202530", "website": "https://www.hello2hosting.com/", "rating": 4.5, "review_count": "", "latitude": 28.5100485, "longitude": 77.08294939999999, "maps_url": "https://www.google.com/maps/place/?q=place_id:0x390d195c57ccd42f:0x4233bb4b743b06d8"}, {"place_id": "0x390d183a3846403b:0x8fd7c90645a11f72", "name": "Vashist IT Solutions Pvt Ltd", "category": "Software company", "street": "729", "city": "Islampur Village, Sector 38", "phone": "09718216517", "website": "https://vashist.tech/", "rating": 4.4, "review_count": "", "latitude": 28.4305924, "longitude": 77.0415957, "maps_url": "https://www.google.com/maps/place/?q=place_id:0x390d183a3846403b:0x8fd7c90645a11f72"}, {"place_id": "0x390d195d72012637:0xe0c709d609ffe506", "name": "PDS MULTINATIONAL FASHIONS LTD", "category": "Corporate office", "street": "222-223, Shankar Chowk Road IDPL Township", "city": "222, Shankar Chowk Rd", "phone": "01244651407", "website": "", "rating": 4.4, "review_count": "", "latitude": 28.509505299999997, "longitude": 77.08050829999999, "maps_url": "https://www.google.com/maps/place/?q=place_id:0x390d195d72012637:0xe0c709d609ffe506"}, {"place_id": "0x390d1961e1555555:0xbba99a86917642a6", "name": "Kadimi Tool Manufacturing Company (P) Ltd.", "category": "Manufacturer", "street": "118", "city": "Udyog Vihar Phase 1, Dundahera Village, Sector 20", "phone": "01242347205", "website": "https://www.kadimitool.com/", "rating": 4.1, "review_count": "", "latitude": 28.513565699999997, "longitude": 77.0826821, "maps_url": "https://www.google.com/maps/place/?q=place_id:0x390d1961e1555555:0xbba99a86917642a6"}, {"place_id": "0x390d19d19befc489:0xc9f7a167bdde1ee9", "name": "Aerial IQ India Private limited", "category": "Aerospace company", "street": "S Lal Tower, 545, 3rd Floor, Dundahera Road", "city": "Shankar Chowk Rd", "phone": "", "website": "https://www.aerialiq.in/", "rating": 5, "review_count": "", "latitude": 28.511798199999998, "longitude": 77.07534319999999, "maps_url": "https://www.google.com/maps/place/?q=place_id:0x390d19d19befc489:0xc9f7a167bdde1ee9"}, {"place_id": "0x390d195db8723175:0xc75fe0cc9cf8df7", "name": "WNS Consulting Services", "category": "BPO Company", "street": "150", "city": "Udyog Vihar Phase 1, Udyog Vihar, Sector 20", "phone": "", "website": "", "rating": 3.9, "review_count": "", "latitude": 28.5113792, "longitude": 77.0815199, "maps_url": "https://www.google.com/maps/place/?q=place_id:0x390d195db8723175:0xc75fe0cc9cf8df7"}, {"place_id": "0x390d195d72012637:0xe0c709d609ffe506", "name": "PDS MULTINATIONAL FASHIONS LTD", "category": "Corporate office", "street": "222-223, Shankar Chowk Road IDPL Township", "city": "222, Shankar Chowk Rd", "phone": "01244651407", "website": "", "rating": 4.4, "review_count": "", "latitude": 28.509505299999997, "longitude": 77.08050829999999, "maps_url": "https://www.google.com/maps/place/?q=place_id:0x390d195d72012637:0xe0c709d609ffe506"}, {"place_id": "0x390d193feaaaaaab:0x688102299fec7b4c", "name": "Krishna Labels Pvt Ltd", "category": "Manufacturer", "street": "162", "city": "Udyog Vihar Phase 1, Udyog Vihar, Sector 20", "phone": "01242340124", "website": "http://www.blackberrys.com/", "rating": 4.2, "review_count": "", "latitude": 28.511339699999997, "longitude": 77.08216469999999, "maps_url": "https://www.google.com/maps/place/?q=place_id:0x390d193feaaaaaab:0x688102299fec7b4c"}, {"place_id": "0x390d195d0d8bbaeb:0x879480fbc713a400", "name": "MJS eSTORE", "category": "Software company", "street": "223-224", "city": "Udyog Vihar Phase 1, Udyog Vihar, Sector 20", "phone": "", "website": "", "rating": 4.1, "review_count": "", "latitude": 28.509130799999998, "longitude": 77.08123619999999, "maps_url": "https://www.google.com/maps/place/?q=place_id:0x390d195d0d8bbaeb:0x879480fbc713a400"}, {"place_id": "0x390d1925fac84eb5:0x72d233a3230fe315", "name": "Urban Company Gurugram City Office", "category": "Home help", "street": "121", "city": "Udyog Vihar Phase 1, Udyog Vihar, Sector 20", "phone": "", "website": "http://urbancompany.com/", "rating": 3.3, "review_count": "", "latitude": 28.5122036, "longitude": 77.0816696, "maps_url": "https://www.google.com/maps/place/?q=place_id:0x390d1925fac84eb5:0x72d233a3230fe315"}, {"place_id": "0x390d192409eb1411:0xbf1f68f4b2dd1d69", "name": "Appicia Technologies", "category": "Software company", "street": "Third floor", "city": "Ashirwad", "phone": "08076917265", "website": "https://appicia.com/", "rating": 5, "review_count": "", "latitude": 28.4885505, "longitude": 77.01963889999999, "maps_url": "https://www.google.com/maps/place/?q=place_id:0x390d192409eb1411:0xbf1f68f4b2dd1d69"}, {"place_id": "0x390d195d05e3f20d:0x6bf868ed0d4f3ef6", "name": "MDH, Gurgaon", "category": "Food Processing Company", "street": "216", "city": "Udyog Vihar Phase 1, Udyog Vihar, Sector 20", "phone": "01242340727", "website": "http://mdhspices.com/", "rating": 4.1, "review_count": "", "latitude": 28.5101588, "longitude": 77.0795674, "maps_url": "https://www.google.com/maps/place/?q=place_id:0x390d195d05e3f20d:0x6bf868ed0d4f3ef6"}, {"place_id": "0x390d193feaaaaaab:0x4e28aa188afa3de6", "name": "Saffron Global Limited", "category": "Telephone Marketing Agency", "street": "113, Udyog Vihar, Phase-1", "city": "Gurugram, Haryana 122016", "phone": "", "website": "", "rating": 3.5, "review_count": "", "latitude": 28.5116326, "longitude": 77.0837871, "maps_url": "https://www.google.com/maps/place/?q=place_id:0x390d193feaaaaaab:0x4e28aa188afa3de6"}, {"place_id": "0x390d191d0bb8a9db:0xf6295047e107a843", "name": "Robust Infotech - IT Services | Digital Transformation | Best Website/Software Development Company", "category": "Software company", "street": "90B, Delhi - Jaipur Expy", "city": "Nitin Vihar, Udyog Vihar, Sector 18", "phone": "07982914476", "website": "", "rating": 5, "review_count": "", "latitude": 28.441292299999997, "longitude": 77.0148859, "maps_url": "https://www.google.com/maps/place/?q=place_id:0x390d191d0bb8a9db:0xf6295047e107a843"}, {"place_id": "0x390d0368a33e1ac3:0x16022ec835232a26", "name": "Livfast Batteries Private Limited", "category": "Battery Manufacturer", "street": "Plot No. 221", "city": "Phase I, Udyog Vihar, Sector 20", "phone": "", "website": "https://www.livfast.in/", "rating": 2.4, "review_count": "", "latitude": 28.5085615, "longitude": 77.0834366, "maps_url": "https://www.google.com/maps/place/?q=place_id:0x390d0368a33e1ac3:0x16022ec835232a26"}, {"place_id": "0x390d18d16ed156d7:0x585f54700351fd1a", "name": "Mansaa", "category": "Electronics Company", "street": "Plot No 209", "city": "Udyog Vihar Phase 1, Phase 1, Sector 20", "phone": "09971745757", "website": "http://www.mansaa.io/", "rating": 4.3, "review_count": "", "latitude": 28.5099625, "longitude": 77.0823437, "maps_url": "https://www.google.com/maps/place/?q=place_id:0x390d18d16ed156d7:0x585f54700351fd1a"}, {"place_id": "0x390d192a00411ae1:0xcf723d88c58c75e2", "name": "Future 101 Design Corporate Office", "category": "Corporate office", "street": "143", "city": "Phase II, Udyog Vihar, Sector 18", "phone": "", "website": "", "rating": 4.3, "review_count": "", "latitude": 28.5103078, "longitude": 77.0807145, "maps_url": "https://www.google.com/maps/place/?q=place_id:0x390d192a00411ae1:0xcf723d88c58c75e2"}, {"place_id": "0x390d193ff211b3fb:0xd964ffb67296e058", "name": "IStrat Software Pvt. Ltd.", "category": "Software company", "street": "90D,", "city": "Udyog Vihar Phase IV, Sector 18", "phone": "01244121000", "website": "", "rating": 3.8, "review_count": "", "latitude": 28.485205399999998, "longitude": 77.0740924, "maps_url": "https://www.google.com/maps/place/?q=place_id:0x390d193ff211b3fb:0xd964ffb67296e058"}, {"place_id": "0x390d1970f8b25447:0x823efc277abc305b", "name": "Click2Public Technologies OPC Pvt. Ltd. - Election Campaign Management, Political Marketing & PR Agency", "category": "Advertising agency", "street": "350, Ram Chowk Rd", "city": "Udyog Vihar Phase 1, Udyog Vihar, Sector 20", "phone": "09996609949", "website": "https://click2public.com/", "rating": 5, "review_count": "", "latitude": 28.510105499999998, "longitude": 77.0793304, "maps_url": "https://www.google.com/maps/place/?q=place_id:0x390d1970f8b25447:0x823efc277abc305b"}, {"place_id": "0x484025b6488f98dd:0x648bed1c75013da8", "name": "Codevio Digital \u2013 IT & Software Company in Gurgaon", "category": "Software company", "street": "UNITECH CYBER PARK", "city": "Durga Colony, Sector 39", "phone": "07428036870", "website": "https://codevio.io/", "rating": 4.8, "review_count": "", "latitude": 28.443307899999997, "longitude": 77.0561005, "maps_url": "https://www.google.com/maps/place/?q=place_id:0x484025b6488f98dd:0x648bed1c75013da8"}, {"place_id": "0x390d190aee1ad9c1:0x1ef20f098d227cb3", "name": "OD Business Solutions", "category": "Corporate office", "street": "26", "city": "Udyog Vihar Phase 1, Udyog Vihar, Sector 20", "phone": "", "website": "", "rating": 3.6, "review_count": "", "latitude": 28.5116326, "longitude": 77.08378689999999, "maps_url": "https://www.google.com/maps/place/?q=place_id:0x390d190aee1ad9c1:0x1ef20f098d227cb3"}, {"place_id": "0x390d195e7a00475b:0xe2b3a26ca958126a", "name": "Swift Corporation", "category": "Event planner", "street": "91, Udyog Vihar Phase 1", "city": "Shankar Chowk Rd", "phone": "01242439446", "website": "", "rating": 4.2, "review_count": "", "latitude": 28.512914799999997, "longitude": 77.0815843, "maps_url": "https://www.google.com/maps/place/?q=place_id:0x390d195e7a00475b:0xe2b3a26ca958126a"}, {"place_id": "0x390d195c34d5a471:0xf1235faf5fed46f2", "name": "Quatrro Mortgage Solutions", "category": "Corporate office", "street": "160, Udyog Vihar II Rd", "city": "Rajiv Nagar, Udyog Vihar III, Sector 20", "phone": "", "website": "https://www.quatrro.com/", "rating": 3.5, "review_count": "", "latitude": 28.5115883, "longitude": 77.0824863, "maps_url": "https://www.google.com/maps/place/?q=place_id:0x390d195c34d5a471:0xf1235faf5fed46f2"}, {"place_id": "0x390d195b82c058cb:0xb1919aa41134ab66", "name": "Acuity Knowledge Partners", "category": "Corporate office", "street": "267, Shankar Chowk Rd", "city": "Udyog Vihar Phase 1, Udyog Vihar, Sector 20", "phone": "01246609000", "website": "https://www.acuitykp.com/contact-us/", "rating": 4, "review_count": "", "latitude": 28.506427, "longitude": 77.08451989999999, "maps_url": "https://www.google.com/maps/place/?q=place_id:0x390d195b82c058cb:0xb1919aa41134ab66"}, {"place_id": "0x390d195de96b19b1:0x2b72c8a84636bdbb", "name": "Om Sai Group Consultancy", "category": "Human resource consulting", "street": "2nd Floor", "city": "Plot No-1056", "phone": "07503979405", "website": "https://www.omsaigroupconsultancy.com/", "rating": 4.4, "review_count": "", "latitude": 28.5116326, "longitude": 77.083787, "maps_url": "https://www.google.com/maps/place/?q=place_id:0x390d195de96b19b1:0x2b72c8a84636bdbb"}, {"place_id": "0x390d194365bebf85:0x5019ac0d5d6f72cd", "name": "Tek Travels Pvt Ltd", "category": "Software company", "street": "724, Shankar Chowk Rd", "city": "Phase V, Udyog Vihar, Sector 19", "phone": "01244986104", "website": "http://www.tboholidays.com/", "rating": 4.1, "review_count": "", "latitude": 28.512457599999998, "longitude": 77.083569, "maps_url": "https://www.google.com/maps/place/?q=place_id:0x390d194365bebf85:0x5019ac0d5d6f72cd"}, {"place_id": "0x390d19f51c30d1bd:0x4b4e74d3f5f54c4e", "name": "SAR Group", "category": "Corporate office", "street": "Plot No 221", "city": "Udyog Vihar Phase 1, Udyog Vihar, Sector 20", "phone": "", "website": "https://www.sar-group.com/", "rating": 4.1, "review_count": "", "latitude": 28.5085479, "longitude": 77.0833396, "maps_url": "https://www.google.com/maps/place/?q=place_id:0x390d19f51c30d1bd:0x4b4e74d3f5f54c4e"}, {"place_id": "0x390d19a45adaccd7:0x3247c12f24457372", "name": "CIF Private limited", "category": "Software company", "street": "Plot No - 264", "city": "Udyog Vihar Phase 1, Udyog Vihar, Sector 20", "phone": "09711475341", "website": "", "rating": 2.7, "review_count": "", "latitude": 28.5101685, "longitude": 77.0828891, "maps_url": "https://www.google.com/maps/place/?q=place_id:0x390d19a45adaccd7:0x3247c12f24457372"}, {"place_id": "0x390d19c738367b87:0xd1a083f3edbfcaf8", "name": "GetWork AI - Hiring & Recruitment | Gurgaon", "category": "Recruiter", "street": "2nd Floor, S Lal Tower", "city": "545", "phone": "08595351311", "website": "https://www.getwork.org/", "rating": 4.4, "review_count": "", "latitude": 28.5118717, "longitude": 77.0750874, "maps_url": "https://www.google.com/maps/place/?q=place_id:0x390d19c738367b87:0xd1a083f3edbfcaf8"}, {"place_id": "0x390d19d743b6e443:0xdaa806226fcb9977", "name": "wAnywhere", "category": "Software company", "street": "91 Springboard, Plot 145", "city": "6th Floor", "phone": "09810789166", "website": "https://wanywhere.com/", "rating": "", "review_count": "", "latitude": 28.5107203, "longitude": 77.0807804, "maps_url": "https://www.google.com/maps/place/?q=place_id:0x390d19d743b6e443:0xdaa806226fcb9977"}, {"place_id": "0x390d193feaaaaaab:0x129491a2dafa5ac2", "name": "Lyra Industrials", "category": "Clothing manufacturer", "street": "Plot No-155", "city": "Udyog Vihar Phase 1, Udyog Vihar, Sector 20", "phone": "09810027525", "website": "https://www.lyraindustrials.com/", "rating": 4.1, "review_count": "", "latitude": 28.5118583, "longitude": 77.0822651, "maps_url": "https://www.google.com/maps/place/?q=place_id:0x390d193feaaaaaab:0x129491a2dafa5ac2"}, {"place_id": "0x390d199248b28f95:0x4431008ab1c009e1", "name": "EJS Business Solutions - Your Recruitment Service Partner", "category": "BPO Placement Agency", "street": "264", "city": "Udyog Vihar Phase 1, Udyog Vihar, Sector 20", "phone": "08750696501", "website": "https://www.ejsglobal.com/", "rating": 5, "review_count": "", "latitude": 28.5101685, "longitude": 77.0828891, "maps_url": "https://www.google.com/maps/place/?q=place_id:0x390d199248b28f95:0x4431008ab1c009e1"}, {"place_id": "0x390cfb4bf15a6733:0xaf50e6f3c5fb7641", "name": "Digitals Daddy: Web & App Development Company", "category": "Software company", "street": "Metro Gate No. 2", "city": "Nearest Sikandarpur", "phone": "09818286609", "website": "https://www.digitalsdaddy.com/", "rating": 4.9, "review_count": "", "latitude": 28.4847884, "longitude": 77.0922192, "maps_url": "https://www.google.com/maps/place/?q=place_id:0x390cfb4bf15a6733:0xaf50e6f3c5fb7641"}, {"place_id": "0x390d195c3aa8292d:0xf1a722fe75a74d73", "name": "Eurofins Product Testing India Private Limited", "category": "Laboratory", "street": "Plot No. 157", "city": "Udyog Vihar Phase 1, Udyog Vihar, Sector 20", "phone": "01246250300", "website": "https://www.eurofins.in/consumer-product-testing/", "rating": 4.5, "review_count": "", "latitude": 28.5119959, "longitude": 77.0830034, "maps_url": "https://www.google.com/maps/place/?q=place_id:0x390d195c3aa8292d:0xf1a722fe75a74d73"}, {"place_id": "0x390d198f62c557d7:0x4b037444663d7f50", "name": "Triyuga Soft Tech Pvt Ltd | IT Company in Gurgaon | Digital Marketing Company in Gurgaon", "category": "Software company", "street": "Shop No : 4", "city": "Main, Bajghera Rd", "phone": "09999699936", "website": "https://www.triyugasofttech.com/", "rating": "", "review_count": "", "latitude": 28.495755199999998, "longitude": 77.011887, "maps_url": "https://www.google.com/maps/place/?q=place_id:0x390d198f62c557d7:0x4b037444663d7f50"}, {"place_id": "0x390d1921edbb4b29:0xcabedfbc7b4013d0", "name": "Beware Essentials", "category": "Security service", "street": "P.No. 174", "city": "Udyog Vihar Phase 1, Udyog Vihar, Sector 20", "phone": "", "website": "https://beware-essentials.com/", "rating": 5, "review_count": "", "latitude": 28.510844, "longitude": 77.082538, "maps_url": "https://www.google.com/maps/place/?q=place_id:0x390d1921edbb4b29:0xcabedfbc7b4013d0"}, {"place_id": "0x390d19d67230eacd:0x7027517e9af5a594", "name": "Livpure Head Office", "category": "Corporate office", "street": "221", "city": "Udyog Vihar Phase 1, Udyog Vihar, Sector 20", "phone": "01244987400", "website": "https://livpure.com/", "rating": 1.9, "review_count": "", "latitude": 28.5085834, "longitude": 77.0833895, "maps_url": "https://www.google.com/maps/place/?q=place_id:0x390d19d67230eacd:0x7027517e9af5a594"}, {"place_id": "0x390d0460df27c73b:0x9b95744deba8b1a7", "name": "Everstylish", "category": "Corporate office", "street": "Udyog Vihar Phase 1, Udyog Vihar, Sector 20", "city": "Gurugram, Haryana 122016", "phone": "08882188858", "website": "http://www.everstylish.com/", "rating": 4.1, "review_count": "", "latitude": 28.5100286, "longitude": 77.079143, "maps_url": "https://www.google.com/maps/place/?q=place_id:0x390d0460df27c73b:0x9b95744deba8b1a7"}, {"place_id": "0x390d2385b605fa4b:0xcdc809105ce0a3f2", "name": "IAM Group of Companies| Digital Marketing Agency in Gurgaon", "category": "Advertising agency", "street": "Enkay Global", "city": "150", "phone": "09667529701", "website": "", "rating": 3.8, "review_count": "", "latitude": 28.5113792, "longitude": 77.0815199, "maps_url": "https://www.google.com/maps/place/?q=place_id:0x390d2385b605fa4b:0xcdc809105ce0a3f2"}, {"place_id": "0x390d1993d068b629:0xb13fc86522116a73", "name": "EJS Webserve", "category": "Website designer", "street": "264", "city": "Udyog Vihar Phase 1, Udyog Vihar, Sector 20", "phone": "09871871345", "website": "https://ejswebserve.com/", "rating": 4.9, "review_count": "", "latitude": 28.5101685, "longitude": 77.0828891, "maps_url": "https://www.google.com/maps/place/?q=place_id:0x390d1993d068b629:0xb13fc86522116a73"}, {"place_id": "0x390d19ebd6d31471:0x1cb12b8ca56235f", "name": "Reactex Chem", "category": "Chemical Manufacturer", "street": "Ram Swaroop market", "city": "Dundahera Village, Sector 21", "phone": "", "website": "http://reactex.in/", "rating": 4.9, "review_count": "", "latitude": 28.512489199999997, "longitude": 77.0747865, "maps_url": "https://www.google.com/maps/place/?q=place_id:0x390d19ebd6d31471:0x1cb12b8ca56235f"}, {"place_id": "0x390d19347542375b:0x8d999b3b7431cb72", "name": "Sharma cartridge solution centre", "category": "Computer service", "street": "Opp plot no 127", "city": "Jangra Market", "phone": "08595621004", "website": "https://sharma-cartridge.grexa.site/", "rating": 5, "review_count": "", "latitude": 28.511719099999997, "longitude": 77.08046399999999, "maps_url": "https://www.google.com/maps/place/?q=place_id:0x390d19347542375b:0x8d999b3b7431cb72"}, {"place_id": "0x390d19f03c3987ef:0x3a94c992aa02f258", "name": "Shiva Communication", "category": "Cell phone accessory store", "street": "S-7,1129 Jangra Bazar Dundahera", "city": "Plot 127, to", "phone": "07838076509", "website": "", "rating": 5, "review_count": "", "latitude": 28.5115938, "longitude": 77.0796782, "maps_url": "https://www.google.com/maps/place/?q=place_id:0x390d19f03c3987ef:0x3a94c992aa02f258"}, {"place_id": "0x390d195c52a829f7:0x1ee45c4e3ac47b4e", "name": "Zreyasa Consumers LLP", "category": "Corporate office", "street": "173", "city": "Udyog Vihar Phase 1, Udyog Vihar, Sector 20", "phone": "09719458905", "website": "http://zreyasa.com/", "rating": 5, "review_count": "", "latitude": 28.5107592, "longitude": 77.0824117, "maps_url": "https://www.google.com/maps/place/?q=place_id:0x390d195c52a829f7:0x1ee45c4e3ac47b4e"}, {"place_id": "0x390d196092c8fad7:0x8b44983d67a5fa8e", "name": "AT INFOTECK", "category": "Software company", "street": "Tibri Mohala, Dundahera Village, Sector 20", "city": "Gurugram, Haryana 122016", "phone": "09956558083", "website": "", "rating": "", "review_count": "", "latitude": 28.514508, "longitude": 77.0781482, "maps_url": "https://www.google.com/maps/place/?q=place_id:0x390d196092c8fad7:0x8b44983d67a5fa8e"}, {"place_id": "0x390ce163e4445d5f:0x26fbc55f239d2421", "name": "Livpure", "category": "Water purification company", "street": "221", "city": "Udyog Vihar Phase 1, Udyog Vihar, Sector 20", "phone": "18004199399", "website": "https://livpure.com/", "rating": 4.2, "review_count": "", "latitude": 28.5085834, "longitude": 77.0833895, "maps_url": "https://www.google.com/maps/place/?q=place_id:0x390ce163e4445d5f:0x26fbc55f239d2421"}]}