{"timestamp": 1773729789.3594015, "keyword": "IT company", "location": "delhi", "cell_idx": 139, "results": [{"place_id": "0x390ce3ad10000061:0xeff7e6017a22cce7", "name": "Alpinesoft IT Solutions Authorized Google Workspace Reseller", "category": "Software company", "street": "162/9 Ist Floor, KIshangarh - Gaushala Marg", "city": "Lakhi Nath Kuti, Mehrauli, Vasant Kunj", "phone": "09999011157", "website": "https://www.alpinesoftit.com/", "rating": 4.3, "review_count": "", "latitude": 28.515394399999998, "longitude": 77.16460359999999, "maps_url": "https://www.google.com/maps/place/?q=place_id:0x390ce3ad10000061:0xeff7e6017a22cce7"}, {"place_id": "0x390d1e73f0e3ecb7:0x7156a967073e3bb7", "name": "Cybernaut-Tech (A Unit of Hounding Infosec Private Limited)", "category": "Software company", "street": "145", "city": "9", "phone": "09999332123", "website": "https://www.inetrnnexus.com/", "rating": 4.6, "review_count": "", "latitude": 28.5194339, "longitude": 77.16633929999999, "maps_url": "https://www.google.com/maps/place/?q=place_id:0x390d1e73f0e3ecb7:0x7156a967073e3bb7"}, {"place_id": "0x390cfd64c5555555:0x64032f9e88d1afcf", "name": "XSOL DATA SYSTEM PVT LTD", "category": "Computer service", "street": "94/9, Kishangarh - Gaushala Marg", "city": "Kishangarh Village, Vasant Kunj", "phone": "09911695111", "website": "https://xsoldata.com/", "rating": 4.9, "review_count": "", "latitude": 28.5192119, "longitude": 77.1660125, "maps_url": "https://www.google.com/maps/place/?q=place_id:0x390cfd64c5555555:0x64032f9e88d1afcf"}, {"place_id": "0x390d1e7463a7f2e9:0xa6e2b03107061b59", "name": "Sansoftech Services Private Limited", "category": "Software company", "street": "147", "city": "9, Kishangarh - Mehrauli Rd", "phone": "09350230272", "website": "http://sansoftech.in/", "rating": 5, "review_count": "", "latitude": 28.520496299999998, "longitude": 77.1692924, "maps_url": "https://www.google.com/maps/place/?q=place_id:0x390d1e7463a7f2e9:0xa6e2b03107061b59"}, {"place_id": "0x390d1e74625c1571:0xf8d544a13aa69544", "name": "Site Sign", "category": "Software company", "street": "303,145A/9, G587+FJG", "city": "Kishangarh Village, Sector-A, Vasant Kunj", "phone": "07065702907", "website": "http://sitesign.in/", "rating": 5, "review_count": "", "latitude": 28.516187499999997, "longitude": 77.1640625, "maps_url": "https://www.google.com/maps/place/?q=place_id:0x390d1e74625c1571:0xf8d544a13aa69544"}, {"place_id": "0x390d1f6a1af71f21:0x8206ae099b59a550", "name": "Baseapp Systems and Softwares Pvt. Ltd.", "category": "Software company", "street": "44F", "city": "217 FF, Rajendra Complex", "phone": "01140541960", "website": "https://www.baseapp.com/", "rating": 5, "review_count": "", "latitude": 28.5166346, "longitude": 77.16429219999999, "maps_url": "https://www.google.com/maps/place/?q=place_id:0x390d1f6a1af71f21:0x8206ae099b59a550"}, {"place_id": "0x390d1fffa7d5f0e3:0x52632fd28e2d597f", "name": "Ramton Technologies Pvt Ltd", "category": "Corporate office", "street": "3rd Floor", "city": "145B/9", "phone": "01141403366", "website": "http://www.ramton.in/", "rating": 4.3, "review_count": "", "latitude": 28.516233699999997, "longitude": 77.1642418, "maps_url": "https://www.google.com/maps/place/?q=place_id:0x390d1fffa7d5f0e3:0x52632fd28e2d597f"}, {"place_id": "0x390d1fac9b7ce7c7:0x5bb7f1bc5c37b7c2", "name": "BlackCoders - Website Development | Digital Marketing Services | Video Editing | Graphics Design", "category": "Software company", "street": "602", "city": "Ward Number 3, Teacher Colony, Mehrauli", "phone": "09540702828", "website": "https://blackcoders.in/", "rating": 5, "review_count": "", "latitude": 28.519783, "longitude": 77.1741961, "maps_url": "https://www.google.com/maps/place/?q=place_id:0x390d1fac9b7ce7c7:0x5bb7f1bc5c37b7c2"}, {"place_id": "0x390ce1e4317e5aab:0x5d1c04d23170494d", "name": "RoboSlog", "category": "Automation company", "street": "75/9, kishangarh", "city": "Aruna Asaf Ali Marg", "phone": "06306854780", "website": "https://roboslog.in/", "rating": 4.1, "review_count": "", "latitude": 28.5201557, "longitude": 77.163664, "maps_url": "https://www.google.com/maps/place/?q=place_id:0x390ce1e4317e5aab:0x5d1c04d23170494d"}, {"place_id": "0x390d1e747ed06171:0x14925da9a31fcfd7", "name": "Peddle Plus Retail Billing Software", "category": "Software company", "street": "Rao Taxi Service Ln", "city": "Kishangarh Village, Sector-A, Vasant Kunj", "phone": "01141403525", "website": "http://www.peddleplus.in/", "rating": 4.5, "review_count": "", "latitude": 28.5167272, "longitude": 77.16436379999999, "maps_url": "https://www.google.com/maps/place/?q=place_id:0x390d1e747ed06171:0x14925da9a31fcfd7"}, {"place_id": "0x390d1f5abfb25fe1:0x7d9c4d5e159f2955", "name": "Jaimru Technology Pvt Ltd", "category": "Software company", "street": "WARD NO. 2", "city": "Plot No. 178 M 33 A/1", "phone": "07838153420", "website": "https://www.jaimru.com/", "rating": 4.9, "review_count": "", "latitude": 28.524347499999998, "longitude": 77.1731889, "maps_url": "https://www.google.com/maps/place/?q=place_id:0x390d1f5abfb25fe1:0x7d9c4d5e159f2955"}, {"place_id": "0x390d1e08d71a257f:0xea4e129d751fc99", "name": "Sukrit Infotech", "category": "Software company", "street": "1043 Ward No 8 1042/2D 2nd Floor Mehrauli Near Babar Building", "city": "Mehrauli", "phone": "01145607265", "website": "http://www.sukritinfotech.com/", "rating": 4.5, "review_count": "", "latitude": 28.517589599999997, "longitude": 77.1802435, "maps_url": "https://www.google.com/maps/place/?q=place_id:0x390d1e08d71a257f:0xea4e129d751fc99"}, {"place_id": "0x390d1e0f47743141:0x3cc6cb5c7dfcf94b", "name": "KSR Computer Systems - IT Support & Services", "category": "Computer service", "street": "213E", "city": "Ward no- 2, Teacher Colony, Mehrauli", "phone": "09711180879", "website": "https://ksrcomputer.com/", "rating": 4.9, "review_count": "", "latitude": 28.5220417, "longitude": 77.174622, "maps_url": "https://www.google.com/maps/place/?q=place_id:0x390d1e0f47743141:0x3cc6cb5c7dfcf94b"}, {"place_id": "0x390ce1fb44618b65:0x8e06b2a6128352d1", "name": "Acropolis Infotech - Delhi Office", "category": "Software company", "street": "metro station gate", "city": "55, 2nd Floor, Lane 2", "phone": "09999876593", "website": "https://www.acropolisinfotech.com/", "rating": 4.6, "review_count": "", "latitude": 28.518907, "longitude": 77.2015435, "maps_url": "https://www.google.com/maps/place/?q=place_id:0x390ce1fb44618b65:0x8e06b2a6128352d1"}, {"place_id": "0x390ce458d0000001:0xf2123bd299ec4501", "name": "IT Company India", "category": "Software company", "street": "D56", "city": "D Block, Sector 10", "phone": "09999244854", "website": "https://www.itcompanyindia.in/", "rating": 4.7, "review_count": "", "latitude": 28.589917699999997, "longitude": 77.3351153, "maps_url": "https://www.google.com/maps/place/?q=place_id:0x390ce458d0000001:0xf2123bd299ec4501"}, {"place_id": "0x390ce1fad4ebf025:0x8df41e0f2676258a", "name": "Borgfy - Best Venture Studio Building Scalable Tech Ideas", "category": "Software company", "street": "75/9, Aruna Asaf Ali Marg", "city": "Kishangarh, Pocket 4, Sector B, Vasant Kunj", "phone": "08130937887", "website": "http://borgfy.com/", "rating": 4.9, "review_count": "", "latitude": 28.5222201, "longitude": 77.16806969999999, "maps_url": "https://www.google.com/maps/place/?q=place_id:0x390ce1fad4ebf025:0x8df41e0f2676258a"}, {"place_id": "0x390d1f0df92e353d:0x54e79553d987073c", "name": "Zombie Marketers | Performance Marketing | Digital Marketing | Website development company in Delhi | SEO company in Delhi", "category": "Marketing agency", "street": "89/9 Mamman House B Block 4th Floor", "city": "Kishangarh Village, Vasant Kunj", "phone": "08527273938", "website": "", "rating": 4.4, "review_count": "", "latitude": 28.5189249, "longitude": 77.1646754, "maps_url": "https://www.google.com/maps/place/?q=place_id:0x390d1f0df92e353d:0x54e79553d987073c"}, {"place_id": "0x390d1f5e62c45ecd:0xccdab240e11e60d2", "name": "Gaurang Enterprises", "category": "Computer repair service", "street": "136/9, Kishangarh - Gaushala Marg", "city": "near Punjabi Dhaba", "phone": "09818273858", "website": "", "rating": 4.7, "review_count": "", "latitude": 28.519568399999997, "longitude": 77.16555919999999, "maps_url": "https://www.google.com/maps/place/?q=place_id:0x390d1f5e62c45ecd:0xccdab240e11e60d2"}, {"place_id": "0x390d04bf1c13c17f:0xe32fdb1ac16d1865", "name": "Digit Bazar IT Solutions Pvt. Ltd.", "category": "Website designer", "street": "", "city": "", "phone": "09911197771", "website": "https://www.digitbazar.com/", "rating": 4.7, "review_count": "", "latitude": 40.266869, "longitude": -47.802320699999996, "maps_url": "https://www.google.com/maps/place/?q=place_id:0x390d04bf1c13c17f:0xe32fdb1ac16d1865"}, {"place_id": "0x390ce3c153b89811:0xe7a279685777e9ca", "name": "IT Company", "category": "Automation company", "street": "A-14", "city": "near iskcon temple", "phone": "", "website": "http://www.opuswiz.com/", "rating": 3, "review_count": "", "latitude": 28.557167, "longitude": 77.25424819999999, "maps_url": "https://www.google.com/maps/place/?q=place_id:0x390ce3c153b89811:0xe7a279685777e9ca"}, {"place_id": "0x390ce3c153b89811:0xe7a279685777e9ca", "name": "IT Company", "category": "Automation company", "street": "A-14", "city": "near iskcon temple", "phone": "", "website": "http://www.opuswiz.com/", "rating": 3, "review_count": "", "latitude": 28.557167, "longitude": 77.25424819999999, "maps_url": "https://www.google.com/maps/place/?q=place_id:0x390ce3c153b89811:0xe7a279685777e9ca"}, {"place_id": "0x390d1e7335af7049:0x61254697047b65d9", "name": "RPG Websolutions", "category": "Marketing agency", "street": "41/9", "city": "Kishangarh, Vasant Kunj", "phone": "09810236266", "website": "https://rpgwebsolutions.com/", "rating": 4.9, "review_count": "", "latitude": 28.5181503, "longitude": 77.1645566, "maps_url": "https://www.google.com/maps/place/?q=place_id:0x390d1e7335af7049:0x61254697047b65d9"}, {"place_id": "0x390d1dd4cc17f7ed:0xefebad69f461e531", "name": "Prabisha Consulting Pvt. Ltd.", "category": "Software company", "street": "Prabisha Consulting Pvt. Ltd", "city": "D4/4029", "phone": "09599824600", "website": "https://www.prabisha.com/", "rating": 5, "review_count": "", "latitude": 28.518418099999998, "longitude": 77.1576771, "maps_url": "https://www.google.com/maps/place/?q=place_id:0x390d1dd4cc17f7ed:0xefebad69f461e531"}, {"place_id": "0x390d1f43f6442193:0xa633a2795caaaf9a", "name": "iT EXPERT", "category": "Computer support and services", "street": "Plot No 165", "city": "near by C.R.C Building", "phone": "09643205555", "website": "https://it-expert.grexa.site/", "rating": 5, "review_count": "", "latitude": 28.496751, "longitude": 77.163401, "maps_url": "https://www.google.com/maps/place/?q=place_id:0x390d1f43f6442193:0xa633a2795caaaf9a"}, {"place_id": "0x390d1d74a743c637:0x9eac2f968d6c5a73", "name": "NISHKAJAY INFOTECH SOLUTION", "category": "Software company", "street": "D-48", "city": "Block -D, Harijan Basti, Masoodpur, Vasant Kunj", "phone": "09380495499", "website": "", "rating": 4.5, "review_count": "", "latitude": 28.527437199999998, "longitude": 77.1578986, "maps_url": "https://www.google.com/maps/place/?q=place_id:0x390d1d74a743c637:0x9eac2f968d6c5a73"}, {"place_id": "0x390d1df079759d1f:0x8bfa70033f6c672a", "name": "NR Technoserve Pvt. Ltd.", "category": "Software company", "street": "133, Katwaria Sarai", "city": "Phase-2, Qutab Institutional Area", "phone": "07289096762", "website": "http://www.nrtechnoserve.co.in/", "rating": 4.4, "review_count": "", "latitude": 28.5413306, "longitude": 77.18495519999999, "maps_url": "https://www.google.com/maps/place/?q=place_id:0x390d1df079759d1f:0x8bfa70033f6c672a"}, {"place_id": "0x86884d8fa34982b7:0x24de5876bd65e50c", "name": "NitiGlobal- Best Market Research, Survey and Consulting Company in India", "category": "Market researcher", "street": "Kishangarh - Mehrauli Rd", "city": "Kishangarh Village, Vasant Kunj", "phone": "09217466391", "website": "https://www.nitiglobal.co/", "rating": 4.5, "review_count": "", "latitude": 28.5200702, "longitude": 77.1682017, "maps_url": "https://www.google.com/maps/place/?q=place_id:0x86884d8fa34982b7:0x24de5876bd65e50c"}, {"place_id": "0x390d1dae4061fbd3:0xe145465388982064", "name": "Adriyana Solutions Pvt. Ltd.", "category": "Employment consultant", "street": "Unit No 4", "city": "Orchid Apartments", "phone": "08826767008", "website": "http://www.adriyana.com/", "rating": 4.9, "review_count": "", "latitude": 28.5222168, "longitude": 77.1680899, "maps_url": "https://www.google.com/maps/place/?q=place_id:0x390d1dae4061fbd3:0xe145465388982064"}, {"place_id": "0x390d1f80b2777cb7:0xa23848db7ce8a4d8", "name": "IMZ CORPORATE PRIVATE LIMITED", "category": "Corporate office", "street": "Kishangarh Village, Sector-A, Vasant Kunj", "city": "New Delhi, Delhi 110070", "phone": "09971400799", "website": "https://www.imzcorporate.com/", "rating": 4.6, "review_count": "", "latitude": 28.5163971, "longitude": 77.1652649, "maps_url": "https://www.google.com/maps/place/?q=place_id:0x390d1f80b2777cb7:0xa23848db7ce8a4d8"}, {"place_id": "0x390d1fc22ecaf8d9:0x5f5b38cb96b1ddd1", "name": "APEX COMPUTER", "category": "Computer repair service", "street": "89/9, SHANI BAZAR ROAD, KISHANGARH", "city": "opposite YOGMAYA APARTMENT", "phone": "09650013446", "website": "", "rating": 3.9, "review_count": "", "latitude": 28.5184364, "longitude": 77.1646252, "maps_url": "https://www.google.com/maps/place/?q=place_id:0x390d1fc22ecaf8d9:0x5f5b38cb96b1ddd1"}, {"place_id": "0x390d1fb5c7538579:0x9d5c78f0ec075175", "name": "SM TECHNOLOGY", "category": "Computer support and services", "street": "154/9", "city": "Kishangarh Village, Vasant Kunj", "phone": "09717032974", "website": "", "rating": "", "review_count": "", "latitude": 28.5195245, "longitude": 77.1686246, "maps_url": "https://www.google.com/maps/place/?q=place_id:0x390d1fb5c7538579:0x9d5c78f0ec075175"}, {"place_id": "0x390d1ef0be7176f7:0xd7b6061ed89097f9", "name": "Infotyke", "category": "Software company", "street": "K426, Pillar 133, MG Road, Ghitorani", "city": "New Delhi, Delhi 110030", "phone": "09953585869", "website": "https://www.infotyke.com/", "rating": 4.9, "review_count": "", "latitude": 28.4909239, "longitude": 77.1411863, "maps_url": "https://www.google.com/maps/place/?q=place_id:0x390d1ef0be7176f7:0xd7b6061ed89097f9"}, {"place_id": "0x390d1e26841f4029:0xbed40d3c611d8d6", "name": "SAY 2 GET iT", "category": "Software company", "street": "83 E", "city": "DR Ambedkar Colony, Chattarpur Enclave, Chhatarpur", "phone": "09319051305", "website": "http://www.say2getit.com/", "rating": 5, "review_count": "", "latitude": 28.5028699, "longitude": 77.1887764, "maps_url": "https://www.google.com/maps/place/?q=place_id:0x390d1e26841f4029:0xbed40d3c611d8d6"}, {"place_id": "0x41ddcb5488aa4703:0x5290c64921de1a5b", "name": "Bloatware IT Software Development Company | Game Development | Software Company in delhi", "category": "Software company", "street": "SILVER OAK FARMS", "city": "660, Mehrauli-Gurgaon Rd", "phone": "", "website": "https://bloatwareitsolutions.com/", "rating": 5, "review_count": "", "latitude": 28.4911034, "longitude": 77.1432663, "maps_url": "https://www.google.com/maps/place/?q=place_id:0x41ddcb5488aa4703:0x5290c64921de1a5b"}, {"place_id": "0x390d1e186527b451:0x3d552630d3703e21", "name": "Inca Infotech Technologies Pvt Ltd", "category": "Computer support and services", "street": "D-23/405, UGF", "city": "100 Feet Rd", "phone": "18008891907", "website": "https://www.incainfotech.com/", "rating": 3.6, "review_count": "", "latitude": 28.506226899999998, "longitude": 77.1850521, "maps_url": "https://www.google.com/maps/place/?q=place_id:0x390d1e186527b451:0x3d552630d3703e21"}, {"place_id": "0x390d1f61836cd921:0x776e9717979fe108", "name": "Saiway Tech", "category": "Web hosting company", "street": "702", "city": "Near, Maruti Chowk", "phone": "07982506339", "website": "http://saiwaytech.com/", "rating": 4.8, "review_count": "", "latitude": 28.4924629, "longitude": 77.1411129, "maps_url": "https://www.google.com/maps/place/?q=place_id:0x390d1f61836cd921:0x776e9717979fe108"}, {"place_id": "0x390d1dd5a7b17271:0xe8bd890a32adf39d", "name": "Booster signal india", "category": "Telecommunications equipment supplier", "street": "126/9, Kishangarh - Mehrauli Rd", "city": "Kishangarh Village, Vasant Kunj", "phone": "09953162407", "website": "http://www.boostersignalindia.in/", "rating": 4.3, "review_count": "", "latitude": 28.5198547, "longitude": 77.1689481, "maps_url": "https://www.google.com/maps/place/?q=place_id:0x390d1dd5a7b17271:0xe8bd890a32adf39d"}, {"place_id": "0x390ce1db868cffff:0x235c2e3881db6682", "name": "AMFAH INDIA Delhi Corporate Office", "category": "Corporate office", "street": "Khasra No. 1674, Block No. 111/9", "city": "AMFAH INDIA TRADING PVT LTD. H. No. 1147", "phone": "09321991810", "website": "http://www.amfah.com/", "rating": 3, "review_count": "", "latitude": 28.5210995, "longitude": 77.16806749999999, "maps_url": "https://www.google.com/maps/place/?q=place_id:0x390ce1db868cffff:0x235c2e3881db6682"}, {"place_id": "0x390d1f1fbecf6747:0xe574f5ac54695d6a", "name": "Lappy Service", "category": "Computer repair service", "street": "111/9", "city": "Kishangarh Village, Vasant Kunj", "phone": "09999626680", "website": "", "rating": 5, "review_count": "", "latitude": 28.5195197, "longitude": 77.1686247, "maps_url": "https://www.google.com/maps/place/?q=place_id:0x390d1f1fbecf6747:0xe574f5ac54695d6a"}, {"place_id": "0x390d1e748ef61961:0x754ceb660996cfdb", "name": "ACS System Solutions", "category": "Software company", "street": "Kishangarh, Kishangarh Village, Vasant Kunj", "city": "New Delhi, Delhi 110070", "phone": "01149858620", "website": "http://acssystem.in/", "rating": 3.4, "review_count": "", "latitude": 28.522178699999998, "longitude": 77.1692609, "maps_url": "https://www.google.com/maps/place/?q=place_id:0x390d1e748ef61961:0x754ceb660996cfdb"}, {"place_id": "0x390ce1b9de54d101:0xc5184256693b27dd", "name": "LCK Technologies - Website designing development company South Delhi", "category": "Website designer", "street": "439 1st floor", "city": "438", "phone": "09891337955", "website": "https://lckdigitalmedia.in/", "rating": 4.9, "review_count": "", "latitude": 28.5089698, "longitude": 77.20114769999999, "maps_url": "https://www.google.com/maps/place/?q=place_id:0x390ce1b9de54d101:0xc5184256693b27dd"}, {"place_id": "0x390d1e725eaaaaad:0x1c26ffcabe25d5b6", "name": "HEAD IT \u2013 Recruitment & Consulting Services", "category": "Employment agency", "street": "#987, Pocket B&C, Sector -A, Vasant Kunj", "city": "New Delhi, Delhi 110070", "phone": "01165741617", "website": "", "rating": 5, "review_count": "", "latitude": 28.517223899999998, "longitude": 77.1682879, "maps_url": "https://www.google.com/maps/place/?q=place_id:0x390d1e725eaaaaad:0x1c26ffcabe25d5b6"}, {"place_id": "0x390d1f1958b2b979:0xb70bdc4d0319e82c", "name": "Market Shark IT", "category": "Website designer", "street": "H.NO 400", "city": "VILLAGE & POST OFFICE", "phone": "09319095077", "website": "http://www.marketsharkit.com/", "rating": 5, "review_count": "", "latitude": 28.4942474, "longitude": 77.1444345, "maps_url": "https://www.google.com/maps/place/?q=place_id:0x390d1f1958b2b979:0xb70bdc4d0319e82c"}, {"place_id": "0x390d1fb9b19cd7d7:0x2febfba590f33428", "name": "Corapana Technologies - Mobile App Development and Web Design Development Company Delhi", "category": "Software company", "street": "Ground floor", "city": "D-23", "phone": "08295242621", "website": "https://corapana.com/", "rating": 4.8, "review_count": "", "latitude": 28.496378999999997, "longitude": 77.17898, "maps_url": "https://www.google.com/maps/place/?q=place_id:0x390d1fb9b19cd7d7:0x2febfba590f33428"}, {"place_id": "0x390d1e713f3ad4bb:0x1a878c5cd7e0d3c6", "name": "AQUA ACTIV SERVICE", "category": "Water purification company", "street": "Shani Bazar Rd", "city": "Kishangarh Village, Vasant Kunj", "phone": "09990044669", "website": "http://www.rohelplinedelhi.in/", "rating": 4.3, "review_count": "", "latitude": 28.5196182, "longitude": 77.1642571, "maps_url": "https://www.google.com/maps/place/?q=place_id:0x390d1e713f3ad4bb:0x1a878c5cd7e0d3c6"}, {"place_id": "0x390ce3c50d455555:0x625e4cf2def0b6ac", "name": "Infonative Solutions Limited", "category": "Computer support and services", "street": "107, 108", "city": "DLF South Court", "phone": "08448141818", "website": "https://infonative.net/", "rating": 4.7, "review_count": "", "latitude": 28.5274255, "longitude": 77.2209031, "maps_url": "https://www.google.com/maps/place/?q=place_id:0x390ce3c50d455555:0x625e4cf2def0b6ac"}, {"place_id": "0x390d1e71c1746a51:0x54216275653486", "name": "Marque Marketing Service Pvt Ltd.", "category": "Marketing agency", "street": "F-35/9/b", "city": "Kishangarh - Mehrauli Rd", "phone": "01146024129", "website": "", "rating": 3.7, "review_count": "", "latitude": 28.516164999999997, "longitude": 77.1641169, "maps_url": "https://www.google.com/maps/place/?q=place_id:0x390d1e71c1746a51:0x54216275653486"}, {"place_id": "0x390d1e8fffffffff:0x31ca1fdd908d34dc", "name": "World Future Typing", "category": "Unemployment office", "street": "gabar building", "city": "69/9", "phone": "09891780192", "website": "", "rating": 3.7, "review_count": 3, "latitude": 28.519453, "longitude": 77.1709967, "maps_url": "https://www.google.com/maps/place/?q=place_id:0x390d1e8fffffffff:0x31ca1fdd908d34dc"}, {"place_id": "0x390d1be7f1a44f95:0x84524a5425f8930d", "name": "InfraDost Technologies Pvt Ltd.- Microsoft Adobe Corel Draw & Security Solution Provider", "category": "Software company", "street": "Gurgaon - Delhi Expy", "city": "Block B, Mahipalpur Village, Mahipalpur", "phone": "08287792542", "website": "http://www.infradost.com/", "rating": 4.6, "review_count": "", "latitude": 28.5485743, "longitude": 77.1264697, "maps_url": "https://www.google.com/maps/place/?q=place_id:0x390d1be7f1a44f95:0x84524a5425f8930d"}, {"place_id": "0x390ce1f45a4c5555:0x361d275b1af7cb72", "name": "Casa2 Stays Private Limited", "category": "", "street": "2", "city": "Vasant Kunj", "phone": "", "website": "", "rating": 1.5, "review_count": "", "latitude": 28.5189986, "longitude": 77.1645636, "maps_url": "https://www.google.com/maps/place/?q=place_id:0x390ce1f45a4c5555:0x361d275b1af7cb72"}, {"place_id": "0x390d1fa6f0214b81:0x9f85cd0e3f43ba8a", "name": "ILoveCleanAir Lab LLP-Best Air Purifier Authorized Dealer in Delhi / NCR I Philips I SHARP I Honeywell I Blueair", "category": "Air filter supplier", "street": "52/9, Kishangarh - Gaushala Marg", "city": "near Fortis Hospital", "phone": "09910455382", "website": "http://www.ilovecleanair.in/", "rating": 4.9, "review_count": "", "latitude": 28.518141, "longitude": 77.16513139999999, "maps_url": "https://www.google.com/maps/place/?q=place_id:0x390d1fa6f0214b81:0x9f85cd0e3f43ba8a"}, {"place_id": "0x390ce1bef0c8c071:0xb0a64e46c6405fc6", "name": "Tech rise dynamics", "category": "Website designer", "street": "293, Lane-2, Westend Marg", "city": "near Saket Metro Station", "phone": "08750557052", "website": "https://www.techrisedynamics.com/", "rating": 5, "review_count": "", "latitude": 28.5177321, "longitude": 77.1986237, "maps_url": "https://www.google.com/maps/place/?q=place_id:0x390ce1bef0c8c071:0xb0a64e46c6405fc6"}, {"place_id": "0x390d1ed3c6e9f579:0x322eccdb00f350d2", "name": "Techjockey", "category": "Software company", "street": "Ground floor, Habitat India", "city": "C-3", "phone": "01142213003", "website": "https://www.techjockey.com/", "rating": 4, "review_count": "", "latitude": 28.536615299999998, "longitude": 77.1902978, "maps_url": "https://www.google.com/maps/place/?q=place_id:0x390d1ed3c6e9f579:0x322eccdb00f350d2"}, {"place_id": "0x390d1e0d185ae777:0xd43fdf99a84d943f", "name": "Allied Services Pvt Ltd", "category": "Corporate office", "street": "19 R Ward no", "city": "602D", "phone": "09913707888", "website": "http://rcgaspl.com/", "rating": 5, "review_count": "", "latitude": 28.5181956, "longitude": 77.1730456, "maps_url": "https://www.google.com/maps/place/?q=place_id:0x390d1e0d185ae777:0xd43fdf99a84d943f"}, {"place_id": "0x390d1f067797cb13:0xa62a53c002b92519", "name": "Bodyguard Hire India", "category": "Security service", "street": "Flat No. 102 First Floor Ganpati Greens", "city": "2, Kishangarh - Mehrauli Rd", "phone": "08448813148", "website": "https://bodyguardhireindia.com/", "rating": 4.9, "review_count": "", "latitude": 28.5150726, "longitude": 77.16481139999999, "maps_url": "https://www.google.com/maps/place/?q=place_id:0x390d1f067797cb13:0xa62a53c002b92519"}, {"place_id": "0x390d1f85cd7c8c9b:0xbbd41972aadac839", "name": "Prakriti squad", "category": "Corporate office", "street": "Kishangarh Village, Vasant Kunj", "city": "New Delhi, Delhi 110070", "phone": "", "website": "", "rating": 5, "review_count": "", "latitude": 28.5196303, "longitude": 77.1652438, "maps_url": "https://www.google.com/maps/place/?q=place_id:0x390d1f85cd7c8c9b:0xbbd41972aadac839"}, {"place_id": "0x61679272b097afaf:0x2d8ff2b0d95a1e18", "name": "Busybots | RPA & Robotic Process Automation for Banking, Healthcare, AI Services & UiPath, Python Training in Delhi", "category": "Software company", "street": "1st Floor, D", "city": "25, 100 Feet Rd", "phone": "09315867465", "website": "https://www.busybots.in/", "rating": 5, "review_count": "", "latitude": 28.5055157, "longitude": 77.1852263, "maps_url": "https://www.google.com/maps/place/?q=place_id:0x61679272b097afaf:0x2d8ff2b0d95a1e18"}, {"place_id": "0x224602c4329660b1:0xc8447d65af6125f6", "name": "Genius Manpower Advance Pvt Ltd", "category": "House cleaning service", "street": "SECOND FLOOR", "city": "RIGHT SIDE", "phone": "", "website": "https://geniusmanpower.com/", "rating": 4.9, "review_count": "", "latitude": 28.5155797, "longitude": 77.1645685, "maps_url": "https://www.google.com/maps/place/?q=place_id:0x224602c4329660b1:0xc8447d65af6125f6"}, {"place_id": "0x390d1feb3a918a11:0x6d1c52e65a43121b", "name": "FirstRankology", "category": "Internet marketing service", "street": "705/ E Ward", "city": ": 6", "phone": "", "website": "https://firstrankology.com/", "rating": 4.9, "review_count": "", "latitude": 28.5169538, "longitude": 77.17561599999999, "maps_url": "https://www.google.com/maps/place/?q=place_id:0x390d1feb3a918a11:0x6d1c52e65a43121b"}, {"place_id": "0x390d1e73ba9d98cd:0x5e2a264d101833b1", "name": "West Bengal Express 1996", "category": "Internet cafe", "street": "79/9, Kishangarh Vasant Kunj", "city": "259, New", "phone": "09069215197", "website": "", "rating": 5, "review_count": "", "latitude": 28.518976, "longitude": 77.1678062, "maps_url": "https://www.google.com/maps/place/?q=place_id:0x390d1e73ba9d98cd:0x5e2a264d101833b1"}, {"place_id": "0x61679272b097afaf:0x2d8ff2b0d95a1e18", "name": "Busybots | RPA & Robotic Process Automation for Banking, Healthcare, AI Services & UiPath, Python Training in Delhi", "category": "Software company", "street": "1st Floor, D", "city": "25, 100 Feet Rd", "phone": "09315867465", "website": "https://www.busybots.in/", "rating": 5, "review_count": "", "latitude": 28.5055157, "longitude": 77.1852263, "maps_url": "https://www.google.com/maps/place/?q=place_id:0x61679272b097afaf:0x2d8ff2b0d95a1e18"}, {"place_id": "0x224602c4329660b1:0xc8447d65af6125f6", "name": "Genius Manpower Advance Pvt Ltd", "category": "House cleaning service", "street": "SECOND FLOOR", "city": "RIGHT SIDE", "phone": "", "website": "https://geniusmanpower.com/", "rating": 4.9, "review_count": "", "latitude": 28.5155797, "longitude": 77.1645685, "maps_url": "https://www.google.com/maps/place/?q=place_id:0x224602c4329660b1:0xc8447d65af6125f6"}, {"place_id": "0x390d1feb3a918a11:0x6d1c52e65a43121b", "name": "FirstRankology", "category": "Internet marketing service", "street": "705/ E Ward", "city": ": 6", "phone": "", "website": "https://firstrankology.com/", "rating": 4.9, "review_count": "", "latitude": 28.5169538, "longitude": 77.17561599999999, "maps_url": "https://www.google.com/maps/place/?q=place_id:0x390d1feb3a918a11:0x6d1c52e65a43121b"}, {"place_id": "0x390d1e73ba9d98cd:0x5e2a264d101833b1", "name": "West Bengal Express 1996", "category": "Internet cafe", "street": "79/9, Kishangarh Vasant Kunj", "city": "259, New", "phone": "09069215197", "website": "", "rating": 5, "review_count": "", "latitude": 28.518976, "longitude": 77.1678062, "maps_url": "https://www.google.com/maps/place/?q=place_id:0x390d1e73ba9d98cd:0x5e2a264d101833b1"}, {"place_id": "0x390d1e0cdb5bffff:0x2b8fda28f758fd", "name": "Vk Incorporation", "category": "Repair service", "street": "1 St Floor", "city": "Rzf-1/315, Mahavir Enclave", "phone": "08595265932", "website": "http://vkincorporation.in/", "rating": 4.9, "review_count": "", "latitude": 28.519359599999998, "longitude": 77.1725786, "maps_url": "https://www.google.com/maps/place/?q=place_id:0x390d1e0cdb5bffff:0x2b8fda28f758fd"}, {"place_id": "0x390d1e11afc66825:0xd7b255d93c09dcb9", "name": "M S Company", "category": "Clothing store", "street": "READYMADE GALI", "city": "near BARAHMKUMARI MEDITATION CENTER", "phone": "09810323174", "website": "https://mscompanynetin.wordpress.com/", "rating": 4.5, "review_count": "", "latitude": 28.521039499999997, "longitude": 77.17818869999999, "maps_url": "https://www.google.com/maps/place/?q=place_id:0x390d1e11afc66825:0xd7b255d93c09dcb9"}, {"place_id": "0x390d1f058802a6a7:0x593e2fca18a4402e", "name": "Digi9Web - Digital Marketing Company in Delhi", "category": "Marketing agency", "street": "A4", "city": "Kanupriya Apartment", "phone": "08800507401", "website": "https://digi9web.com/", "rating": 5, "review_count": "", "latitude": 28.5185393, "longitude": 77.177509, "maps_url": "https://www.google.com/maps/place/?q=place_id:0x390d1f058802a6a7:0x593e2fca18a4402e"}, {"place_id": "0x390d1f114aac5dfd:0xc1c48b08e5e95023", "name": "Greatway Cargo And Movers", "category": "Packaging company", "street": "Ground Floor", "city": "12/10, Ambience Tower Ln", "phone": "09773802272", "website": "http://greatwaycargomovers.com/", "rating": 5, "review_count": "", "latitude": 28.5185444, "longitude": 77.1706675, "maps_url": "https://www.google.com/maps/place/?q=place_id:0x390d1f114aac5dfd:0xc1c48b08e5e95023"}, {"place_id": "0x390d1ffba15c4951:0x7e33a9912cedddd6", "name": "MEDIDEVICE HEALTHEXPERTS PRIVATE LIMITED", "category": "Medical equipment supplier", "street": "1st Floor", "city": "W.no.9", "phone": "07503031677", "website": "https://bookyourmedidevice.co.in/", "rating": 5, "review_count": "", "latitude": 28.515362099999997, "longitude": 77.1644754, "maps_url": "https://www.google.com/maps/place/?q=place_id:0x390d1ffba15c4951:0x7e33a9912cedddd6"}, {"place_id": "0xa3f7b500ba6bee9b:0xbf6f44de92b28de", "name": "Yuvocreations Private Limited ( \u092f\u0941\u0935\u094b\u0915\u094d\u0930\u093f\u090f\u0936\u0928\u094d\u0938 \u092a\u094d\u0930\u093e\u0907\u0935\u0947\u091f \u0932\u093f\u092e\u093f\u091f\u0947\u0921 ) - Website Designing & Digital Marketing Agency", "category": "Software company", "street": "Lane no.4", "city": "Khasra no. 258, Westend Marg", "phone": "07042123166", "website": "https://yuvocreations.com/", "rating": 5, "review_count": "", "latitude": 28.5169774, "longitude": 77.19925789999999, "maps_url": "https://www.google.com/maps/place/?q=place_id:0xa3f7b500ba6bee9b:0xbf6f44de92b28de"}, {"place_id": "0x390d1e0ccbe58f13:0xb1b6b10d0e57e649", "name": "Aditya Institute of Technology", "category": "College", "street": "107", "city": "9, Kishangarh - Gaushala Marg", "phone": "09315592415", "website": "", "rating": 3.3, "review_count": "", "latitude": 28.5198213, "longitude": 77.17203169999999, "maps_url": "https://www.google.com/maps/place/?q=place_id:0x390d1e0ccbe58f13:0xb1b6b10d0e57e649"}, {"place_id": "0x390d1f52ff84d857:0x6d63c4fa89e66053", "name": "Crystal Clear RO Water Solutions Repairing & Services Vasant Kunj", "category": "Water Filter Supplier", "street": "Shop- 1", "city": "44E/9, Akhara Rd", "phone": "09625913865", "website": "https://crystalclearrowater.com/", "rating": 4.9, "review_count": "", "latitude": 28.5176742, "longitude": 77.1647734, "maps_url": "https://www.google.com/maps/place/?q=place_id:0x390d1f52ff84d857:0x6d63c4fa89e66053"}, {"place_id": "0x390d1e7462bd81d5:0xbcbec10b6905724c", "name": "MistriBabu", "category": "General contractor", "street": "111", "city": "9, Kishangarh - Gaushala Marg", "phone": "07788055666", "website": "http://www.mistribabu.com/", "rating": 4.6, "review_count": "", "latitude": 28.519633, "longitude": 77.17148639999999, "maps_url": "https://www.google.com/maps/place/?q=place_id:0x390d1e7462bd81d5:0xbcbec10b6905724c"}, {"place_id": "0x390ce3ad3a79fb7d:0x642970d7bb30394f", "name": "Farida Gupta (Office Only)", "category": "Clothing manufacturer", "street": "138/2/9, 1st floor", "city": "Kishangarh Village, Sector-A, Vasant Kunj", "phone": "08287567567", "website": "https://www.faridagupta.com/?utm_source=Google_my_business&utm_medium=organic&utm_campaign=GMB_Listing", "rating": 3.8, "review_count": "", "latitude": 28.5196774, "longitude": 77.16464359999999, "maps_url": "https://www.google.com/maps/place/?q=place_id:0x390ce3ad3a79fb7d:0x642970d7bb30394f"}, {"place_id": "0x390d1ffdf63ee8ab:0x3b816525530b7d23", "name": "Feastwala", "category": "Food Processing Company", "street": "3rd floor", "city": "111/9, Shani Bazar Rd", "phone": "", "website": "https://feastwala.com/", "rating": 3.3, "review_count": "", "latitude": 28.518997199999998, "longitude": 77.16423689999999, "maps_url": "https://www.google.com/maps/place/?q=place_id:0x390d1ffdf63ee8ab:0x3b816525530b7d23"}, {"place_id": "0x8335ecf853715cbf:0x10d99fb1fba2b0a8", "name": "Oceonic IT Solution Pvt Ltd", "category": "Software company", "street": "C14 C Block", "city": "JVTS Garden, Block A1, Chhatarpur", "phone": "08874000083", "website": "https://www.oceonic.co/", "rating": 3, "review_count": "", "latitude": 28.496824699999998, "longitude": 77.1828704, "maps_url": "https://www.google.com/maps/place/?q=place_id:0x8335ecf853715cbf:0x10d99fb1fba2b0a8"}, {"place_id": "0x390cfd309eebed77:0xaceeaaa8aa371679", "name": "Allied Infoline Pvt. Ltd", "category": "Business to business service", "street": "Metro Pillar Number 51", "city": "Building 90, Near", "phone": "09999511882", "website": "https://www.alliedinfoline.com/", "rating": 4, "review_count": "", "latitude": 28.5015412, "longitude": 77.1673411, "maps_url": "https://www.google.com/maps/place/?q=place_id:0x390cfd309eebed77:0xaceeaaa8aa371679"}, {"place_id": "0x390d1fe168142b7d:0x4d4a8e16dae8d42", "name": "Savvytree - Digital Marketing Company", "category": "Marketing agency", "street": "Savvytree 280, Mandi Rd", "city": "opposite Tata Sky", "phone": "08700354352", "website": "https://savvytree.in/", "rating": 4.7, "review_count": "", "latitude": 28.5026725, "longitude": 77.1722109, "maps_url": "https://www.google.com/maps/place/?q=place_id:0x390d1fe168142b7d:0x4d4a8e16dae8d42"}, {"place_id": "0x390d1f0009219ba1:0xda7dcd5bf9876805", "name": "Lush Euphoria by Sikka & co.", "category": "Corporate office", "street": "Kali Mata Mandir Rd", "city": "near Vikas Hospital", "phone": "", "website": "", "rating": 5, "review_count": "", "latitude": 28.5200462, "longitude": 77.173801, "maps_url": "https://www.google.com/maps/place/?q=place_id:0x390d1f0009219ba1:0xda7dcd5bf9876805"}, {"place_id": "0x390ce3cf1026c335:0x74d839da9ef9a640", "name": "Vhr Professional Services Private Limited", "category": "", "street": "43", "city": "Kishangarh Village, Vasant Kunj", "phone": "", "website": "", "rating": 2.1, "review_count": "", "latitude": 28.5192467, "longitude": 77.164363, "maps_url": "https://www.google.com/maps/place/?q=place_id:0x390ce3cf1026c335:0x74d839da9ef9a640"}, {"place_id": "0x390d1f88cd91eab7:0x6cb86f14ec70bae9", "name": "Legal Setup", "category": "Legal services", "street": "Gate 2", "city": "Unit 3015", "phone": "09911566199", "website": "https://www.legalsetup.in/", "rating": 5, "review_count": "", "latitude": 28.515846999999997, "longitude": 77.167407, "maps_url": "https://www.google.com/maps/place/?q=place_id:0x390d1f88cd91eab7:0x6cb86f14ec70bae9"}, {"place_id": "0x390d1e74799317df:0xdbae8cc008ac2f65", "name": "Vashistha Capital Financial Services Private Limited", "category": "Finance broker", "street": "Ground Floor, Ryhan Heights 2", "city": "kishan garh No-33/B/4/9", "phone": "01140452644", "website": "http://vashisthacapital.com/", "rating": 4.6, "review_count": "", "latitude": 28.5152137, "longitude": 77.1647948, "maps_url": "https://www.google.com/maps/place/?q=place_id:0x390d1e74799317df:0xdbae8cc008ac2f65"}, {"place_id": "0x390d1e6e1a84ce47:0x8a4a76610fb9529e", "name": "DTDC - Kishangarh", "category": "Courier service", "street": "140/9", "city": "4", "phone": "01126130316", "website": "", "rating": 3.9, "review_count": "", "latitude": 28.520342699999997, "longitude": 77.167003, "maps_url": "https://www.google.com/maps/place/?q=place_id:0x390d1e6e1a84ce47:0x8a4a76610fb9529e"}, {"place_id": "0x390d1f0850160aef:0xed6025a0337d983c", "name": "Ramton Technologies Private Ltd", "category": "Computer support and services", "street": "145, Kishangarh - Mehrauli Rd", "city": "Kishangarh Village, Vasant Kunj", "phone": "", "website": "", "rating": "", "review_count": "", "latitude": 28.519854, "longitude": 77.1689447, "maps_url": "https://www.google.com/maps/place/?q=place_id:0x390d1f0850160aef:0xed6025a0337d983c"}, {"place_id": "0x390d1e0da92f4387:0x2d58362107c0b5f8", "name": "Marvel Enterprises", "category": "Coffee machine supplier", "street": "T-10,Om Sai Apartment Mehrauli", "city": "near Vikas Hospital", "phone": "", "website": "http://marvelenterprise.in/", "rating": 4.9, "review_count": "", "latitude": 28.519557799999998, "longitude": 77.1740899, "maps_url": "https://www.google.com/maps/place/?q=place_id:0x390d1e0da92f4387:0x2d58362107c0b5f8"}, {"place_id": "0x390d1e737bc5d103:0x7c4cd47238f9bd66", "name": "Sita Ram Properties", "category": "Real Estate Builders & Construction Company", "street": "106 2B", "city": "9, Kishangarh - Mehrauli Rd", "phone": "09891909329", "website": "", "rating": 3.7, "review_count": "", "latitude": 28.520408699999997, "longitude": 77.1688009, "maps_url": "https://www.google.com/maps/place/?q=place_id:0x390d1e737bc5d103:0x7c4cd47238f9bd66"}, {"place_id": "0x390d1e739940b77f:0xe7b9b31cd5ff77ad", "name": "Vatsario By Foodsmith Deli", "category": "Gourmet grocery store", "street": "144/9, GROUND FLOOR", "city": "Gaushala Marg", "phone": "09350840401", "website": "https://www.foodsmith.in/", "rating": 5, "review_count": "", "latitude": 28.5199976, "longitude": 77.1681942, "maps_url": "https://www.google.com/maps/place/?q=place_id:0x390d1e739940b77f:0xe7b9b31cd5ff77ad"}, {"place_id": "0x390d1f848ef9a347:0x1acdae7eb8e92812", "name": "Ganesh Aircon", "category": "Air conditioning repair service", "street": "H.No. 123/9 Shop", "city": "Kishangarh Village, Vasant Kunj", "phone": "09999555469", "website": "", "rating": 4.1, "review_count": "", "latitude": 28.5194221, "longitude": 77.1692881, "maps_url": "https://www.google.com/maps/place/?q=place_id:0x390d1f848ef9a347:0x1acdae7eb8e92812"}, {"place_id": "0x390d1e72fc14d475:0x3759dc868673cdae", "name": "MADAARI THE BAND - Deep Bhowmick Project", "category": "Music producer", "street": "G599+6JQ", "city": "Lane Number 7", "phone": "09953171033", "website": "https://linktr.ee/MadaariMusic", "rating": 5, "review_count": "", "latitude": 28.5180954, "longitude": 77.1690955, "maps_url": "https://www.google.com/maps/place/?q=place_id:0x390d1e72fc14d475:0x3759dc868673cdae"}, {"place_id": "0x390d1f3c362dce83:0xa7ee9e005c6ac46b", "name": "Max Logistic Packers movers", "category": "Transportation service", "street": "10/9,Ground Floor", "city": "Ambience Tower Ln", "phone": "08588065529", "website": "https://www.maxlogisticpackers.com/", "rating": 5, "review_count": "", "latitude": 28.5185063, "longitude": 77.1704963, "maps_url": "https://www.google.com/maps/place/?q=place_id:0x390d1f3c362dce83:0xa7ee9e005c6ac46b"}, {"place_id": "0x390d1e71bfc00fa7:0x1a4c73e46186a1e2", "name": "WPOven Inc. | Managed WordPress Hosting | Best Web Hosting USA", "category": "Web hosting company", "street": "", "city": "", "phone": "01140541960", "website": "https://www.wpoven.com/", "rating": 4.7, "review_count": "", "latitude": 14.157641199999999, "longitude": 150.06225, "maps_url": "https://www.google.com/maps/place/?q=place_id:0x390d1e71bfc00fa7:0x1a4c73e46186a1e2"}, {"place_id": "0x390cfb4bf15a6733:0xaf50e6f3c5fb7641", "name": "Digitals Daddy: Web & App Development Company", "category": "Software company", "street": "Metro Gate No. 2", "city": "Nearest Sikandarpur", "phone": "09818286609", "website": "https://www.digitalsdaddy.com/", "rating": 4.9, "review_count": "", "latitude": 28.4847884, "longitude": 77.0922192, "maps_url": "https://www.google.com/maps/place/?q=place_id:0x390cfb4bf15a6733:0xaf50e6f3c5fb7641"}, {"place_id": "0x390d1da7cc2b40e9:0xec5eb23df3140167", "name": "DTDC- VASANTKUNJ", "category": "Courier service", "street": "Gullu dhaba", "city": "Kishangarh - Mehrauli Rd", "phone": "07011546732", "website": "", "rating": 4.2, "review_count": "", "latitude": 28.519599799999998, "longitude": 77.165455, "maps_url": "https://www.google.com/maps/place/?q=place_id:0x390d1da7cc2b40e9:0xec5eb23df3140167"}, {"place_id": "0x390d1e71c1ab9d3f:0x886db06a9252f74e", "name": "Lakkshay Tour & Travels Pvt. Ltd.", "category": "Travel agency", "street": "Rao Taxi Service Ln", "city": "Kishangarh Village, Sector-A, Vasant Kunj", "phone": "09811118020", "website": "http://www.lakkshaytravels.com/", "rating": 4.3, "review_count": "", "latitude": 28.5166413, "longitude": 77.16429389999999, "maps_url": "https://www.google.com/maps/place/?q=place_id:0x390d1e71c1ab9d3f:0x886db06a9252f74e"}, {"place_id": "0x390d1f7c90574dbf:0xda9c0293e4c6ce9e", "name": "Mango computer & IT solutions Pvt. Ltd.", "category": "Computer repair service", "street": "near bank of india", "city": "Chhatarpur Village, Block A1, Chhatarpur", "phone": "09997342702", "website": "", "rating": "", "review_count": "", "latitude": 28.4986967, "longitude": 77.1843006, "maps_url": "https://www.google.com/maps/place/?q=place_id:0x390d1f7c90574dbf:0xda9c0293e4c6ce9e"}, {"place_id": "0x390d1f1a75dcdb97:0xdd2a377f93afd890", "name": "The Skin Pact", "category": "Beauty Products Wholesaler", "street": "1st Floor, W. No", "city": "162-A/9, Shani Bazar Rd", "phone": "09266012663", "website": "https://www.theskinpact.co.in/", "rating": 4.9, "review_count": "", "latitude": 28.518224999999997, "longitude": 77.1663332, "maps_url": "https://www.google.com/maps/place/?q=place_id:0x390d1f1a75dcdb97:0xdd2a377f93afd890"}, {"place_id": "0x390d1ff18fe36629:0x87fe60b478273807", "name": "Blizzard Skill Facility - Office, Home deep cleaning - kitchen, Bathroom Cleaning Service", "category": "Cleaning Services", "street": "F 44/9", "city": "Kishangarh Village, Vasant Kunj", "phone": "08130269388", "website": "https://blizzdeepcleaning.in/", "rating": 4.9, "review_count": "", "latitude": 28.5190546, "longitude": 77.1642038, "maps_url": "https://www.google.com/maps/place/?q=place_id:0x390d1ff18fe36629:0x87fe60b478273807"}, {"place_id": "0x390d1fd624bade5f:0x705871f5442059bf", "name": "Excitel Broadband", "category": "Internet service provider", "street": "No 7", "city": "9", "phone": "01169657070", "website": "https://broadband-nearme.excitel.com/excitel-broadband-exotic-internet-services-internet-service-provider-kishangarh-new-delhi-198082/Home?utm_source=locator&utm_medium=googleplaces", "rating": 2.3, "review_count": "", "latitude": 28.519652899999997, "longitude": 77.1691749, "maps_url": "https://www.google.com/maps/place/?q=place_id:0x390d1fd624bade5f:0x705871f5442059bf"}, {"place_id": "0x390d1f5c48192149:0x7a49fb64e12e5115", "name": "Barista Coffee Company Ltd (Corporate Office)", "category": "Corporate office", "street": "Sultanpur", "city": "New Delhi, Delhi 110030", "phone": "09319392273", "website": "http://www.barista.co.in/", "rating": 4.5, "review_count": "", "latitude": 28.497703899999998, "longitude": 77.1601025, "maps_url": "https://www.google.com/maps/place/?q=place_id:0x390d1f5c48192149:0x7a49fb64e12e5115"}, {"place_id": "0x390d1fd4dff00b55:0x9ca5fe3bcc0f4263", "name": "Hunny Hardware Paint & Electricals", "category": "Computer support and services", "street": "Shop No.9", "city": "Gaushala Market", "phone": "09210488821", "website": "", "rating": 1, "review_count": "", "latitude": 28.5158888, "longitude": 77.1644561, "maps_url": "https://www.google.com/maps/place/?q=place_id:0x390d1fd4dff00b55:0x9ca5fe3bcc0f4263"}]}