[{"place_id": "ChIJB1R7fBvnazkRBjTX-INaIDY", "name": "Dua Technology", "street": "16/127 Near Balaji Temple, opposite New Kubera, Ajmer, Rajasthan 305001, India", "phone": "+91 70145 06334", "rating": "4.9", "review_count": "", "website": "", "latitude": 26.4594235, "longitude": 74.6338947, "maps_url": "https://www.google.com/maps/search/?api=1&query=Dua%20Technology&query_place_id=ChIJB1R7fBvnazkRBjTX-INaIDY"}, {"place_id": "ChIJlxs4rRvnazkRIaxys0Anduw", "name": "Software Designing Top Best IT Company - Keshav Technosys", "street": "Gokul Complex, B-3, Purani Mandi, near Dayal Book Depot, Ajmer, Rajasthan 305001, India", "phone": "+91 99831 85141", "rating": "", "review_count": "", "website": "http://www.keshavtechnosys.com/", "latitude": 26.4583485, "longitude": 74.633031, "maps_url": "https://www.google.com/maps/search/?api=1&query=Software%20Designing%20Top%20Best%20IT%20Company%20-%20Keshav%20Technosys&query_place_id=ChIJlxs4rRvnazkRIaxys0Anduw"}, {"place_id": "ChIJa-NrCauLjCAR1ypBqk0-5Hw", "name": "WebTrade :Website Designing Ajmer(Rajasthan)", "street": "Exchange choraha, Foy Sagar Rd, Rawat Nagar, Ajmer, Rajasthan 305005, India", "phone": "+91 99830 54215", "rating": "4.9", "review_count": "", "website": "https://webtrade.in/", "latitude": 26.4604234, "longitude": 74.6043057, "maps_url": "https://www.google.com/maps/search/?api=1&query=WebTrade%20%3AWebsite%20Designing%20Ajmer%28Rajasthan%29&query_place_id=ChIJa-NrCauLjCAR1ypBqk0-5Hw"}, {"place_id": "ChIJ2-AWWLTCuEgRSUzdPhBbPOE", "name": "Kash Cloud", "street": "", "phone": "", "rating": "", "review_count": "", "website": "", "latitude": 26.4532432, "longitude": 74.6357137, "maps_url": "https://www.google.com/maps/search/?api=1&query=Kash%20Cloud&query_place_id=ChIJ2-AWWLTCuEgRSUzdPhBbPOE"}, {"place_id": "ChIJneQ0wFnnazkRrgDP3stDTuI", "name": "i360Solutions", "street": "Plot No - 15, Raj Colony, Foy Sagar Rd, Ajmer, Rajasthan 305001, India", "phone": "+91 90013 46965", "rating": "5", "review_count": "", "website": "http://www.i360solutions.com/", "latitude": 26.456483499999997, "longitude": 74.5905827, "maps_url": "https://www.google.com/maps/search/?api=1&query=i360Solutions&query_place_id=ChIJneQ0wFnnazkRrgDP3stDTuI"}, {"place_id": "ChIJDyxzhEvnazkRKwR4x8PFFmI", "name": "SD ENTERPRISES ( CCTV CAMERA And IT Solution )", "street": "Near, Agra Gate Rd, Naya Bazaar, Ajmer, Rajasthan 305001, India", "phone": "", "rating": "5", "review_count": "", "website": "", "latitude": 26.462443699999998, "longitude": 74.6328655, "maps_url": "https://www.google.com/maps/search/?api=1&query=SD%20ENTERPRISES%20%28%20CCTV%20CAMERA%20And%20IT%20Solution%20%29&query_place_id=ChIJDyxzhEvnazkRKwR4x8PFFmI"}, {"place_id": "ChIJTy0b7HcNx2oROZv0iOzZnNM", "name": "codenosys", "street": "Ganpati Nagar, 38 A, Pushkar Rd, Dayanand Colony, Ajmer, Rajasthan 305004, India", "phone": "+91 70148 04136", "rating": "5", "review_count": "", "website": "https://codenovesystems.netlify.app/", "latitude": 26.466656, "longitude": 74.6064682, "maps_url": "https://www.google.com/maps/search/?api=1&query=codenosys&query_place_id=ChIJTy0b7HcNx2oROZv0iOzZnNM"}, {"place_id": "ChIJu_cBunTnazkRJD-Hp4fKLQQ", "name": "Unaire Sync IT Solutions", "street": "Avasiya Yojana, 646, Land Mark - Mangalam Flats, near Mangalam Flats, Kotra, Rajasthan 305001, India", "phone": "+91 86906 93835", "rating": "4.8", "review_count": "", "website": "https://www.unairesync.com/", "latitude": 26.474945299999998, "longitude": 74.59533499999999, "maps_url": "https://www.google.com/maps/search/?api=1&query=Unaire%20Sync%20IT%20Solutions&query_place_id=ChIJu_cBunTnazkRJD-Hp4fKLQQ"}, {"place_id": "ChIJdfQzDVTmazkRGwYKwT1KiHI", "name": "iBirds Software Services - Salesforce Consulting Partner", "street": "5th Floor, Shrinath mall, Near, Bajrangarh Cir, Chauraha, Ajmer, Rajasthan 305001, India", "phone": "+91 78500 63497", "rating": "4.7", "review_count": "", "website": "http://www.ibirdsservices.com/", "latitude": 26.4702099, "longitude": 74.6332767, "maps_url": "https://www.google.com/maps/search/?api=1&query=iBirds%20Software%20Services%20-%20Salesforce%20Consulting%20Partner&query_place_id=ChIJdfQzDVTmazkRGwYKwT1KiHI"}, {"place_id": "ChIJWRCnVdLmazkR65vdXbHMnGU", "name": "EduManag IT Solution Private Limited", "street": "Shop No. 14, First Floor, Zee Cinemall, Apna Nagar, Vaishali Nagar, Ajmer, Rajasthan 305001, India", "phone": "+91 92520 89089", "rating": "4.7", "review_count": "", "website": "https://www.edumanag.com/", "latitude": 26.4809529, "longitude": 74.630275, "maps_url": "https://www.google.com/maps/search/?api=1&query=EduManag%20IT%20Solution%20Private%20Limited&query_place_id=ChIJWRCnVdLmazkR65vdXbHMnGU"}, {"place_id": "ChIJ1dzRWALnazkRGuePwG9On2U", "name": "Kirnani Technologies - Website Designing Ajmer", "street": "13/10, HDFC Bank Building, Opp. Suchna Kendra, Deen Dayaal Marg, Ajmer, Rajasthan 305001, India", "phone": "+91 95093 33000", "rating": "4.6", "review_count": "", "website": "http://www.kirnanitechnologies.com/", "latitude": 26.465279499999998, "longitude": 74.6381869, "maps_url": "https://www.google.com/maps/search/?api=1&query=Kirnani%20Technologies%20-%20Website%20Designing%20Ajmer&query_place_id=ChIJ1dzRWALnazkRGuePwG9On2U"}, {"place_id": "ChIJsVEEv8XnazkRkALkv4fXR1k", "name": "Jai Ambe E-mitra, And computer services", "street": "Asha Ganj, Idgah Rd, Kaisar Ganj, Ajmer, Rajasthan 305001, India", "phone": "+91 95212 14133", "rating": "5", "review_count": "", "website": "", "latitude": 26.4482265, "longitude": 74.6342584, "maps_url": "https://www.google.com/maps/search/?api=1&query=Jai%20Ambe%20E-mitra%2C%20And%20computer%20services&query_place_id=ChIJsVEEv8XnazkRkALkv4fXR1k"}, {"place_id": "ChIJv8kTxgTnazkRlwWpMJpzUP0", "name": "Jain Yatra Company", "street": "5, Kotwali Scheme Khailand Market, Ajmer, Rajasthan 305001, India", "phone": "+91 94140 04051", "rating": "4.5", "review_count": "", "website": "", "latitude": 26.4623949, "longitude": 74.6324047, "maps_url": "https://www.google.com/maps/search/?api=1&query=Jain%20Yatra%20Company&query_place_id=ChIJv8kTxgTnazkRlwWpMJpzUP0"}, {"place_id": "ChIJzcytTgTnazkR7G-mxPSpbyU", "name": "Hk Emitra & property dealers", "street": "1161/18, Malusar Road, Prabhat Mohalla, Ajmer, Rajasthan 305001, India", "phone": "", "rating": "5", "review_count": "", "website": "", "latitude": 26.4495592, "longitude": 74.6305048, "maps_url": "https://www.google.com/maps/search/?api=1&query=Hk%20Emitra%20%26%20property%20dealers&query_place_id=ChIJzcytTgTnazkR7G-mxPSpbyU"}, {"place_id": "ChIJgeISNA_nazkRsqVhXn0anTk", "name": "Kothari's & Company", "street": "H.No.6, Nakoda Bhawan Moti Vihar Colony Ramnagar, Pushkar Rd, Ajmer, Rajasthan 305001, India", "phone": "+91 91968 00271", "rating": "5", "review_count": "", "website": "http://poonamkothari.com/", "latitude": 26.4664564, "longitude": 74.6265588, "maps_url": "https://www.google.com/maps/search/?api=1&query=Kothari%27s%20%26%20Company&query_place_id=ChIJgeISNA_nazkRsqVhXn0anTk"}, {"place_id": "ChIJSSCo6D4UNSwRjki-3ijAxAg", "name": "AKASH IT HUB - A Complete IT Solution & Services (Website and Software Designing & Development Company)", "street": "Nasirabad Rd, near Metro Travels, Nagra, Ajmer, Rajasthan 305001, India", "phone": "+91 89492 94478", "rating": "4.6", "review_count": "", "website": "http://akashithub.com/", "latitude": 26.440859699999997, "longitude": 74.64578519999999, "maps_url": "https://www.google.com/maps/search/?api=1&query=AKASH%20IT%20HUB%20-%20A%20Complete%20IT%20Solution%20%26%20Services%20%28Website%20and%20Software%20Designing%20%26%20Development%20Company%29&query_place_id=ChIJSSCo6D4UNSwRjki-3ijAxAg"}, {"place_id": "ChIJDTF00dDmazkR3RAuseRzeOE", "name": "Programming Express Pvt.Ltd Software Development Company", "street": "1st Floor Vinayak Niwas 1745/30 Nasirabad road Near H.B Furniture House, Opp Carriage Ground, Nagra, Ajmer, Rajasthan 305001, India", "phone": "+91 98291 52312", "rating": "4.8", "review_count": "", "website": "https://programmingexpress.in/", "latitude": 26.4378161, "longitude": 74.6464979, "maps_url": "https://www.google.com/maps/search/?api=1&query=Programming%20Express%20Pvt.Ltd%20Software%20Development%20Company&query_place_id=ChIJDTF00dDmazkR3RAuseRzeOE"}, {"place_id": "ChIJFcjaCSDnazkRwWm7QbXgH0A", "name": "Technocracy Softwares Private Limited", "street": "Plot No, B Block, Somalpur Rd, Mayur Colony, Chandra Vardai Nagar, Ajmer, Rajasthan 305001, India", "phone": "+91 92148 39374", "rating": "4.9", "review_count": "", "website": "https://www.technocracysoftwares.com/", "latitude": 26.4194911, "longitude": 74.6175878, "maps_url": "https://www.google.com/maps/search/?api=1&query=Technocracy%20Softwares%20Private%20Limited&query_place_id=ChIJFcjaCSDnazkRwWm7QbXgH0A"}, {"place_id": "ChIJF5vHbATnazkRQoJbzPhdmtM", "name": "HAMARA VYAPAR", "street": "OFFICE NO 3, GARG BUILDING, Sundar Vilas, Ajmer, Rajasthan 305001, India", "phone": "+91 97859 85858", "rating": "4.9", "review_count": "", "website": "http://hamaravyapar.com/", "latitude": 26.4658493, "longitude": 74.6334912, "maps_url": "https://www.google.com/maps/search/?api=1&query=HAMARA%20VYAPAR&query_place_id=ChIJF5vHbATnazkRQoJbzPhdmtM"}, {"place_id": "ChIJaatfCIXnazkR9e4wPhenXOA", "name": "Concentics Private Limited", "street": "near Ram Bhawan, Onkar Nagar, Shastri Nagar, Ajmer, Rajasthan 305001, India", "phone": "+91 91666 38749", "rating": "5", "review_count": "", "website": "http://www.concentics.com/", "latitude": 26.4792493, "longitude": 74.643793, "maps_url": "https://www.google.com/maps/search/?api=1&query=Concentics%20Private%20Limited&query_place_id=ChIJaatfCIXnazkR9e4wPhenXOA"}]