{"timestamp": 1773729141.791275, "keyword": "IT company", "location": "delhi", "cell_idx": 45, "results": [{"place_id": "0x390d1fcf6c34ab99:0x285f961d231b2c61", "name": "Aadiyar Infotech Private Limited", "category": "Software company", "street": "1st Floor", "city": "Pannal Building No. 2", "phone": "09810164525", "website": "https://www.aadiyar.in/", "rating": 4.9, "review_count": "", "latitude": 28.487146, "longitude": 77.185315, "maps_url": "https://www.google.com/maps/place/?q=place_id:0x390d1fcf6c34ab99:0x285f961d231b2c61"}, {"place_id": "0x390ce1597b5509e5:0xfd8209b937b44d3c", "name": "IT Solutions India Private Limited", "category": "Software company", "street": "D-88/5", "city": "Pocket D, Okhla Phase I, Okhla Industrial Estate", "phone": "09810017429", "website": "https://www.itsipl.com/", "rating": 4.2, "review_count": "", "latitude": 28.520146, "longitude": 77.280431, "maps_url": "https://www.google.com/maps/place/?q=place_id:0x390ce1597b5509e5:0xfd8209b937b44d3c"}, {"place_id": "0x390ce458d0000001:0xf2123bd299ec4501", "name": "IT Company India", "category": "Software company", "street": "D56", "city": "D Block, Sector 10", "phone": "09999244854", "website": "https://www.itcompanyindia.in/", "rating": 4.7, "review_count": "", "latitude": 28.589917699999997, "longitude": 77.3351153, "maps_url": "https://www.google.com/maps/place/?q=place_id:0x390ce458d0000001:0xf2123bd299ec4501"}, {"place_id": "0x390ce1fb44618b65:0x8e06b2a6128352d1", "name": "Acropolis Infotech - Delhi Office", "category": "Software company", "street": "metro station gate", "city": "55, 2nd Floor, Lane 2", "phone": "09999876593", "website": "https://www.acropolisinfotech.com/", "rating": 4.6, "review_count": "", "latitude": 28.518907, "longitude": 77.2015435, "maps_url": "https://www.google.com/maps/place/?q=place_id:0x390ce1fb44618b65:0x8e06b2a6128352d1"}, {"place_id": "0x390ce1224e2234dd:0x7790e7d5f1699ce4", "name": "Razor Infotech Pvt. Ltd. ( IT solutions)", "category": "Software company", "street": "627", "city": "F/F, Westend Marg", "phone": "01145034631", "website": "http://www.razorinfotech.com/", "rating": 4.9, "review_count": "", "latitude": 28.517411, "longitude": 77.198138, "maps_url": "https://www.google.com/maps/place/?q=place_id:0x390ce1224e2234dd:0x7790e7d5f1699ce4"}, {"place_id": "0x390d1fb30dd00ee3:0x77cfd1f858a2b9ee", "name": "Ionic Software Services", "category": "Software company", "street": "B-2/63, Africa Ave", "city": "Block A, Block B 2, Safdarjung Enclave", "phone": "08744941668", "website": "http://www.ionicsoftwares.com/", "rating": 4.7, "review_count": "", "latitude": 28.515873499999998, "longitude": 77.2044335, "maps_url": "https://www.google.com/maps/place/?q=place_id:0x390d1fb30dd00ee3:0x77cfd1f858a2b9ee"}, {"place_id": "0x390ce3c153b89811:0xe7a279685777e9ca", "name": "IT Company", "category": "Automation company", "street": "A-14", "city": "near iskcon temple", "phone": "", "website": "http://www.opuswiz.com/", "rating": 3, "review_count": "", "latitude": 28.557167, "longitude": 77.25424819999999, "maps_url": "https://www.google.com/maps/place/?q=place_id:0x390ce3c153b89811:0xe7a279685777e9ca"}, {"place_id": "0x390ce1a20e94f69d:0xf6c5af89da672917", "name": "Code IT Solutions", "category": "Software company", "street": "E45", "city": "Krishna Park Colony, Khanpur", "phone": "07992249312", "website": "http://codeitsolutionshub.com/", "rating": 4.9, "review_count": "", "latitude": 28.509770999999997, "longitude": 77.23377169999999, "maps_url": "https://www.google.com/maps/place/?q=place_id:0x390ce1a20e94f69d:0xf6c5af89da672917"}, {"place_id": "0x8d1367491c694315:0xb6e1626c69d891d2", "name": "WebGridSolution - Software Development Digital Marketing Company", "category": "Software company", "street": "G-12/188", "city": "Talimabad, Sangam Vihar", "phone": "", "website": "https://webgridsolution.com/", "rating": 4.8, "review_count": "", "latitude": 28.506943099999997, "longitude": 77.2507213, "maps_url": "https://www.google.com/maps/place/?q=place_id:0x8d1367491c694315:0xb6e1626c69d891d2"}, {"place_id": "0x390ce227b000003f:0x68c684a3cbf810b", "name": "IT Solution INDIA", "category": "Computer support and services", "street": "Triveni Commercial Complex", "city": "Sheikh Sarai Phase 1, Sheikh Sarai", "phone": "09312209167", "website": "https://itsolutionindia.in/", "rating": 4.8, "review_count": "", "latitude": 28.5364054, "longitude": 77.22372, "maps_url": "https://www.google.com/maps/place/?q=place_id:0x390ce227b000003f:0x68c684a3cbf810b"}, {"place_id": "0x390ce2305c00002d:0x9f7efbacdc0d8271", "name": "ICO WebTech Pvt. Ltd. - Website Designing Company in Delhi", "category": "Website designer", "street": "J E 5, Ground Floor, Khirki Extension, Malviya Nagar", "city": "New Delhi, Delhi 110017", "phone": "08447380262", "website": "https://www.icowebsolutions.com/", "rating": 4.6, "review_count": "", "latitude": 28.535594, "longitude": 77.21577099999999, "maps_url": "https://www.google.com/maps/place/?q=place_id:0x390ce2305c00002d:0x9f7efbacdc0d8271"}, {"place_id": "0x390ce17b94309bbf:0x2a7be4bbd23e8470", "name": "Nexinfotech", "category": "Software company", "street": "Gali No. 5", "city": "Block J 1, Devli, Sangam Vihar", "phone": "09319089231", "website": "https://nexinfotech.com/", "rating": 5, "review_count": "", "latitude": 28.4901479, "longitude": 77.2463212, "maps_url": "https://www.google.com/maps/place/?q=place_id:0x390ce17b94309bbf:0x2a7be4bbd23e8470"}, {"place_id": "0x390d1e2fed1eed4b:0x101cd24533e257fa", "name": "SOFTLIFE Technologies Pvt. Ltd.", "category": "Software company", "street": "B-2, Block", "city": "Road", "phone": "09045199841", "website": "", "rating": 4.4, "review_count": "", "latitude": 28.4929925, "longitude": 77.18445489999999, "maps_url": "https://www.google.com/maps/place/?q=place_id:0x390d1e2fed1eed4b:0x101cd24533e257fa"}, {"place_id": "0x390ce5fdcc79e755:0x309ce99251b84ef6", "name": "Optyminds IT Solutions - Top AI and IT company I Best Digital agency in Noida | Delhi NCR | India", "category": "Software company", "street": "1st Floor", "city": "B-70", "phone": "08929075975", "website": "https://optyminds.com/", "rating": 4.9, "review_count": "", "latitude": 28.584679599999998, "longitude": 77.3135042, "maps_url": "https://www.google.com/maps/place/?q=place_id:0x390ce5fdcc79e755:0x309ce99251b84ef6"}, {"place_id": "0x390ce3ad10000061:0xeff7e6017a22cce7", "name": "Alpinesoft IT Solutions Authorized Google Workspace Reseller", "category": "Software company", "street": "162/9 Ist Floor, KIshangarh - Gaushala Marg", "city": "Lakhi Nath Kuti, Mehrauli, Vasant Kunj", "phone": "09999011157", "website": "https://www.alpinesoftit.com/", "rating": 4.3, "review_count": "", "latitude": 28.515394399999998, "longitude": 77.16460359999999, "maps_url": "https://www.google.com/maps/place/?q=place_id:0x390ce3ad10000061:0xeff7e6017a22cce7"}, {"place_id": "0x390d11040c5dbe09:0xe5cc630877c648b0", "name": "UDESHA TECHNOLOGY", "category": "Software company", "street": "H.in.kh.no 293", "city": "S/f", "phone": "08709918723", "website": "https://udeshatechnology.com/", "rating": 5, "review_count": "", "latitude": 28.5193449, "longitude": 77.2010346, "maps_url": "https://www.google.com/maps/place/?q=place_id:0x390d11040c5dbe09:0xe5cc630877c648b0"}, {"place_id": "0x4215c6da63b4b82f:0x794ba814a6ada964", "name": "Asha Tech | Website Design, App Development & IT Solutions Delhi", "category": "Software company", "street": "no 2", "city": "195, Lane No. 1", "phone": "07531080874", "website": "https://ashatech.co.in/", "rating": 4.7, "review_count": "", "latitude": 28.519994099999998, "longitude": 77.2008791, "maps_url": "https://www.google.com/maps/place/?q=place_id:0x4215c6da63b4b82f:0x794ba814a6ada964"}, {"place_id": "0x390ce1ce534cb1e5:0x39fe77c42bc52616", "name": "ITeSolution- Odoo ERP , Mobile/Web Application Development Software Company in Noida, Delhi NCR India.", "category": "Software company", "street": "RZ60/9", "city": "T/F, Tughlakabad Extension, Tughlakabad", "phone": "09889294124", "website": "https://www.itesolution.co.in/", "rating": 4.9, "review_count": "", "latitude": 28.520523899999997, "longitude": 77.2570535, "maps_url": "https://www.google.com/maps/place/?q=place_id:0x390ce1ce534cb1e5:0x39fe77c42bc52616"}, {"place_id": "0x390ce11068dacbdd:0xac4070cb73f9c1b1", "name": "Reedham It solutions pvt ltd", "category": "Software company", "street": "1297B, H 16 Rd", "city": "Block G 1, Talimabad, Sangam Vihar", "phone": "01146012950", "website": "http://reedhamitsolution.com/", "rating": 5, "review_count": "", "latitude": 28.5017906, "longitude": 77.25404069999999, "maps_url": "https://www.google.com/maps/place/?q=place_id:0x390ce11068dacbdd:0xac4070cb73f9c1b1"}, {"place_id": "0x390d1e08d71a257f:0xea4e129d751fc99", "name": "Sukrit Infotech", "category": "Software company", "street": "1043 Ward No 8 1042/2D 2nd Floor Mehrauli Near Babar Building", "city": "Mehrauli", "phone": "01145607265", "website": "http://www.sukritinfotech.com/", "rating": 4.5, "review_count": "", "latitude": 28.517589599999997, "longitude": 77.1802435, "maps_url": "https://www.google.com/maps/place/?q=place_id:0x390d1e08d71a257f:0xea4e129d751fc99"}, {"place_id": "0x390ce7b62827897b:0xf9c64750fed6eeef", "name": "Connect Infosoft Technologies Pvt.Ltd-Mobile and Software Application Development Company", "category": "Software company", "street": "Plot No.598", "city": "near Community Center", "phone": "", "website": "https://www.connectinfosoft.com/", "rating": 4.6, "review_count": "", "latitude": 28.451022599999998, "longitude": 77.29805, "maps_url": "https://www.google.com/maps/place/?q=place_id:0x390ce7b62827897b:0xf9c64750fed6eeef"}, {"place_id": "0x390d1e26841f4029:0xbed40d3c611d8d6", "name": "SAY 2 GET iT", "category": "Software company", "street": "83 E", "city": "DR Ambedkar Colony, Chattarpur Enclave, Chhatarpur", "phone": "09319051305", "website": "http://www.say2getit.com/", "rating": 5, "review_count": "", "latitude": 28.5028699, "longitude": 77.1887764, "maps_url": "https://www.google.com/maps/place/?q=place_id:0x390d1e26841f4029:0xbed40d3c611d8d6"}, {"place_id": "0x390ce1e9a7083cb7:0xe2a6861849a12032", "name": "Manish Gupta", "category": "Computer consultant", "street": "On", "city": "P1A 246 (D-14 Neb Valley", "phone": "09810207228", "website": "", "rating": 4.2, "review_count": "", "latitude": 28.5105653, "longitude": 77.2097086, "maps_url": "https://www.google.com/maps/place/?q=place_id:0x390ce1e9a7083cb7:0xe2a6861849a12032"}, {"place_id": "0x390ce1b9de54d101:0xc5184256693b27dd", "name": "LCK Technologies - Website designing development company South Delhi", "category": "Website designer", "street": "439 1st floor", "city": "438", "phone": "09891337955", "website": "https://lckdigitalmedia.in/", "rating": 4.9, "review_count": "", "latitude": 28.5089698, "longitude": 77.20114769999999, "maps_url": "https://www.google.com/maps/place/?q=place_id:0x390ce1b9de54d101:0xc5184256693b27dd"}, {"place_id": "0x390ce30f4c4ed777:0x3a7c5e032ce51ce5", "name": "Appextech Software Solutions", "category": "Software company", "street": "Second Floor", "city": "Mohan Cooperative Industrial Estate", "phone": "09911432451", "website": "https://www.appextech.com/", "rating": 4.9, "review_count": "", "latitude": 28.502260099999997, "longitude": 77.28519, "maps_url": "https://www.google.com/maps/place/?q=place_id:0x390ce30f4c4ed777:0x3a7c5e032ce51ce5"}, {"place_id": "0x390ce3c50d455555:0x625e4cf2def0b6ac", "name": "Infonative Solutions Limited", "category": "Computer support and services", "street": "107, 108", "city": "DLF South Court", "phone": "08448141818", "website": "https://infonative.net/", "rating": 4.7, "review_count": "", "latitude": 28.5274255, "longitude": 77.2209031, "maps_url": "https://www.google.com/maps/place/?q=place_id:0x390ce3c50d455555:0x625e4cf2def0b6ac"}, {"place_id": "0x390cfcac5aaaaaed:0xa20ab2e7b400180", "name": "\ud835\udc68\ud835\udc76 \ud835\udc7a\ud835\udc90\ud835\udc87\ud835\udc95\ud835\udc98\ud835\udc82\ud835\udc93\ud835\udc86 \ud835\udc7a\ud835\udc90\ud835\udc8d\ud835\udc96\ud835\udc95\ud835\udc8a\ud835\udc90\ud835\udc8f Website Designing company-website development company-product promotion and ERP development company", "category": "Software company", "street": "1B", "city": "S-505", "phone": "01142603444", "website": "https://aosoftwaresolution.com/", "rating": 4.8, "review_count": "", "latitude": 28.6287195, "longitude": 77.2766171, "maps_url": "https://www.google.com/maps/place/?q=place_id:0x390cfcac5aaaaaed:0xa20ab2e7b400180"}, {"place_id": "0x390d1f43f6442193:0xa633a2795caaaf9a", "name": "iT EXPERT", "category": "Computer support and services", "street": "Plot No 165", "city": "near by C.R.C Building", "phone": "09643205555", "website": "https://it-expert.grexa.site/", "rating": 5, "review_count": "", "latitude": 28.496751, "longitude": 77.163401, "maps_url": "https://www.google.com/maps/place/?q=place_id:0x390d1f43f6442193:0xa633a2795caaaf9a"}, {"place_id": "0x390d1f5abfb25fe1:0x7d9c4d5e159f2955", "name": "Jaimru Technology Pvt Ltd", "category": "Software company", "street": "WARD NO. 2", "city": "Plot No. 178 M 33 A/1", "phone": "07838153420", "website": "https://www.jaimru.com/", "rating": 4.9, "review_count": "", "latitude": 28.524347499999998, "longitude": 77.1731889, "maps_url": "https://www.google.com/maps/place/?q=place_id:0x390d1f5abfb25fe1:0x7d9c4d5e159f2955"}, {"place_id": "0x390d1e2895a5a193:0xc8a11377898c5b0f", "name": "GALAXY IT CORPORATION", "category": "Computer service", "street": "B-6, Annexe", "city": "Shivalik Colony, Malviya Nagar", "phone": "09990560588", "website": "http://www.galaxyitcorp.in/", "rating": 5, "review_count": "", "latitude": 28.533527, "longitude": 77.206172, "maps_url": "https://www.google.com/maps/place/?q=place_id:0x390d1e2895a5a193:0xc8a11377898c5b0f"}, {"place_id": "0x2a72b8b69d7b6493:0x11251466d4d34cac", "name": "WebZonal IT Company", "category": "Website designer", "street": "Wz-258/2-3, D Block Rd", "city": "Khazan Basti, Nangal Raya, Janakpuri", "phone": "09811170903", "website": "http://webzonal.com/", "rating": 5, "review_count": "", "latitude": 28.6122102, "longitude": 77.11159549999999, "maps_url": "https://www.google.com/maps/place/?q=place_id:0x2a72b8b69d7b6493:0x11251466d4d34cac"}, {"place_id": "0x390ce1656fbb7b65:0x7f0e4b2c21935a5c", "name": "Lynkit Solutions Pvt. Ltd.", "category": "Software company", "street": "246", "city": "Block A, Okhla Phase I, Okhla Industrial Estate", "phone": "01140824028", "website": "http://www.lynkit.in/", "rating": 4.3, "review_count": "", "latitude": 28.5254729, "longitude": 77.2754985, "maps_url": "https://www.google.com/maps/place/?q=place_id:0x390ce1656fbb7b65:0x7f0e4b2c21935a5c"}, {"place_id": "0x390ce44609d8fd9b:0x9c680f27679610f6", "name": "Crestech Software", "category": "Software company", "street": "Plot No. D, Vyapar Marg", "city": "D Block, Sector 2", "phone": "08826666755", "website": "https://www.crestechsoftware.com/", "rating": 3.6, "review_count": "", "latitude": 28.5836924, "longitude": 77.3166213, "maps_url": "https://www.google.com/maps/place/?q=place_id:0x390ce44609d8fd9b:0x9c680f27679610f6"}, {"place_id": "0x390d1df079759d1f:0x8bfa70033f6c672a", "name": "NR Technoserve Pvt. Ltd.", "category": "Software company", "street": "133, Katwaria Sarai", "city": "Phase-2, Qutab Institutional Area", "phone": "07289096762", "website": "http://www.nrtechnoserve.co.in/", "rating": 4.4, "review_count": "", "latitude": 28.5413306, "longitude": 77.18495519999999, "maps_url": "https://www.google.com/maps/place/?q=place_id:0x390d1df079759d1f:0x8bfa70033f6c672a"}, {"place_id": "0x390d02994de5e515:0xd908bc03409a0d37", "name": "Himalayan IT Solutions | Best Website Designing Company in Delhi | SEO/Digital Marketing Company in Delhi NCR, India", "category": "Software company", "street": "61/4255, Padam Singh Rd", "city": "Block 29, Block 1, Regar Pura, Karol Bagh", "phone": "09899098509", "website": "http://www.himalayanitsolutions.com/", "rating": 3.9, "review_count": "", "latitude": 28.649673999999997, "longitude": 77.186599, "maps_url": "https://www.google.com/maps/place/?q=place_id:0x390d02994de5e515:0xd908bc03409a0d37"}, {"place_id": "0x390ce15a595cf441:0xdaec6985696f5095", "name": "Star digital it care", "category": "Electronics Company", "street": "A", "city": "Friday Market", "phone": "09015290704", "website": "", "rating": 4.7, "review_count": "", "latitude": 28.4993786, "longitude": 77.22339439999999, "maps_url": "https://www.google.com/maps/place/?q=place_id:0x390ce15a595cf441:0xdaec6985696f5095"}, {"place_id": "0x41ddcb5488aa4703:0x5290c64921de1a5b", "name": "Bloatware IT Software Development Company | Game Development | Software Company in delhi", "category": "Software company", "street": "SILVER OAK FARMS", "city": "660, Mehrauli-Gurgaon Rd", "phone": "", "website": "https://bloatwareitsolutions.com/", "rating": 5, "review_count": "", "latitude": 28.4911034, "longitude": 77.1432663, "maps_url": "https://www.google.com/maps/place/?q=place_id:0x41ddcb5488aa4703:0x5290c64921de1a5b"}, {"place_id": "0x390d1e186527b451:0x3d552630d3703e21", "name": "Inca Infotech Technologies Pvt Ltd", "category": "Computer support and services", "street": "D-23/405, UGF", "city": "100 Feet Rd", "phone": "18008891907", "website": "https://www.incainfotech.com/", "rating": 3.6, "review_count": "", "latitude": 28.506226899999998, "longitude": 77.1850521, "maps_url": "https://www.google.com/maps/place/?q=place_id:0x390d1e186527b451:0x3d552630d3703e21"}, {"place_id": "0x390feda4c4f56aed:0x2277b287e38fc0ec", "name": "Dizivan IT Solutions Pvt Ltd- App Development & Digital Marketing Company", "category": "Software company", "street": "near Metro Station New Ashok Nagar", "city": "Block B, New Ashok Nagar", "phone": "09142092979", "website": "https://dizivan.com/", "rating": 5, "review_count": "", "latitude": 28.5891575, "longitude": 77.3020624, "maps_url": "https://www.google.com/maps/place/?q=place_id:0x390feda4c4f56aed:0x2277b287e38fc0ec"}, {"place_id": "0x213278d23258ed1:0xda7ca71736196291", "name": "Astha Technologies - Top Mobile App Development Company in Delhi | Android & iOS", "category": "Software company", "street": "2ND FLOOR", "city": "55, LANE-2, Westend Marg", "phone": "", "website": "https://asthatechnologies.org/mobile-app-development-company-delhi/", "rating": 5, "review_count": "", "latitude": 28.518466099999998, "longitude": 77.19880739999999, "maps_url": "https://www.google.com/maps/place/?q=place_id:0x213278d23258ed1:0xda7ca71736196291"}, {"place_id": "0xa3f7b500ba6bee9b:0xbf6f44de92b28de", "name": "Yuvocreations Private Limited ( \u092f\u0941\u0935\u094b\u0915\u094d\u0930\u093f\u090f\u0936\u0928\u094d\u0938 \u092a\u094d\u0930\u093e\u0907\u0935\u0947\u091f \u0932\u093f\u092e\u093f\u091f\u0947\u0921 ) - Website Designing & Digital Marketing Agency", "category": "Software company", "street": "Lane no.4", "city": "Khasra no. 258, Westend Marg", "phone": "07042123166", "website": "https://yuvocreations.com/", "rating": 5, "review_count": "", "latitude": 28.5169774, "longitude": 77.19925789999999, "maps_url": "https://www.google.com/maps/place/?q=place_id:0xa3f7b500ba6bee9b:0xbf6f44de92b28de"}, {"place_id": "0x390cfd9627f1ef6f:0x2ceaf9a99dfc7b29", "name": "QuaintX Innovations", "category": "Software company", "street": "3rd Floor, Building", "city": "125, Savitri Nagar Rd", "phone": "07015149213", "website": "https://quaintx.com/", "rating": 5, "review_count": "", "latitude": 28.5394647, "longitude": 77.21983519999999, "maps_url": "https://www.google.com/maps/place/?q=place_id:0x390cfd9627f1ef6f:0x2ceaf9a99dfc7b29"}, {"place_id": "0x390ce19d6aaaaaab:0x322f66cd91e8f6cd", "name": "Vikas Gupta Web Developer", "category": "Website designer", "street": "A-454 Dakshinpuri", "city": "New Delhi, Delhi 110062", "phone": "09643269244", "website": "https://itcrafterhub.com/website-developer-delhi/", "rating": 5, "review_count": "", "latitude": 28.522017599999998, "longitude": 77.2366923, "maps_url": "https://www.google.com/maps/place/?q=place_id:0x390ce19d6aaaaaab:0x322f66cd91e8f6cd"}, {"place_id": "0x390ce146ae64feef:0x1c8b9a25c218b845", "name": "Indian Apps Market", "category": "Software company", "street": "", "city": "", "phone": "", "website": "", "rating": 3.8, "review_count": "", "latitude": 26.732468599999997, "longitude": 77.0595484, "maps_url": "https://www.google.com/maps/place/?q=place_id:0x390ce146ae64feef:0x1c8b9a25c218b845"}, {"place_id": "0x390ce1b55051af33:0x9778a7bc119cabc0", "name": "Kritika Enterprises Tensile Structure Manufacturer | Awning Manufacturer | Noida | Gurgaon | Delhi", "category": "Manufacturer", "street": "Ground Floor", "city": "L1-A/67", "phone": "08149139396", "website": "https://kritikatensile.com/", "rating": 5, "review_count": "", "latitude": 28.4969757, "longitude": 77.2250597, "maps_url": "https://www.google.com/maps/place/?q=place_id:0x390ce1b55051af33:0x9778a7bc119cabc0"}, {"place_id": "0x390ce1e92eec0d49:0x8b4c598e70e40b8", "name": "Kito Infocom Pvt. Ltd", "category": "Internet marketing service", "street": "2nd Floor", "city": "B-38", "phone": "08826845665", "website": "https://kitoinfocom.com/", "rating": 4.6, "review_count": "", "latitude": 28.5302415, "longitude": 77.2719123, "maps_url": "https://www.google.com/maps/place/?q=place_id:0x390ce1e92eec0d49:0x8b4c598e70e40b8"}, {"place_id": "0x390ce1e507220a51:0xfe74ede7645b1fd1", "name": "Yash Infinite Solutions Private Limited", "category": "Software company", "street": "South of Saket", "city": "B-39, IGNOU Rd", "phone": "09810464978", "website": "", "rating": 4, "review_count": "", "latitude": 28.5157003, "longitude": 77.2033136, "maps_url": "https://www.google.com/maps/place/?q=place_id:0x390ce1e507220a51:0xfe74ede7645b1fd1"}, {"place_id": "0x390ce24b3fffffff:0x9f587d89ba46604", "name": "Microchip Infotech Systems Private Limited", "category": "Software company", "street": "A 102", "city": "Amar Colony A Block, Block A, Lajpat Nagar 4, Lajpat Nagar", "phone": "01141324610", "website": "http://www.microchipindia.com/", "rating": 3.4, "review_count": "", "latitude": 28.561472499999997, "longitude": 77.2418012, "maps_url": "https://www.google.com/maps/place/?q=place_id:0x390ce24b3fffffff:0x9f587d89ba46604"}, {"place_id": "0x390ce25e35e99b33:0xf443abe69b4e8fcc", "name": "Synapse Valuetech Private Limited", "category": "Software company", "street": "Lower Ground Floor", "city": "221", "phone": "01146628882", "website": "https://www.synapsevaluetech.com/", "rating": 4.3, "review_count": "", "latitude": 28.558165, "longitude": 77.2592385, "maps_url": "https://www.google.com/maps/place/?q=place_id:0x390ce25e35e99b33:0xf443abe69b4e8fcc"}, {"place_id": "0x390ce1ae5f457c15:0x6036c1e30bf9d283", "name": "WebTrafficIndia", "category": "Marketing agency", "street": "63/3 nai basti deoli", "city": "New Delhi, Delhi 110080", "phone": "09899770097", "website": "https://webtrafficindia.com/", "rating": 4.9, "review_count": "", "latitude": 28.494542, "longitude": 77.231839, "maps_url": "https://www.google.com/maps/place/?q=place_id:0x390ce1ae5f457c15:0x6036c1e30bf9d283"}, {"place_id": "0x390d1960c2b8367f:0xd2d30e45ac71acea", "name": "Vorombetech Solutions - Top IT & Digitalization Service Company in Gurugram", "category": "Software company", "street": "249", "city": "Phase IV, Udyog Vihar, Sector 19", "phone": "", "website": "https://vorombetech.com/", "rating": 4.8, "review_count": "", "latitude": 28.4941475, "longitude": 77.0808448, "maps_url": "https://www.google.com/maps/place/?q=place_id:0x390d1960c2b8367f:0xd2d30e45ac71acea"}, {"place_id": "0x390d195c26bfa369:0x69bd8efd2e3a31fe", "name": "Radical Minds Technologies Pvt. Ltd.", "category": "BPO Company", "street": "368", "city": "Phase II, Udyog Vihar, Sector 20", "phone": "01244338366", "website": "http://www.radicalminds.in/", "rating": 4.2, "review_count": "", "latitude": 28.506335099999998, "longitude": 77.0877546, "maps_url": "https://www.google.com/maps/place/?q=place_id:0x390d195c26bfa369:0x69bd8efd2e3a31fe"}, {"place_id": "0x390ce3db460cee5f:0x47a6e8d4aa56a40f", "name": "Injoria Technologies: Website, Custome Software, Mobile Apps Development company", "category": "Computer support and services", "street": "Second Floor", "city": "Pandav Nagar Complex", "phone": "09911177045", "website": "", "rating": 4.5, "review_count": "", "latitude": 28.6215884, "longitude": 77.2842872, "maps_url": "https://www.google.com/maps/place/?q=place_id:0x390ce3db460cee5f:0x47a6e8d4aa56a40f"}, {"place_id": "0x61679272b097afaf:0x2d8ff2b0d95a1e18", "name": "Busybots | RPA & Robotic Process Automation for Banking, Healthcare, AI Services & UiPath, Python Training in Delhi", "category": "Software company", "street": "1st Floor, D", "city": "25, 100 Feet Rd", "phone": "09315867465", "website": "https://www.busybots.in/", "rating": 5, "review_count": "", "latitude": 28.5055157, "longitude": 77.1852263, "maps_url": "https://www.google.com/maps/place/?q=place_id:0x61679272b097afaf:0x2d8ff2b0d95a1e18"}, {"place_id": "0x390ce456aaaaaaab:0x6e4e087895622564", "name": "Klasiinn", "category": "Software company", "street": "E-506, Inder Mohan Bhardwaj Marg", "city": "Block E, Greater Kailash II, Greater Kailash", "phone": "07827882870", "website": "http://klasiinn.in/", "rating": 5, "review_count": "", "latitude": 28.5358657, "longitude": 77.2384798, "maps_url": "https://www.google.com/maps/place/?q=place_id:0x390ce456aaaaaaab:0x6e4e087895622564"}, {"place_id": "0x390d1ed3c6e9f579:0x322eccdb00f350d2", "name": "Techjockey", "category": "Software company", "street": "Ground floor, Habitat India", "city": "C-3", "phone": "01142213003", "website": "https://www.techjockey.com/", "rating": 4, "review_count": "", "latitude": 28.536615299999998, "longitude": 77.1902978, "maps_url": "https://www.google.com/maps/place/?q=place_id:0x390d1ed3c6e9f579:0x322eccdb00f350d2"}, {"place_id": "0x390ce23eeab015ab:0x92d6a7e8dbc46e1a", "name": "Odyssey Website Development Company", "category": "Website designer", "street": "B-59", "city": "Block B, Soami Nagar South, Soami Nagar", "phone": "09654486464", "website": "http://odysseyin.com/?utm_source=GMB&utm_medium=Organic&utm_term=Odyssey&utm_content=Listing&utm_campaign=GMB1", "rating": 3.6, "review_count": "", "latitude": 28.541823599999997, "longitude": 77.2262008, "maps_url": "https://www.google.com/maps/place/?q=place_id:0x390ce23eeab015ab:0x92d6a7e8dbc46e1a"}, {"place_id": "0x390ce44efef427e7:0x4d0a10522519f65e", "name": "Omnie Solutions (I) Pvt Ltd", "category": "Software company", "street": "D-108", "city": "Sector 2, D Block, Sector 2", "phone": "09266754671", "website": "https://www.omniesolutions.com/", "rating": 3.4, "review_count": "", "latitude": 28.583485, "longitude": 77.316155, "maps_url": "https://www.google.com/maps/place/?q=place_id:0x390ce44efef427e7:0x4d0a10522519f65e"}, {"place_id": "0x8335ecf853715cbf:0x10d99fb1fba2b0a8", "name": "Oceonic IT Solution Pvt Ltd", "category": "Software company", "street": "C14 C Block", "city": "JVTS Garden, Block A1, Chhatarpur", "phone": "08874000083", "website": "https://www.oceonic.co/", "rating": 3, "review_count": "", "latitude": 28.496824699999998, "longitude": 77.1828704, "maps_url": "https://www.google.com/maps/place/?q=place_id:0x8335ecf853715cbf:0x10d99fb1fba2b0a8"}, {"place_id": "0x390ce6db6cf32775:0x65f3101fb04f909c", "name": "Thaver Tech Pvt. Ltd.", "category": "Software company", "street": "A 1524", "city": "Greenfields, Sector 43", "phone": "09289816699", "website": "https://www.thavertech.com/", "rating": 4.4, "review_count": "", "latitude": 28.464767499999997, "longitude": 77.3008876, "maps_url": "https://www.google.com/maps/place/?q=place_id:0x390ce6db6cf32775:0x65f3101fb04f909c"}, {"place_id": "0x390ce146ae64feef:0x1c8b9a25c218b845", "name": "Indian Apps Market", "category": "Software company", "street": "", "city": "", "phone": "", "website": "", "rating": 3.8, "review_count": "", "latitude": 26.732468599999997, "longitude": 77.0595484, "maps_url": "https://www.google.com/maps/place/?q=place_id:0x390ce146ae64feef:0x1c8b9a25c218b845"}, {"place_id": "0x390d1fa3012fc911:0x744bd65a8adfff31", "name": "Navya IT Solutions", "category": "Computer service", "street": "", "city": "", "phone": "08810694288", "website": "", "rating": 5, "review_count": "", "latitude": 28.520186, "longitude": 77.179158, "maps_url": "https://www.google.com/maps/place/?q=place_id:0x390d1fa3012fc911:0x744bd65a8adfff31"}, {"place_id": "0x390ce1b55051af33:0x9778a7bc119cabc0", "name": "Kritika Enterprises Tensile Structure Manufacturer | Awning Manufacturer | Noida | Gurgaon | Delhi", "category": "Manufacturer", "street": "Ground Floor", "city": "L1-A/67", "phone": "08149139396", "website": "https://kritikatensile.com/", "rating": 5, "review_count": "", "latitude": 28.4969757, "longitude": 77.2250597, "maps_url": "https://www.google.com/maps/place/?q=place_id:0x390ce1b55051af33:0x9778a7bc119cabc0"}, {"place_id": "0x390ce1e92eec0d49:0x8b4c598e70e40b8", "name": "Kito Infocom Pvt. Ltd", "category": "Internet marketing service", "street": "2nd Floor", "city": "B-38", "phone": "08826845665", "website": "https://kitoinfocom.com/", "rating": 4.6, "review_count": "", "latitude": 28.5302415, "longitude": 77.2719123, "maps_url": "https://www.google.com/maps/place/?q=place_id:0x390ce1e92eec0d49:0x8b4c598e70e40b8"}, {"place_id": "0x390ce1e507220a51:0xfe74ede7645b1fd1", "name": "Yash Infinite Solutions Private Limited", "category": "Software company", "street": "South of Saket", "city": "B-39, IGNOU Rd", "phone": "09810464978", "website": "", "rating": 4, "review_count": "", "latitude": 28.5157003, "longitude": 77.2033136, "maps_url": "https://www.google.com/maps/place/?q=place_id:0x390ce1e507220a51:0xfe74ede7645b1fd1"}, {"place_id": "0x390ce24b3fffffff:0x9f587d89ba46604", "name": "Microchip Infotech Systems Private Limited", "category": "Software company", "street": "A 102", "city": "Amar Colony A Block, Block A, Lajpat Nagar 4, Lajpat Nagar", "phone": "01141324610", "website": "http://www.microchipindia.com/", "rating": 3.4, "review_count": "", "latitude": 28.561472499999997, "longitude": 77.2418012, "maps_url": "https://www.google.com/maps/place/?q=place_id:0x390ce24b3fffffff:0x9f587d89ba46604"}, {"place_id": "0x390ce25e35e99b33:0xf443abe69b4e8fcc", "name": "Synapse Valuetech Private Limited", "category": "Software company", "street": "Lower Ground Floor", "city": "221", "phone": "01146628882", "website": "https://www.synapsevaluetech.com/", "rating": 4.3, "review_count": "", "latitude": 28.558165, "longitude": 77.2592385, "maps_url": "https://www.google.com/maps/place/?q=place_id:0x390ce25e35e99b33:0xf443abe69b4e8fcc"}, {"place_id": "0x390ce1ae5f457c15:0x6036c1e30bf9d283", "name": "WebTrafficIndia", "category": "Marketing agency", "street": "63/3 nai basti deoli", "city": "New Delhi, Delhi 110080", "phone": "09899770097", "website": "https://webtrafficindia.com/", "rating": 4.9, "review_count": "", "latitude": 28.494542, "longitude": 77.231839, "maps_url": "https://www.google.com/maps/place/?q=place_id:0x390ce1ae5f457c15:0x6036c1e30bf9d283"}, {"place_id": "0x390d1960c2b8367f:0xd2d30e45ac71acea", "name": "Vorombetech Solutions - Top IT & Digitalization Service Company in Gurugram", "category": "Software company", "street": "249", "city": "Phase IV, Udyog Vihar, Sector 19", "phone": "", "website": "https://vorombetech.com/", "rating": 4.8, "review_count": "", "latitude": 28.4941475, "longitude": 77.0808448, "maps_url": "https://www.google.com/maps/place/?q=place_id:0x390d1960c2b8367f:0xd2d30e45ac71acea"}, {"place_id": "0x390d195c26bfa369:0x69bd8efd2e3a31fe", "name": "Radical Minds Technologies Pvt. Ltd.", "category": "BPO Company", "street": "368", "city": "Phase II, Udyog Vihar, Sector 20", "phone": "01244338366", "website": "http://www.radicalminds.in/", "rating": 4.2, "review_count": "", "latitude": 28.506335099999998, "longitude": 77.0877546, "maps_url": "https://www.google.com/maps/place/?q=place_id:0x390d195c26bfa369:0x69bd8efd2e3a31fe"}, {"place_id": "0x390ce3db460cee5f:0x47a6e8d4aa56a40f", "name": "Injoria Technologies: Website, Custome Software, Mobile Apps Development company", "category": "Computer support and services", "street": "Second Floor", "city": "Pandav Nagar Complex", "phone": "09911177045", "website": "", "rating": 4.5, "review_count": "", "latitude": 28.6215884, "longitude": 77.2842872, "maps_url": "https://www.google.com/maps/place/?q=place_id:0x390ce3db460cee5f:0x47a6e8d4aa56a40f"}, {"place_id": "0x61679272b097afaf:0x2d8ff2b0d95a1e18", "name": "Busybots | RPA & Robotic Process Automation for Banking, Healthcare, AI Services & UiPath, Python Training in Delhi", "category": "Software company", "street": "1st Floor, D", "city": "25, 100 Feet Rd", "phone": "09315867465", "website": "https://www.busybots.in/", "rating": 5, "review_count": "", "latitude": 28.5055157, "longitude": 77.1852263, "maps_url": "https://www.google.com/maps/place/?q=place_id:0x61679272b097afaf:0x2d8ff2b0d95a1e18"}, {"place_id": "0x390ce456aaaaaaab:0x6e4e087895622564", "name": "Klasiinn", "category": "Software company", "street": "E-506, Inder Mohan Bhardwaj Marg", "city": "Block E, Greater Kailash II, Greater Kailash", "phone": "07827882870", "website": "http://klasiinn.in/", "rating": 5, "review_count": "", "latitude": 28.5358657, "longitude": 77.2384798, "maps_url": "https://www.google.com/maps/place/?q=place_id:0x390ce456aaaaaaab:0x6e4e087895622564"}, {"place_id": "0x390d1ed3c6e9f579:0x322eccdb00f350d2", "name": "Techjockey", "category": "Software company", "street": "Ground floor, Habitat India", "city": "C-3", "phone": "01142213003", "website": "https://www.techjockey.com/", "rating": 4, "review_count": "", "latitude": 28.536615299999998, "longitude": 77.1902978, "maps_url": "https://www.google.com/maps/place/?q=place_id:0x390d1ed3c6e9f579:0x322eccdb00f350d2"}, {"place_id": "0x390ce23eeab015ab:0x92d6a7e8dbc46e1a", "name": "Odyssey Website Development Company", "category": "Website designer", "street": "B-59", "city": "Block B, Soami Nagar South, Soami Nagar", "phone": "09654486464", "website": "http://odysseyin.com/?utm_source=GMB&utm_medium=Organic&utm_term=Odyssey&utm_content=Listing&utm_campaign=GMB1", "rating": 3.6, "review_count": "", "latitude": 28.541823599999997, "longitude": 77.2262008, "maps_url": "https://www.google.com/maps/place/?q=place_id:0x390ce23eeab015ab:0x92d6a7e8dbc46e1a"}, {"place_id": "0x390ce44efef427e7:0x4d0a10522519f65e", "name": "Omnie Solutions (I) Pvt Ltd", "category": "Software company", "street": "D-108", "city": "Sector 2, D Block, Sector 2", "phone": "09266754671", "website": "https://www.omniesolutions.com/", "rating": 3.4, "review_count": "", "latitude": 28.583485, "longitude": 77.316155, "maps_url": "https://www.google.com/maps/place/?q=place_id:0x390ce44efef427e7:0x4d0a10522519f65e"}, {"place_id": "0x8335ecf853715cbf:0x10d99fb1fba2b0a8", "name": "Oceonic IT Solution Pvt Ltd", "category": "Software company", "street": "C14 C Block", "city": "JVTS Garden, Block A1, Chhatarpur", "phone": "08874000083", "website": "https://www.oceonic.co/", "rating": 3, "review_count": "", "latitude": 28.496824699999998, "longitude": 77.1828704, "maps_url": "https://www.google.com/maps/place/?q=place_id:0x8335ecf853715cbf:0x10d99fb1fba2b0a8"}, {"place_id": "0x390ce6db6cf32775:0x65f3101fb04f909c", "name": "Thaver Tech Pvt. Ltd.", "category": "Software company", "street": "A 1524", "city": "Greenfields, Sector 43", "phone": "09289816699", "website": "https://www.thavertech.com/", "rating": 4.4, "review_count": "", "latitude": 28.464767499999997, "longitude": 77.3008876, "maps_url": "https://www.google.com/maps/place/?q=place_id:0x390ce6db6cf32775:0x65f3101fb04f909c"}, {"place_id": "0x390d19ad585bba37:0xc7a1380f3c30571a", "name": "Wroffy Technologies Pvt Ltd", "category": "Software company", "street": "304", "city": "Vipul Business Park", "phone": "01244349014", "website": "https://www.wroffy.com/", "rating": 4.3, "review_count": "", "latitude": 28.4226457, "longitude": 77.0376039, "maps_url": "https://www.google.com/maps/place/?q=place_id:0x390d19ad585bba37:0xc7a1380f3c30571a"}, {"place_id": "0x390ce138287b2be5:0xcf198d147af514d3", "name": "Sadhna Borewell Company | Borewell | Submersible Pump Repair | Rainwater Harvesting Well System | Pump & Motor Repair", "category": "Drilling contractor", "street": "L-1st Street, No 12", "city": "near sattu sangwan banquet hall", "phone": "", "website": "https://www.instagram.com/sadhnaborewellcompany_17?igsh=bHlucWZoMXE5ZXI3", "rating": 5, "review_count": "", "latitude": 28.4938234, "longitude": 77.2257154, "maps_url": "https://www.google.com/maps/place/?q=place_id:0x390ce138287b2be5:0xcf198d147af514d3"}, {"place_id": "0x390d1e748ef61961:0x754ceb660996cfdb", "name": "ACS System Solutions", "category": "Software company", "street": "Kishangarh, Kishangarh Village, Vasant Kunj", "city": "New Delhi, Delhi 110070", "phone": "01149858620", "website": "http://acssystem.in/", "rating": 3.4, "review_count": "", "latitude": 28.522178699999998, "longitude": 77.1692609, "maps_url": "https://www.google.com/maps/place/?q=place_id:0x390d1e748ef61961:0x754ceb660996cfdb"}, {"place_id": "0x390ce10972701b43:0x88fbfcfafdaf00f3", "name": "SearchingYard Group Corporate HQ", "category": "Software company", "street": "Tower 1st Floor, A", "city": "Nagpal Business", "phone": "", "website": "http://www.searchingyard.com/", "rating": 1.7, "review_count": "", "latitude": 28.538387699999998, "longitude": 77.27080029999999, "maps_url": "https://www.google.com/maps/place/?q=place_id:0x390ce10972701b43:0x88fbfcfafdaf00f3"}, {"place_id": "0x390d1f7c90574dbf:0xda9c0293e4c6ce9e", "name": "Mango computer & IT solutions Pvt. Ltd.", "category": "Computer repair service", "street": "near bank of india", "city": "Chhatarpur Village, Block A1, Chhatarpur", "phone": "09997342702", "website": "", "rating": "", "review_count": "", "latitude": 28.4986967, "longitude": 77.1843006, "maps_url": "https://www.google.com/maps/place/?q=place_id:0x390d1f7c90574dbf:0xda9c0293e4c6ce9e"}, {"place_id": "0x390ce3a840ea11c1:0xdf76e01fa07971ea", "name": "Camsol Advisory | Best Online CA Services in Delhi | Company Registration Services", "category": "Accounting firm", "street": "Basement, N Block", "city": "N-22, Guru Ravidas Marg", "phone": "09873895537", "website": "https://camsoladvisory.com/", "rating": 4.9, "review_count": "", "latitude": 28.537281, "longitude": 77.2591806, "maps_url": "https://www.google.com/maps/place/?q=place_id:0x390ce3a840ea11c1:0xdf76e01fa07971ea"}, {"place_id": "0x390d1fe168142b7d:0x4d4a8e16dae8d42", "name": "Savvytree - Digital Marketing Company", "category": "Marketing agency", "street": "Savvytree 280, Mandi Rd", "city": "opposite Tata Sky", "phone": "08700354352", "website": "https://savvytree.in/", "rating": 4.7, "review_count": "", "latitude": 28.5026725, "longitude": 77.1722109, "maps_url": "https://www.google.com/maps/place/?q=place_id:0x390d1fe168142b7d:0x4d4a8e16dae8d42"}, {"place_id": "0x390ce1a20e94f687:0x13554fd9471442e5", "name": "Nextera Entertainment", "category": "Event management company", "street": "D-144, 1st Floor, Flat No. B-5", "city": "Krishna Park, Khanpur (9863522222)", "phone": "09899291066", "website": "", "rating": 4.9, "review_count": "", "latitude": 28.509770999999997, "longitude": 77.2337715, "maps_url": "https://www.google.com/maps/place/?q=place_id:0x390ce1a20e94f687:0x13554fd9471442e5"}, {"place_id": "0x390d1dcc98a0092f:0xab3a0fca3e26d087", "name": "Retake Studios - Video Production and Corporate Film Company in Delhi NCR", "category": "Video production service", "street": "UG-3", "city": "D112/A", "phone": "07053738831", "website": "", "rating": 5, "review_count": "", "latitude": 28.5071905, "longitude": 77.1967669, "maps_url": "https://www.google.com/maps/place/?q=place_id:0x390d1dcc98a0092f:0xab3a0fca3e26d087"}, {"place_id": "0x390d19345bcdc4f3:0x61d5221ed2c17f35", "name": "Cognizant", "category": "Software company", "street": "Tower C, SEZ Building, Building No 6, 5th & 6th Floor DLF C yber City Rd W Block", "city": "Near Shankar Chowk", "phone": "", "website": "http://www.cognizant.com/india", "rating": 4.1, "review_count": "", "latitude": 28.4964521, "longitude": 77.096576, "maps_url": "https://www.google.com/maps/place/?q=place_id:0x390d19345bcdc4f3:0x61d5221ed2c17f35"}, {"place_id": "0x390d1f6e89ce8dbb:0xfaeee88c81c296bb", "name": "SECURESTAN : SECURE YOURSELF COMPANY", "category": "Computer security service", "street": "Masjid Road", "city": "opposite MCD School", "phone": "", "website": "https://www.securestan.com/", "rating": "", "review_count": "", "latitude": 28.4686834, "longitude": 77.18438499999999, "maps_url": "https://www.google.com/maps/place/?q=place_id:0x390d1f6e89ce8dbb:0xfaeee88c81c296bb"}, {"place_id": "0x390cfd309eebed77:0xaceeaaa8aa371679", "name": "Allied Infoline Pvt. Ltd", "category": "Business to business service", "street": "Metro Pillar Number 51", "city": "Building 90, Near", "phone": "09999511882", "website": "https://www.alliedinfoline.com/", "rating": 4, "review_count": "", "latitude": 28.5015412, "longitude": 77.1673411, "maps_url": "https://www.google.com/maps/place/?q=place_id:0x390cfd309eebed77:0xaceeaaa8aa371679"}, {"place_id": "0x390d1f0df92e353d:0x54e79553d987073c", "name": "Zombie Marketers | Performance Marketing | Digital Marketing | Website development company in Delhi | SEO company in Delhi", "category": "Marketing agency", "street": "89/9 Mamman House B Block 4th Floor", "city": "Kishangarh Village, Vasant Kunj", "phone": "08527273938", "website": "", "rating": 4.4, "review_count": "", "latitude": 28.5189249, "longitude": 77.1646754, "maps_url": "https://www.google.com/maps/place/?q=place_id:0x390d1f0df92e353d:0x54e79553d987073c"}, {"place_id": "0x390ce1f3680c0793:0x251c9beb1e8924ad", "name": "FSIndia - The Best Video Production Company", "category": "Video production service", "street": "192B/3, 2nd Floor", "city": "Govindpuri, Kalkaji", "phone": "09996910399", "website": "https://freelanceservicesindia.com/", "rating": 4.7, "review_count": "", "latitude": 28.536257799999998, "longitude": 77.2640229, "maps_url": "https://www.google.com/maps/place/?q=place_id:0x390ce1f3680c0793:0x251c9beb1e8924ad"}, {"place_id": "0x390ce14c8ef0539d:0xcde78f68bd4b851b", "name": "KNAP ADVISORY Company Registration and Compliance Service", "category": "Consultant", "street": "Metro Station", "city": "LGF, Building No. 2, Lane", "phone": "09311972982", "website": "https://knapadvisory.com/", "rating": 5, "review_count": "", "latitude": 28.519864799999997, "longitude": 77.201016, "maps_url": "https://www.google.com/maps/place/?q=place_id:0x390ce14c8ef0539d:0xcde78f68bd4b851b"}, {"place_id": "0x390ce15795555555:0x9bb8a801d00d7573", "name": "DreamSoft Infotech - Website Development Company in India", "category": "Software company", "street": "A-75 Third Floor", "city": "A Block, Sector 5", "phone": "01204380622", "website": "https://dreamsoftinfotech.com/", "rating": 3.4, "review_count": "", "latitude": 28.591018899999998, "longitude": 77.32201529999999, "maps_url": "https://www.google.com/maps/place/?q=place_id:0x390ce15795555555:0x9bb8a801d00d7573"}, {"place_id": "0x390d1b0010fc2321:0x12e9154c815cf007", "name": "Prashant Dwivedi IT company", "category": "Warehouse", "street": "G3P5+GVC", "city": "Nayak Pura, Bijwasan", "phone": "", "website": "", "rating": "", "review_count": "", "latitude": 28.536316, "longitude": 77.059649, "maps_url": "https://www.google.com/maps/place/?q=place_id:0x390d1b0010fc2321:0x12e9154c815cf007"}, {"place_id": "0x390ce6d3e47c8b7f:0xde66622f445f3384", "name": "IZS Technocrats Private LTD", "category": "Website designer", "street": "GA - 56", "city": "Badarpur, Pul Pehladpur", "phone": "08882171675", "website": "", "rating": 5, "review_count": "", "latitude": 28.5012157, "longitude": 77.29197429999999, "maps_url": "https://www.google.com/maps/place/?q=place_id:0x390ce6d3e47c8b7f:0xde66622f445f3384"}, {"place_id": "0x390ce13fbd6112a1:0xc9e836d86582fc6d", "name": "Taxpot Business Solution-Company Registration, CA & CS Services", "category": "Chartered accountant", "street": "Second Floor", "city": "Pilli Kothi", "phone": "07827455193", "website": "http://www.newcompanyregistrationdelhi.in/", "rating": 5, "review_count": "", "latitude": 28.508529499999998, "longitude": 77.2273353, "maps_url": "https://www.google.com/maps/place/?q=place_id:0x390ce13fbd6112a1:0xc9e836d86582fc6d"}, {"place_id": "0x390ce121dad3debd:0xb8ded69dd5c71ce9", "name": "National Removals Ltd", "category": "Packaging company", "street": "B-46 Khasra No.458, 2nd Floor", "city": "IGNOU Rd", "phone": "09090608070", "website": "https://www.nationalremovals.in/", "rating": 4.7, "review_count": "", "latitude": 28.501214599999997, "longitude": 77.20264399999999, "maps_url": "https://www.google.com/maps/place/?q=place_id:0x390ce121dad3debd:0xb8ded69dd5c71ce9"}, {"place_id": "0x390ce18b532b6807:0x4eaf73f7c2d0cbd9", "name": "Ircon International Limited", "category": "Government office", "street": "Saket District Centre, District Centre, Sector 6, C-4", "city": "New Delhi, Delhi 110017", "phone": "", "website": "https://ircon.org/", "rating": 4.5, "review_count": "", "latitude": 28.526402299999997, "longitude": 77.2177299, "maps_url": "https://www.google.com/maps/place/?q=place_id:0x390ce18b532b6807:0x4eaf73f7c2d0cbd9"}, {"place_id": "0x3be7c21b5901e181:0x7fe794585addc1f6", "name": "Smartinfologiks - Software Development Company in India | IT Solutions", "category": "Software company", "street": "Hilton Center", "city": "514", "phone": "07400064691", "website": "https://www.smartinfologiks.com/", "rating": 4.6, "review_count": "", "latitude": 19.0139592, "longitude": 73.0382705, "maps_url": "https://www.google.com/maps/place/?q=place_id:0x3be7c21b5901e181:0x7fe794585addc1f6"}]}