{"timestamp": 1773731484.9739032, "keyword": "IT company", "location": "delhi", "cell_idx": 455, "results": [{"place_id": "0x390d1ca8de94abb1:0xc070687f1d5f8558", "name": "Bita Infotech IT Solutions:: Website Designing & Development Company", "category": "Software company", "street": "Rz-31 B, Street No. 5", "city": "Block M, West Sagarpur, Sagar Pur", "phone": "08178256664", "website": "https://bitainfotech.com/", "rating": 4.7, "review_count": "", "latitude": 28.6056495, "longitude": 77.1012293, "maps_url": "https://www.google.com/maps/place/?q=place_id:0x390d1ca8de94abb1:0xc070687f1d5f8558"}, {"place_id": "0x390d1b8f711137c5:0xd6aa785c534d70b2", "name": "KWIQSOFT", "category": "Software company", "street": "Street Number 11", "city": "Block B, Durga Park Colony", "phone": "09311980594", "website": "http://www.kwiqsoft.com/", "rating": 4.9, "review_count": "", "latitude": 28.6047351, "longitude": 77.0900479, "maps_url": "https://www.google.com/maps/place/?q=place_id:0x390d1b8f711137c5:0xd6aa785c534d70b2"}, {"place_id": "0x390d1b3ce3c8f855:0xee4a65138d454b3d", "name": "Aarti Web Technology", "category": "Software company", "street": "West Sagarpur, Dayal Park, Main Sagarpur, Sagar Pur", "city": "New Delhi, Delhi, 110046", "phone": "08882819003", "website": "http://aartitech.in/", "rating": 4.7, "review_count": "", "latitude": 28.605843699999998, "longitude": 77.0962301, "maps_url": "https://www.google.com/maps/place/?q=place_id:0x390d1b3ce3c8f855:0xee4a65138d454b3d"}, {"place_id": "0x390ce21b8d636751:0xda2fa1d06a704eab", "name": "Prinknest Technology LLP", "category": "Software company", "street": "1st Floor", "city": "RZ 122 D, Plot No.1", "phone": "08076833804", "website": "https://prinknest.com/", "rating": 4.8, "review_count": "", "latitude": 28.606828, "longitude": 77.0816226, "maps_url": "https://www.google.com/maps/place/?q=place_id:0x390ce21b8d636751:0xda2fa1d06a704eab"}, {"place_id": "0x390d1ca9e50d176d:0x9986a01a4b66bca0", "name": "VUnify Technology Private Limited", "category": "Software company", "street": "WZ-13H, Aggarwal Sweets Rd", "city": "near New", "phone": "", "website": "https://vunify.in/", "rating": 4.8, "review_count": "", "latitude": 28.6079093, "longitude": 77.1023304, "maps_url": "https://www.google.com/maps/place/?q=place_id:0x390d1ca9e50d176d:0x9986a01a4b66bca0"}, {"place_id": "0x390d1b2c770a669b:0x503c852e7ddd24d8", "name": "Aadi Soft - IT Software Freelancing Unit", "category": "Computer support and services", "street": "R.Z.-14A", "city": "Geetanjali Park, West Sagarpur, Sagar Pur", "phone": "", "website": "https://inventory-appn.vercel.app/", "rating": 5, "review_count": "", "latitude": 28.6014701, "longitude": 77.0982746, "maps_url": "https://www.google.com/maps/place/?q=place_id:0x390d1b2c770a669b:0x503c852e7ddd24d8"}, {"place_id": "0x390d04ebffffffff:0x91c04a15b79d72c6", "name": "Incredible Softwares", "category": "Software company", "street": "Block D2, Mohan Nagar, Janakpuri", "city": "New Delhi, Delhi, 110058", "phone": "08010421613", "website": "https://www.incrediblesoftwares.com/", "rating": 4.9, "review_count": "", "latitude": 28.607412099999998, "longitude": 77.1055037, "maps_url": "https://www.google.com/maps/place/?q=place_id:0x390d04ebffffffff:0x91c04a15b79d72c6"}, {"place_id": "0x390d1b22af7f5621:0xdf3545099d89cb23", "name": "Perfect Web Experts", "category": "Software company", "street": "RZ-12A/249, Gali No. 8", "city": "Jagdamba Vihar, West Sagarpur, Palam", "phone": "07827425009", "website": "http://www.perfectwebexperts.com/", "rating": 4.8, "review_count": "", "latitude": 28.6018145, "longitude": 77.0943118, "maps_url": "https://www.google.com/maps/place/?q=place_id:0x390d1b22af7f5621:0xdf3545099d89cb23"}, {"place_id": "0x2a72b8b69d7b6493:0x11251466d4d34cac", "name": "WebZonal IT Company", "category": "Website designer", "street": "Wz-258/2-3, D Block Rd", "city": "Khazan Basti, Nangal Raya, Janakpuri", "phone": "09811170903", "website": "http://webzonal.com/", "rating": 5, "review_count": "", "latitude": 28.6122102, "longitude": 77.11159549999999, "maps_url": "https://www.google.com/maps/place/?q=place_id:0x2a72b8b69d7b6493:0x11251466d4d34cac"}, {"place_id": "0x390d1b6968da5c2f:0xeb32669b4e355924", "name": "Boostabrain Technologies", "category": "Computer support and services", "street": "RZ-30A/339", "city": "Gali No. 10", "phone": "09319959605", "website": "https://boostabrain.in/", "rating": 4.9, "review_count": "", "latitude": 28.603125499999997, "longitude": 77.0969638, "maps_url": "https://www.google.com/maps/place/?q=place_id:0x390d1b6968da5c2f:0xeb32669b4e355924"}, {"place_id": "0x390d1b544395e71f:0x39bc83c480ca3b02", "name": "Ten Sol Software Pvt. Ltd.", "category": "Website designer", "street": "Rz 1/82 First Floor Near Shakuntala Hospital West Sagarpur", "city": "New Delhi, Delhi 110046", "phone": "09313683602", "website": "https://tensolgroup.com/", "rating": 4.9, "review_count": "", "latitude": 28.6084934, "longitude": 77.0951803, "maps_url": "https://www.google.com/maps/place/?q=place_id:0x390d1b544395e71f:0x39bc83c480ca3b02"}, {"place_id": "0x390d1bf854143ecb:0x40321da1ddfa8234", "name": "Volmint Technologies | Top SaaS Provider in India \u2013 Software & IT Solutions", "category": "Software company", "street": "29/2, Dabri - Palam Rd", "city": "Durgapuri & Dwarkapuri, Block C, Vijay Enclave, Mahavir Enclave", "phone": "09310828501", "website": "https://volmint.com/", "rating": 4.9, "review_count": "", "latitude": 28.606460199999997, "longitude": 77.0809699, "maps_url": "https://www.google.com/maps/place/?q=place_id:0x390d1bf854143ecb:0x40321da1ddfa8234"}, {"place_id": "0x390d1caa0c34e6ed:0xb215e72e4664c223", "name": "ARIHANT SOFTWARE AND SERVICES", "category": "Software company", "street": "WZ-13C/1, 2nd Floor Vashisht Park, Nr, Aggarwal Sweets", "city": "Pankha Rd", "phone": "09990009799", "website": "https://arihantsoftbusy.com/", "rating": 4.4, "review_count": "", "latitude": 28.6080796, "longitude": 77.1031457, "maps_url": "https://www.google.com/maps/place/?q=place_id:0x390d1caa0c34e6ed:0xb215e72e4664c223"}, {"place_id": "0x390d1dc539fc39dd:0xa8d421a9d22cb256", "name": "India best website development company", "category": "Software company", "street": "RZ74, RZ Rd", "city": "Hans Park, Block RZ, Sagarpur East, Sagar Pur", "phone": "", "website": "https://techbuddy31.co.in/", "rating": 5, "review_count": "", "latitude": 28.6054396, "longitude": 77.1082699, "maps_url": "https://www.google.com/maps/place/?q=place_id:0x390d1dc539fc39dd:0xa8d421a9d22cb256"}, {"place_id": "0x390d1b583309b06d:0x8cd559a80b27e3c1", "name": "SMALL BUSINESS SOLUTION", "category": "Manufacturer", "street": "Rz-40", "city": "Indra Park, Uttam Nagar, Sagarpur East, Palam", "phone": "08037401697", "website": "https://www.sbscompany.in/", "rating": 4.8, "review_count": "", "latitude": 28.599674, "longitude": 77.0997848, "maps_url": "https://www.google.com/maps/place/?q=place_id:0x390d1b583309b06d:0x8cd559a80b27e3c1"}, {"place_id": "0x390d1cac6aaaaaab:0x20e09e6dc5902ba9", "name": "Lumineux Informatik Technologies", "category": "Software company", "street": "Ground Floor shop", "city": "wz 227", "phone": "+17073482990", "website": "http://lumineuxinformatik.com/", "rating": 5, "review_count": "", "latitude": 28.6087477, "longitude": 77.1096829, "maps_url": "https://www.google.com/maps/place/?q=place_id:0x390d1cac6aaaaaab:0x20e09e6dc5902ba9"}, {"place_id": "0x390d1b57098abd71:0xde47fbeee7fa8175", "name": "GeoDrone Solutions Private Limited", "category": "Corporate office", "street": "Rz-24/25 D-289", "city": "Geetanjali Park, West Sagarpur, Sagar Pur", "phone": "08851409728", "website": "https://geodronesolutions.in/", "rating": 4.9, "review_count": "", "latitude": 28.6024599, "longitude": 77.099564, "maps_url": "https://www.google.com/maps/place/?q=place_id:0x390d1b57098abd71:0xde47fbeee7fa8175"}, {"place_id": "0x390d054d244ad30f:0x3784c74184b34eda", "name": "Triyuga Soft Tech Pvt Ltd | IT Company in Delhi | Digital Marketing Company | Web Development Company", "category": "Software company", "street": "Wz-245/5d 1st Floor Main Najafgarh Road", "city": "West", "phone": "09267954524", "website": "https://www.triyugasofttech.com/", "rating": 4.4, "review_count": "", "latitude": 28.623697399999998, "longitude": 77.06208649999999, "maps_url": "https://www.google.com/maps/place/?q=place_id:0x390d054d244ad30f:0x3784c74184b34eda"}, {"place_id": "0x390d013ca8ac1387:0x8a0db85b518267d5", "name": "NexGen Innovators", "category": "Software company", "street": "114B, 3rd floor, Dwarka Mor", "city": "New Delhi, Delhi 110059", "phone": "", "website": "https://www.nexgi.com/", "rating": 4.9, "review_count": "", "latitude": 28.618961, "longitude": 77.0322202, "maps_url": "https://www.google.com/maps/place/?q=place_id:0x390d013ca8ac1387:0x8a0db85b518267d5"}, {"place_id": "0x390d1b2adb5d443b:0xc02ec251a9ac224c", "name": "Kliff Technologies - Software Development & Website Development | Mobile App Development & Digital Marketing Company in Delhi", "category": "Website designer", "street": "1st Floor", "city": "RZ- A1, Pankha Rd", "phone": "09555608051", "website": "https://klifftechnologies.in/", "rating": 4.5, "review_count": "", "latitude": 28.6125735, "longitude": 77.08737169999999, "maps_url": "https://www.google.com/maps/place/?q=place_id:0x390d1b2adb5d443b:0xc02ec251a9ac224c"}, {"place_id": "0x390d1b1ee9b7244f:0x94de2ceb0a1199eb", "name": "PNH Infotech Digital Marketing", "category": "Software company", "street": "SHOP NO-10", "city": "RZ-17, Street Number 5", "phone": "07982414307", "website": "http://www.pnhinfotech.com/", "rating": 5, "review_count": "", "latitude": 28.608214999999998, "longitude": 77.0926496, "maps_url": "https://www.google.com/maps/place/?q=place_id:0x390d1b1ee9b7244f:0x94de2ceb0a1199eb"}, {"place_id": "0x23fcf0d8b93f2fb7:0x745a018d0f07c925", "name": "Anshwar Tech Solutions", "category": "Software company", "street": "A-19 Chanakya Place", "city": "near Mata Chanan Devi Hospital", "phone": "", "website": "https://anshwartech.com/", "rating": 5, "review_count": "", "latitude": 28.6185697, "longitude": 77.0781253, "maps_url": "https://www.google.com/maps/place/?q=place_id:0x23fcf0d8b93f2fb7:0x745a018d0f07c925"}, {"place_id": "0x390d1b0ad6565c37:0x9ee772d45ffed70d", "name": "IOTtech Softwares", "category": "Software company", "street": "First & Second Floor", "city": "Lucky Plaza", "phone": "08034798583", "website": "", "rating": 4.9, "review_count": "", "latitude": 28.5847981, "longitude": 77.07323199999999, "maps_url": "https://www.google.com/maps/place/?q=place_id:0x390d1b0ad6565c37:0x9ee772d45ffed70d"}, {"place_id": "0x390d1b4d9daf36d3:0x3508a42e6d7e9ecc", "name": "XiLiR Technologies - Engineering Projects | Training", "category": "Software company", "street": "RZ-C-82, Gali Number 9", "city": "near Virat Mobile Villa", "phone": "09810326343", "website": "https://xilirprojects.com/", "rating": 4.7, "review_count": "", "latitude": 28.6082073, "longitude": 77.0899245, "maps_url": "https://www.google.com/maps/place/?q=place_id:0x390d1b4d9daf36d3:0x3508a42e6d7e9ecc"}, {"place_id": "0x390d05f8ccacc973:0x96e03b9c34745e2", "name": "DDT SOFTWARE & ECOMM PVT LTD", "category": "Software company", "street": "331-B", "city": "C4B/331", "phone": "09810944806", "website": "https://toponsearch.com/", "rating": 4.4, "review_count": "", "latitude": 28.618974899999998, "longitude": 77.0913518, "maps_url": "https://www.google.com/maps/place/?q=place_id:0x390d05f8ccacc973:0x96e03b9c34745e2"}, {"place_id": "0x390d1b400a44a6b9:0x16b34bde95380182", "name": "Deliver Future Technologies (Graphics, Websites, apps, hosting & One destination - Complete IT solutions )", "category": "Software company", "street": "Palam Village, Palam", "city": "New Delhi, Delhi, 110045", "phone": "09555534066", "website": "http://www.deliverfuture.com/", "rating": 5, "review_count": "", "latitude": 28.5883981, "longitude": 77.07953789999999, "maps_url": "https://www.google.com/maps/place/?q=place_id:0x390d1b400a44a6b9:0x16b34bde95380182"}, {"place_id": "0x390ce458d0000001:0xf2123bd299ec4501", "name": "IT Company India", "category": "Software company", "street": "D56", "city": "D Block, Sector 10", "phone": "09999244854", "website": "https://www.itcompanyindia.in/", "rating": 4.7, "review_count": "", "latitude": 28.589917699999997, "longitude": 77.3351153, "maps_url": "https://www.google.com/maps/place/?q=place_id:0x390ce458d0000001:0xf2123bd299ec4501"}, {"place_id": "0x390d1b00fbc0002b:0x429f8226592d3a81", "name": "Sovnex IT Solution (OPC) Private Limited - Website Design / Digital marketing agency in Dwarka, Delhi Ncr", "category": "Computer support and services", "street": "No 83", "city": "RZ-H-1/3,KH No.19/1 , Bangali colony Killa", "phone": "07999628888", "website": "https://www.sovnexitsolutions.com/", "rating": 4.8, "review_count": "", "latitude": 28.5980323, "longitude": 77.07948809999999, "maps_url": "https://www.google.com/maps/place/?q=place_id:0x390d1b00fbc0002b:0x429f8226592d3a81"}, {"place_id": "0x390d1b1fb85c71ed:0x1aa4ba2a08b02c1d", "name": "Tecmicra Solutions - Software, Website Development & Digital Marketing Company", "category": "Software company", "street": "Floor, D410", "city": "3rd", "phone": "07042387253", "website": "https://tecmicra.co.in/", "rating": 5, "review_count": "", "latitude": 28.5849324, "longitude": 77.071085, "maps_url": "https://www.google.com/maps/place/?q=place_id:0x390d1b1fb85c71ed:0x1aa4ba2a08b02c1d"}, {"place_id": "0x390ce54a2ffa7a35:0xbc45f708bc311be9", "name": "MLM Software Company in Delhi | MLM Software Development Company in Delhi | India - SOFTKWIT", "category": "Software company", "street": "801B", "city": "Janakpuri District Center, Janakpuri", "phone": "08882925582", "website": "https://softkwit.in/mlm-software.php", "rating": 5, "review_count": "", "latitude": 28.630030599999998, "longitude": 77.0809543, "maps_url": "https://www.google.com/maps/place/?q=place_id:0x390ce54a2ffa7a35:0xbc45f708bc311be9"}, {"place_id": "0x390d1bf1824d8755:0xdfe806c92faa9e7d", "name": "Trust-VA Business Solutions Pvt. Ltd.", "category": "Business management consultant", "street": "RZ-188, Durga Park", "city": "Main, Nasirpur Rd", "phone": "09540740871", "website": "https://trustva-business.grexa.site/", "rating": 4.6, "review_count": "", "latitude": 28.6037926, "longitude": 77.0904182, "maps_url": "https://www.google.com/maps/place/?q=place_id:0x390d1bf1824d8755:0xdfe806c92faa9e7d"}, {"place_id": "0x390d053af4b9fae1:0xa955718786ea4c90", "name": "Efficient IT & Electronic Services Private Limited", "category": "Software company", "street": "1st floor", "city": "VV Plaza building", "phone": "08750042191", "website": "http://www.efficientindia.com/", "rating": 4.4, "review_count": "", "latitude": 28.6100702, "longitude": 77.03385709999999, "maps_url": "https://www.google.com/maps/place/?q=place_id:0x390d053af4b9fae1:0xa955718786ea4c90"}, {"place_id": "0x390d03adaef37299:0xd8b343093deaee7", "name": "Ruminate IT Solution | Best software company in Delhi NCR | IT Software company", "category": "Software company", "street": "C-64", "city": "Pocket B, Hari Nagar", "phone": "09625650376", "website": "https://www.ruminateitsolution.com/", "rating": 5, "review_count": "", "latitude": 28.628819, "longitude": 77.10428399999999, "maps_url": "https://www.google.com/maps/place/?q=place_id:0x390d03adaef37299:0xd8b343093deaee7"}, {"place_id": "0x390d1b56cb173bd9:0x818bf2fa36e3d6a8", "name": "Travinto Technologies", "category": "Software company", "street": "RZ 49C, Gali No. 8A", "city": "Vashist Park, Sagar Pur", "phone": "", "website": "https://travinto.com/", "rating": 5, "review_count": "", "latitude": 28.608297999999998, "longitude": 77.1017762, "maps_url": "https://www.google.com/maps/place/?q=place_id:0x390d1b56cb173bd9:0x818bf2fa36e3d6a8"}, {"place_id": "0x390d04bf088b2c4f:0xcc9a31cf894c766a", "name": "SHIVA INFOTECH INNOVATIONS PVT. LTD.", "category": "Software company", "street": "DDA Tower 2", "city": "604", "phone": "09818583822", "website": "https://www.shivainfotech.com/", "rating": 4.1, "review_count": "", "latitude": 28.630048, "longitude": 77.08113399999999, "maps_url": "https://www.google.com/maps/place/?q=place_id:0x390d04bf088b2c4f:0xcc9a31cf894c766a"}, {"place_id": "0x390d0515f8fce8b7:0x504f047d457a439", "name": "Dynamics Monk Pvt Ltd", "category": "Software company", "street": "3rd Floor", "city": "C 62", "phone": "08826670295", "website": "http://dynamicsmonk.com/", "rating": 4.7, "review_count": "", "latitude": 28.6112079, "longitude": 77.09458289999999, "maps_url": "https://www.google.com/maps/place/?q=place_id:0x390d0515f8fce8b7:0x504f047d457a439"}, {"place_id": "0x390d1bf076ad40a5:0x6e54f7930154b26d", "name": "pNthaan: Technologies - Digital Marketing Company in Delhi - Social Media Marketing", "category": "Software company", "street": "D2/15, Dabri - Palam Rd", "city": "Vinod Puri, Block B 3, Vijay Enclave, Mahavir Enclave", "phone": "09810455309", "website": "https://pnthaan.com/", "rating": 4.9, "review_count": "", "latitude": 28.602663399999997, "longitude": 77.0801891, "maps_url": "https://www.google.com/maps/place/?q=place_id:0x390d1bf076ad40a5:0x6e54f7930154b26d"}, {"place_id": "0x390d1da73a24973f:0xfcbd561b3e6e5b0b", "name": "Adsource IT Solutions", "category": "Software company", "street": "Metro Pilllar, metro station", "city": "Dwarka More", "phone": "", "website": "https://www.adsourceitsolutions.com/", "rating": 5, "review_count": "", "latitude": 28.619874, "longitude": 77.0310854, "maps_url": "https://www.google.com/maps/place/?q=place_id:0x390d1da73a24973f:0xfcbd561b3e6e5b0b"}, {"place_id": "0x8be65278a5572b07:0x413ba8eb2bfa0ea6", "name": "Webcorewin Business Solution LLP | Top Website & Software Development Company in Delhi NCR", "category": "Software company", "street": "Metro Pillar Number 571", "city": "Second Floor", "phone": "09811382167", "website": "https://www.webcorewin.com/", "rating": 5, "review_count": "", "latitude": 28.6314446, "longitude": 77.0831694, "maps_url": "https://www.google.com/maps/place/?q=place_id:0x8be65278a5572b07:0x413ba8eb2bfa0ea6"}, {"place_id": "0x390d035344262075:0xab6421d650785168", "name": "Bytecure Enterprises", "category": "Computer Hardware Company", "street": "H.no 674, FOUR STOREY FLATS", "city": "gate no4", "phone": "", "website": "https://bytecure-enterprises.grexa.site/", "rating": 4.9, "review_count": "", "latitude": 28.6491583, "longitude": 77.1156391, "maps_url": "https://www.google.com/maps/place/?q=place_id:0x390d035344262075:0xab6421d650785168"}, {"place_id": "0x390d049f5674e4b5:0xd958160a9013b45e", "name": "BI InfoTech Pvt Ltd", "category": "Software company", "street": "12/4, Jail Rd", "city": "Prem Nagar, Janakpuri", "phone": "08766248464", "website": "https://www.biinfotech.com/", "rating": 4.5, "review_count": "", "latitude": 28.6357547, "longitude": 77.0950907, "maps_url": "https://www.google.com/maps/place/?q=place_id:0x390d049f5674e4b5:0xd958160a9013b45e"}, {"place_id": "0x390d1b7e5cc7bdd5:0x92aae627ccbc30f8", "name": "Porter Packers and Movers South West Delhi", "category": "Packaging company", "street": "No. NJF J508, New Pole", "city": "Near Pole No. 508, F/F Front Side", "phone": "02269604445", "website": "https://porter.in/packers-and-movers/delhi?utm_source=gmb&utm_medium=organic&utm_campaign=south-west-delhi", "rating": 4.8, "review_count": "", "latitude": 28.601217899999998, "longitude": 77.0989963, "maps_url": "https://www.google.com/maps/place/?q=place_id:0x390d1b7e5cc7bdd5:0x92aae627ccbc30f8"}, {"place_id": "0x390d1df0721e08c5:0x49d5fd4648a33c2d", "name": "Nibble Software | Website Design & Development | Travel Web API & CRM | SEO, SMO, Paid Ads, Amazon & Flipkart Marketing", "category": "Website designer", "street": "4th Floor", "city": "Moolchand Tower", "phone": "09971066697", "website": "https://www.nibblesoftware.com/", "rating": 4.8, "review_count": "", "latitude": 28.6000862, "longitude": 77.0818018, "maps_url": "https://www.google.com/maps/place/?q=place_id:0x390d1df0721e08c5:0x49d5fd4648a33c2d"}, {"place_id": "0x390d1b50e67438b9:0x49b99ff528b7483e", "name": "Spinfosys", "category": "Computer Rental Agency", "street": "Number 4 j", "city": "RZ 30/209, Gali", "phone": "08527262821", "website": "http://spinfosys.net/", "rating": 5, "review_count": "", "latitude": 28.602419899999997, "longitude": 77.0949526, "maps_url": "https://www.google.com/maps/place/?q=place_id:0x390d1b50e67438b9:0x49b99ff528b7483e"}, {"place_id": "0x390d1b52ba6d9599:0x81da1f69c589ff56", "name": "DELHI SBS COMPANY", "category": "Industrial equipment supplier", "street": "M/S -SMALL BUSINESS SOLUTION RZ1,Ground Floor, RZ, Street", "city": "No.17, Pankha Rd", "phone": "09555040777", "website": "https://www.sbscompany.in/", "rating": 4.7, "review_count": "", "latitude": 28.6106923, "longitude": 77.09228499999999, "maps_url": "https://www.google.com/maps/place/?q=place_id:0x390d1b52ba6d9599:0x81da1f69c589ff56"}, {"place_id": "0x390d1b4653b9a801:0x86f5689aae957554", "name": "eWeblink Technology - Web Design & Development Company in Delhi", "category": "Software company", "street": "2nd floor", "city": "A2, Dabri - Palam Rd", "phone": "09015858565", "website": "https://eweblink.net/", "rating": 4.1, "review_count": "", "latitude": 28.6000421, "longitude": 77.08201629999999, "maps_url": "https://www.google.com/maps/place/?q=place_id:0x390d1b4653b9a801:0x86f5689aae957554"}, {"place_id": "0x390d05cd2ace8d53:0xf82774e10e1ff47c", "name": "Quicky Technologies", "category": "Software company", "street": "3rd Floor", "city": "C-85, Rama Park Rd", "phone": "09899550472", "website": "https://www.quickytechnologies.com/", "rating": 5, "review_count": "", "latitude": 28.622149999999998, "longitude": 77.03673069999999, "maps_url": "https://www.google.com/maps/place/?q=place_id:0x390d05cd2ace8d53:0xf82774e10e1ff47c"}, {"place_id": "0x390d1baaff346a7b:0x1b774913c94bd822", "name": "Ontech Digital Technologies Pvt. Ltd.", "category": "Website designer", "street": "3rd floor", "city": "Shyam Kunj Tower", "phone": "08802377021", "website": "https://ontechdigital.com/", "rating": 5, "review_count": "", "latitude": 28.5994429, "longitude": 77.0819152, "maps_url": "https://www.google.com/maps/place/?q=place_id:0x390d1baaff346a7b:0x1b774913c94bd822"}, {"place_id": "0x390d1b44dac29e85:0xd19c8cf2057c43e8", "name": "AVC Dotfy LLP", "category": "Software company", "street": "C-157, Janak Cinema Community Center Janakpuri Janak Cinema Community Center", "city": "110056", "phone": "09821830895", "website": "https://dotfy.in/", "rating": 4.7, "review_count": "", "latitude": 28.6114547, "longitude": 77.0945327, "maps_url": "https://www.google.com/maps/place/?q=place_id:0x390d1b44dac29e85:0xd19c8cf2057c43e8"}, {"place_id": "0x390d1b8920a6b399:0x435a5eaf10102a30", "name": "Next Media Marketing | Digital Marketing Services", "category": "Marketing agency", "street": "rz", "city": "299", "phone": "09310118235", "website": "https://nextmediamarketing.com/", "rating": 5, "review_count": "", "latitude": 28.602594, "longitude": 77.0985694, "maps_url": "https://www.google.com/maps/place/?q=place_id:0x390d1b8920a6b399:0x435a5eaf10102a30"}, {"place_id": "0x390d058eebd4e349:0xe3540cff21ac1db4", "name": "Matrix Infotech Solution | Software Development Company in Delhi", "category": "Software company", "street": "3rd floor, Besmate Indian Bank, housing complex", "city": "Main Market", "phone": "08920817059", "website": "https://www.matrixinfotechsolution.com/", "rating": 5, "review_count": "", "latitude": 28.6165375, "longitude": 77.0282521, "maps_url": "https://www.google.com/maps/place/?q=place_id:0x390d058eebd4e349:0xe3540cff21ac1db4"}, {"place_id": "0x390d057a964f6fd7:0xee9473a3a884e657", "name": "Weblytics Infotech - Crm Software Company Delhi, ERP Software Company in Delhi, MLM Software Company in Delhi", "category": "Software company", "street": "E, 40", "city": "Shiv Vihar Rd", "phone": "07291827082", "website": "https://www.weblyticsinfotech.com/crm-software-in-delhi.php", "rating": 4.9, "review_count": "", "latitude": 28.643033799999998, "longitude": 77.05317409999999, "maps_url": "https://www.google.com/maps/place/?q=place_id:0x390d057a964f6fd7:0xee9473a3a884e657"}, {"place_id": "0x390d1b62358abaad:0xd3b84b17bc079d1d", "name": "GST, TRADEMARK REGISTRATION IN DWARKA - COMPANIFY INDIA PRIVATE LIMITED", "category": "Legal services", "street": "RZG-5, 2nd Floor, Sood Plaza Main Palam Dabri Road, Mahavir Enclave", "city": "above IndusInd Bank", "phone": "07827298043", "website": "https://www.companify.in/", "rating": 4.9, "review_count": "", "latitude": 28.5997466, "longitude": 77.0817431, "maps_url": "https://www.google.com/maps/place/?q=place_id:0x390d1b62358abaad:0xd3b84b17bc079d1d"}, {"place_id": "0x390d1b3f00d047f7:0x9b0acbc6decfed67", "name": "VBage Tech", "category": "Software company", "street": "WZ-330", "city": "Palam Village, Palam", "phone": "08383889042", "website": "https://www.vbagetech.com/", "rating": 4.5, "review_count": "", "latitude": 28.589986099999997, "longitude": 77.0768539, "maps_url": "https://www.google.com/maps/place/?q=place_id:0x390d1b3f00d047f7:0x9b0acbc6decfed67"}, {"place_id": "0x390d1b53aa5ab949:0x6853968a859e597d", "name": "RIA LifeSciences Private Limited", "category": "Pharmaceutical company", "street": "C-5/9", "city": "Block E, Vashist Park, Dabri", "phone": "09210429291", "website": "http://www.rialifesciences.com/", "rating": 4.8, "review_count": "", "latitude": 28.6084158, "longitude": 77.0941244, "maps_url": "https://www.google.com/maps/place/?q=place_id:0x390d1b53aa5ab949:0x6853968a859e597d"}, {"place_id": "0x390d1b566022cdb1:0x6db04506e3dcc0bc", "name": "Abro&sis", "category": "Website designer", "street": "Rz.47/271", "city": "Hans Park West Sagarpur, Block C, West Sagarpur, Sagar Pur", "phone": "", "website": "http://www.abroandsis.com/", "rating": 5, "review_count": "", "latitude": 28.6050136, "longitude": 77.099657, "maps_url": "https://www.google.com/maps/place/?q=place_id:0x390d1b566022cdb1:0x6db04506e3dcc0bc"}, {"place_id": "0x390d05713cbc05f9:0x29ec332097ea9861", "name": "Bluebyte It Solutions", "category": "Software company", "street": "MS-83", "city": "Block MS, Mohan Garden, Uttam Nagar", "phone": "08178838292", "website": "https://www.bluebyteitsolutions.com/", "rating": 5, "review_count": "", "latitude": 28.6289797, "longitude": 77.0335781, "maps_url": "https://www.google.com/maps/place/?q=place_id:0x390d05713cbc05f9:0x29ec332097ea9861"}, {"place_id": "0x390d1b7cb3a1da65:0x5bb8f7f35f51e41a", "name": "Mpapnai Accountix", "category": "Accounting firm", "street": "First floor, P Block", "city": "Plot no . RZ-366/9", "phone": "08178061279", "website": "https://www.mpaccountix.in/", "rating": 5, "review_count": "", "latitude": 28.6042985, "longitude": 77.09549109999999, "maps_url": "https://www.google.com/maps/place/?q=place_id:0x390d1b7cb3a1da65:0x5bb8f7f35f51e41a"}, {"place_id": "0x390d1baee10f580d:0x7093a5ac2b8db7f6", "name": "Spicon Solution | camera installation service", "category": "Security system installation service", "street": "Rz- 225A Gali no. 14A/5", "city": "Jagdamba Vihar, Sadh Nagar, Palam", "phone": "07520109955", "website": "https://spiconsolution.in/", "rating": 5, "review_count": "", "latitude": 28.6019705, "longitude": 77.0947771, "maps_url": "https://www.google.com/maps/place/?q=place_id:0x390d1baee10f580d:0x7093a5ac2b8db7f6"}, {"place_id": "0x390d04c87e7a7a95:0x1753a9da6f2f2657", "name": "Paper Recycling Company - Green-O-Tech India\u2122", "category": "Waste management service", "street": "169, Group Floor, Landmark Shakuntala school of nursing", "city": "Block RZ", "phone": "07840024848", "website": "http://greenotechindia.com/", "rating": 4.5, "review_count": "", "latitude": 28.6087419, "longitude": 77.0904177, "maps_url": "https://www.google.com/maps/place/?q=place_id:0x390d04c87e7a7a95:0x1753a9da6f2f2657"}, {"place_id": "0x390d05713cbc05f9:0x29ec332097ea9861", "name": "Bluebyte It Solutions", "category": "Software company", "street": "MS-83", "city": "Block MS, Mohan Garden, Uttam Nagar", "phone": "08178838292", "website": "https://www.bluebyteitsolutions.com/", "rating": 5, "review_count": "", "latitude": 28.6289797, "longitude": 77.0335781, "maps_url": "https://www.google.com/maps/place/?q=place_id:0x390d05713cbc05f9:0x29ec332097ea9861"}, {"place_id": "0x390d1b7cb3a1da65:0x5bb8f7f35f51e41a", "name": "Mpapnai Accountix", "category": "Accounting firm", "street": "First floor, P Block", "city": "Plot no . RZ-366/9", "phone": "08178061279", "website": "https://www.mpaccountix.in/", "rating": 5, "review_count": "", "latitude": 28.6042985, "longitude": 77.09549109999999, "maps_url": "https://www.google.com/maps/place/?q=place_id:0x390d1b7cb3a1da65:0x5bb8f7f35f51e41a"}, {"place_id": "0x390d05ffcbc13a15:0x69fafe9d7a3479ee", "name": "Qinexa Technologies - E-commerce Website Development & Designing Company, Digital Marketing, Customized CRM &Software Company", "category": "Software company", "street": "Second Floor", "city": "Plot 10B", "phone": "08076548635", "website": "https://www.qinexa.in/", "rating": 5, "review_count": "", "latitude": 28.6205172, "longitude": 77.0771046, "maps_url": "https://www.google.com/maps/place/?q=place_id:0x390d05ffcbc13a15:0x69fafe9d7a3479ee"}, {"place_id": "0x390d1baee10f580d:0x7093a5ac2b8db7f6", "name": "Spicon Solution | camera installation service", "category": "Security system installation service", "street": "Rz- 225A Gali no. 14A/5", "city": "Jagdamba Vihar, Sadh Nagar, Palam", "phone": "07520109955", "website": "https://spiconsolution.in/", "rating": 5, "review_count": "", "latitude": 28.6019705, "longitude": 77.0947771, "maps_url": "https://www.google.com/maps/place/?q=place_id:0x390d1baee10f580d:0x7093a5ac2b8db7f6"}, {"place_id": "0x390d1b2440000001:0x7b52a88f21fc0d82", "name": "DesignDot Technologies | #1 Best Website & App Development | Top Software & AIML Solutions Company in Delhi", "category": "Software company", "street": "RZ 1/13, 3RD FLOOR, Main Road Above HDFC Bank, Dwarka, Near Palam Metro Gate 2", "city": "New Delhi, Delhi 110077", "phone": "09999652812", "website": "https://www.designdot.co.in/", "rating": 5, "review_count": "", "latitude": 28.587238199999998, "longitude": 77.0850727, "maps_url": "https://www.google.com/maps/place/?q=place_id:0x390d1b2440000001:0x7b52a88f21fc0d82"}, {"place_id": "0x390d04c87e7a7a95:0x1753a9da6f2f2657", "name": "Paper Recycling Company - Green-O-Tech India\u2122", "category": "Waste management service", "street": "169, Group Floor, Landmark Shakuntala school of nursing", "city": "Block RZ", "phone": "07840024848", "website": "http://greenotechindia.com/", "rating": 4.5, "review_count": "", "latitude": 28.6087419, "longitude": 77.0904177, "maps_url": "https://www.google.com/maps/place/?q=place_id:0x390d04c87e7a7a95:0x1753a9da6f2f2657"}, {"place_id": "0x390d1bf0fb95bd17:0x81bb5023cd10b655", "name": "SHINE AND STANDARD SERVICES PVT. LTD.", "category": "Cleaning Services", "street": "1, Gali No. 11c", "city": "Kailash Puri, EXT", "phone": "", "website": "", "rating": 4.3, "review_count": "", "latitude": 28.598226099999998, "longitude": 77.0946841, "maps_url": "https://www.google.com/maps/place/?q=place_id:0x390d1bf0fb95bd17:0x81bb5023cd10b655"}, {"place_id": "0x390d05e68242455f:0x9b1613eeace980ae", "name": "Autus Cyber Tech Private Limited - Manufacturing ERP Software", "category": "Software company", "street": "BLOCK-1", "city": "1/10", "phone": "07428824488", "website": "https://www.autuscybertech.com/", "rating": 4.9, "review_count": "", "latitude": 28.6360443, "longitude": 77.09286809999999, "maps_url": "https://www.google.com/maps/place/?q=place_id:0x390d05e68242455f:0x9b1613eeace980ae"}, {"place_id": "0x390d1befe9410bd7:0xf1a86a0df6fd7831", "name": "Web Plus Era - Best Website Designing & Development Company In Dwarka, Delhi, Digital Marketing Agency In Delhi", "category": "Website designer", "street": "RZF 563/15E", "city": "Gali Number 23", "phone": "07982555920", "website": "https://webplusera.com/", "rating": 4.8, "review_count": "", "latitude": 28.5949778, "longitude": 77.091481, "maps_url": "https://www.google.com/maps/place/?q=place_id:0x390d1befe9410bd7:0xf1a86a0df6fd7831"}, {"place_id": "0x390d1bfc85e10333:0x5135d0d2d685ea5d", "name": "Majestix Web-Best Website Designing Company in Delhi, India | Ecommerce Website Development Company in Delhi, India | SEO Company in Delhi, India", "category": "Website designer", "street": "H3XW+RQW", "city": "Street Number 6C", "phone": "", "website": "", "rating": 4.3, "review_count": "", "latitude": 28.599604099999997, "longitude": 77.0969598, "maps_url": "https://www.google.com/maps/place/?q=place_id:0x390d1bfc85e10333:0x5135d0d2d685ea5d"}, {"place_id": "0x390d05c8987801e5:0x128e04dce6c4cbc4", "name": "Matrix Infotech Solution | Software Development Company", "category": "Software company", "street": "j j", "city": "Dwarka Mor, Block WE, Mohan Garden, Razapur Khurd", "phone": "08920817059", "website": "http://www.matrixinfotechsolution.com/", "rating": 3.9, "review_count": "", "latitude": 28.637037, "longitude": 77.0291258, "maps_url": "https://www.google.com/maps/place/?q=place_id:0x390d05c8987801e5:0x128e04dce6c4cbc4"}, {"place_id": "0x390d04d2f6575abb:0xd5553781913e9a53", "name": "Espial Infotech", "category": "Software company", "street": "Uttam Vihar, Block B, Uttam Nagar, Bindapur", "city": "Delhi, 110059", "phone": "", "website": "http://espial.in/", "rating": 5, "review_count": "", "latitude": 28.611546399999998, "longitude": 77.06602269999999, "maps_url": "https://www.google.com/maps/place/?q=place_id:0x390d04d2f6575abb:0xd5553781913e9a53"}, {"place_id": "0x390d1b3b9bfb7095:0x9671740b950cd6b0", "name": "I AM UR TEACHER - Digital Marketing Agency", "category": "Website designer", "street": "RZ-70/234", "city": "Dayal Park, West Sagarpur, Sagar Pur", "phone": "07011204957", "website": "https://iamurteacher.in/?utm_source=Google+My+Business&utm_medium=Website", "rating": 4.9, "review_count": "", "latitude": 28.6047777, "longitude": 77.0959709, "maps_url": "https://www.google.com/maps/place/?q=place_id:0x390d1b3b9bfb7095:0x9671740b950cd6b0"}, {"place_id": "0x20616dbf813c03ef:0xc8fd1ca47f902e9e", "name": "Bloatware IT Software Company | website Designing Company | Software Company | MLM |CRM | Android Apps", "category": "Software company", "street": "C1", "city": "Rama Park", "phone": "08920750797", "website": "https://bloatwareitsolutions.com/", "rating": 4.5, "review_count": "", "latitude": 28.621265599999997, "longitude": 77.0324943, "maps_url": "https://www.google.com/maps/place/?q=place_id:0x20616dbf813c03ef:0xc8fd1ca47f902e9e"}, {"place_id": "0x390d1b83492b4005:0x5a551ac20e2b2b9", "name": "Lakshaya Computers Institute.-Best Computer Institute In Dabri Mor-Best Computer Institute In Sagarpur- Mahaveer Enclave", "category": "Software Training Institute", "street": "metro station Gate", "city": "RZ-1,2, Sitapuri Main Pankha Road", "phone": "09354363644", "website": "https://lakshayainstitute.com/", "rating": 4.9, "review_count": "", "latitude": 28.605328, "longitude": 77.0919849, "maps_url": "https://www.google.com/maps/place/?q=place_id:0x390d1b83492b4005:0x5a551ac20e2b2b9"}, {"place_id": "0x390d1b6807b97c57:0xb6dc40e91d71681f", "name": "Algo2bots Infotech", "category": "Software company", "street": "WZ-291, Street Number 8", "city": "Sadh Nagar I, Sadh Nagar, Palam", "phone": "09911447760", "website": "http://algo2botsinfotech.com/", "rating": 5, "review_count": "", "latitude": 28.587672599999998, "longitude": 77.09199129999999, "maps_url": "https://www.google.com/maps/place/?q=place_id:0x390d1b6807b97c57:0xb6dc40e91d71681f"}, {"place_id": "0x390d1bf7fa5068b9:0x8cb1c09d67ea80a2", "name": "Lucky Verma", "category": "Website designer", "street": "Rz t/33a", "city": "Dayal Park, West Sagarpur, Sagar Pur", "phone": "08800258060", "website": "https://xposerclothes.com/", "rating": 5, "review_count": "", "latitude": 28.6042985, "longitude": 77.09549109999999, "maps_url": "https://www.google.com/maps/place/?q=place_id:0x390d1bf7fa5068b9:0x8cb1c09d67ea80a2"}, {"place_id": "0x390d1bb378fea377:0x6aec5aba720a0b26", "name": "CertHippo Solution Pvt. Ltd.", "category": "Educational testing service", "street": "RZ- 26 P/37", "city": "Gali Number 31A", "phone": "", "website": "https://certhippo.com/", "rating": 4.8, "review_count": "", "latitude": 28.596792299999997, "longitude": 77.0999558, "maps_url": "https://www.google.com/maps/place/?q=place_id:0x390d1bb378fea377:0x6aec5aba720a0b26"}, {"place_id": "0x390d1b33a500bd0b:0x8e5cf47a6885bff5", "name": "A one Solution Air Conditioner- (AC, fridge, PCB, Geyser, washing machine, R.O, LED tv install, uninstall repairing)", "category": "Air conditioning repair service", "street": "RZ- 375/A356", "city": "ShivPuri, West Sagarpur, Sagar Pur", "phone": "07289830250", "website": "https://aoneacsolution.in/", "rating": 4.7, "review_count": "", "latitude": 28.6043035, "longitude": 77.0954823, "maps_url": "https://www.google.com/maps/place/?q=place_id:0x390d1b33a500bd0b:0x8e5cf47a6885bff5"}, {"place_id": "0x390d1beab5f939a5:0xd07351c1e71e3065", "name": "WEBSITE DESIGNING COMPANY IN DELHI Nipl", "category": "Software company", "street": "j block", "city": "Rz 92/211, Gali No. 8", "phone": "09136336466", "website": "", "rating": "", "review_count": "", "latitude": 28.601472899999997, "longitude": 77.0896984, "maps_url": "https://www.google.com/maps/place/?q=place_id:0x390d1beab5f939a5:0xd07351c1e71e3065"}, {"place_id": "0x390d036a16f841d9:0x9b91311b1453f4c0", "name": "Zon Tec Solutions", "category": "Software company", "street": "3rd Floor", "city": "302 - 302 A, West", "phone": "09599902185", "website": "https://zontecsolutions.com/", "rating": 4.1, "review_count": "", "latitude": 28.6382303, "longitude": 77.1205162, "maps_url": "https://www.google.com/maps/place/?q=place_id:0x390d036a16f841d9:0x9b91311b1453f4c0"}, {"place_id": "0x390d1b192bced173:0xafadcd644d15a14c", "name": "Radhika Elevator solutions", "category": "Elevator Manufacturer", "street": "Plot no 3 Ff kh. No 825/394 Street no:-10 shivpuri", "city": "West Sagarpur", "phone": "09211740456", "website": "http://www.radhikaelevatorsolutions.com/", "rating": 4.9, "review_count": "", "latitude": 28.601271399999998, "longitude": 77.0950112, "maps_url": "https://www.google.com/maps/place/?q=place_id:0x390d1b192bced173:0xafadcd644d15a14c"}, {"place_id": "0x390d05d445f3b1f9:0x7e3d03d10ec5ca89", "name": "Softlab Systems", "category": "Software company", "street": "C4F/208", "city": "Block C4A, Block C4F, Janakpuri", "phone": "09811128799", "website": "http://www.softlabsys.com/", "rating": 4.6, "review_count": "", "latitude": 28.6171388, "longitude": 77.09032979999999, "maps_url": "https://www.google.com/maps/place/?q=place_id:0x390d05d445f3b1f9:0x7e3d03d10ec5ca89"}, {"place_id": "0x390d050d9e7ce6a3:0xa72607a5a8be6510", "name": "Shri Sai Tech Solutions", "category": "Software company", "street": "Pillar number 783", "city": "Metro Station Dwarka Mor A-109, Street No. 4", "phone": "07210868167", "website": "https://shrisaitechsolutions.com/", "rating": 4.3, "review_count": "", "latitude": 28.6189075, "longitude": 77.0333678, "maps_url": "https://www.google.com/maps/place/?q=place_id:0x390d050d9e7ce6a3:0xa72607a5a8be6510"}, {"place_id": "0x4cb4b55e45a08d4b:0x789ded35721a0d10", "name": "Ristlat | Best Website development Company in Delhi", "category": "Website designer", "street": "Rz 26p/22", "city": "Indra Park, Indira Park, Palam", "phone": "", "website": "https://ristlat.com/", "rating": 4.9, "review_count": "", "latitude": 28.595932599999998, "longitude": 77.0986175, "maps_url": "https://www.google.com/maps/place/?q=place_id:0x4cb4b55e45a08d4b:0x789ded35721a0d10"}, {"place_id": "0x390d052a1265bc33:0xd1f77384fcc24135", "name": "Grace Techno | Web Designing Company in Delhi | Web & Software Development Company in Delhi", "category": "Software company", "street": "First Floor", "city": "Building Burger King", "phone": "08595273503", "website": "https://gracetechno.online/", "rating": 5, "review_count": "", "latitude": 28.6198245, "longitude": 77.054174, "maps_url": "https://www.google.com/maps/place/?q=place_id:0x390d052a1265bc33:0xd1f77384fcc24135"}, {"place_id": "0x63f628337616df49:0x329cf28374e1676", "name": "Web Trade Solution", "category": "Website designer", "street": "H20", "city": "near Gurudwara", "phone": "08810200550", "website": "https://webtradesolution.com/", "rating": 5, "review_count": "", "latitude": 28.6103117, "longitude": 77.0887935, "maps_url": "https://www.google.com/maps/place/?q=place_id:0x63f628337616df49:0x329cf28374e1676"}, {"place_id": "0x390d1b9fbc1fd765:0x4c94bba93d28eca7", "name": "Ao smith water product Delhi", "category": "Water works", "street": "Geetanjali Park, Block RZ, West Sagarpur, Sagar Pur", "city": "Delhi, 110046", "phone": "09205139729", "website": "http://www.aosmithindia.com/", "rating": 4.3, "review_count": "", "latitude": 28.6040739, "longitude": 77.0979509, "maps_url": "https://www.google.com/maps/place/?q=place_id:0x390d1b9fbc1fd765:0x4c94bba93d28eca7"}, {"place_id": "0x390d05a35d858f43:0xa9ae1085a4b76f", "name": "Web Techmedia - Best Digital Marketing Company | Website Design & Development in Delhi", "category": "Website designer", "street": "402, 4th", "city": "DDA Building", "phone": "09717006531", "website": "https://www.webtechmedia.in/", "rating": 4.4, "review_count": "", "latitude": 28.630287799999998, "longitude": 77.0817637, "maps_url": "https://www.google.com/maps/place/?q=place_id:0x390d05a35d858f43:0xa9ae1085a4b76f"}, {"place_id": "0x390d1bd877ee91bf:0xa4aec410fb083eda", "name": "World Business Mart", "category": "Website designer", "street": "RZH-20, Third Floor Raghu Nager Janakpuri", "city": "Dabri", "phone": "08810200550", "website": "https://www.worldbusinessmart.com/", "rating": 4.9, "review_count": "", "latitude": 28.610171899999997, "longitude": 77.0887163, "maps_url": "https://www.google.com/maps/place/?q=place_id:0x390d1bd877ee91bf:0xa4aec410fb083eda"}, {"place_id": "0x390d04caefab7813:0x5c0ce1119a71f9cd", "name": "Universal Network of Infotech", "category": "Software company", "street": "WZ-61A/8A, Lane No 17, Vashist Park, Pankha Road, Janak Puri Institutional Area", "city": "25 Feet Rd", "phone": "01128526116", "website": "", "rating": "", "review_count": "", "latitude": 28.6125701, "longitude": 77.0776147, "maps_url": "https://www.google.com/maps/place/?q=place_id:0x390d04caefab7813:0x5c0ce1119a71f9cd"}, {"place_id": "0x390d1b41a68d7da3:0xdd38d4e78965213f", "name": "The Stembrand Best Digital Marketing Company in Delhi | Gurgaon | Noida.", "category": "Marketing agency", "street": "R-Z-J-19/262", "city": "Uttam Nagar, West Sagarpur, Sagar Pur", "phone": "09999352988", "website": "http://thestembrand.com/", "rating": 5, "review_count": "", "latitude": 28.6028257, "longitude": 77.1010419, "maps_url": "https://www.google.com/maps/place/?q=place_id:0x390d1b41a68d7da3:0xdd38d4e78965213f"}, {"place_id": "0x390d1b547be471ef:0xead048431b26ef19", "name": "Krishna Labels Inc", "category": "Manufacturer", "street": "81- A, Vashist Park, Pankha Road, Street No. 12, Vashisht Park", "city": "New Delhi, Delhi 110046", "phone": "08700044506", "website": "http://www.tagsandlabel.com/", "rating": 4.9, "review_count": "", "latitude": 28.6086839, "longitude": 77.10108249999999, "maps_url": "https://www.google.com/maps/place/?q=place_id:0x390d1b547be471ef:0xead048431b26ef19"}, {"place_id": "0x390d1b489dcdb0b5:0x5666dda01eb6646c", "name": "Indias Company", "category": "Home goods store", "street": "Rzd 3/203 gali no 9 Mahavir Enclave I, Mahavir Enclave Part 2, Mahavir Enclave", "city": "Nar, Dashrath Puri", "phone": "08299423838", "website": "http://www.gassafetydevice.in/", "rating": 4.7, "review_count": "", "latitude": 28.6002743, "longitude": 77.0832405, "maps_url": "https://www.google.com/maps/place/?q=place_id:0x390d1b489dcdb0b5:0x5666dda01eb6646c"}, {"place_id": "0x390d1b1904a59333:0x5bc3d440b2d052af", "name": "YGS EVENT SOLUTION", "category": "Event management company", "street": "Rz 80, Gali Number 3", "city": "Jagdamba Vihar, West Sagarpur, Sagar Pur", "phone": "09711975204", "website": "http://ygseventsolution.com/", "rating": 5, "review_count": "", "latitude": 28.6025335, "longitude": 77.0960188, "maps_url": "https://www.google.com/maps/place/?q=place_id:0x390d1b1904a59333:0x5bc3d440b2d052af"}, {"place_id": "0x390d1b52731d5d5d:0xc84609fed6906ef1", "name": "First Floppy", "category": "Information services", "street": "D2", "city": "Unit -RZ", "phone": "09130691306", "website": "http://www.firstfloppy.com/", "rating": 4, "review_count": "", "latitude": 28.607127799999997, "longitude": 77.0915179, "maps_url": "https://www.google.com/maps/place/?q=place_id:0x390d1b52731d5d5d:0xc84609fed6906ef1"}, {"place_id": "0x390d04bf1dc56e1d:0xb4e2068a9167a759", "name": "ITindustries.com", "category": "Software company", "street": "Janakpuri District Center, Janakpuri", "city": "New Delhi, Delhi, 110058", "phone": "09810232774", "website": "https://itindustries.com/", "rating": 4.8, "review_count": "", "latitude": 28.629365699999997, "longitude": 77.08019, "maps_url": "https://www.google.com/maps/place/?q=place_id:0x390d04bf1dc56e1d:0xb4e2068a9167a759"}, {"place_id": "0x390d1b1a029da391:0xed51862572367399", "name": "Service hub - All type of electronics machines repairing", "category": "Air conditioning repair service", "street": "B", "city": "Rz-375/356, Gali No. 9", "phone": "07065123035", "website": "https://g.co/kgs/bmdtahC", "rating": 5, "review_count": "", "latitude": 28.6019223, "longitude": 77.09665129999999, "maps_url": "https://www.google.com/maps/place/?q=place_id:0x390d1b1a029da391:0xed51862572367399"}, {"place_id": "0x390d1b80fb9da03d:0xd77ea97dd9a2aa4a", "name": "Nextwebi IT Solutions Pvt Ltd", "category": "Website designer", "street": "45, Street Number 2", "city": "Palam Extension, Sector 7 Dwarka, Dwarka", "phone": "08904240871", "website": "", "rating": 5, "review_count": "", "latitude": 28.5945388, "longitude": 77.0857647, "maps_url": "https://www.google.com/maps/place/?q=place_id:0x390d1b80fb9da03d:0xd77ea97dd9a2aa4a"}, {"place_id": "0x390d1b9c0d78b8e5:0x375c992c9fd49035", "name": "Aarav IT Services", "category": "Computer Hardware Company", "street": "Rz26p/132, Gali", "city": "Indra Park Palam Colony, Kamal Park, Palam", "phone": "", "website": "", "rating": "", "review_count": "", "latitude": 28.5985563, "longitude": 77.09736869999999, "maps_url": "https://www.google.com/maps/place/?q=place_id:0x390d1b9c0d78b8e5:0x375c992c9fd49035"}, {"place_id": "0x390d1ca9c9c90bc5:0xefeda37c868fd4a1", "name": "E.m Solutions Enterprises", "category": "Sewage treatment plant", "street": "13 H, Street No. 5", "city": "West Sagarpur, Block RZA, Main Sagarpur, Sagar Pur", "phone": "09871178642", "website": "", "rating": 5, "review_count": "", "latitude": 28.6043833, "longitude": 77.10383809999999, "maps_url": "https://www.google.com/maps/place/?q=place_id:0x390d1ca9c9c90bc5:0xefeda37c868fd4a1"}, {"place_id": "0x390d1d6d76ed4613:0xb116195b4dd8bd94", "name": "AnyTripForU", "category": "Travel agency", "street": "A, GROUND FLOOR", "city": "WZ 1192, Gali Number 5", "phone": "", "website": "http://anytripforu.com/", "rating": 5, "review_count": "", "latitude": 28.6040739, "longitude": 77.0979509, "maps_url": "https://www.google.com/maps/place/?q=place_id:0x390d1d6d76ed4613:0xb116195b4dd8bd94"}, {"place_id": "0x390d1b4bd65b76cd:0x90f7698222469b25", "name": "Blitz Developers", "category": "Real Estate Builders & Construction Company", "street": "C-3", "city": "RZ-7, Dabri - Palam Rd", "phone": "08595311266", "website": "", "rating": 4.5, "review_count": "", "latitude": 28.604943, "longitude": 77.0827481, "maps_url": "https://www.google.com/maps/place/?q=place_id:0x390d1b4bd65b76cd:0x90f7698222469b25"}, {"place_id": "0x390d03e4b3b5c3a1:0x7dac887432b854cf", "name": "Digilinkers - Best Digital Marketing Agency in Delhi | Website Development", "category": "Website designer", "street": "2nd floor", "city": "Metro Station Gate", "phone": "09818000334", "website": "https://digilinkers.com/", "rating": 4.7, "review_count": "", "latitude": 28.6137274, "longitude": 77.08550269999999, "maps_url": "https://www.google.com/maps/place/?q=place_id:0x390d03e4b3b5c3a1:0x7dac887432b854cf"}, {"place_id": "0x390d1bf7b99f3135:0x7b59ef65ff972e2", "name": "XB Software Development Company", "category": "Software company", "street": "Goma Plaza", "city": "E-512, Ramphal Chowk Rd", "phone": "08802878718", "website": "", "rating": 5, "review_count": "", "latitude": 28.586331899999998, "longitude": 77.0716807, "maps_url": "https://www.google.com/maps/place/?q=place_id:0x390d1bf7b99f3135:0x7b59ef65ff972e2"}, {"place_id": "0xac577056c2b5ff3d:0xaf00253141553d04", "name": "Devnotam | IT Company", "category": "Internet marketing service", "street": "", "city": "", "phone": "", "website": "https://devnotam.com/", "rating": 5, "review_count": "", "latitude": 28.692404999999997, "longitude": 77.090042, "maps_url": "https://www.google.com/maps/place/?q=place_id:0xac577056c2b5ff3d:0xaf00253141553d04"}, {"place_id": "0x390d0537704ff493:0x1f2e76f7aa061ff", "name": "PRO & CO. Company Secretaries", "category": "Corporate office", "street": "K-29, First Floor", "city": "New Mahavir Nagar", "phone": "09643513394", "website": "http://www.cspro.in/", "rating": 5, "review_count": "", "latitude": 28.632689199999998, "longitude": 77.08373569999999, "maps_url": "https://www.google.com/maps/place/?q=place_id:0x390d0537704ff493:0x1f2e76f7aa061ff"}, {"place_id": "0x390d1b6ac90a6a57:0x677d5074b8ff9e9b", "name": "\ud835\udc7b\ud835\udc82\ud835\udc99\ud835\udc88\ud835\udc90\ud835\udc90\ud835\udc85\ud835\udc98\ud835\udc8a\ud835\udc8d\ud835\udc8d \ud835\udc84\ud835\udc90\ud835\udc8f\ud835\udc94\ud835\udc96\ud835\udc8d\ud835\udc95\ud835\udc82\ud835\udc8f\ud835\udc95\ud835\udc94 - \ud835\udc77\ud835\udc82\ud835\udc8d\ud835\udc82\ud835\udc8e \ud835\udc69\ud835\udc93\ud835\udc82\ud835\udc8f\ud835\udc84\ud835\udc89 | \ud835\udc6e\ud835\udc7a\ud835\udc7b , \ud835\udc70\ud835\udc7b\ud835\udc79 , \ud835\udc6a\ud835\udc90\ud835\udc8e\ud835\udc91\ud835\udc82\ud835\udc8f\ud835\udc9a \ud835\udc79\ud835\udc86\ud835\udc88\ud835\udc8a\ud835\udc94\ud835\udc95\ud835\udc93\ud835\udc82\ud835\udc95\ud835\udc8a\ud835\udc90\ud835\udc8f, \ud835\udc74\ud835\udc6a\ud835\udc6b, \ud835\udc73\ud835\udc8a\ud835\udc84\ud835\udc86\ud835\udc8f\ud835\udc94\ud835\udc86\ud835\udc94 & \ud835\udc68\ud835\udc96\ud835\udc85\ud835\udc8a\ud835\udc95 \ud835\udc7a\ud835\udc86\ud835\udc93\ud835\udc97\ud835\udc8a\ud835\udc84\ud835\udc86\ud835\udc94 \ud835\udc8a\ud835\udc8f \ud835\udc6b\ud835\udc86\ud835\udc8d\ud835\udc89\ud835\udc8a", "category": "Chartered accountant", "street": "RZ 12/11, Mahavir Enclave 1", "city": "Sector 1 Dwarka, Dwarka", "phone": "09911021258", "website": "https://www.taxgoodwill.com/", "rating": 4.9, "review_count": "", "latitude": 28.6014484, "longitude": 77.0815027, "maps_url": "https://www.google.com/maps/place/?q=place_id:0x390d1b6ac90a6a57:0x677d5074b8ff9e9b"}, {"place_id": "0x390d1be1ae42576b:0xeb14a713bab6e2b1", "name": "Electreus Engineering Services", "category": "HVAC contractor", "street": "Gali No 03", "city": "RZ-14/335", "phone": "09161910101", "website": "http://electreusengineeringservices.com/", "rating": 5, "review_count": "", "latitude": 28.6043919, "longitude": 77.0972572, "maps_url": "https://www.google.com/maps/place/?q=place_id:0x390d1be1ae42576b:0xeb14a713bab6e2b1"}, {"place_id": "0xa818f84536395e71:0xd2d7243de1cbae42", "name": "The Veda Company", "category": "Herbalist", "street": "RZ 73A", "city": "Dabri Extension East, Sagar Pur", "phone": "08130484598", "website": "https://thevedacompany.com/", "rating": 4, "review_count": "", "latitude": 28.607868999999997, "longitude": 77.095536, "maps_url": "https://www.google.com/maps/place/?q=place_id:0xa818f84536395e71:0xd2d7243de1cbae42"}, {"place_id": "0x390d1bd269eea96d:0x88dfbfdbdb3b278b", "name": "Reachmagnets", "category": "Marketing agency", "street": "RZ-E-9, Gali No. 9", "city": "Madanpuri g.no.9 West Sagarpur, Dabri Extension, Palam, Dabri", "phone": "09953337357", "website": "https://www.reachmagnets.com/", "rating": 5, "review_count": "", "latitude": 28.6035012, "longitude": 77.0980857, "maps_url": "https://www.google.com/maps/place/?q=place_id:0x390d1bd269eea96d:0x88dfbfdbdb3b278b"}, {"place_id": "0x390d0498e2f58521:0x1ab259bea2b6cfae", "name": "SAI Internet Marketing (India)", "category": "Website designer", "street": "2nd Floor, Commercial Complex", "city": "S-4 Unicom", "phone": "09999552353", "website": "https://www.saiinternetmarketing.com/", "rating": 4.6, "review_count": "", "latitude": 28.6291592, "longitude": 77.07780749999999, "maps_url": "https://www.google.com/maps/place/?q=place_id:0x390d0498e2f58521:0x1ab259bea2b6cfae"}, {"place_id": "0x390d1b8fc022f347:0x19a91179e96a1b14", "name": "CoreWeb Solutions", "category": "Computer support and services", "street": "Dayal Park, West Sagarpur, Sagar Pur", "city": "New Delhi, Delhi, 110046", "phone": "", "website": "", "rating": "", "review_count": "", "latitude": 28.6042985, "longitude": 77.09549109999999, "maps_url": "https://www.google.com/maps/place/?q=place_id:0x390d1b8fc022f347:0x19a91179e96a1b14"}, {"place_id": "0x390d0477e431cfc1:0xf167598860d93cfb", "name": "Axis Max Life Insurance", "category": "Insurance company", "street": "Ground Floor", "city": "Max Life Insurance Co. Ltd", "phone": "09821854547", "website": "https://www.axismaxlife.com/", "rating": 3.9, "review_count": "", "latitude": 28.599999999999998, "longitude": 77.1, "maps_url": "https://www.google.com/maps/place/?q=place_id:0x390d0477e431cfc1:0xf167598860d93cfb"}, {"place_id": "0x390d03d6259cb0c3:0x2db2a71dd92daf76", "name": "India Bound Tour", "category": "Tour operator", "street": "Geetanjali Park, West Sagarpur, Sagar Pur", "city": "New Delhi, Delhi, 110046", "phone": "08800405057", "website": "https://en.indiaboundtour.com/", "rating": 4.6, "review_count": "", "latitude": 28.601910699999998, "longitude": 77.0982413, "maps_url": "https://www.google.com/maps/place/?q=place_id:0x390d03d6259cb0c3:0x2db2a71dd92daf76"}, {"place_id": "0x390d04baa7b0c615:0x2ad47d69d0088e39", "name": "Logical Canvas Private Limited", "category": "Software company", "street": "110-D First Floor", "city": "West", "phone": "09582422605", "website": "http://www.logicalcanvas.com/", "rating": 4.8, "review_count": "", "latitude": 28.629441, "longitude": 77.082135, "maps_url": "https://www.google.com/maps/place/?q=place_id:0x390d04baa7b0c615:0x2ad47d69d0088e39"}, {"place_id": "0x390d1b1636772253:0x90fb52e5011143a6", "name": "Janus Global LLP", "category": "Computer support and services", "street": "D 459A, Ramphal Chowk Rd", "city": "Block D, Sector 7 Dwarka, Dwarka", "phone": "09999216234", "website": "https://janusglobal.in/", "rating": 5, "review_count": "", "latitude": 28.585091, "longitude": 77.06935159999999, "maps_url": "https://www.google.com/maps/place/?q=place_id:0x390d1b1636772253:0x90fb52e5011143a6"}, {"place_id": "0x390d1b5d9459b99b:0xab140fb2d3c1288b", "name": "KENTRO Service", "category": "Water purification company", "street": "I-8A", "city": "Gali Number 7", "phone": "09999562996", "website": "", "rating": 4.2, "review_count": "", "latitude": 28.601899699999997, "longitude": 77.0995939, "maps_url": "https://www.google.com/maps/place/?q=place_id:0x390d1b5d9459b99b:0xab140fb2d3c1288b"}, {"place_id": "0x390d1b48f7320225:0x47349d9850c241ec", "name": "Tannu Electricals & Hardware", "category": "Electrical supply store", "street": "Rz 411/394, Street Number 11", "city": "Shiv Puri, Geetanjali Park, Block RZ, West Sagarpur, Sagar Pur", "phone": "09810617281", "website": "", "rating": 4.8, "review_count": "", "latitude": 28.605354, "longitude": 77.0983402, "maps_url": "https://www.google.com/maps/place/?q=place_id:0x390d1b48f7320225:0x47349d9850c241ec"}, {"place_id": "0x390d1b51766197cf:0x57f1e1a31df62171", "name": "Riva Appliances Private Limited", "category": "Manufacturer", "street": "RZ 49, 1st floor", "city": "Pankha Rd", "phone": "08046045597", "website": "http://rivaro.net/", "rating": 3.3, "review_count": "", "latitude": 28.6108464, "longitude": 77.0930587, "maps_url": "https://www.google.com/maps/place/?q=place_id:0x390d1b51766197cf:0x57f1e1a31df62171"}, {"place_id": "0x390d1b30b9cb0691:0xea0ae33009220879", "name": "clgd shop", "category": "Computer accessories store", "street": "RZ-J39/261", "city": "near MCD Primary School", "phone": "09625456646", "website": "https://asho.co.in/", "rating": 5, "review_count": "", "latitude": 28.605101299999998, "longitude": 77.0921611, "maps_url": "https://www.google.com/maps/place/?q=place_id:0x390d1b30b9cb0691:0xea0ae33009220879"}, {"place_id": "0x9ebe0fb1b2ab83f:0x1c3edad3fc4dfb98", "name": "Vyapari Bazar", "category": "Website designer", "street": "220 2nd floor", "city": "Vishwadeep Tower", "phone": "", "website": "http://vyaparibazar.com/", "rating": 4.8, "review_count": "", "latitude": 28.630030599999998, "longitude": 77.0809543, "maps_url": "https://www.google.com/maps/place/?q=place_id:0x9ebe0fb1b2ab83f:0x1c3edad3fc4dfb98"}, {"place_id": "0x390d1b6dda2bf4db:0x7fd80249153e937d", "name": "Fateh Rice Trading company", "category": "Home goods store", "street": "WZ-113", "city": "Rajiv Gandhi Camp, Block A, Sadh Nagar II, Palam", "phone": "09999318031", "website": "", "rating": 5, "review_count": "", "latitude": 28.594590099999998, "longitude": 77.0900771, "maps_url": "https://www.google.com/maps/place/?q=place_id:0x390d1b6dda2bf4db:0x7fd80249153e937d"}, {"place_id": "0x390d1b08167f7341:0xbc1c7008737f646e", "name": "Shyam Traders", "category": "Wholesaler", "street": "18b/266", "city": "near Sri Radha Krishna Temple", "phone": "09821499524", "website": "", "rating": 5, "review_count": "", "latitude": 28.6051698, "longitude": 77.09766619999999, "maps_url": "https://www.google.com/maps/place/?q=place_id:0x390d1b08167f7341:0xbc1c7008737f646e"}, {"place_id": "0x390d1b72ccdff5f7:0xac8c7666258ed0f2", "name": "JAGPAL AND COMPANY", "category": "Hardware store", "street": "Rz-A-1, Dwarkapuri", "city": "near Jasram Akhada", "phone": "09999354699", "website": "", "rating": 5, "review_count": "", "latitude": 28.6084513, "longitude": 77.080077, "maps_url": "https://www.google.com/maps/place/?q=place_id:0x390d1b72ccdff5f7:0xac8c7666258ed0f2"}, {"place_id": "0x390d1b47b589bd31:0xa33330c62c53d42a", "name": "Shivam Watch Company", "category": "Hardware store", "street": "D/19A Street No 5", "city": "NCR", "phone": "09210269165", "website": "", "rating": 3.5, "review_count": "", "latitude": 28.597227099999998, "longitude": 77.082306, "maps_url": "https://www.google.com/maps/place/?q=place_id:0x390d1b47b589bd31:0xa33330c62c53d42a"}, {"place_id": "0x390d1b4a8dd8141f:0x4fecf5f14b85b39a", "name": "NOIR BAR", "category": "Event planner", "street": "Dayal Park, West Sagarpur, Sagar Pur", "city": "New Delhi, Delhi, 110046", "phone": "08920857231", "website": "http://www.youtube.com/@NOIRBARBYSANDY", "rating": 5, "review_count": "", "latitude": 28.6042985, "longitude": 77.09549109999999, "maps_url": "https://www.google.com/maps/place/?q=place_id:0x390d1b4a8dd8141f:0x4fecf5f14b85b39a"}, {"place_id": "0x390d1bd4de94363b:0x25dbfb99e99463bd", "name": "Hypro web", "category": "Web hosting company", "street": "J34H+R5F", "city": "Dwarkapuri Rd", "phone": "09968917175", "website": "https://hyproweb.com/", "rating": 4.9, "review_count": "", "latitude": 28.6070505, "longitude": 77.0779223, "maps_url": "https://www.google.com/maps/place/?q=place_id:0x390d1bd4de94363b:0x25dbfb99e99463bd"}, {"place_id": "0x4e275664ed715ed3:0x9e5f761f92588715", "name": "successachive it company", "category": "Computer support and services", "street": "", "city": "", "phone": "07347374706", "website": "https://successachive.com/", "rating": "", "review_count": "", "latitude": 21.0680074, "longitude": 82.7525294, "maps_url": "https://www.google.com/maps/place/?q=place_id:0x4e275664ed715ed3:0x9e5f761f92588715"}, {"place_id": "0x390d03fcab17c33b:0x7bd45907f9bac138", "name": "Wings Compliance Solutions", "category": "Consultant", "street": "RZ-149, Gali No. 5", "city": "Durga Park Colony, Dashrath Puri", "phone": "08588883879", "website": "http://www.wingscompliance.com/", "rating": 5, "review_count": "", "latitude": 28.6018239, "longitude": 77.08808069999999, "maps_url": "https://www.google.com/maps/place/?q=place_id:0x390d03fcab17c33b:0x7bd45907f9bac138"}, {"place_id": "0x390d1b56bd2cd59b:0x106291f1a092d64a", "name": "Security Trooper Force [ Best Security Guard Company & Agency in Janakpuri Dwarka Delhi NCR ,NOIDA , GURGAON &]", "category": "Security guard service", "street": "D-28/29 F/F, Gali Number 16", "city": "Indira Park, Sitapuri Part 1, Palam", "phone": "07303684699", "website": "https://securitytrooperforce.com/", "rating": 4.9, "review_count": "", "latitude": 28.5953768, "longitude": 77.1005684, "maps_url": "https://www.google.com/maps/place/?q=place_id:0x390d1b56bd2cd59b:0x106291f1a092d64a"}, {"place_id": "0x6e32dcaebc5707e7:0xb92ccf494257e82", "name": "Creaevo | Digital Marketing Agency | SEO Company in Delhi NCR, Social Media Services in Delhi, Web Development Agency", "category": "Internet marketing service", "street": "", "city": "", "phone": "", "website": "http://creaevo.com/", "rating": 4.7, "review_count": "", "latitude": 21.0680074, "longitude": 82.7525294, "maps_url": "https://www.google.com/maps/place/?q=place_id:0x6e32dcaebc5707e7:0xb92ccf494257e82"}, {"place_id": "0x390d1b27b500746d:0xc55d7831a12177d8", "name": "Shree Balaji Tank Cleaning Service Gurugram & Delhi", "category": "Water Tank Cleaners", "street": "Rz 241/298, Gali No 4", "city": "Geetanjali Park, West Sagarpur, Sagar Pur", "phone": "07827494704", "website": "https://shreebalajitankcleaning.com/", "rating": 4.9, "review_count": "", "latitude": 28.60353, "longitude": 77.0941416, "maps_url": "https://www.google.com/maps/place/?q=place_id:0x390d1b27b500746d:0xc55d7831a12177d8"}, {"place_id": "0x390d1b05881870bf:0x3655d00d59aff3fc", "name": "Dwar Seva Insurance", "category": "Insurance agency", "street": "FLAT NO 245", "city": "DREAM LAND APARTMENT", "phone": "09958094469", "website": "", "rating": 5, "review_count": "", "latitude": 28.6008914, "longitude": 77.0911977, "maps_url": "https://www.google.com/maps/place/?q=place_id:0x390d1b05881870bf:0x3655d00d59aff3fc"}, {"place_id": "0x390d04ada2e4df6d:0x9180e56476b0cc79", "name": "Web Achievers", "category": "Website designer", "street": "", "city": "", "phone": "09953734761", "website": "http://webachievers.com/", "rating": 5, "review_count": "", "latitude": 45.050399899999995, "longitude": -47.802320699999996, "maps_url": "https://www.google.com/maps/place/?q=place_id:0x390d04ada2e4df6d:0x9180e56476b0cc79"}, {"place_id": "0x390d1bd0ec972f25:0xc1d00c333f8538d9", "name": "East West Cargo Packers Movers", "category": "Packaging company", "street": "Rastion Shop", "city": "Rz C-68-A, Gali Number 9", "phone": "08826218730", "website": "", "rating": 5, "review_count": "", "latitude": 28.606558699999997, "longitude": 77.0899136, "maps_url": "https://www.google.com/maps/place/?q=place_id:0x390d1bd0ec972f25:0xc1d00c333f8538d9"}, {"place_id": "0x390d1b9dfb975f2d:0xae3bdcf668b700c", "name": "DVPL INFRACON PVT.LTD", "category": "Real Estate Builders & Construction Company", "street": "RZ -7/274, Gali Number 5A", "city": "near baba Balak Nath Temple", "phone": "09907571707", "website": "https://dvpl.info/", "rating": 3, "review_count": "", "latitude": 28.6018106, "longitude": 77.0965269, "maps_url": "https://www.google.com/maps/place/?q=place_id:0x390d1b9dfb975f2d:0xae3bdcf668b700c"}, {"place_id": "0x390d055a5463cc63:0x8742744c3d0cc683", "name": "ONFO Digitalways IT Services (P) Ltd.", "category": "Software company", "street": "Second Floor", "city": "A-100, Shivaji Marg", "phone": "09582238038", "website": "http://www.onfo.in/", "rating": 5, "review_count": "", "latitude": 28.6202777, "longitude": 77.0408601, "maps_url": "https://www.google.com/maps/place/?q=place_id:0x390d055a5463cc63:0x8742744c3d0cc683"}, {"place_id": "0x390d05dedd2d8fc1:0x63923f780a2b13a9", "name": "My Evently | Best Event Management Company in Delhi | Book for Wedding and Corporate Events", "category": "Event management company", "street": "178", "city": "C2c", "phone": "", "website": "https://myevently.com/", "rating": 5, "review_count": "", "latitude": 28.6152148, "longitude": 77.0865065, "maps_url": "https://www.google.com/maps/place/?q=place_id:0x390d05dedd2d8fc1:0x63923f780a2b13a9"}, {"place_id": "0x3be7c21b5901e181:0x7fe794585addc1f6", "name": "Smartinfologiks - Software Development Company in India | IT Solutions", "category": "Software company", "street": "Hilton Center", "city": "514", "phone": "07400064691", "website": "https://www.smartinfologiks.com/", "rating": 4.6, "review_count": "", "latitude": 19.0139592, "longitude": 73.0382705, "maps_url": "https://www.google.com/maps/place/?q=place_id:0x3be7c21b5901e181:0x7fe794585addc1f6"}, {"place_id": "0x390d1d03d12453e1:0xae13a69d36a28d7f", "name": "SBI Branch Delhi Cantt", "category": "Bank", "street": "DDA Shop. Complex", "city": "Retail Business Centre 8", "phone": "18001234", "website": "https://bank.sbi/", "rating": 2.9, "review_count": "", "latitude": 28.604073999999997, "longitude": 77.097951, "maps_url": "https://www.google.com/maps/place/?q=place_id:0x390d1d03d12453e1:0xae13a69d36a28d7f"}, {"place_id": "0x390d1bad424f2e21:0x6ab7819a778e2384", "name": "\u0936\u094d\u0930\u0940 \u0936\u094d\u092f\u093e\u092e \u0921\u094d\u0930\u093e\u0908 \u0915\u094d\u0932\u0940\u0928\u0930\u094d\u0938", "category": "Dry cleaner", "street": "Gali No:- 8", "city": "P- Block", "phone": "", "website": "", "rating": 5, "review_count": "", "latitude": 28.604265299999998, "longitude": 77.0933933, "maps_url": "https://www.google.com/maps/place/?q=place_id:0x390d1bad424f2e21:0x6ab7819a778e2384"}, {"place_id": "0x3bc2becdc35b6937:0x515ac559c349eee3", "name": "Thinkitive Technologies Private Limited", "category": "Software company", "street": "4th Floor", "city": "ABIL IMPERIAL COMMERCIAL SPACES", "phone": "08956467327", "website": "https://www.thinkitive.com/", "rating": 3.9, "review_count": "", "latitude": 18.5563888, "longitude": 73.7729748, "maps_url": "https://www.google.com/maps/place/?q=place_id:0x3bc2becdc35b6937:0x515ac559c349eee3"}, {"place_id": "0x390d1b30b9cb0691:0xea0ae33009220879", "name": "clgd shop", "category": "Computer accessories store", "street": "RZ-J39/261", "city": "near MCD Primary School", "phone": "09625456646", "website": "https://asho.co.in/", "rating": 5, "review_count": "", "latitude": 28.605101299999998, "longitude": 77.0921611, "maps_url": "https://www.google.com/maps/place/?q=place_id:0x390d1b30b9cb0691:0xea0ae33009220879"}, {"place_id": "0x9ebe0fb1b2ab83f:0x1c3edad3fc4dfb98", "name": "Vyapari Bazar", "category": "Website designer", "street": "220 2nd floor", "city": "Vishwadeep Tower", "phone": "", "website": "http://vyaparibazar.com/", "rating": 4.8, "review_count": "", "latitude": 28.630030599999998, "longitude": 77.0809543, "maps_url": "https://www.google.com/maps/place/?q=place_id:0x9ebe0fb1b2ab83f:0x1c3edad3fc4dfb98"}, {"place_id": "0x390d1b6dda2bf4db:0x7fd80249153e937d", "name": "Fateh Rice Trading company", "category": "Home goods store", "street": "WZ-113", "city": "Rajiv Gandhi Camp, Block A, Sadh Nagar II, Palam", "phone": "09999318031", "website": "", "rating": 5, "review_count": "", "latitude": 28.594590099999998, "longitude": 77.0900771, "maps_url": "https://www.google.com/maps/place/?q=place_id:0x390d1b6dda2bf4db:0x7fd80249153e937d"}, {"place_id": "0x390d1b08167f7341:0xbc1c7008737f646e", "name": "Shyam Traders", "category": "Wholesaler", "street": "18b/266", "city": "near Sri Radha Krishna Temple", "phone": "09821499524", "website": "", "rating": 5, "review_count": "", "latitude": 28.6051698, "longitude": 77.09766619999999, "maps_url": "https://www.google.com/maps/place/?q=place_id:0x390d1b08167f7341:0xbc1c7008737f646e"}, {"place_id": "0x390d1b72ccdff5f7:0xac8c7666258ed0f2", "name": "JAGPAL AND COMPANY", "category": "Hardware store", "street": "Rz-A-1, Dwarkapuri", "city": "near Jasram Akhada", "phone": "09999354699", "website": "", "rating": 5, "review_count": "", "latitude": 28.6084513, "longitude": 77.080077, "maps_url": "https://www.google.com/maps/place/?q=place_id:0x390d1b72ccdff5f7:0xac8c7666258ed0f2"}, {"place_id": "0x390d1b47b589bd31:0xa33330c62c53d42a", "name": "Shivam Watch Company", "category": "Hardware store", "street": "D/19A Street No 5", "city": "NCR", "phone": "09210269165", "website": "", "rating": 3.5, "review_count": "", "latitude": 28.597227099999998, "longitude": 77.082306, "maps_url": "https://www.google.com/maps/place/?q=place_id:0x390d1b47b589bd31:0xa33330c62c53d42a"}, {"place_id": "0x390d1b4a8dd8141f:0x4fecf5f14b85b39a", "name": "NOIR BAR", "category": "Event planner", "street": "Dayal Park, West Sagarpur, Sagar Pur", "city": "New Delhi, Delhi, 110046", "phone": "08920857231", "website": "http://www.youtube.com/@NOIRBARBYSANDY", "rating": 5, "review_count": "", "latitude": 28.6042985, "longitude": 77.09549109999999, "maps_url": "https://www.google.com/maps/place/?q=place_id:0x390d1b4a8dd8141f:0x4fecf5f14b85b39a"}, {"place_id": "0x3bc2becdc35b6937:0x515ac559c349eee3", "name": "Thinkitive Technologies Private Limited", "category": "Software company", "street": "4th Floor", "city": "ABIL IMPERIAL COMMERCIAL SPACES", "phone": "08956467327", "website": "https://www.thinkitive.com/", "rating": 3.9, "review_count": "", "latitude": 18.5563888, "longitude": 73.7729748, "maps_url": "https://www.google.com/maps/place/?q=place_id:0x3bc2becdc35b6937:0x515ac559c349eee3"}, {"place_id": "0x390d1b30b9cb0691:0xea0ae33009220879", "name": "clgd shop", "category": "Computer accessories store", "street": "RZ-J39/261", "city": "near MCD Primary School", "phone": "09625456646", "website": "https://asho.co.in/", "rating": 5, "review_count": "", "latitude": 28.605101299999998, "longitude": 77.0921611, "maps_url": "https://www.google.com/maps/place/?q=place_id:0x390d1b30b9cb0691:0xea0ae33009220879"}, {"place_id": "0x9ebe0fb1b2ab83f:0x1c3edad3fc4dfb98", "name": "Vyapari Bazar", "category": "Website designer", "street": "220 2nd floor", "city": "Vishwadeep Tower", "phone": "", "website": "http://vyaparibazar.com/", "rating": 4.8, "review_count": "", "latitude": 28.630030599999998, "longitude": 77.0809543, "maps_url": "https://www.google.com/maps/place/?q=place_id:0x9ebe0fb1b2ab83f:0x1c3edad3fc4dfb98"}, {"place_id": "0x390d1b6dda2bf4db:0x7fd80249153e937d", "name": "Fateh Rice Trading company", "category": "Home goods store", "street": "WZ-113", "city": "Rajiv Gandhi Camp, Block A, Sadh Nagar II, Palam", "phone": "09999318031", "website": "", "rating": 5, "review_count": "", "latitude": 28.594590099999998, "longitude": 77.0900771, "maps_url": "https://www.google.com/maps/place/?q=place_id:0x390d1b6dda2bf4db:0x7fd80249153e937d"}, {"place_id": "0x390d1b08167f7341:0xbc1c7008737f646e", "name": "Shyam Traders", "category": "Wholesaler", "street": "18b/266", "city": "near Sri Radha Krishna Temple", "phone": "09821499524", "website": "", "rating": 5, "review_count": "", "latitude": 28.6051698, "longitude": 77.09766619999999, "maps_url": "https://www.google.com/maps/place/?q=place_id:0x390d1b08167f7341:0xbc1c7008737f646e"}, {"place_id": "0x390d1b72ccdff5f7:0xac8c7666258ed0f2", "name": "JAGPAL AND COMPANY", "category": "Hardware store", "street": "Rz-A-1, Dwarkapuri", "city": "near Jasram Akhada", "phone": "09999354699", "website": "", "rating": 5, "review_count": "", "latitude": 28.6084513, "longitude": 77.080077, "maps_url": "https://www.google.com/maps/place/?q=place_id:0x390d1b72ccdff5f7:0xac8c7666258ed0f2"}, {"place_id": "0x390d1b47b589bd31:0xa33330c62c53d42a", "name": "Shivam Watch Company", "category": "Hardware store", "street": "D/19A Street No 5", "city": "NCR", "phone": "09210269165", "website": "", "rating": 3.5, "review_count": "", "latitude": 28.597227099999998, "longitude": 77.082306, "maps_url": "https://www.google.com/maps/place/?q=place_id:0x390d1b47b589bd31:0xa33330c62c53d42a"}, {"place_id": "0x390d1b4a8dd8141f:0x4fecf5f14b85b39a", "name": "NOIR BAR", "category": "Event planner", "street": "Dayal Park, West Sagarpur, Sagar Pur", "city": "New Delhi, Delhi, 110046", "phone": "08920857231", "website": "http://www.youtube.com/@NOIRBARBYSANDY", "rating": 5, "review_count": "", "latitude": 28.6042985, "longitude": 77.09549109999999, "maps_url": "https://www.google.com/maps/place/?q=place_id:0x390d1b4a8dd8141f:0x4fecf5f14b85b39a"}, {"place_id": "0x390d1bd4de94363b:0x25dbfb99e99463bd", "name": "Hypro web", "category": "Web hosting company", "street": "J34H+R5F", "city": "Dwarkapuri Rd", "phone": "09968917175", "website": "https://hyproweb.com/", "rating": 4.9, "review_count": "", "latitude": 28.6070505, "longitude": 77.0779223, "maps_url": "https://www.google.com/maps/place/?q=place_id:0x390d1bd4de94363b:0x25dbfb99e99463bd"}, {"place_id": "0x4e275664ed715ed3:0x9e5f761f92588715", "name": "successachive it company", "category": "Computer support and services", "street": "", "city": "", "phone": "07347374706", "website": "https://successachive.com/", "rating": "", "review_count": "", "latitude": 21.0680074, "longitude": 82.7525294, "maps_url": "https://www.google.com/maps/place/?q=place_id:0x4e275664ed715ed3:0x9e5f761f92588715"}, {"place_id": "0x390d03fcab17c33b:0x7bd45907f9bac138", "name": "Wings Compliance Solutions", "category": "Consultant", "street": "RZ-149, Gali No. 5", "city": "Durga Park Colony, Dashrath Puri", "phone": "08588883879", "website": "http://www.wingscompliance.com/", "rating": 5, "review_count": "", "latitude": 28.6018239, "longitude": 77.08808069999999, "maps_url": "https://www.google.com/maps/place/?q=place_id:0x390d03fcab17c33b:0x7bd45907f9bac138"}]}