{"timestamp": 1773730980.5835862, "keyword": "IT company", "location": "delhi", "cell_idx": 325, "results": [{"place_id": "0x390d05f1c70d0d6b:0x80d816e36f28618f", "name": "Katchin Tech Private Limited | Software Development Company in Delhi NCR", "category": "Software company", "street": "A-4", "city": "near skin decor", "phone": "07669005215", "website": "https://www.katchintech.com/", "rating": 5, "review_count": "", "latitude": 28.575834099999998, "longitude": 77.05139609999999, "maps_url": "https://www.google.com/maps/place/?q=place_id:0x390d05f1c70d0d6b:0x80d816e36f28618f"}, {"place_id": "0x390d05681896eb21:0xcfed89ab43cdd65", "name": "Mrmmbs Vision", "category": "Software company", "street": "", "city": "", "phone": "", "website": "https://www.mrmmbsvision.com/", "rating": 4.8, "review_count": "", "latitude": 14.157641199999999, "longitude": 0, "maps_url": "https://www.google.com/maps/place/?q=place_id:0x390d05681896eb21:0xcfed89ab43cdd65"}, {"place_id": "0x390d1ac4f284e761:0x9464ca79c229a74d", "name": "Times IT Services Pvt. Ltd", "category": "Software company", "street": "Vardhman Bahnhof Plaza", "city": "204", "phone": "09650012304", "website": "https://www.timesitservices.com/", "rating": 4.9, "review_count": "", "latitude": 28.5906919, "longitude": 77.043549, "maps_url": "https://www.google.com/maps/place/?q=place_id:0x390d1ac4f284e761:0x9464ca79c229a74d"}, {"place_id": "0x390ce21b8d636751:0xda2fa1d06a704eab", "name": "Prinknest Technology LLP", "category": "Software company", "street": "1st Floor", "city": "RZ 122 D, Plot No.1", "phone": "08076833804", "website": "https://prinknest.com/", "rating": 4.8, "review_count": "", "latitude": 28.606828, "longitude": 77.0816226, "maps_url": "https://www.google.com/maps/place/?q=place_id:0x390ce21b8d636751:0xda2fa1d06a704eab"}, {"place_id": "0x390d1af7d41f210f:0xbc225ea8e4598ee5", "name": "Coderack IT Labs", "category": "Software company", "street": "Khasra No. 16/14", "city": "4th Floor", "phone": "07217832324", "website": "http://coderack.net/", "rating": 5, "review_count": "", "latitude": 28.562789499999997, "longitude": 77.050367, "maps_url": "https://www.google.com/maps/place/?q=place_id:0x390d1af7d41f210f:0xbc225ea8e4598ee5"}, {"place_id": "0x390d013ca8ac1387:0x8a0db85b518267d5", "name": "NexGen Innovators", "category": "Software company", "street": "114B, 3rd floor, Dwarka Mor", "city": "New Delhi, Delhi 110059", "phone": "", "website": "https://www.nexgi.com/", "rating": 4.9, "review_count": "", "latitude": 28.618961, "longitude": 77.0322202, "maps_url": "https://www.google.com/maps/place/?q=place_id:0x390d013ca8ac1387:0x8a0db85b518267d5"}, {"place_id": "0x390d1b0ad6565c37:0x9ee772d45ffed70d", "name": "IOTtech Softwares", "category": "Software company", "street": "First & Second Floor", "city": "Lucky Plaza", "phone": "08034798583", "website": "", "rating": 4.9, "review_count": "", "latitude": 28.5847981, "longitude": 77.07323199999999, "maps_url": "https://www.google.com/maps/place/?q=place_id:0x390d1b0ad6565c37:0x9ee772d45ffed70d"}, {"place_id": "0x390d1bb72bd328b1:0xd9425539dc10edb3", "name": "SOFT INDIA WEB SOFTWARE DEVELOPMENT PVT LTD", "category": "Software company", "street": "Ground Floor", "city": "A- 107", "phone": "09625503688", "website": "http://www.softindia.in/", "rating": 3.2, "review_count": "", "latitude": 28.587611, "longitude": 77.0704514, "maps_url": "https://www.google.com/maps/place/?q=place_id:0x390d1bb72bd328b1:0xd9425539dc10edb3"}, {"place_id": "0x390d1b3d620205b1:0xe21a1fe217f40c4", "name": "InFutive Technology Pvt Ltd.", "category": "Software company", "street": "C-Block", "city": "B - 282 Palam Extension", "phone": "08882283917", "website": "http://www.infutive.com/", "rating": 5, "review_count": "", "latitude": 28.5862752, "longitude": 77.0697868, "maps_url": "https://www.google.com/maps/place/?q=place_id:0x390d1b3d620205b1:0xe21a1fe217f40c4"}, {"place_id": "0x390d1ac339555557:0x9e72f1346ffa17f8", "name": "DIGIWIZ TECHNOLOGIES PVT LTD", "category": "Software company", "street": "112,MANISH MARKET", "city": "Sector 11 Dwarka, Dwarka", "phone": "08800643456", "website": "https://seoservicessk.com/seo-services-in-dwarka-seo-course-in-dwarka/", "rating": 4.9, "review_count": "", "latitude": 28.586458, "longitude": 77.0457241, "maps_url": "https://www.google.com/maps/place/?q=place_id:0x390d1ac339555557:0x9e72f1346ffa17f8"}, {"place_id": "0x390d1b07258b26f1:0x8226854068152e3e", "name": "Softcom Technologies - Web Designing Company in Delhi", "category": "Website designer", "street": "S-89, Manish Global Mall", "city": "Sector 22 Dwarka, Dwarka", "phone": "09910258463", "website": "https://www.softcomtechnologies.com/", "rating": 5, "review_count": "", "latitude": 28.559992299999998, "longitude": 77.0596212, "maps_url": "https://www.google.com/maps/place/?q=place_id:0x390d1b07258b26f1:0x8226854068152e3e"}, {"place_id": "0x390d1b1fb85c71ed:0x1aa4ba2a08b02c1d", "name": "Tecmicra Solutions - Software, Website Development & Digital Marketing Company", "category": "Software company", "street": "Floor, D410", "city": "3rd", "phone": "07042387253", "website": "https://tecmicra.co.in/", "rating": 5, "review_count": "", "latitude": 28.5849324, "longitude": 77.071085, "maps_url": "https://www.google.com/maps/place/?q=place_id:0x390d1b1fb85c71ed:0x1aa4ba2a08b02c1d"}, {"place_id": "0x2f57245dcbe5cdc5:0xe07413eae661292f", "name": "Hyper Cloud Digital Solutions", "category": "Software company", "street": "", "city": "", "phone": "09152552222", "website": "https://www.hyperclouddigital.com/", "rating": 5, "review_count": "", "latitude": 21.0680074, "longitude": 82.7525294, "maps_url": "https://www.google.com/maps/place/?q=place_id:0x2f57245dcbe5cdc5:0xe07413eae661292f"}, {"place_id": "0x390d053af4b9fae1:0xa955718786ea4c90", "name": "Efficient IT & Electronic Services Private Limited", "category": "Software company", "street": "1st floor", "city": "VV Plaza building", "phone": "08750042191", "website": "http://www.efficientindia.com/", "rating": 4.4, "review_count": "", "latitude": 28.6100702, "longitude": 77.03385709999999, "maps_url": "https://www.google.com/maps/place/?q=place_id:0x390d053af4b9fae1:0xa955718786ea4c90"}, {"place_id": "0x390d1a5532eb800f:0xf2e1540348673db7", "name": "bitGain Technology Private Limited", "category": "Software company", "street": "Plot No 497", "city": "Bharthal, Sector 26 Dwarka, Bharthal", "phone": "09560002243", "website": "https://www.bitgaintech.com/", "rating": 4.7, "review_count": "", "latitude": 28.5467209, "longitude": 77.0473114, "maps_url": "https://www.google.com/maps/place/?q=place_id:0x390d1a5532eb800f:0xf2e1540348673db7"}, {"place_id": "0x390d1b86b6b5582d:0x36c722e124b57be8", "name": "kdrsoft Technologies - website designing company in delhi", "category": "Website designer", "street": "2nd Floor", "city": "Manish Global Mall", "phone": "09910258463", "website": "https://www.kdrsoft.com/", "rating": 4.9, "review_count": "", "latitude": 28.559937299999998, "longitude": 77.0596687, "maps_url": "https://www.google.com/maps/place/?q=place_id:0x390d1b86b6b5582d:0x36c722e124b57be8"}, {"place_id": "0x390ce458d0000001:0xf2123bd299ec4501", "name": "IT Company India", "category": "Software company", "street": "D56", "city": "D Block, Sector 10", "phone": "09999244854", "website": "https://www.itcompanyindia.in/", "rating": 4.7, "review_count": "", "latitude": 28.589917699999997, "longitude": 77.3351153, "maps_url": "https://www.google.com/maps/place/?q=place_id:0x390ce458d0000001:0xf2123bd299ec4501"}, {"place_id": "0x390d058eebd4e349:0xe3540cff21ac1db4", "name": "Matrix Infotech Solution | Software Development Company in Delhi", "category": "Software company", "street": "3rd floor, Besmate Indian Bank, housing complex", "city": "Main Market", "phone": "08920817059", "website": "https://www.matrixinfotechsolution.com/", "rating": 5, "review_count": "", "latitude": 28.6165375, "longitude": 77.0282521, "maps_url": "https://www.google.com/maps/place/?q=place_id:0x390d058eebd4e349:0xe3540cff21ac1db4"}, {"place_id": "0x390d1bbd14a92329:0x69ccddf6d89ff", "name": "PMPA SOFTTECH PVT. LTD.", "category": "Software company", "street": "6/A6", "city": "Pocket-8, Sector 23b, Dwarka", "phone": "07073003833", "website": "", "rating": 4.5, "review_count": "", "latitude": 28.563591799999998, "longitude": 77.0417138, "maps_url": "https://www.google.com/maps/place/?q=place_id:0x390d1bbd14a92329:0x69ccddf6d89ff"}, {"place_id": "0x390d059150d8d8d3:0xa88f8d2856eab58e", "name": "Codemez It Solutions", "category": "Software company", "street": "Ground Floor", "city": "H No 271", "phone": "08800598521", "website": "https://codemez.com/", "rating": 5, "review_count": "", "latitude": 28.6140609, "longitude": 77.0312409, "maps_url": "https://www.google.com/maps/place/?q=place_id:0x390d059150d8d8d3:0xa88f8d2856eab58e"}, {"place_id": "0x390d193fbcefc3e9:0x3e596d04b4191436", "name": "Nuvoretail Enlytical Technologies Pvt Ltd", "category": "E - Commerce Agency", "street": "1st Floor", "city": "Plot 34", "phone": "09911516516", "website": "http://nuvoretail.com/", "rating": 4.7, "review_count": "", "latitude": 28.565179699999998, "longitude": 77.0514841, "maps_url": "https://www.google.com/maps/place/?q=place_id:0x390d193fbcefc3e9:0x3e596d04b4191436"}, {"place_id": "0x390d02e520aee25b:0x322870f3355c7f4b", "name": "Delphi Infotech (Cybersecurity & Cloud Solutions)", "category": "Software company", "street": "225A, D-21", "city": "Corporate Park", "phone": "01145075151", "website": "https://www.delphiinfo.com/", "rating": 4.2, "review_count": "", "latitude": 28.5618181, "longitude": 77.0670596, "maps_url": "https://www.google.com/maps/place/?q=place_id:0x390d02e520aee25b:0x322870f3355c7f4b"}, {"place_id": "0x390d1b3d95555591:0x43c9fe791aed7a0e", "name": "Acetech Information Systems Pvt. Ltd", "category": "Software company", "street": "Unit No. 469-470, Vegas Mall", "city": "Commercial Towers", "phone": "09650972345", "website": "http://www.acetechindia.com/", "rating": 4.4, "review_count": "", "latitude": 28.601454, "longitude": 77.0294002, "maps_url": "https://www.google.com/maps/place/?q=place_id:0x390d1b3d95555591:0x43c9fe791aed7a0e"}, {"place_id": "0x390d1b8d94bfebb9:0xdbd74207ae3d35e7", "name": "SysTools Software Pvt Ltd", "category": "Software company", "street": "City Centre", "city": "528", "phone": "06230830862", "website": "https://www.systoolsgroup.com/", "rating": 4.5, "review_count": "", "latitude": 28.5921344, "longitude": 77.0417265, "maps_url": "https://www.google.com/maps/place/?q=place_id:0x390d1b8d94bfebb9:0xdbd74207ae3d35e7"}, {"place_id": "0x2a72b8b69d7b6493:0x11251466d4d34cac", "name": "WebZonal IT Company", "category": "Website designer", "street": "Wz-258/2-3, D Block Rd", "city": "Khazan Basti, Nangal Raya, Janakpuri", "phone": "09811170903", "website": "http://webzonal.com/", "rating": 5, "review_count": "", "latitude": 28.6122102, "longitude": 77.11159549999999, "maps_url": "https://www.google.com/maps/place/?q=place_id:0x2a72b8b69d7b6493:0x11251466d4d34cac"}, {"place_id": "0x390d04bf231d4979:0xa2cd2b7e8bfd68ff", "name": "TN Infotech Pvt. Ltd.", "category": "Computer support and services", "street": "E-594, FIRST FLOOR", "city": "Ramphal Chowk Rd", "phone": "09810782194", "website": "http://tninfotech.net/", "rating": 5, "review_count": "", "latitude": 28.585736699999998, "longitude": 77.0719481, "maps_url": "https://www.google.com/maps/place/?q=place_id:0x390d04bf231d4979:0xa2cd2b7e8bfd68ff"}, {"place_id": "0x390d055caf9975bf:0x531bbcc735d7c665", "name": "Elegancespark Innovations Pvt. Ltd.", "category": "Software company", "street": "Property No 505 3rd Floor", "city": "TCW Unity", "phone": "09311055939", "website": "https://elegancesparkinnovations.com/", "rating": 4.9, "review_count": "", "latitude": 28.5805258, "longitude": 77.05031869999999, "maps_url": "https://www.google.com/maps/place/?q=place_id:0x390d055caf9975bf:0x531bbcc735d7c665"}, {"place_id": "0x390d04c0827451cd:0xdd5c02a5efb3fcb8", "name": "DKG Labs Pvt. Ltd.", "category": "Software company", "street": "Corporate Park", "city": "D 21", "phone": "09810805605", "website": "https://www.dkgrouplabs.com/", "rating": 4.2, "review_count": "", "latitude": 28.5618579, "longitude": 77.0674429, "maps_url": "https://www.google.com/maps/place/?q=place_id:0x390d04c0827451cd:0xdd5c02a5efb3fcb8"}, {"place_id": "0x390d05cd2ace8d53:0xf82774e10e1ff47c", "name": "Quicky Technologies", "category": "Software company", "street": "3rd Floor", "city": "C-85, Rama Park Rd", "phone": "09899550472", "website": "https://www.quickytechnologies.com/", "rating": 5, "review_count": "", "latitude": 28.622149999999998, "longitude": 77.03673069999999, "maps_url": "https://www.google.com/maps/place/?q=place_id:0x390d05cd2ace8d53:0xf82774e10e1ff47c"}, {"place_id": "0x390ce34b518e1811:0x47f3e2befef7cbc1", "name": "Adsify Technologies", "category": "Marketing consultant", "street": "Haji Colony", "city": "M47/A", "phone": "09990786137", "website": "http://www.adsify.digital/", "rating": 4.4, "review_count": "", "latitude": 28.576883499999997, "longitude": 77.0506109, "maps_url": "https://www.google.com/maps/place/?q=place_id:0x390ce34b518e1811:0x47f3e2befef7cbc1"}, {"place_id": "0x390d1c153a0323ff:0x48e3aad9be77d23c", "name": "Msinterface Technologies Pvt Ltd - Website Designer in Dwarka", "category": "Software company", "street": "Mahavir Enclave", "city": "Mahavir Enclave I, Sector 1 Dwarka, Dwarka", "phone": "09971787219", "website": "https://www.msinterface.in/", "rating": 5, "review_count": "", "latitude": 28.5961926, "longitude": 77.0823114, "maps_url": "https://www.google.com/maps/place/?q=place_id:0x390d1c153a0323ff:0x48e3aad9be77d23c"}, {"place_id": "0x448aa981f5f4e8af:0x24d0bd0e978530df", "name": "Tech Rajendra", "category": "Software company", "street": "3rd Floor", "city": "Plot no. 190, Golf Course Rd", "phone": "09540020546", "website": "https://www.techrajendra.com/", "rating": 4.5, "review_count": "", "latitude": 28.586822299999998, "longitude": 77.0276827, "maps_url": "https://www.google.com/maps/place/?q=place_id:0x448aa981f5f4e8af:0x24d0bd0e978530df"}, {"place_id": "0x390d04ae48526021:0xfc8962573381adb3", "name": "Softonic Solution", "category": "Software company", "street": "Building A", "city": "Block A, 2nd Floor, Plot No. 11, 12, 16, 17 Palam Extension", "phone": "09990944381", "website": "", "rating": 4.9, "review_count": "", "latitude": 28.582297399999998, "longitude": 77.07083709999999, "maps_url": "https://www.google.com/maps/place/?q=place_id:0x390d04ae48526021:0xfc8962573381adb3"}, {"place_id": "0x390d1b4247c3e999:0x23b346992f7a49c6", "name": "SE Technology", "category": "Website designer", "street": "Sector 10 Dwarka, Dwarka", "city": "New Delhi, Delhi, 110075", "phone": "09891827147", "website": "http://www.sparroweye.com/", "rating": 4.9, "review_count": "", "latitude": 28.585585799999997, "longitude": 77.0577191, "maps_url": "https://www.google.com/maps/place/?q=place_id:0x390d1b4247c3e999:0x23b346992f7a49c6"}, {"place_id": "0x390d03f877590ea9:0xf85a2ceb9a1ae436", "name": "AVM Infratech Pvt. Ltd.", "category": "Real Estate Builders & Construction Company", "street": "207, Vardhaman Mall", "city": "Sector 19, Nanda Enclave, Dwarka", "phone": "07011157129", "website": "http://www.avminfratech.com/", "rating": 5, "review_count": "", "latitude": 28.5751159, "longitude": 77.0513345, "maps_url": "https://www.google.com/maps/place/?q=place_id:0x390d03f877590ea9:0xf85a2ceb9a1ae436"}, {"place_id": "0x390ce3c153b89811:0xe7a279685777e9ca", "name": "IT Company", "category": "Automation company", "street": "A-14", "city": "near iskcon temple", "phone": "", "website": "http://www.opuswiz.com/", "rating": 3, "review_count": "", "latitude": 28.557167, "longitude": 77.25424819999999, "maps_url": "https://www.google.com/maps/place/?q=place_id:0x390ce3c153b89811:0xe7a279685777e9ca"}, {"place_id": "0x390d1b8e5b6999a1:0x522ffbc2c7c23362", "name": "Techthastu Private Limited (Techthaastu)", "category": "Software company", "street": "Techthaastu Office, Pt. Mehru Marg, Outer Bharthal Firni road Bharthal Village", "city": "near Govt. Girls senior secondary School", "phone": "08383889042", "website": "https://www.techthaastu.com/", "rating": 5, "review_count": "", "latitude": 28.5403192, "longitude": 77.0524594, "maps_url": "https://www.google.com/maps/place/?q=place_id:0x390d1b8e5b6999a1:0x522ffbc2c7c23362"}, {"place_id": "0x390d1b5ccca7baa1:0xaf3a2a4b5b20c52", "name": "EOR Services India (A Division of Spectrum Talent Management Limited)", "category": "Recruiter", "street": "1st floor, Plot no. 70", "city": "Sai Enclave", "phone": "07065060428", "website": "https://www.eorservicesindia.com/", "rating": 4.4, "review_count": "", "latitude": 28.5668331, "longitude": 77.0556593, "maps_url": "https://www.google.com/maps/place/?q=place_id:0x390d1b5ccca7baa1:0xaf3a2a4b5b20c52"}, {"place_id": "0x390d05713cbc05f9:0x29ec332097ea9861", "name": "Bluebyte It Solutions", "category": "Software company", "street": "MS-83", "city": "Block MS, Mohan Garden, Uttam Nagar", "phone": "08178838292", "website": "https://www.bluebyteitsolutions.com/", "rating": 5, "review_count": "", "latitude": 28.6289797, "longitude": 77.0335781, "maps_url": "https://www.google.com/maps/place/?q=place_id:0x390d05713cbc05f9:0x29ec332097ea9861"}, {"place_id": "0x390d1bdec1ced481:0x832b048bd9008df3", "name": "Kloud Datasoft Pvt. Ltd. - Best Software Development Company in New Delhi", "category": "Software company", "street": "T 7", "city": "Pankaj Central Plaza", "phone": "", "website": "https://klouddatasoft.com/", "rating": 5, "review_count": "", "latitude": 28.5927787, "longitude": 77.0460346, "maps_url": "https://www.google.com/maps/place/?q=place_id:0x390d1bdec1ced481:0x832b048bd9008df3"}, {"place_id": "0x390d1b5ccca7baa1:0xaf3a2a4b5b20c52", "name": "EOR Services India (A Division of Spectrum Talent Management Limited)", "category": "Recruiter", "street": "1st floor, Plot no. 70", "city": "Sai Enclave", "phone": "07065060428", "website": "https://www.eorservicesindia.com/", "rating": 4.4, "review_count": "", "latitude": 28.5668331, "longitude": 77.0556593, "maps_url": "https://www.google.com/maps/place/?q=place_id:0x390d1b5ccca7baa1:0xaf3a2a4b5b20c52"}, {"place_id": "0x390d1004ea53806b:0x1baf11423a85ee79", "name": "Shodh Technologies", "category": "Software company", "street": "G 22 A", "city": "Shyam Vihar, Shyam Vihar Phase-1, Najafgarh", "phone": "09953847881", "website": "https://www.felixgen.com/", "rating": 4, "review_count": "", "latitude": 28.597203999999998, "longitude": 77.00522289999999, "maps_url": "https://www.google.com/maps/place/?q=place_id:0x390d1004ea53806b:0x1baf11423a85ee79"}, {"place_id": "0x390d1b38fd32b4f3:0x82d62331243c57ca", "name": "Techiedom", "category": "Software company", "street": "12, 16", "city": "Block A, 2nd Floor, Plot No. 11", "phone": "08076944161", "website": "https://www.techiedom.com/", "rating": 4.7, "review_count": "", "latitude": 28.592847, "longitude": 77.07793199999999, "maps_url": "https://www.google.com/maps/place/?q=place_id:0x390d1b38fd32b4f3:0x82d62331243c57ca"}, {"place_id": "0x390d057a964f6fd7:0xee9473a3a884e657", "name": "Weblytics Infotech - Crm Software Company Delhi, ERP Software Company in Delhi, MLM Software Company in Delhi", "category": "Software company", "street": "E, 40", "city": "Shiv Vihar Rd", "phone": "07291827082", "website": "https://www.weblyticsinfotech.com/crm-software-in-delhi.php", "rating": 4.9, "review_count": "", "latitude": 28.643033799999998, "longitude": 77.05317409999999, "maps_url": "https://www.google.com/maps/place/?q=place_id:0x390d057a964f6fd7:0xee9473a3a884e657"}, {"place_id": "0x8ace583f4f849005:0x8e2302d49a3d0d32", "name": "GLOBAL TECHNOLOGY (GT) CONNECT", "category": "Software company", "street": "metro exit gate", "city": "B-77, First Floor, Sewak Park", "phone": "09211458714", "website": "https://www.globaltechnologyconnect.com/", "rating": 5, "review_count": "", "latitude": 28.618889799999998, "longitude": 77.0509601, "maps_url": "https://www.google.com/maps/place/?q=place_id:0x8ace583f4f849005:0x8e2302d49a3d0d32"}, {"place_id": "0x390d1bfd61687473:0x878fa1ec1c9a9d7f", "name": "T&N Business Services Pvt Ltd Delhi", "category": "Business management consultant", "street": "3rd", "city": "E-517", "phone": "09455579997", "website": "http://www.tnservices.in/", "rating": 4.7, "review_count": "", "latitude": 28.584938899999997, "longitude": 77.072231, "maps_url": "https://www.google.com/maps/place/?q=place_id:0x390d1bfd61687473:0x878fa1ec1c9a9d7f"}, {"place_id": "0x390d02994de5e515:0xd908bc03409a0d37", "name": "Himalayan IT Solutions | Best Website Designing Company in Delhi | SEO/Digital Marketing Company in Delhi NCR, India", "category": "Software company", "street": "61/4255, Padam Singh Rd", "city": "Block 29, Block 1, Regar Pura, Karol Bagh", "phone": "09899098509", "website": "http://www.himalayanitsolutions.com/", "rating": 3.9, "review_count": "", "latitude": 28.649673999999997, "longitude": 77.186599, "maps_url": "https://www.google.com/maps/place/?q=place_id:0x390d02994de5e515:0xd908bc03409a0d37"}, {"place_id": "0x390d05c8987801e5:0x128e04dce6c4cbc4", "name": "Matrix Infotech Solution | Software Development Company", "category": "Software company", "street": "j j", "city": "Dwarka Mor, Block WE, Mohan Garden, Razapur Khurd", "phone": "08920817059", "website": "http://www.matrixinfotechsolution.com/", "rating": 3.9, "review_count": "", "latitude": 28.637037, "longitude": 77.0291258, "maps_url": "https://www.google.com/maps/place/?q=place_id:0x390d05c8987801e5:0x128e04dce6c4cbc4"}, {"place_id": "0x390d05c94d5ebb61:0xe8289327a1223c5", "name": "Shivnik Technology", "category": "Software company", "street": "3rd floor", "city": "245, Om Vihar St", "phone": "", "website": "https://www.instagram.com/shivniktechnology/", "rating": 5, "review_count": "", "latitude": 28.622485299999997, "longitude": 77.0498868, "maps_url": "https://www.google.com/maps/place/?q=place_id:0x390d05c94d5ebb61:0xe8289327a1223c5"}, {"place_id": "0x390ce207de5a509b:0x92b313dd5b957779", "name": "Megma Services Pvt. Ltd.", "category": "Software company", "street": "Flat No. 642, L&T DDA, Flat", "city": "Shree Awas Society", "phone": "09717722435", "website": "https://www.megmaservices.co.in/", "rating": 3.9, "review_count": "", "latitude": 28.5851667, "longitude": 77.03718049999999, "maps_url": "https://www.google.com/maps/place/?q=place_id:0x390ce207de5a509b:0x92b313dd5b957779"}, {"place_id": "0x390d1b3c7aaaaaab:0xcc0116b944b8452c", "name": "ESIGN WEB SERVICES PVT LTD", "category": "Website designer", "street": "3rd Floor", "city": "Plot No 24", "phone": "09718099999", "website": "https://www.esignwebservices.com/", "rating": 4.7, "review_count": "", "latitude": 28.5857121, "longitude": 77.0494913, "maps_url": "https://www.google.com/maps/place/?q=place_id:0x390d1b3c7aaaaaab:0xcc0116b944b8452c"}, {"place_id": "0x20616dbf813c03ef:0xc8fd1ca47f902e9e", "name": "Bloatware IT Software Company | website Designing Company | Software Company | MLM |CRM | Android Apps", "category": "Software company", "street": "C1", "city": "Rama Park", "phone": "08920750797", "website": "https://bloatwareitsolutions.com/", "rating": 4.5, "review_count": "", "latitude": 28.621265599999997, "longitude": 77.0324943, "maps_url": "https://www.google.com/maps/place/?q=place_id:0x20616dbf813c03ef:0xc8fd1ca47f902e9e"}, {"place_id": "0x390d1b9ddfccb265:0xb589ee8b4aaaa57c", "name": "50 Hertz Limited", "category": "Software company", "street": "Corporate Park", "city": "303, 3rd Floor, D21", "phone": "01140110747", "website": "https://www.50hertz.in/", "rating": 4.6, "review_count": "", "latitude": 28.5618181, "longitude": 77.0670596, "maps_url": "https://www.google.com/maps/place/?q=place_id:0x390d1b9ddfccb265:0xb589ee8b4aaaa57c"}, {"place_id": "0x390d1ba4b50ab3a1:0x4202088df86f7f0", "name": "Lozy Warehousing Company", "category": "Warehouse", "street": "Vardhman Crown Mall", "city": "G-41", "phone": "", "website": "http://lozy.in/", "rating": 5, "review_count": "", "latitude": 28.5751028, "longitude": 77.0510513, "maps_url": "https://www.google.com/maps/place/?q=place_id:0x390d1ba4b50ab3a1:0x4202088df86f7f0"}, {"place_id": "0x390d1ac494680599:0x9d9346abbd7fc498", "name": "Barcode Vaults a true company for rfid and barcode solutions", "category": "Printing equipment supplier", "street": "S-4, Plot No-7", "city": "1030", "phone": "", "website": "https://www.barcodevault.com/", "rating": 4.9, "review_count": "", "latitude": 28.591197899999997, "longitude": 77.04425619999999, "maps_url": "https://www.google.com/maps/place/?q=place_id:0x390d1ac494680599:0x9d9346abbd7fc498"}, {"place_id": "0x390d050d9e7ce6a3:0xa72607a5a8be6510", "name": "Shri Sai Tech Solutions", "category": "Software company", "street": "Pillar number 783", "city": "Metro Station Dwarka Mor A-109, Street No. 4", "phone": "07210868167", "website": "https://shrisaitechsolutions.com/", "rating": 4.3, "review_count": "", "latitude": 28.6189075, "longitude": 77.0333678, "maps_url": "https://www.google.com/maps/place/?q=place_id:0x390d050d9e7ce6a3:0xa72607a5a8be6510"}, {"place_id": "0x390d035a7ee8e86b:0x80e4c9c60f69a5b1", "name": "Tech4Serve - F&B Consultants", "category": "Food and beverage consultant", "street": "Nanda Enclave", "city": "Sector 19, Nanda Enclave, Dwarka", "phone": "09718100067", "website": "https://tech4serve.com/", "rating": 4.5, "review_count": "", "latitude": 28.577200899999998, "longitude": 77.0480583, "maps_url": "https://www.google.com/maps/place/?q=place_id:0x390d035a7ee8e86b:0x80e4c9c60f69a5b1"}, {"place_id": "0x390d05cf38103e37:0x7d262822a067b0ae", "name": "RITS Technologies", "category": "Corporate office", "street": "Metro Pillar Number 660", "city": "1st Floor", "phone": "09810905958", "website": "http://www.ritstechnologies.com/", "rating": 4.8, "review_count": "", "latitude": 28.623629899999997, "longitude": 77.06229569999999, "maps_url": "https://www.google.com/maps/place/?q=place_id:0x390d05cf38103e37:0x7d262822a067b0ae"}, {"place_id": "0x390d19174792f4db:0xcb5f589caa71b6e7", "name": "Knocial India Limited", "category": "Software company", "street": "60B", "city": "Udyog Vihar, Sector 22", "phone": "09354120847", "website": "https://www.knocialindia.com/", "rating": 4.7, "review_count": "", "latitude": 28.504239499999997, "longitude": 77.0651981, "maps_url": "https://www.google.com/maps/place/?q=place_id:0x390d19174792f4db:0xcb5f589caa71b6e7"}, {"place_id": "0x390d1b2440000001:0x7b52a88f21fc0d82", "name": "DesignDot Technologies | #1 Best Website & App Development | Top Software & AIML Solutions Company in Delhi", "category": "Software company", "street": "RZ 1/13, 3RD FLOOR, Main Road Above HDFC Bank, Dwarka, Near Palam Metro Gate 2", "city": "New Delhi, Delhi 110077", "phone": "09999652812", "website": "https://www.designdot.co.in/", "rating": 5, "review_count": "", "latitude": 28.587238199999998, "longitude": 77.0850727, "maps_url": "https://www.google.com/maps/place/?q=place_id:0x390d1b2440000001:0x7b52a88f21fc0d82"}, {"place_id": "0x390d055ab880b807:0xcb5c025daa2b2795", "name": "Tech Web Mantra", "category": "Software company", "street": "B-77", "city": "near Dwarka Mor Metro Station", "phone": "09871521039", "website": "https://www.techwebmantra.com/", "rating": 5, "review_count": "", "latitude": 28.614187899999997, "longitude": 77.0362179, "maps_url": "https://www.google.com/maps/place/?q=place_id:0x390d055ab880b807:0xcb5c025daa2b2795"}, {"place_id": "0x390d1b17ee0eb021:0x1852d5c3bda5573b", "name": "Ensavior Technologies Pvt. Ltd.", "category": "Pump supplier", "street": "Plot No. \u2013 17A", "city": "BLOCK-A", "phone": "01147350382", "website": "http://www.ensavior.com/", "rating": 4.2, "review_count": "", "latitude": 28.5769211, "longitude": 77.05099919999999, "maps_url": "https://www.google.com/maps/place/?q=place_id:0x390d1b17ee0eb021:0x1852d5c3bda5573b"}, {"place_id": "0x390d0165c4c0adb7:0x24c751b1139cf8dc", "name": "StartupGali", "category": "License bureau", "street": "2nd Floor", "city": "D-480", "phone": "09650082009", "website": "https://www.startupgali.com/", "rating": 4.9, "review_count": "", "latitude": 28.584743399999997, "longitude": 77.069817, "maps_url": "https://www.google.com/maps/place/?q=place_id:0x390d0165c4c0adb7:0x24c751b1139cf8dc"}, {"place_id": "0x390d1b1fc9079c0f:0x1d973e904e13168c", "name": "The Testament", "category": "Corporate office", "street": "H2GX+5F8", "city": "175", "phone": "", "website": "http://www.thetestament.com/", "rating": 4.6, "review_count": "", "latitude": 28.575484099999997, "longitude": 77.04877809999999, "maps_url": "https://www.google.com/maps/place/?q=place_id:0x390d1b1fc9079c0f:0x1d973e904e13168c"}, {"place_id": "0x390d1bcd76384d39:0xdb32f9430e255f8e", "name": "WINISHTECH IT SOLUTIONS PRIVATE LIMITED", "category": "Software company", "street": "B1/639 A", "city": "Janakpuri West, Block B1, Janakpuri", "phone": "", "website": "https://winishtechitsolutions.com/", "rating": 5, "review_count": "", "latitude": 28.6324707, "longitude": 77.0857044, "maps_url": "https://www.google.com/maps/place/?q=place_id:0x390d1bcd76384d39:0xdb32f9430e255f8e"}, {"place_id": "0x390d1bdb796b522b:0x911a96ef6d03d73d", "name": "Ishi Solar \u2013 Rooftop Installations for Home & Industry in Delhi-NCR | Authorised Supplier of TATA Power Solar Kits", "category": "Solar Energy Company", "street": "FIRST FLOOR", "city": "Sai Enclave", "phone": "01143615339", "website": "https://www.ishisolar.com/", "rating": 4.6, "review_count": "", "latitude": 28.5668331, "longitude": 77.0556593, "maps_url": "https://www.google.com/maps/place/?q=place_id:0x390d1bdb796b522b:0x911a96ef6d03d73d"}, {"place_id": "0x390d1bf076ad40a5:0x6e54f7930154b26d", "name": "pNthaan: Technologies - Digital Marketing Company in Delhi - Social Media Marketing", "category": "Software company", "street": "D2/15, Dabri - Palam Rd", "city": "Vinod Puri, Block B 3, Vijay Enclave, Mahavir Enclave", "phone": "09810455309", "website": "https://pnthaan.com/", "rating": 4.9, "review_count": "", "latitude": 28.602663399999997, "longitude": 77.0801891, "maps_url": "https://www.google.com/maps/place/?q=place_id:0x390d1bf076ad40a5:0x6e54f7930154b26d"}, {"place_id": "0x390d1bf7b99f3135:0x7b59ef65ff972e2", "name": "XB Software Development Company", "category": "Software company", "street": "Goma Plaza", "city": "E-512, Ramphal Chowk Rd", "phone": "08802878718", "website": "", "rating": 5, "review_count": "", "latitude": 28.586331899999998, "longitude": 77.0716807, "maps_url": "https://www.google.com/maps/place/?q=place_id:0x390d1bf7b99f3135:0x7b59ef65ff972e2"}, {"place_id": "0x390d1df0721e08c5:0x49d5fd4648a33c2d", "name": "Nibble Software | Website Design & Development | Travel Web API & CRM | SEO, SMO, Paid Ads, Amazon & Flipkart Marketing", "category": "Website designer", "street": "4th Floor", "city": "Moolchand Tower", "phone": "09971066697", "website": "https://www.nibblesoftware.com/", "rating": 4.8, "review_count": "", "latitude": 28.6000862, "longitude": 77.0818018, "maps_url": "https://www.google.com/maps/place/?q=place_id:0x390d1df0721e08c5:0x49d5fd4648a33c2d"}, {"place_id": "0x390d191598f48ef3:0x70991b4ff870f05d", "name": "Shree Partners LLC", "category": "Software company", "street": "1, Tower A, Building, Cyber City", "city": "Corporate Edge Level", "phone": "01246728815", "website": "https://www.shreepartners.com/", "rating": 4.3, "review_count": "", "latitude": 28.4936018, "longitude": 77.088325, "maps_url": "https://www.google.com/maps/place/?q=place_id:0x390d191598f48ef3:0x70991b4ff870f05d"}, {"place_id": "0x390d04d2f6575abb:0xd5553781913e9a53", "name": "Espial Infotech", "category": "Software company", "street": "Uttam Vihar, Block B, Uttam Nagar, Bindapur", "city": "Delhi, 110059", "phone": "", "website": "http://espial.in/", "rating": 5, "review_count": "", "latitude": 28.611546399999998, "longitude": 77.06602269999999, "maps_url": "https://www.google.com/maps/place/?q=place_id:0x390d04d2f6575abb:0xd5553781913e9a53"}, {"place_id": "0x390d052a1265bc33:0xd1f77384fcc24135", "name": "Grace Techno | Web Designing Company in Delhi | Web & Software Development Company in Delhi", "category": "Software company", "street": "First Floor", "city": "Building Burger King", "phone": "08595273503", "website": "https://gracetechno.online/", "rating": 5, "review_count": "", "latitude": 28.6198245, "longitude": 77.054174, "maps_url": "https://www.google.com/maps/place/?q=place_id:0x390d052a1265bc33:0xd1f77384fcc24135"}, {"place_id": "0x390d04b086f34175:0x650c866cae893a0b", "name": "Spire Elevators, Passenger Elevators in Delhi, Residential Elevators in Gurugram, Goods Elevators in Delhi", "category": "Elevator Manufacturer", "street": "Sector 19B, Nanda Enclave, Sector 19 Dwarka, Dwarka", "city": "Delhi, 110075", "phone": "09996664600", "website": "https://www.spireelevators.com/", "rating": 4.8, "review_count": "", "latitude": 28.5771968, "longitude": 77.0466592, "maps_url": "https://www.google.com/maps/place/?q=place_id:0x390d04b086f34175:0x650c866cae893a0b"}, {"place_id": "0x390d1b80fb9da03d:0xd77ea97dd9a2aa4a", "name": "Nextwebi IT Solutions Pvt Ltd", "category": "Website designer", "street": "45, Street Number 2", "city": "Palam Extension, Sector 7 Dwarka, Dwarka", "phone": "08904240871", "website": "", "rating": 5, "review_count": "", "latitude": 28.5945388, "longitude": 77.0857647, "maps_url": "https://www.google.com/maps/place/?q=place_id:0x390d1b80fb9da03d:0xd77ea97dd9a2aa4a"}, {"place_id": "0x390d1b8acaefa1a9:0x22b2aed5fc62c352", "name": "Strive Shipping Services Private Limited", "category": "Logistics service", "street": "FIRST FLOOR", "city": "Sai Enclave", "phone": "09873620854", "website": "http://www.striveshipping.co.in/", "rating": 4.6, "review_count": "", "latitude": 28.5668331, "longitude": 77.0556593, "maps_url": "https://www.google.com/maps/place/?q=place_id:0x390d1b8acaefa1a9:0x22b2aed5fc62c352"}, {"place_id": "0x390d195c26bfa369:0x69bd8efd2e3a31fe", "name": "Radical Minds Technologies Pvt. Ltd.", "category": "BPO Company", "street": "368", "city": "Phase II, Udyog Vihar, Sector 20", "phone": "01244338366", "website": "http://www.radicalminds.in/", "rating": 4.2, "review_count": "", "latitude": 28.506335099999998, "longitude": 77.0877546, "maps_url": "https://www.google.com/maps/place/?q=place_id:0x390d195c26bfa369:0x69bd8efd2e3a31fe"}, {"place_id": "0x390d1960c2b8367f:0xd2d30e45ac71acea", "name": "Vorombetech Solutions - Top IT & Digitalization Service Company in Gurugram", "category": "Software company", "street": "249", "city": "Phase IV, Udyog Vihar, Sector 19", "phone": "", "website": "https://vorombetech.com/", "rating": 4.8, "review_count": "", "latitude": 28.4941475, "longitude": 77.0808448, "maps_url": "https://www.google.com/maps/place/?q=place_id:0x390d1960c2b8367f:0xd2d30e45ac71acea"}, {"place_id": "0x390d05c021c5643f:0x4c5794b17406c81c", "name": "Web2online Solutions - web designing and web development company in delhi, seo company delhi", "category": "Website designer", "street": "C 917", "city": "Block C, Sector 7 Dwarka, Dwarka", "phone": "08860303721", "website": "https://web2onlinesolutions.com/", "rating": 4.9, "review_count": "", "latitude": 28.585333499999997, "longitude": 77.0707252, "maps_url": "https://www.google.com/maps/place/?q=place_id:0x390d05c021c5643f:0x4c5794b17406c81c"}, {"place_id": "0x390d1afe1066aaab:0x923ad5af33fd04ab", "name": "Total India DMC - Best Bespoke Tour Operator in India Luxury DMC Service India", "category": "Tour operator", "street": "Sai Enclave", "city": "97", "phone": "01149335815", "website": "https://totalindiadmc.com/", "rating": 4.9, "review_count": "", "latitude": 28.5668716, "longitude": 77.05401239999999, "maps_url": "https://www.google.com/maps/place/?q=place_id:0x390d1afe1066aaab:0x923ad5af33fd04ab"}, {"place_id": "0x390d1baa56300001:0x8fdc5fd163cf1d42", "name": "Anusandhan Technology Solutions", "category": "Contractor", "street": "S - 63", "city": "Manish Global Mall", "phone": "", "website": "https://anusandhan-india.com/", "rating": 4.9, "review_count": "", "latitude": 28.5617187, "longitude": 77.05990589999999, "maps_url": "https://www.google.com/maps/place/?q=place_id:0x390d1baa56300001:0x8fdc5fd163cf1d42"}, {"place_id": "0x390cfc13e34b8ea1:0x482abe6fb68aede7", "name": "Techindia Infotech", "category": "Internet marketing service", "street": "Ground floor", "city": "Pocket 7", "phone": "", "website": "https://www.techindiainfotech.com/", "rating": 4.5, "review_count": "", "latitude": 28.5605801, "longitude": 77.04042199999999, "maps_url": "https://www.google.com/maps/place/?q=place_id:0x390cfc13e34b8ea1:0x482abe6fb68aede7"}, {"place_id": "0x390d1baaff346a7b:0x1b774913c94bd822", "name": "Ontech Digital Technologies Pvt. Ltd.", "category": "Website designer", "street": "3rd floor", "city": "Shyam Kunj Tower", "phone": "08802377021", "website": "https://ontechdigital.com/", "rating": 5, "review_count": "", "latitude": 28.5994429, "longitude": 77.0819152, "maps_url": "https://www.google.com/maps/place/?q=place_id:0x390d1baaff346a7b:0x1b774913c94bd822"}, {"place_id": "0x390d1c31baaaaaa5:0xe494589371bb1f28", "name": "The Complete IT Solution", "category": "Software company", "street": "", "city": "", "phone": "09650116135", "website": "", "rating": 3.2, "review_count": "", "latitude": 28.5870636, "longitude": 77.1970434, "maps_url": "https://www.google.com/maps/place/?q=place_id:0x390d1c31baaaaaa5:0xe494589371bb1f28"}, {"place_id": "0x390d1b2e3e454c3d:0x1f00bbefc62a4b30", "name": "Website Designing Company in India", "category": "Website designer", "street": "Gali No 32", "city": "Block T, Rajapuri, Uttam Nagar", "phone": "08800245633", "website": "https://webcareindia.com/", "rating": 4.9, "review_count": "", "latitude": 28.6053942, "longitude": 77.0586278, "maps_url": "https://www.google.com/maps/place/?q=place_id:0x390d1b2e3e454c3d:0x1f00bbefc62a4b30"}, {"place_id": "0x390d1b4ac4a9d1f5:0x84b29d41835c9e9", "name": "Anytime Logistic Pvt Ltd", "category": "Logistics service", "street": "Plot No. 25", "city": "MBR Enclave, Block A, Sector 23, Dwarka", "phone": "09212000260", "website": "", "rating": 4.8, "review_count": "", "latitude": 28.562712899999998, "longitude": 77.0504127, "maps_url": "https://www.google.com/maps/place/?q=place_id:0x390d1b4ac4a9d1f5:0x84b29d41835c9e9"}, {"place_id": "0x390d1b0010fc2321:0x12e9154c815cf007", "name": "Prashant Dwivedi IT company", "category": "Warehouse", "street": "G3P5+GVC", "city": "Nayak Pura, Bijwasan", "phone": "", "website": "", "rating": "", "review_count": "", "latitude": 28.536316, "longitude": 77.059649, "maps_url": "https://www.google.com/maps/place/?q=place_id:0x390d1b0010fc2321:0x12e9154c815cf007"}, {"place_id": "0x390d1b62358abaad:0xd3b84b17bc079d1d", "name": "GST, TRADEMARK REGISTRATION IN DWARKA - COMPANIFY INDIA PRIVATE LIMITED", "category": "Legal services", "street": "RZG-5, 2nd Floor, Sood Plaza Main Palam Dabri Road, Mahavir Enclave", "city": "above IndusInd Bank", "phone": "07827298043", "website": "https://www.companify.in/", "rating": 4.9, "review_count": "", "latitude": 28.5997466, "longitude": 77.0817431, "maps_url": "https://www.google.com/maps/place/?q=place_id:0x390d1b62358abaad:0xd3b84b17bc079d1d"}, {"place_id": "0x390d05380e193067:0xf20ea63eb212ad4", "name": "Web2connectindia | Best Digital Marketing Agency in Delhi Ncr,Delhi, New Delhi, Uttam Nagar, India", "category": "Software company", "street": "Third floor D-157", "city": "Uttam NagarNear Mudgal Garden Complex Bal Udhyan Road New Delhi West delhi 110059", "phone": "", "website": "https://www.web2connectindia.com/", "rating": 4.6, "review_count": "", "latitude": 28.621762999999998, "longitude": 77.05582299999999, "maps_url": "https://www.google.com/maps/place/?q=place_id:0x390d05380e193067:0xf20ea63eb212ad4"}, {"place_id": "0x390d1b6807b97c57:0xb6dc40e91d71681f", "name": "Algo2bots Infotech", "category": "Software company", "street": "WZ-291, Street Number 8", "city": "Sadh Nagar I, Sadh Nagar, Palam", "phone": "09911447760", "website": "http://algo2botsinfotech.com/", "rating": 5, "review_count": "", "latitude": 28.587672599999998, "longitude": 77.09199129999999, "maps_url": "https://www.google.com/maps/place/?q=place_id:0x390d1b6807b97c57:0xb6dc40e91d71681f"}, {"place_id": "0x390d1b2ee6fef4a1:0x7c17412d3b1bd5d3", "name": "SD Global Logistics India Pvt Ltd", "category": "Warehouse", "street": "3rd Floor, D21, Corporate Park, Metro Station", "city": "314A", "phone": "09354898033", "website": "https://sdgloballogistics.com/", "rating": 4.6, "review_count": "", "latitude": 28.5618579, "longitude": 77.0674429, "maps_url": "https://www.google.com/maps/place/?q=place_id:0x390d1b2ee6fef4a1:0x7c17412d3b1bd5d3"}, {"place_id": "0x390d1b70c5bde25b:0xded68a5ff4dc6ea5", "name": "AY Technologies", "category": "Software company", "street": "Plot - 6", "city": "F-305", "phone": "", "website": "https://aytech.in/", "rating": "", "review_count": "", "latitude": 28.589448299999997, "longitude": 77.0566382, "maps_url": "https://www.google.com/maps/place/?q=place_id:0x390d1b70c5bde25b:0xded68a5ff4dc6ea5"}, {"place_id": "0x8f1069178017e329:0x8e55f45c66419ec3", "name": "ZionSoft Tech It Solution LLP", "category": "Software company", "street": "PLOT NO.C 92 and 93 A", "city": "Block C, Vishwas Park, Uttam Nagar", "phone": "08810456468", "website": "https://zionsoftit.com/", "rating": "", "review_count": "", "latitude": 28.610937, "longitude": 77.0568282, "maps_url": "https://www.google.com/maps/place/?q=place_id:0x8f1069178017e329:0x8e55f45c66419ec3"}, {"place_id": "0x390ce1e37852388b:0x6f833f38da2b6477", "name": "Kuresys Labs Pvt. Ltd.", "category": "Pharmaceutical company", "street": "Corporate Park", "city": "D-21", "phone": "", "website": "https://www.kuresys.com/", "rating": 4.1, "review_count": "", "latitude": 28.5618181, "longitude": 77.0670596, "maps_url": "https://www.google.com/maps/place/?q=place_id:0x390ce1e37852388b:0x6f833f38da2b6477"}, {"place_id": "0x390d1acf7916f8e5:0x274db7eb7d70a6a5", "name": "The Case Company", "category": "E-commerce service", "street": "T-1 Manish Chamber-3 New", "city": "Sector 12 Dwarka, Dwarka", "phone": "", "website": "http://www.thecasecompany.in/", "rating": 4.2, "review_count": "", "latitude": 28.5954953, "longitude": 77.041816, "maps_url": "https://www.google.com/maps/place/?q=place_id:0x390d1acf7916f8e5:0x274db7eb7d70a6a5"}, {"place_id": "0x390d1b03afd847d1:0x3f8589776214e47b", "name": "Techbizz - IT Solutions", "category": "Software company", "street": "1st floor", "city": "Najafgarh Kapashera Rd", "phone": "08130622472", "website": "", "rating": 5, "review_count": "", "latitude": 28.5325596, "longitude": 77.0540195, "maps_url": "https://www.google.com/maps/place/?q=place_id:0x390d1b03afd847d1:0x3f8589776214e47b"}, {"place_id": "0x390d1b5c83984955:0xab519a2222070475", "name": "Vision Web India | Best Web Development & Digital Marketing Company In Delhi", "category": "Website designer", "street": "B 252, Palam Extension", "city": "Ramphal Chowk Rd", "phone": "09667719394", "website": "https://visionwebindia.com/", "rating": 5, "review_count": "", "latitude": 28.586551699999998, "longitude": 77.0690965, "maps_url": "https://www.google.com/maps/place/?q=place_id:0x390d1b5c83984955:0xab519a2222070475"}, {"place_id": "0x390d1c14dffac247:0x78ee6c5bad0dc1ab", "name": "Sana Web Solution", "category": "Internet marketing service", "street": "Vardhaman Crown", "city": "Mal Ambrahi road", "phone": "08882555562", "website": "https://sanawebsolution.com/", "rating": 5, "review_count": "", "latitude": 28.575253099999998, "longitude": 77.0512054, "maps_url": "https://www.google.com/maps/place/?q=place_id:0x390d1c14dffac247:0x78ee6c5bad0dc1ab"}, {"place_id": "0x390d19c4f81c373b:0x569790526001fe47", "name": "Pasenture Technologies - Web Development Company in Gurugram, Software Development Company in Gurgaon for CRM & Saas Software", "category": "Software company", "street": "2nd Floor", "city": "90, IDC", "phone": "09717197498", "website": "https://pasenture.in/", "rating": 4, "review_count": "", "latitude": 28.4716508, "longitude": 77.0509349, "maps_url": "https://www.google.com/maps/place/?q=place_id:0x390d19c4f81c373b:0x569790526001fe47"}, {"place_id": "0x390d1b1636772253:0x90fb52e5011143a6", "name": "Janus Global LLP", "category": "Computer support and services", "street": "D 459A, Ramphal Chowk Rd", "city": "Block D, Sector 7 Dwarka, Dwarka", "phone": "09999216234", "website": "https://janusglobal.in/", "rating": 5, "review_count": "", "latitude": 28.585091, "longitude": 77.06935159999999, "maps_url": "https://www.google.com/maps/place/?q=place_id:0x390d1b1636772253:0x90fb52e5011143a6"}, {"place_id": "0x390d1b7f62671cb1:0x9d53d75be3f61652", "name": "Manikaran Power Limited", "category": "Electric utility company", "street": "3rd Floor, Corporate Park", "city": "301", "phone": "01140408000", "website": "https://manikaranpowerltd.in/", "rating": 4, "review_count": "", "latitude": 28.5618181, "longitude": 77.0670596, "maps_url": "https://www.google.com/maps/place/?q=place_id:0x390d1b7f62671cb1:0x9d53d75be3f61652"}]}