{"timestamp": 1773730942.8172557, "keyword": "IT company", "location": "delhi", "cell_idx": 318, "results": [{"place_id": "0x390d1d8883afff6d:0x9f80f758446a49ca", "name": "Online IT Solutions Pvt Ltd", "category": "Computer support and services", "street": "B-4/259, Safdarjung Enclave", "city": "behind Safdarjung Club", "phone": "01147598900", "website": "http://www.ocindia.com/", "rating": 4.8, "review_count": "", "latitude": 28.5637446, "longitude": 77.1983767, "maps_url": "https://www.google.com/maps/place/?q=place_id:0x390d1d8883afff6d:0x9f80f758446a49ca"}, {"place_id": "0x390ce3c153b89811:0xe7a279685777e9ca", "name": "IT Company", "category": "Automation company", "street": "A-14", "city": "near iskcon temple", "phone": "", "website": "http://www.opuswiz.com/", "rating": 3, "review_count": "", "latitude": 28.557167, "longitude": 77.25424819999999, "maps_url": "https://www.google.com/maps/place/?q=place_id:0x390ce3c153b89811:0xe7a279685777e9ca"}, {"place_id": "0x390ce458d0000001:0xf2123bd299ec4501", "name": "IT Company India", "category": "Software company", "street": "D56", "city": "D Block, Sector 10", "phone": "09999244854", "website": "https://www.itcompanyindia.in/", "rating": 4.7, "review_count": "", "latitude": 28.589917699999997, "longitude": 77.3351153, "maps_url": "https://www.google.com/maps/place/?q=place_id:0x390ce458d0000001:0xf2123bd299ec4501"}, {"place_id": "0x390ce263ae840a65:0xfe4ba777c11dced6", "name": "Computer Ware India Pvt Ltd", "category": "Computer support and services", "street": "Veena Arcade", "city": "C-1/B, Sri Aurobindo Marg", "phone": "01126863278", "website": "http://www.computerware.in/", "rating": 4.1, "review_count": "", "latitude": 28.5587523, "longitude": 77.2065252, "maps_url": "https://www.google.com/maps/place/?q=place_id:0x390ce263ae840a65:0xfe4ba777c11dced6"}, {"place_id": "0x390d1d86a4f12173:0x3a6b42ea6f4b8260", "name": "Softvanz Technologies Private Limited", "category": "Software company", "street": "Somdutt Chamber 1", "city": "BT-22/9", "phone": "", "website": "https://softvanz.com/", "rating": 5, "review_count": "", "latitude": 28.567948899999998, "longitude": 77.1889269, "maps_url": "https://www.google.com/maps/place/?q=place_id:0x390d1d86a4f12173:0x3a6b42ea6f4b8260"}, {"place_id": "0x390ce2e52043e633:0x3ed44d79ea4bd91c", "name": "Wirecto", "category": "Software company", "street": "Triloki Colony", "city": "C-49", "phone": "09716670074", "website": "https://wirecto.app/", "rating": 5, "review_count": "", "latitude": 28.575404799999998, "longitude": 77.2250054, "maps_url": "https://www.google.com/maps/place/?q=place_id:0x390ce2e52043e633:0x3ed44d79ea4bd91c"}, {"place_id": "0x390ce276c0c98b79:0xca6e4ea550579f7c", "name": "vPlus. | Startup Business Consultants", "category": "Software company", "street": "44, Street No. 14", "city": "Block B 7, Arjun Nagar, Safdarjung Enclave", "phone": "08076310143", "website": "http://www.vplus.co.in/", "rating": 4.6, "review_count": "", "latitude": 28.5618643, "longitude": 77.1997928, "maps_url": "https://www.google.com/maps/place/?q=place_id:0x390ce276c0c98b79:0xca6e4ea550579f7c"}, {"place_id": "0x390ce1597b5509e5:0xfd8209b937b44d3c", "name": "IT Solutions India Private Limited", "category": "Software company", "street": "D-88/5", "city": "Pocket D, Okhla Phase I, Okhla Industrial Estate", "phone": "09810017429", "website": "https://www.itsipl.com/", "rating": 4.2, "review_count": "", "latitude": 28.520146, "longitude": 77.280431, "maps_url": "https://www.google.com/maps/place/?q=place_id:0x390ce1597b5509e5:0xfd8209b937b44d3c"}, {"place_id": "0x390ce26dc4d4ba2d:0x9486a6d620e379f9", "name": "Akal Information Systems Ltd.", "category": "Software company", "street": "Tower J, World Trade Center", "city": "103", "phone": "01146503545", "website": "https://www.akalinfo.com/", "rating": 3.9, "review_count": "", "latitude": 28.567935499999997, "longitude": 77.1923202, "maps_url": "https://www.google.com/maps/place/?q=place_id:0x390ce26dc4d4ba2d:0x9486a6d620e379f9"}, {"place_id": "0x390ce2723fffffff:0xa2cba59ffa005bd4", "name": "Markon Electronics Corporation Pvt Ltd.", "category": "GPS supplier", "street": "U-1", "city": "Central Basement", "phone": "08860280932", "website": "http://iconcox.in/", "rating": 4.1, "review_count": "", "latitude": 28.5623765, "longitude": 77.2062625, "maps_url": "https://www.google.com/maps/place/?q=place_id:0x390ce2723fffffff:0xa2cba59ffa005bd4"}, {"place_id": "0x390ce35650779121:0x2f547da399b9b1f2", "name": "24x7 Offshoring", "category": "Software company", "street": "Gautam Nagar", "city": "New Delhi, Delhi 110049", "phone": "09404228223", "website": "http://24x7offshoring.com/", "rating": 4.8, "review_count": "", "latitude": 28.5609662, "longitude": 77.2097233, "maps_url": "https://www.google.com/maps/place/?q=place_id:0x390ce35650779121:0x2f547da399b9b1f2"}, {"place_id": "0x390d165555555555:0xf57c20f7d07d8fd1", "name": "Teckinfo Solutions Pvt Ltd", "category": "Software company", "street": "1/1 BA, 3rd Floor, Mohammadpur,", "city": "Bhikaji Cama Place", "phone": "01149605500", "website": "https://www.teckinfo.com/", "rating": 4.6, "review_count": "", "latitude": 28.566004099999997, "longitude": 77.187579, "maps_url": "https://www.google.com/maps/place/?q=place_id:0x390d165555555555:0xf57c20f7d07d8fd1"}, {"place_id": "0x390ce31cc56b3e0d:0x61c82bfe6e0e6a0d", "name": "Curo India Pvt. Ltd", "category": "Real Estate Builders & Construction Company", "street": "28", "city": "Block K, Green Park Extension, Green Park", "phone": "", "website": "http://www.curoindia.com/", "rating": 4.4, "review_count": "", "latitude": 28.561979299999997, "longitude": 77.2025874, "maps_url": "https://www.google.com/maps/place/?q=place_id:0x390ce31cc56b3e0d:0x61c82bfe6e0e6a0d"}, {"place_id": "0x390ce271b66c9d1b:0xa8eac1dc05847382", "name": "Geek Initus", "category": "Software company", "street": "N-23", "city": "Block R, Green Park Extension, Green Park", "phone": "09871829868", "website": "http://geekinitus.com/", "rating": 5, "review_count": "", "latitude": 28.561532, "longitude": 77.20450009999999, "maps_url": "https://www.google.com/maps/place/?q=place_id:0x390ce271b66c9d1b:0xa8eac1dc05847382"}, {"place_id": "0x390d02994de5e515:0xd908bc03409a0d37", "name": "Himalayan IT Solutions | Best Website Designing Company in Delhi | SEO/Digital Marketing Company in Delhi NCR, India", "category": "Software company", "street": "61/4255, Padam Singh Rd", "city": "Block 29, Block 1, Regar Pura, Karol Bagh", "phone": "09899098509", "website": "http://www.himalayanitsolutions.com/", "rating": 3.9, "review_count": "", "latitude": 28.649673999999997, "longitude": 77.186599, "maps_url": "https://www.google.com/maps/place/?q=place_id:0x390d02994de5e515:0xd908bc03409a0d37"}, {"place_id": "0x390d0306a5205339:0xc8417239bcfe9f11", "name": "RSS INFOTECH PVT.LTD", "category": "Software company", "street": "1st floor, Didar Complex", "city": "6 DLE Industrial Area office no -128,129", "phone": "09953134732", "website": "https://www.rssindia.com/", "rating": 4.5, "review_count": "", "latitude": 28.656828299999997, "longitude": 77.1425177, "maps_url": "https://www.google.com/maps/place/?q=place_id:0x390d0306a5205339:0xc8417239bcfe9f11"}, {"place_id": "0x390d1ca8de94abb1:0xc070687f1d5f8558", "name": "Bita Infotech IT Solutions:: Website Designing & Development Company", "category": "Software company", "street": "Rz-31 B, Street No. 5", "city": "Block M, West Sagarpur, Sagar Pur", "phone": "08178256664", "website": "https://bitainfotech.com/", "rating": 4.7, "review_count": "", "latitude": 28.6056495, "longitude": 77.1012293, "maps_url": "https://www.google.com/maps/place/?q=place_id:0x390d1ca8de94abb1:0xc070687f1d5f8558"}, {"place_id": "0x390d199c47b5e1dd:0x8acf43d6c9d912c9", "name": "Vinbox Martech Private Limited", "category": "Software company", "street": "Second Floor", "city": "1/17525 (PART 60/4", "phone": "", "website": "https://www.vinbox.in/", "rating": 5, "review_count": "", "latitude": 28.559325299999998, "longitude": 77.2075246, "maps_url": "https://www.google.com/maps/place/?q=place_id:0x390d199c47b5e1dd:0x8acf43d6c9d912c9"}, {"place_id": "0x390ce3c53f4cf309:0x964287885bdc5c67", "name": "Mangalam Automation - IT Infrastructure and Audio Video Company", "category": "Computer support and services", "street": "UG 8, Building No.39", "city": "Hauz Khas Village, Deer Park, Hauz Khas", "phone": "09810227333", "website": "https://www.mangalamautomation.com/", "rating": 5, "review_count": "", "latitude": 28.552976599999997, "longitude": 77.1947921, "maps_url": "https://www.google.com/maps/place/?q=place_id:0x390ce3c53f4cf309:0x964287885bdc5c67"}, {"place_id": "0x4ebf586dbe4d7c09:0x968455c83bf5226c", "name": "Anchor IT Solutions- App Development | Website Development | Digital Marketing", "category": "Software company", "street": "4", "city": "Vinoba Puri, Lajpat Nagar II, Lajpat Nagar", "phone": "07678658584", "website": "", "rating": 4.8, "review_count": "", "latitude": 28.566371399999998, "longitude": 77.2486924, "maps_url": "https://www.google.com/maps/place/?q=place_id:0x4ebf586dbe4d7c09:0x968455c83bf5226c"}, {"place_id": "0x390d05485a2a45fb:0xe8c524530c69ad38", "name": "Seekruit HR Technologies Pvt Ltd", "category": "Human resource consulting", "street": "Metro Station", "city": "49/1 Yusuf Sarai", "phone": "18002081818", "website": "", "rating": 4.5, "review_count": "", "latitude": 28.5604177, "longitude": 77.2074062, "maps_url": "https://www.google.com/maps/place/?q=place_id:0x390d05485a2a45fb:0xe8c524530c69ad38"}, {"place_id": "0x390ce3512b42e945:0xe8ce9b06e1651251", "name": "Instant IT services - Best Hardware & Software Related Services", "category": "Software company", "street": "koli camp", "city": "69B", "phone": "09804836325", "website": "", "rating": 4.7, "review_count": "", "latitude": 28.5758728, "longitude": 77.2565554, "maps_url": "https://www.google.com/maps/place/?q=place_id:0x390ce3512b42e945:0xe8ce9b06e1651251"}, {"place_id": "0x390ce2118c26aaab:0xcf5c76ce9aaa3806", "name": "Wembrace Biopharma Pvt Ltd", "category": "Pharmaceutical company", "street": "Commercial Complex", "city": "B6/9", "phone": "18002029010", "website": "http://wembrace.in/", "rating": 4.9, "review_count": "", "latitude": 28.5590175, "longitude": 77.1966321, "maps_url": "https://www.google.com/maps/place/?q=place_id:0x390ce2118c26aaab:0xcf5c76ce9aaa3806"}, {"place_id": "0x390d0167808ad3b9:0x6ea0cd062f27b801", "name": "RADD India (Computer AMC Services & CCTV Installation and Maintenance)", "category": "Computer support and services", "street": "133 FF LS", "city": "Block B 7, Arjun Nagar, Safdarjung Enclave", "phone": "08595211170", "website": "https://www.raddindia.com/", "rating": 4.7, "review_count": "", "latitude": 28.5610675, "longitude": 77.1972931, "maps_url": "https://www.google.com/maps/place/?q=place_id:0x390d0167808ad3b9:0x6ea0cd062f27b801"}, {"place_id": "0x390ce242f9a4a027:0xb1f2b4656ab9d166", "name": "Metasoft IT Systems Pvt Ltd", "category": "Software company", "street": "South Extension Plaza 2", "city": "401 402, Guneet Kashyap Marg Rd", "phone": "09910975699", "website": "http://www.metasoft.co.in/", "rating": "", "review_count": "", "latitude": 28.5636208, "longitude": 77.2198183, "maps_url": "https://www.google.com/maps/place/?q=place_id:0x390ce242f9a4a027:0xb1f2b4656ab9d166"}, {"place_id": "0x390d1dc539fc39dd:0xa8d421a9d22cb256", "name": "India best website development company", "category": "Software company", "street": "RZ74, RZ Rd", "city": "Hans Park, Block RZ, Sagarpur East, Sagar Pur", "phone": "", "website": "https://techbuddy31.co.in/", "rating": 5, "review_count": "", "latitude": 28.6054396, "longitude": 77.1082699, "maps_url": "https://www.google.com/maps/place/?q=place_id:0x390d1dc539fc39dd:0xa8d421a9d22cb256"}, {"place_id": "0x390ce3a2021e9897:0x28bf52d36a7d0c19", "name": "It Softtech - Website Designing and Development Company in Delhi, India", "category": "Internet marketing service", "street": "149, Ring Rd", "city": "opp. Maharani Bagh", "phone": "09810056177", "website": "", "rating": 5, "review_count": "", "latitude": 28.5763395, "longitude": 77.2640869, "maps_url": "https://www.google.com/maps/place/?q=place_id:0x390ce3a2021e9897:0x28bf52d36a7d0c19"}, {"place_id": "0x390d04d6aaaaaaab:0x6d2dd9b5b477e4e8", "name": "IT SOLUTIONS & SERVICES - Computer laptop CCTV and Digital Marketing Services", "category": "Computer service", "street": "B-2, Suraksha vihar", "city": "Vikas Nagar, Uttam Nagar", "phone": "08860403626", "website": "http://www.itssin.com/", "rating": 5, "review_count": "", "latitude": 28.6405785, "longitude": 77.0457845, "maps_url": "https://www.google.com/maps/place/?q=place_id:0x390d04d6aaaaaaab:0x6d2dd9b5b477e4e8"}, {"place_id": "0x390ce33a2b250803:0x7142e204a821d1ee", "name": "AMITECH IT SOLUTIONS Authorized Dealer - Matrix Epabx System | IP-PBX | CCTV Camera In Delhi", "category": "Telecommunications service provider", "street": "B-4, Basement", "city": "Shivalik Colony", "phone": "09999663767", "website": "", "rating": 4.5, "review_count": "", "latitude": 28.561581699999998, "longitude": 77.19240769999999, "maps_url": "https://www.google.com/maps/place/?q=place_id:0x390ce33a2b250803:0x7142e204a821d1ee"}, {"place_id": "0x390ce5930c12de01:0xca5c41ecbc6f94d0", "name": "Techasoft", "category": "Software company", "street": "Thokar No-5", "city": "K-108", "phone": "08884739988", "website": "https://www.techasoft.com/", "rating": 5, "review_count": "", "latitude": 28.552426999999998, "longitude": 77.2985145, "maps_url": "https://www.google.com/maps/place/?q=place_id:0x390ce5930c12de01:0xca5c41ecbc6f94d0"}, {"place_id": "0x390ce1ce534cb1e5:0x39fe77c42bc52616", "name": "ITeSolution- Odoo ERP , Mobile/Web Application Development Software Company in Noida, Delhi NCR India.", "category": "Software company", "street": "RZ60/9", "city": "T/F, Tughlakabad Extension, Tughlakabad", "phone": "09889294124", "website": "https://www.itesolution.co.in/", "rating": 4.9, "review_count": "", "latitude": 28.520523899999997, "longitude": 77.2570535, "maps_url": "https://www.google.com/maps/place/?q=place_id:0x390ce1ce534cb1e5:0x39fe77c42bc52616"}, {"place_id": "0x390ce276e5555555:0x8ecad25fd7650f95", "name": "Holistic Ecommerce - Website Design & Development Agency", "category": "Website designer", "street": "House No 26", "city": "Block B 7, Arjun Nagar, Green Park", "phone": "09319695241", "website": "http://holisticecommerce.com/", "rating": 4.7, "review_count": "", "latitude": 28.560747799999998, "longitude": 77.1983506, "maps_url": "https://www.google.com/maps/place/?q=place_id:0x390ce276e5555555:0x8ecad25fd7650f95"}, {"place_id": "0x390d03adaef37299:0xd8b343093deaee7", "name": "Ruminate IT Solution | Best software company in Delhi NCR | IT Software company", "category": "Software company", "street": "C-64", "city": "Pocket B, Hari Nagar", "phone": "09625650376", "website": "https://www.ruminateitsolution.com/", "rating": 5, "review_count": "", "latitude": 28.628819, "longitude": 77.10428399999999, "maps_url": "https://www.google.com/maps/place/?q=place_id:0x390d03adaef37299:0xd8b343093deaee7"}, {"place_id": "0x390ce3d8f9f26b1b:0x71a0d1f7b90aab6f", "name": "Toughees Telecom Mobilephone store", "category": "Cell phone store", "street": "Shop #.7, Basement , Bldng, Mexican Kitchen", "city": "California Burrito", "phone": "09971585123", "website": "https://www.tougheestelecom.in/", "rating": 4.5, "review_count": "", "latitude": 28.561995699999997, "longitude": 77.20067619999999, "maps_url": "https://www.google.com/maps/place/?q=place_id:0x390ce3d8f9f26b1b:0x71a0d1f7b90aab6f"}, {"place_id": "0x390ce2718555555f:0x5de2b933b02bbdaf", "name": "Ambience Private Limited", "category": "Back Office", "street": "L-4", "city": "Green Park Extension", "phone": "01126196284", "website": "http://ambiencegroup.in/", "rating": 4.2, "review_count": "", "latitude": 28.561119299999998, "longitude": 77.2018988, "maps_url": "https://www.google.com/maps/place/?q=place_id:0x390ce2718555555f:0x5de2b933b02bbdaf"}, {"place_id": "0x390ce26c7a9059d1:0x8db5c6aface80cf4", "name": "Xalta", "category": "Food & Beverage Exporter", "street": "Gulmohar Commercial Complex", "city": "161, B/4, 4th Floor", "phone": "", "website": "https://xalta.co.in/", "rating": 3.6, "review_count": "", "latitude": 28.558654699999998, "longitude": 77.20854159999999, "maps_url": "https://www.google.com/maps/place/?q=place_id:0x390ce26c7a9059d1:0x8db5c6aface80cf4"}, {"place_id": "0x390ce3b31aba64ef:0xe7b284399b8f2b40", "name": "Urbanclap company", "category": "Corporate office", "street": "161 B/4, Second Floor, Gulmohar House, Near Green Park Metro Gate- 2", "city": "New Delhi, Delhi 110016", "phone": "", "website": "https://www.urbancompany.com/delhi-ncr", "rating": 3, "review_count": "", "latitude": 28.5568733, "longitude": 77.2059249, "maps_url": "https://www.google.com/maps/place/?q=place_id:0x390ce3b31aba64ef:0xe7b284399b8f2b40"}, {"place_id": "0x390ce3098da57375:0x2359db295695253f", "name": "Kg Digital", "category": "Internet marketing service", "street": "D186-2,Arjun Nagar", "city": "Near DPPS", "phone": "08303803501", "website": "https://www.kgdigital.in/", "rating": 4.7, "review_count": "", "latitude": 28.5630782, "longitude": 77.2001013, "maps_url": "https://www.google.com/maps/place/?q=place_id:0x390ce3098da57375:0x2359db295695253f"}, {"place_id": "0x390ce279b92e7131:0xe47419c839474bfd", "name": "Space Combine", "category": "Corporate office", "street": "K-1", "city": "Block K, Green Park Extension, Green Park", "phone": "01144775825", "website": "http://www.spacecombine.com/", "rating": 4.4, "review_count": "", "latitude": 28.5615475, "longitude": 77.20182419999999, "maps_url": "https://www.google.com/maps/place/?q=place_id:0x390ce279b92e7131:0xe47419c839474bfd"}, {"place_id": "0x390ce30f4c4ed777:0x3a7c5e032ce51ce5", "name": "Appextech Software Solutions", "category": "Software company", "street": "Second Floor", "city": "Mohan Cooperative Industrial Estate", "phone": "09911432451", "website": "https://www.appextech.com/", "rating": 4.9, "review_count": "", "latitude": 28.502260099999997, "longitude": 77.28519, "maps_url": "https://www.google.com/maps/place/?q=place_id:0x390ce30f4c4ed777:0x3a7c5e032ce51ce5"}, {"place_id": "0x390ce3098da57375:0x2359db295695253f", "name": "Kg Digital", "category": "Internet marketing service", "street": "D186-2,Arjun Nagar", "city": "Near DPPS", "phone": "08303803501", "website": "https://www.kgdigital.in/", "rating": 4.7, "review_count": "", "latitude": 28.5630782, "longitude": 77.2001013, "maps_url": "https://www.google.com/maps/place/?q=place_id:0x390ce3098da57375:0x2359db295695253f"}, {"place_id": "0x390ce279b92e7131:0xe47419c839474bfd", "name": "Space Combine", "category": "Corporate office", "street": "K-1", "city": "Block K, Green Park Extension, Green Park", "phone": "01144775825", "website": "http://www.spacecombine.com/", "rating": 4.4, "review_count": "", "latitude": 28.5615475, "longitude": 77.20182419999999, "maps_url": "https://www.google.com/maps/place/?q=place_id:0x390ce279b92e7131:0xe47419c839474bfd"}, {"place_id": "0x390d057a964f6fd7:0xee9473a3a884e657", "name": "Weblytics Infotech - Crm Software Company Delhi, ERP Software Company in Delhi, MLM Software Company in Delhi", "category": "Software company", "street": "E, 40", "city": "Shiv Vihar Rd", "phone": "07291827082", "website": "https://www.weblyticsinfotech.com/crm-software-in-delhi.php", "rating": 4.9, "review_count": "", "latitude": 28.643033799999998, "longitude": 77.05317409999999, "maps_url": "https://www.google.com/maps/place/?q=place_id:0x390d057a964f6fd7:0xee9473a3a884e657"}, {"place_id": "0x390d1d89cb2cae09:0x4f32a9f487ed1037", "name": "Red Media Production", "category": "Media company", "street": "1A, 2nd floor", "city": "near Subway Arjun Nagar", "phone": "09811633468", "website": "", "rating": 4.1, "review_count": "", "latitude": 28.5616365, "longitude": 77.2006768, "maps_url": "https://www.google.com/maps/place/?q=place_id:0x390d1d89cb2cae09:0x4f32a9f487ed1037"}, {"place_id": "0x390ce397ccf3666b:0x992f02c179985ba0", "name": "Katyan IT Services Pvt Ltd", "category": "Computer service", "street": "A/134", "city": "opposite State bank Of india", "phone": "07701800320", "website": "", "rating": 3.4, "review_count": "", "latitude": 28.5704858, "longitude": 77.26716929999999, "maps_url": "https://www.google.com/maps/place/?q=place_id:0x390ce397ccf3666b:0x992f02c179985ba0"}, {"place_id": "0x390d1e252b160e5b:0x9590c77adcc998e2", "name": "Wastelink", "category": "Feed manufacturer", "street": "N 17, Pal Building", "city": "Green Park Extension", "phone": "08010144000", "website": "http://wastelink.co/", "rating": 5, "review_count": "", "latitude": 28.5626595, "longitude": 77.20423009999999, "maps_url": "https://www.google.com/maps/place/?q=place_id:0x390d1e252b160e5b:0x9590c77adcc998e2"}, {"place_id": "0x390d05713cbc05f9:0x29ec332097ea9861", "name": "Bluebyte It Solutions", "category": "Software company", "street": "MS-83", "city": "Block MS, Mohan Garden, Uttam Nagar", "phone": "08178838292", "website": "https://www.bluebyteitsolutions.com/", "rating": 5, "review_count": "", "latitude": 28.6289797, "longitude": 77.0335781, "maps_url": "https://www.google.com/maps/place/?q=place_id:0x390d05713cbc05f9:0x29ec332097ea9861"}, {"place_id": "0x390da95a5620a869:0xd530eb5d525d9dfb", "name": "AppSevaa | software development company", "category": "Software company", "street": "B-823", "city": "Phase-1, Metro Vihar, Holambi Kalan", "phone": "07838557666", "website": "https://appsevaa.com/", "rating": 5, "review_count": "", "latitude": 28.807388099999997, "longitude": 77.0863049, "maps_url": "https://www.google.com/maps/place/?q=place_id:0x390da95a5620a869:0xd530eb5d525d9dfb"}, {"place_id": "0x390d030d50d1ea43:0xec5816db8029ea6a", "name": "i-Softinc", "category": "Software company", "street": "734-A, ground floor", "city": "Pocket-2, Paschim Puri, Paschim Vihar", "phone": "09971731257", "website": "https://i-softinc.com/", "rating": 5, "review_count": "", "latitude": 28.6694812, "longitude": 77.1174221, "maps_url": "https://www.google.com/maps/place/?q=place_id:0x390d030d50d1ea43:0xec5816db8029ea6a"}, {"place_id": "0x390ce34685116211:0xedfb1294645a6d41", "name": "Aditya Security Networking Solutions CCTV Camera Installation Green Park", "category": "Security system supplier", "street": "Shop No. 6", "city": "Sri Aurobindo Marg", "phone": "08851223854", "website": "https://adityasecuritynetworksolution.site/", "rating": 5, "review_count": "", "latitude": 28.5618314, "longitude": 77.20576419999999, "maps_url": "https://www.google.com/maps/place/?q=place_id:0x390ce34685116211:0xedfb1294645a6d41"}, {"place_id": "0x390d036a58c4b82b:0xc3748a594d12a3a3", "name": "Brand Markitors", "category": "Marketing agency", "street": "N", "city": "24A, Green Park Ext Rd", "phone": "09717871006", "website": "http://www.brandmarkitors.com/", "rating": 5, "review_count": "", "latitude": 28.5620169, "longitude": 77.2044145, "maps_url": "https://www.google.com/maps/place/?q=place_id:0x390d036a58c4b82b:0xc3748a594d12a3a3"}, {"place_id": "0x390ce26dec06443d:0x8f5f320535d4a531", "name": "Arun Watch Company", "category": "Watch repair service", "street": "D.A, V. School Building", "city": "Metro Station", "phone": "07982802738", "website": "http://arunwatch.com/?utm_source=gmb&utm_medium=referral", "rating": 4.3, "review_count": "", "latitude": 28.5582906, "longitude": 77.20701799999999, "maps_url": "https://www.google.com/maps/place/?q=place_id:0x390ce26dec06443d:0x8f5f320535d4a531"}, {"place_id": "0x390ce3e02b5bccbd:0x8b9b77bfa478eebc", "name": "Hexalifts - Lift Manufacturers Company", "category": "Elevator Manufacturer", "street": "K-62", "city": "Block K, Green Park", "phone": "09990878787", "website": "https://hexalifts.in/", "rating": 4.7, "review_count": "", "latitude": 28.5539223, "longitude": 77.2001981, "maps_url": "https://www.google.com/maps/place/?q=place_id:0x390ce3e02b5bccbd:0x8b9b77bfa478eebc"}, {"place_id": "0x390ce24295555563:0x32291d601ba6799a", "name": "WorkSure MedPharma Consultancy India Pvt. Ltd.", "category": "Research foundation", "street": "Ist Floor", "city": "Commercial Complex", "phone": "01126162722", "website": "http://www.worksure.org/", "rating": 4.3, "review_count": "", "latitude": 28.5657043, "longitude": 77.1989983, "maps_url": "https://www.google.com/maps/place/?q=place_id:0x390ce24295555563:0x32291d601ba6799a"}, {"place_id": "0x390ce276f4953709:0xa2834fadab32f396", "name": "MAHESHWARI & CO. - Advocates & Legal Consultants", "category": "Law firm", "street": "B-7/1, Safdarjung Enclave", "city": "Block B 7, Arjun Nagar, Extension", "phone": "01146013853", "website": "https://www.maheshwariandco.com/", "rating": 4.1, "review_count": "", "latitude": 28.5605776, "longitude": 77.1972339, "maps_url": "https://www.google.com/maps/place/?q=place_id:0x390ce276f4953709:0xa2834fadab32f396"}, {"place_id": "0x390ce279f38f0b65:0x9a09ed5e4ae27c88", "name": "Workhubz", "category": "Coworking space", "street": "H58X+7XM", "city": "Block A 1, Nauroji Nagar, Safdarjung Enclave", "phone": "09810557518", "website": "", "rating": 3.8, "review_count": "", "latitude": 28.565709299999998, "longitude": 77.1999079, "maps_url": "https://www.google.com/maps/place/?q=place_id:0x390ce279f38f0b65:0x9a09ed5e4ae27c88"}, {"place_id": "0x390ce3d647f7d2d5:0x389ee7c78c3019f9", "name": "APPWRK IT Solutions- Bespoke Web & Mobile App Development Company I AI Powered Solutions", "category": "Software company", "street": "101, NH-19", "city": "CRRI, Ishwar Nagar, Okhla", "phone": "", "website": "https://appwrk.com/", "rating": 5, "review_count": "", "latitude": 28.5508191, "longitude": 77.2746251, "maps_url": "https://www.google.com/maps/place/?q=place_id:0x390ce3d647f7d2d5:0x389ee7c78c3019f9"}, {"place_id": "0x8648610300da941:0x5b11351cea30536b", "name": "IT KALKA SOLUTIONS- Development and Digital Marketing Company in Noida (Delhi NCR)", "category": "Software company", "street": "", "city": "", "phone": "", "website": "https://itkalka.com/", "rating": 5, "review_count": "", "latitude": 21.0680074, "longitude": 82.7525294, "maps_url": "https://www.google.com/maps/place/?q=place_id:0x8648610300da941:0x5b11351cea30536b"}, {"place_id": "0x390ce26dc5555561:0xcdc5239cc1f979ab", "name": "Ca in Delhi - CA M C Maheshwari & Company - Ca firm - Chartered Accountant Delhi", "category": "Chartered accountant", "street": "Building No.17, 1st Floor, Yusuf Sarai Main Road, Near Green Park Metro Station", "city": "New Delhi, Delhi 110016", "phone": "09899350801", "website": "", "rating": 4.4, "review_count": "", "latitude": 28.560641099999998, "longitude": 77.2070262, "maps_url": "https://www.google.com/maps/place/?q=place_id:0x390ce26dc5555561:0xcdc5239cc1f979ab"}, {"place_id": "0x390ce3e7ec7bf461:0xf2f92cc27583eb72", "name": "Zollix", "category": "Marketing consultant", "street": "Ground Floor", "city": "C 192, Nalawala Rd", "phone": "", "website": "https://zollix.com/", "rating": 5, "review_count": "", "latitude": 28.562689499999998, "longitude": 77.199232, "maps_url": "https://www.google.com/maps/place/?q=place_id:0x390ce3e7ec7bf461:0xf2f92cc27583eb72"}, {"place_id": "0x390d1d8baaaaaaab:0x81e02841f207d0f0", "name": "S SONY & COMPANY PVT. LTD", "category": "Real Estate Builders & Construction Company", "street": "G-4, ANUPAMA BUILDING II FLOOR", "city": "Hauz Khas", "phone": "01135002651", "website": "http://ssony.in/", "rating": 4.9, "review_count": "", "latitude": 28.5510508, "longitude": 77.2048471, "maps_url": "https://www.google.com/maps/place/?q=place_id:0x390d1d8baaaaaaab:0x81e02841f207d0f0"}, {"place_id": "0x390d068daabb01c5:0x9f458c7c5e28f8f0", "name": "Tekniko Global - Top Mobile App Development Company in Delhi | Android & iOS", "category": "Software company", "street": "", "city": "", "phone": "09311620027", "website": "https://www.teknikoglobal.com/", "rating": 4.5, "review_count": "", "latitude": 28.5870636, "longitude": 77.1721882, "maps_url": "https://www.google.com/maps/place/?q=place_id:0x390d068daabb01c5:0x9f458c7c5e28f8f0"}, {"place_id": "0x1467fa15ec19c1c1:0xa6826b6efd3f45f8", "name": "Singhania & Partners", "category": "Law firm", "street": "P 24, Green Park Ext Rd", "city": "Block P, Green Park Extension, Green Park", "phone": "01147471414", "website": "https://singhania.in/", "rating": 4.5, "review_count": "", "latitude": 28.561147199999997, "longitude": 77.2048808, "maps_url": "https://www.google.com/maps/place/?q=place_id:0x1467fa15ec19c1c1:0xa6826b6efd3f45f8"}, {"place_id": "0xd1516b679f60d2f:0x9458c47d907b59a8", "name": "MarkTech Company", "category": "Marketing agency", "street": "INA, Laxmi Bai Nagar", "city": "New Delhi, Delhi 110023", "phone": "08527880385", "website": "https://markteches.com/", "rating": 3.9, "review_count": "", "latitude": 28.5754463, "longitude": 77.2077127, "maps_url": "https://www.google.com/maps/place/?q=place_id:0xd1516b679f60d2f:0x9458c47d907b59a8"}, {"place_id": "0x390ce3dd3ab16115:0x2aac86cf1fdb367", "name": "Spike AI", "category": "Computer support and services", "street": "Safdarjung Enclave", "city": "New Delhi, Delhi 110029", "phone": "", "website": "", "rating": "", "review_count": "", "latitude": 28.564719099999998, "longitude": 77.20032359999999, "maps_url": "https://www.google.com/maps/place/?q=place_id:0x390ce3dd3ab16115:0x2aac86cf1fdb367"}, {"place_id": "0x390d1dbba38799ab:0xf338d1715d0cc4c8", "name": "Boston stabilizer Manufacturer", "category": "Manufacturer", "street": "A 7, Arjun Nagar, Safdarjung Enclave", "city": "New Delhi, Delhi 110029", "phone": "09811077237", "website": "https://g.co/kgs/Am7wsd6", "rating": 4.8, "review_count": "", "latitude": 28.5624292, "longitude": 77.1971935, "maps_url": "https://www.google.com/maps/place/?q=place_id:0x390d1dbba38799ab:0xf338d1715d0cc4c8"}, {"place_id": "0x390ce270487adf93:0xb39618552fe849ff", "name": "Pratham Education Foundation", "category": "Non-profit organization", "street": "2nd floor, B", "city": "4/59", "phone": "01141651638", "website": "http://www.pratham.org/contact", "rating": 4.5, "review_count": "", "latitude": 28.565042899999998, "longitude": 77.1981503, "maps_url": "https://www.google.com/maps/place/?q=place_id:0x390ce270487adf93:0xb39618552fe849ff"}, {"place_id": "0x390d011e517039e5:0xd7871aa892609a4c", "name": "Top #1 Website Company in delhi", "category": "Software company", "street": "P56H+9CP, Commercial Complex, Gopal Nagar, Model Town", "city": "near Akash Cinema", "phone": "", "website": "", "rating": 4.6, "review_count": "", "latitude": 28.7109375, "longitude": 77.1785625, "maps_url": "https://www.google.com/maps/place/?q=place_id:0x390d011e517039e5:0xd7871aa892609a4c"}, {"place_id": "0x390ce3262913de21:0xa6b0458681471f4a", "name": "DTDC Courier", "category": "Courier service", "street": "Basement,Bldng", "city": "California Burito", "phone": "07011602998", "website": "", "rating": 4.7, "review_count": "", "latitude": 28.5620004, "longitude": 77.200687, "maps_url": "https://www.google.com/maps/place/?q=place_id:0x390ce3262913de21:0xa6b0458681471f4a"}, {"place_id": "0x390ce55ffe34c78d:0x5e0691a2f679aa6a", "name": "ANR Software Private Limited", "category": "Software company", "street": "B 103-104, Sector 63 Rd", "city": "B Block, Sector 63", "phone": "", "website": "https://www.anrsoftware.com/", "rating": 3.9, "review_count": "", "latitude": 28.615819, "longitude": 77.3785242, "maps_url": "https://www.google.com/maps/place/?q=place_id:0x390ce55ffe34c78d:0x5e0691a2f679aa6a"}, {"place_id": "0x390ce21efd4c8921:0xe5e8dcd288b2c303", "name": "anovIP", "category": "Law firm", "street": "Community Center", "city": "Wing B: 161-B/4, 6th Floor Gulmohar House, Yusuf Sarai", "phone": "01141835550", "website": "http://www.anovip.com/", "rating": 3.9, "review_count": "", "latitude": 28.557895499999997, "longitude": 77.20812099999999, "maps_url": "https://www.google.com/maps/place/?q=place_id:0x390ce21efd4c8921:0xe5e8dcd288b2c303"}, {"place_id": "0x390ce20c05555555:0x15fe85e8b5322da8", "name": "DCC SUPPLY CHAIN & DISTRIBUTION LLP formerly known as Dairy Chem Corporation", "category": "Cold storage facility", "street": "Community Center", "city": "AB -17", "phone": "09899972766", "website": "", "rating": 5, "review_count": "", "latitude": 28.5661591, "longitude": 77.19903819999999, "maps_url": "https://www.google.com/maps/place/?q=place_id:0x390ce20c05555555:0x15fe85e8b5322da8"}, {"place_id": "0x390ce3c9e05db51d:0x2b36034ff0d69b10", "name": "Venus Home Appliances", "category": "Manufacturer", "street": "AB-8, First Floor", "city": "opposite to Indian Bank", "phone": "09884064999", "website": "https://venushomeappliances.com/", "rating": 3.5, "review_count": "", "latitude": 28.5657183, "longitude": 77.19939649999999, "maps_url": "https://www.google.com/maps/place/?q=place_id:0x390ce3c9e05db51d:0x2b36034ff0d69b10"}, {"place_id": "0x390d05f43df5b29b:0x857f927e00982d67", "name": "MLM Software Company in Delhi | MLM Software Development", "category": "Software company", "street": "Plot no 198", "city": "Prashant Enclave, Bapraula Extension, Baprola", "phone": "08130287135", "website": "https://www.weblyticsinfotech.com/", "rating": 5, "review_count": "", "latitude": 28.6365546, "longitude": 77.01408649999999, "maps_url": "https://www.google.com/maps/place/?q=place_id:0x390d05f43df5b29b:0x857f927e00982d67"}, {"place_id": "0x390d03e26ad5d2f9:0x46485047f9c755d", "name": "House Of Miisul | Misul Media", "category": "Marketing agency", "street": "7, First Floor, Khasra No. 488", "city": "40/2", "phone": "09718852582", "website": "http://houseofmiisul.com/", "rating": 5, "review_count": "", "latitude": 28.563615499999997, "longitude": 77.19750189999999, "maps_url": "https://www.google.com/maps/place/?q=place_id:0x390d03e26ad5d2f9:0x46485047f9c755d"}, {"place_id": "0x390ce34470aa6c65:0x7443e3c962e5a14a", "name": "DIGITAL HUB", "category": "Media company", "street": "M Block", "city": "M 1", "phone": "08700502168", "website": "https://www.shekhardigitalhub.com/", "rating": 2.3, "review_count": "", "latitude": 28.561197099999998, "longitude": 77.20350479999999, "maps_url": "https://www.google.com/maps/place/?q=place_id:0x390ce34470aa6c65:0x7443e3c962e5a14a"}, {"place_id": "0x390cfe2767c704c9:0x7976a0b8535f729b", "name": "Software IT Solution", "category": "Software company", "street": "H.No.188, Gali Number 8", "city": "Chandan Vihar, Virendar Nagar, Block B, West Sant Nagar, Burari", "phone": "09555739718", "website": "http://www.softwareitsolution.com/", "rating": 4.5, "review_count": "", "latitude": 28.7413723, "longitude": 77.1961584, "maps_url": "https://www.google.com/maps/place/?q=place_id:0x390cfe2767c704c9:0x7976a0b8535f729b"}, {"place_id": "0x390d1de6486da5ff:0xc7f45811682c07f", "name": "Supersight", "category": "Design agency", "street": "Block B4", "city": "B4/246", "phone": "08107778088", "website": "https://supersight.in/", "rating": 5, "review_count": "", "latitude": 28.562891099999998, "longitude": 77.1984916, "maps_url": "https://www.google.com/maps/place/?q=place_id:0x390d1de6486da5ff:0xc7f45811682c07f"}, {"place_id": "0x390d023486ac4e6d:0xc57794f2bc76e4f4", "name": "CNK RK & Co, Chartered Accountants", "category": "Certified public accountant", "street": "A1/20", "city": "Block A 1, Nauroji Nagar, Safdarjung Enclave", "phone": "01146577572", "website": "http://www.cnk-rk.co/", "rating": 4.4, "review_count": "", "latitude": 28.5658186, "longitude": 77.1956012, "maps_url": "https://www.google.com/maps/place/?q=place_id:0x390d023486ac4e6d:0xc57794f2bc76e4f4"}, {"place_id": "0x390ce36a7e34fe59:0x1acced1d65a73707", "name": "i-softinc - Mobile App Development Company in Delhi", "category": "Software company", "street": "165 3rd Floor", "city": "Sarai Jullena, New Friends Colony", "phone": "08929570664", "website": "https://i-softinc.com/", "rating": 5, "review_count": "", "latitude": 28.5600456, "longitude": 77.2717803, "maps_url": "https://www.google.com/maps/place/?q=place_id:0x390ce36a7e34fe59:0x1acced1d65a73707"}, {"place_id": "0x390ce31a53b479c9:0x661b79fe2375d626", "name": "Holiday Aces", "category": "Travel agency", "street": "B6/66", "city": "Safdarjung Enclave", "phone": "09319192255", "website": "https://www.holidayaces.com/", "rating": 4.5, "review_count": "", "latitude": 28.564719099999998, "longitude": 77.20032359999999, "maps_url": "https://www.google.com/maps/place/?q=place_id:0x390ce31a53b479c9:0x661b79fe2375d626"}, {"place_id": "0x390ce31a28d18a7d:0x3934e38dd88c2f82", "name": "The Aurora Creatives", "category": "Marketing agency", "street": "B4/66", "city": "B4 Block, Safdarjung Enclave", "phone": "09315039621", "website": "https://www.theauroracreatives.com/", "rating": 4, "review_count": "", "latitude": 28.5644544, "longitude": 77.1983442, "maps_url": "https://www.google.com/maps/place/?q=place_id:0x390ce31a28d18a7d:0x3934e38dd88c2f82"}, {"place_id": "0x390ce3e4539affaf:0xd4d68d866b6df03f", "name": "Tumbledry Dry Clean & Laundry Service", "category": "Dry cleaner", "street": "Shop No:1", "city": "LGF (B/M", "phone": "07677250250", "website": "https://tumbledry.in/store-locations/tumbledry-dry-clean-laundry-store-arjun-nagar-delhi/", "rating": 5, "review_count": "", "latitude": 28.5618739, "longitude": 77.200699, "maps_url": "https://www.google.com/maps/place/?q=place_id:0x390ce3e4539affaf:0xd4d68d866b6df03f"}, {"place_id": "0x390cfc23030ee441:0x3952ec925fa9e2bb", "name": "Instant Computer Solution", "category": "Computer Hardware Company", "street": "E-366 Street", "city": "16, Main Road", "phone": "08010267524", "website": "", "rating": 4.2, "review_count": "", "latitude": 28.710038299999997, "longitude": 77.26042749999999, "maps_url": "https://www.google.com/maps/place/?q=place_id:0x390cfc23030ee441:0x3952ec925fa9e2bb"}, {"place_id": "0x390cfd1ac5c79d39:0x80d73a3d7599d6fe", "name": "RG PRODUCTIONS", "category": "Photography service", "street": "S5 ,50", "city": "M7", "phone": "07217678078", "website": "", "rating": 5, "review_count": "", "latitude": 28.5620427, "longitude": 77.2001252, "maps_url": "https://www.google.com/maps/place/?q=place_id:0x390cfd1ac5c79d39:0x80d73a3d7599d6fe"}, {"place_id": "0x390ce2705aaaaaab:0x6f8255e7e320c3c4", "name": "GIE Consultants", "category": "Educational consultant", "street": "K- 13A", "city": "Green Park Extension", "phone": "09810020788", "website": "http://www.gieconsultants.com/", "rating": 4.9, "review_count": "", "latitude": 28.5620196, "longitude": 77.2015356, "maps_url": "https://www.google.com/maps/place/?q=place_id:0x390ce2705aaaaaab:0x6f8255e7e320c3c4"}, {"place_id": "0x390ce3c502e42ded:0xbbc4bc3e307140a5", "name": "Studymate", "category": "Coaching Center", "street": "Basement", "city": "K-7", "phone": "09211199946", "website": "", "rating": 4.8, "review_count": "", "latitude": 28.5617383, "longitude": 77.20098, "maps_url": "https://www.google.com/maps/place/?q=place_id:0x390ce3c502e42ded:0xbbc4bc3e307140a5"}, {"place_id": "0x390ce26df5e4aaad:0xb467087864c01d2e", "name": "Aark Pharmaceuticals | Best Pharma Distributor Company | Anti Cancer Medicines Wholesaler, Retailer & Suppliers Delhi India", "category": "Pharmaceutical Products Wholesaler", "street": "1st Floor", "city": "Uphaar Cinema Complex", "phone": "09953466646", "website": "https://aarkpharma.com/", "rating": 4.2, "review_count": "", "latitude": 28.558093999999997, "longitude": 77.2060296, "maps_url": "https://www.google.com/maps/place/?q=place_id:0x390ce26df5e4aaad:0xb467087864c01d2e"}, {"place_id": "0x390ce33854a9d329:0x4cf40fd0596bdb09", "name": "Rajesh Suri & Co", "category": "Visa Agent", "street": "1A SF", "city": "Chaudhary Harsukh Marg", "phone": "01141016620", "website": "http://www.rajeshsuriandco.in/", "rating": 4.5, "review_count": "", "latitude": 28.5624546, "longitude": 77.20066539999999, "maps_url": "https://www.google.com/maps/place/?q=place_id:0x390ce33854a9d329:0x4cf40fd0596bdb09"}, {"place_id": "0x390ce2710422161b:0xc8835f38aa80cde5", "name": "JKTDC", "category": "Guest house", "street": "M-8", "city": "Block M, Green Park Extension, Green Park", "phone": "", "website": "https://www.jktdc.co.in/", "rating": 4.1, "review_count": "", "latitude": 28.5612531, "longitude": 77.2028311, "maps_url": "https://www.google.com/maps/place/?q=place_id:0x390ce2710422161b:0xc8835f38aa80cde5"}, {"place_id": "0x390ce330e8b76cd1:0x8bf81220c0c67e56", "name": "Saurabh Vidhaan Jain & Co. (Chartered Accountants)", "category": "Certified public accountant", "street": "Gali No. 1", "city": "Block N, Green Park Extension, Green Park", "phone": "", "website": "", "rating": 5, "review_count": "", "latitude": 28.5617943, "longitude": 77.203919, "maps_url": "https://www.google.com/maps/place/?q=place_id:0x390ce330e8b76cd1:0x8bf81220c0c67e56"}, {"place_id": "0x390ce3e271227b25:0x7a2c4b32a098235a", "name": "PMH & Associates LLP, Chartered Accountants", "category": "Certified public accountant", "street": "AB 03, 2nd Floor", "city": "Safdarjung Enclave", "phone": "01143036002", "website": "http://www.pmh.co.in/", "rating": 4.6, "review_count": "", "latitude": 28.5656707, "longitude": 77.1988902, "maps_url": "https://www.google.com/maps/place/?q=place_id:0x390ce3e271227b25:0x7a2c4b32a098235a"}, {"place_id": "0x390cdc6f70fb5be5:0xa34888feda73528d", "name": "Pepper Designs", "category": "Website designer", "street": "House No 1, Ground Floor", "city": "Hauz Khas Village", "phone": "09811767560", "website": "https://www.pepper-designs.com/", "rating": 4.6, "review_count": "", "latitude": 28.555021999999997, "longitude": 77.19471399999999, "maps_url": "https://www.google.com/maps/place/?q=place_id:0x390cdc6f70fb5be5:0xa34888feda73528d"}, {"place_id": "0x390ce372bd4a140f:0x8165f0881ca05dde", "name": "Archive Hub I Best Audio Video Tapes to Digital Service in USB I Free Pick & Drop Service in Delhi", "category": "Media house", "street": "M 1, LGF", "city": "Block M, Green Park Extension, Green Park", "phone": "09899034757", "website": "https://www.archivelab.co.in/", "rating": 4.8, "review_count": "", "latitude": 28.5613462, "longitude": 77.2030599, "maps_url": "https://www.google.com/maps/place/?q=place_id:0x390ce372bd4a140f:0x8165f0881ca05dde"}, {"place_id": "0x390ce276e5555555:0x4b777cadf04e9c76", "name": "Jascon Services", "category": "Appliance repair service", "street": "C 197,Lower Ground Floor", "city": "Arjun Nagar, Safdarjung Enclave", "phone": "09312230353", "website": "", "rating": 3.9, "review_count": "", "latitude": 28.5624011, "longitude": 77.1974846, "maps_url": "https://www.google.com/maps/place/?q=place_id:0x390ce276e5555555:0x4b777cadf04e9c76"}, {"place_id": "0x390ce346564645bb:0xdae72a657d69c3e5", "name": "Under My Roof Premium Apartment", "category": "Bed & breakfast", "street": "Second Floor", "city": "M-3, Green Park Ext Rd", "phone": "08448118575", "website": "https://www.undermyroof.in/", "rating": 4.9, "review_count": "", "latitude": 28.5611194, "longitude": 77.2031737, "maps_url": "https://www.google.com/maps/place/?q=place_id:0x390ce346564645bb:0xdae72a657d69c3e5"}, {"place_id": "0x390ce26bcd05b275:0xfc0a521005150989", "name": "LexCounsel, Law Offices", "category": "Legal services", "street": "B-4/232", "city": "B4 Block, Safdarjung Enclave", "phone": "01141662861", "website": "http://www.lexcounsel.in/", "rating": 4.7, "review_count": "", "latitude": 28.5636416, "longitude": 77.1989335, "maps_url": "https://www.google.com/maps/place/?q=place_id:0x390ce26bcd05b275:0xfc0a521005150989"}, {"place_id": "0x390ce394c8af799b:0xd6f99843e4d94d25", "name": "Diverse Ed Media Private Limited", "category": "Media company", "street": "A - 1/110, Ground Floor", "city": "Safdarjung Enclave", "phone": "09716460000", "website": "http://www.diverseedmedia.com/", "rating": 5, "review_count": "", "latitude": 28.5657109, "longitude": 77.1984987, "maps_url": "https://www.google.com/maps/place/?q=place_id:0x390ce394c8af799b:0xd6f99843e4d94d25"}, {"place_id": "0x390ce1cf9c1186ab:0x4316416396a6335c", "name": "Acclefina Advisory Services Private Limited", "category": "Corporate office", "street": "#58", "city": "Madangir", "phone": "09090797465", "website": "", "rating": 5, "review_count": "", "latitude": 28.5555909, "longitude": 77.21583989999999, "maps_url": "https://www.google.com/maps/place/?q=place_id:0x390ce1cf9c1186ab:0x4316416396a6335c"}, {"place_id": "0x390ce30033212cbf:0xdaa08e3ebc8e7d21", "name": "The Guite\u2019s", "category": "Apartment building", "street": "B-192 fourth floor", "city": "Block B 7, Arjun Nagar, Safdarjung Enclave", "phone": "", "website": "", "rating": 5, "review_count": "", "latitude": 28.562691299999997, "longitude": 77.1996953, "maps_url": "https://www.google.com/maps/place/?q=place_id:0x390ce30033212cbf:0xdaa08e3ebc8e7d21"}]}