{"timestamp": 1773730881.1245365, "keyword": "IT company", "location": "delhi", "cell_idx": 309, "results": [{"place_id": "0x390d1c154aba0acd:0xc90313ce54cb43e9", "name": "Midas IT Services India Pvt Ltd", "category": "Software company", "street": "L", "city": "42", "phone": "", "website": "http://www.midaswebtech.com/", "rating": 4.6, "review_count": "", "latitude": 28.545162299999998, "longitude": 77.12531, "maps_url": "https://www.google.com/maps/place/?q=place_id:0x390d1c154aba0acd:0xc90313ce54cb43e9"}, {"place_id": "0x390d1d9ce0eaada3:0xc5a1a0a2458099e3", "name": "CODENCREATIVE TECH PVT LTD", "category": "Software company", "street": "DDA Flat", "city": "RBI Officers Colony, Vasant Vihar", "phone": "09717047610", "website": "https://codencreative.com/", "rating": 4.9, "review_count": "", "latitude": 28.563302099999998, "longitude": 77.1519732, "maps_url": "https://www.google.com/maps/place/?q=place_id:0x390d1d9ce0eaada3:0xc5a1a0a2458099e3"}, {"place_id": "0x390d1c3fadaf436b:0x7da80df34b6cc628", "name": "Acelema It Solutions Pvt. Ltd", "category": "Software company", "street": "L 357, 1st Floor", "city": "Gurgaon - Delhi Expy", "phone": "09015904466", "website": "https://www.acelema.com/", "rating": 5, "review_count": "", "latitude": 28.5456917, "longitude": 77.1231365, "maps_url": "https://www.google.com/maps/place/?q=place_id:0x390d1c3fadaf436b:0x7da80df34b6cc628"}, {"place_id": "0x390ce458d0000001:0xf2123bd299ec4501", "name": "IT Company India", "category": "Software company", "street": "D56", "city": "D Block, Sector 10", "phone": "09999244854", "website": "https://www.itcompanyindia.in/", "rating": 4.7, "review_count": "", "latitude": 28.589917699999997, "longitude": 77.3351153, "maps_url": "https://www.google.com/maps/place/?q=place_id:0x390ce458d0000001:0xf2123bd299ec4501"}, {"place_id": "0x390ce21b8d636751:0xda2fa1d06a704eab", "name": "Prinknest Technology LLP", "category": "Software company", "street": "1st Floor", "city": "RZ 122 D, Plot No.1", "phone": "08076833804", "website": "https://prinknest.com/", "rating": 4.8, "review_count": "", "latitude": 28.606828, "longitude": 77.0816226, "maps_url": "https://www.google.com/maps/place/?q=place_id:0x390ce21b8d636751:0xda2fa1d06a704eab"}, {"place_id": "0x390ce3c153b89811:0xe7a279685777e9ca", "name": "IT Company", "category": "Automation company", "street": "A-14", "city": "near iskcon temple", "phone": "", "website": "http://www.opuswiz.com/", "rating": 3, "review_count": "", "latitude": 28.557167, "longitude": 77.25424819999999, "maps_url": "https://www.google.com/maps/place/?q=place_id:0x390ce3c153b89811:0xe7a279685777e9ca"}, {"place_id": "0x390d1be7f1a44f95:0x84524a5425f8930d", "name": "InfraDost Technologies Pvt Ltd.- Microsoft Adobe Corel Draw & Security Solution Provider", "category": "Software company", "street": "Gurgaon - Delhi Expy", "city": "Block B, Mahipalpur Village, Mahipalpur", "phone": "08287792542", "website": "http://www.infradost.com/", "rating": 4.6, "review_count": "", "latitude": 28.5485743, "longitude": 77.1264697, "maps_url": "https://www.google.com/maps/place/?q=place_id:0x390d1be7f1a44f95:0x84524a5425f8930d"}, {"place_id": "0x390ce1597b5509e5:0xfd8209b937b44d3c", "name": "IT Solutions India Private Limited", "category": "Software company", "street": "D-88/5", "city": "Pocket D, Okhla Phase I, Okhla Industrial Estate", "phone": "09810017429", "website": "https://www.itsipl.com/", "rating": 4.2, "review_count": "", "latitude": 28.520146, "longitude": 77.280431, "maps_url": "https://www.google.com/maps/place/?q=place_id:0x390ce1597b5509e5:0xfd8209b937b44d3c"}, {"place_id": "0x390d1ca8de94abb1:0xc070687f1d5f8558", "name": "Bita Infotech IT Solutions:: Website Designing & Development Company", "category": "Software company", "street": "Rz-31 B, Street No. 5", "city": "Block M, West Sagarpur, Sagar Pur", "phone": "08178256664", "website": "https://bitainfotech.com/", "rating": 4.7, "review_count": "", "latitude": 28.6056495, "longitude": 77.1012293, "maps_url": "https://www.google.com/maps/place/?q=place_id:0x390d1ca8de94abb1:0xc070687f1d5f8558"}, {"place_id": "0x390d013ca8ac1387:0x8a0db85b518267d5", "name": "NexGen Innovators", "category": "Software company", "street": "114B, 3rd floor, Dwarka Mor", "city": "New Delhi, Delhi 110059", "phone": "", "website": "https://www.nexgi.com/", "rating": 4.9, "review_count": "", "latitude": 28.618961, "longitude": 77.0322202, "maps_url": "https://www.google.com/maps/place/?q=place_id:0x390d013ca8ac1387:0x8a0db85b518267d5"}, {"place_id": "0x2a72b8b69d7b6493:0x11251466d4d34cac", "name": "WebZonal IT Company", "category": "Website designer", "street": "Wz-258/2-3, D Block Rd", "city": "Khazan Basti, Nangal Raya, Janakpuri", "phone": "09811170903", "website": "http://webzonal.com/", "rating": 5, "review_count": "", "latitude": 28.6122102, "longitude": 77.11159549999999, "maps_url": "https://www.google.com/maps/place/?q=place_id:0x2a72b8b69d7b6493:0x11251466d4d34cac"}, {"place_id": "0x390d1daf5bbb6d71:0xd493e8d457a28388", "name": "DPM IT SOLUTIONS", "category": "Software company", "street": "2nd floor, madangiri", "city": "111, E-2", "phone": "09650413450", "website": "https://dpmitsolutions.com/", "rating": 5, "review_count": "", "latitude": 28.565620799999998, "longitude": 77.16005679999999, "maps_url": "https://www.google.com/maps/place/?q=place_id:0x390d1daf5bbb6d71:0xd493e8d457a28388"}, {"place_id": "0x390d1d925cb370f5:0x9e5f79cffe269b7a", "name": "Techshades IT Consultants \u2013 Digital Marketing Agency", "category": "Software company", "street": "Office No-215, 1st Floor", "city": "Sukhma Tower", "phone": "", "website": "https://techshades.in/", "rating": 5, "review_count": "", "latitude": 28.5432161, "longitude": 77.1238233, "maps_url": "https://www.google.com/maps/place/?q=place_id:0x390d1d925cb370f5:0x9e5f79cffe269b7a"}, {"place_id": "0x390d1dc539fc39dd:0xa8d421a9d22cb256", "name": "India best website development company", "category": "Software company", "street": "RZ74, RZ Rd", "city": "Hans Park, Block RZ, Sagarpur East, Sagar Pur", "phone": "", "website": "https://techbuddy31.co.in/", "rating": 5, "review_count": "", "latitude": 28.6054396, "longitude": 77.1082699, "maps_url": "https://www.google.com/maps/place/?q=place_id:0x390d1dc539fc39dd:0xa8d421a9d22cb256"}, {"place_id": "0x390d1d86a4f12173:0x3a6b42ea6f4b8260", "name": "Softvanz Technologies Private Limited", "category": "Software company", "street": "Somdutt Chamber 1", "city": "BT-22/9", "phone": "", "website": "https://softvanz.com/", "rating": 5, "review_count": "", "latitude": 28.567948899999998, "longitude": 77.1889269, "maps_url": "https://www.google.com/maps/place/?q=place_id:0x390d1d86a4f12173:0x3a6b42ea6f4b8260"}, {"place_id": "0x390cfad7fb251d4b:0xbbf83609d8e40cd3", "name": "India Assist Insights Pvt Ltd", "category": "Software company", "street": "Asset One, G1, Hyatt Andaz Residences", "city": "Aerocity", "phone": "09811664898", "website": "http://indiaassist.com/", "rating": 5, "review_count": "", "latitude": 28.5538229, "longitude": 77.12227899999999, "maps_url": "https://www.google.com/maps/place/?q=place_id:0x390cfad7fb251d4b:0xbbf83609d8e40cd3"}, {"place_id": "0x390d1b0ad6565c37:0x9ee772d45ffed70d", "name": "IOTtech Softwares", "category": "Software company", "street": "First & Second Floor", "city": "Lucky Plaza", "phone": "08034798583", "website": "", "rating": 4.9, "review_count": "", "latitude": 28.5847981, "longitude": 77.07323199999999, "maps_url": "https://www.google.com/maps/place/?q=place_id:0x390d1b0ad6565c37:0x9ee772d45ffed70d"}, {"place_id": "0x390d053af4b9fae1:0xa955718786ea4c90", "name": "Efficient IT & Electronic Services Private Limited", "category": "Software company", "street": "1st floor", "city": "VV Plaza building", "phone": "08750042191", "website": "http://www.efficientindia.com/", "rating": 4.4, "review_count": "", "latitude": 28.6100702, "longitude": 77.03385709999999, "maps_url": "https://www.google.com/maps/place/?q=place_id:0x390d053af4b9fae1:0xa955718786ea4c90"}, {"place_id": "0x390d05f1c70d0d6b:0x80d816e36f28618f", "name": "Katchin Tech Private Limited | Software Development Company in Delhi NCR", "category": "Software company", "street": "A-4", "city": "near skin decor", "phone": "07669005215", "website": "https://www.katchintech.com/", "rating": 5, "review_count": "", "latitude": 28.575834099999998, "longitude": 77.05139609999999, "maps_url": "https://www.google.com/maps/place/?q=place_id:0x390d05f1c70d0d6b:0x80d816e36f28618f"}, {"place_id": "0x390ce1fb44618b65:0x8e06b2a6128352d1", "name": "Acropolis Infotech - Delhi Office", "category": "Software company", "street": "metro station gate", "city": "55, 2nd Floor, Lane 2", "phone": "09999876593", "website": "https://www.acropolisinfotech.com/", "rating": 4.6, "review_count": "", "latitude": 28.518907, "longitude": 77.2015435, "maps_url": "https://www.google.com/maps/place/?q=place_id:0x390ce1fb44618b65:0x8e06b2a6128352d1"}, {"place_id": "0x390d02994de5e515:0xd908bc03409a0d37", "name": "Himalayan IT Solutions | Best Website Designing Company in Delhi | SEO/Digital Marketing Company in Delhi NCR, India", "category": "Website designer", "street": "61/4255, Padam Singh Rd", "city": "Block 29, Block 1, Regar Pura, Karol Bagh", "phone": "09899098509", "website": "http://www.himalayanitsolutions.com/", "rating": 3.9, "review_count": "", "latitude": 28.649673999999997, "longitude": 77.186599, "maps_url": "https://www.google.com/maps/place/?q=place_id:0x390d02994de5e515:0xd908bc03409a0d37"}, {"place_id": "0x390d19298db2fb35:0xcaa0d46737c4561c", "name": "MLM Software Developer | Sunny citrix", "category": "Software company", "street": "office no 427C, 4th floor, vashisht complex", "city": "Sikanderpur", "phone": "07906059336", "website": "http://sunnycitrix.com/", "rating": 4.8, "review_count": "", "latitude": 28.4816798, "longitude": 77.09770569999999, "maps_url": "https://www.google.com/maps/place/?q=place_id:0x390d19298db2fb35:0xcaa0d46737c4561c"}, {"place_id": "0x390d03adaef37299:0xd8b343093deaee7", "name": "Ruminate IT Solution | Best software company in Delhi NCR | IT Software company", "category": "Software company", "street": "C-64", "city": "Pocket B, Hari Nagar", "phone": "09625650376", "website": "https://www.ruminateitsolution.com/", "rating": 5, "review_count": "", "latitude": 28.628819, "longitude": 77.10428399999999, "maps_url": "https://www.google.com/maps/place/?q=place_id:0x390d03adaef37299:0xd8b343093deaee7"}, {"place_id": "0x390d1c403c9c5a9d:0xefb576c41460d21a", "name": "MND TECH", "category": "Computer support and services", "street": "A-18, Rd Number 2", "city": "Block B, Mahipalpur Extension, Mahipalpur", "phone": "09304454694", "website": "http://mndtechsolutions.com/", "rating": 4.8, "review_count": "", "latitude": 28.547701, "longitude": 77.126262, "maps_url": "https://www.google.com/maps/place/?q=place_id:0x390d1c403c9c5a9d:0xefb576c41460d21a"}, {"place_id": "0x390ce54a2ffa7a35:0xbc45f708bc311be9", "name": "MLM Software Company in Delhi | MLM Software Development Company in Delhi | India - SOFTKWIT", "category": "Software company", "street": "801B", "city": "Janakpuri District Center, Janakpuri", "phone": "08882925582", "website": "https://softkwit.in/mlm-software.php", "rating": 5, "review_count": "", "latitude": 28.630030599999998, "longitude": 77.0809543, "maps_url": "https://www.google.com/maps/place/?q=place_id:0x390ce54a2ffa7a35:0xbc45f708bc311be9"}, {"place_id": "0x390d1c154c85ce0f:0xb0963f0e0dec1299", "name": "MASTERTECHARA", "category": "Software company", "street": "L 37/336,UPPER GROUND FLOOR, STREET NO. 19, L BLOCK", "city": "Landmark-V2 Mall wali gali", "phone": "09560311263", "website": "http://www.mastertechara.in/", "rating": 5, "review_count": "", "latitude": 28.5454027, "longitude": 77.1245048, "maps_url": "https://www.google.com/maps/place/?q=place_id:0x390d1c154c85ce0f:0xb0963f0e0dec1299"}, {"place_id": "0x390d1923af5d91ed:0xbe103b16161f5631", "name": "Condeco Software Private Limited", "category": "Software company", "street": "Tower C", "city": "4th floor building 10", "phone": "01244760150", "website": "http://www.condecosoftware.com/apac", "rating": 4.3, "review_count": "", "latitude": 28.4940696, "longitude": 77.0885457, "maps_url": "https://www.google.com/maps/place/?q=place_id:0x390d1923af5d91ed:0xbe103b16161f5631"}, {"place_id": "0x390d165555555555:0xf57c20f7d07d8fd1", "name": "Teckinfo Solutions Pvt Ltd", "category": "Software company", "street": "1/1 BA, 3rd Floor, Mohammadpur,", "city": "Bhikaji Cama Place", "phone": "01149605500", "website": "https://www.teckinfo.com/", "rating": 4.6, "review_count": "", "latitude": 28.566004099999997, "longitude": 77.187579, "maps_url": "https://www.google.com/maps/place/?q=place_id:0x390d165555555555:0xf57c20f7d07d8fd1"}, {"place_id": "0x390d1c476b256351:0xef85ae31922329ae", "name": "Iris Global Services Pvt Ltd", "category": "Information services", "street": "G4XM+552", "city": "1, Bypass Rd", "phone": "08448344355", "website": "http://www.irisworld.net/", "rating": 4.2, "review_count": "", "latitude": 28.5467381, "longitude": 77.13300129999999, "maps_url": "https://www.google.com/maps/place/?q=place_id:0x390d1c476b256351:0xef85ae31922329ae"}, {"place_id": "0x390d049f5674e4b5:0xd958160a9013b45e", "name": "BI InfoTech Pvt Ltd", "category": "Software company", "street": "12/4, Jail Rd", "city": "Prem Nagar, Janakpuri", "phone": "08766248464", "website": "https://www.biinfotech.com/", "rating": 4.5, "review_count": "", "latitude": 28.6357547, "longitude": 77.0950907, "maps_url": "https://www.google.com/maps/place/?q=place_id:0x390d049f5674e4b5:0xd958160a9013b45e"}, {"place_id": "0x390d1c40d524777d:0xd85e96cc2f3481a0", "name": "Callmate India Pvt. Ltd.", "category": "Electronics Company", "street": "A-187, Street No. 11", "city": "Rd Number 4", "phone": "08527600022", "website": "http://www.callmateindia.com/", "rating": 4.1, "review_count": "", "latitude": 28.5498586, "longitude": 77.131142, "maps_url": "https://www.google.com/maps/place/?q=place_id:0x390d1c40d524777d:0xd85e96cc2f3481a0"}, {"place_id": "0x390d1df079759d1f:0x8bfa70033f6c672a", "name": "NR Technoserve Pvt. Ltd.", "category": "Software company", "street": "133, Katwaria Sarai", "city": "Phase-2, Qutab Institutional Area", "phone": "07289096762", "website": "http://www.nrtechnoserve.co.in/", "rating": 4.4, "review_count": "", "latitude": 28.5413306, "longitude": 77.18495519999999, "maps_url": "https://www.google.com/maps/place/?q=place_id:0x390d1df079759d1f:0x8bfa70033f6c672a"}, {"place_id": "0x390d1f5abfb25fe1:0x7d9c4d5e159f2955", "name": "Jaimru Technology Pvt Ltd", "category": "Website designer", "street": "WARD NO. 2", "city": "Plot No. 178 M 33 A/1", "phone": "07838153420", "website": "https://www.jaimru.com/", "rating": 4.9, "review_count": "", "latitude": 28.524347499999998, "longitude": 77.1731889, "maps_url": "https://www.google.com/maps/place/?q=place_id:0x390d1f5abfb25fe1:0x7d9c4d5e159f2955"}, {"place_id": "0x390d1c414956fc47:0x2fafa9846ecd49aa", "name": "Inckah Infrastructure Technologies Private Limited", "category": "Road Contractor", "street": "A-254, Road No. 6", "city": "Block RZ, Mahipalpur Village, Mahipalpur", "phone": "01126785033", "website": "http://www.inckah.com/", "rating": 4.5, "review_count": "", "latitude": 28.5509004, "longitude": 77.13089149999999, "maps_url": "https://www.google.com/maps/place/?q=place_id:0x390d1c414956fc47:0x2fafa9846ecd49aa"}, {"place_id": "0x390d1c60fcf8cc6b:0x58189b5fdae9d13d", "name": "Air Works India Engineering Pvt Ltd", "category": "Corporate office", "street": "8/2", "city": "Mehram Nagar West, Mehram Nagar", "phone": "", "website": "", "rating": 4.7, "review_count": "", "latitude": 28.5650266, "longitude": 77.1228321, "maps_url": "https://www.google.com/maps/place/?q=place_id:0x390d1c60fcf8cc6b:0x58189b5fdae9d13d"}, {"place_id": "0x29182cd90b477205:0xafbdc18388b8d100", "name": "Ananta Technology - IT Company", "category": "Web hosting company", "street": "RZB-214, Old Mehrauli Rd", "city": "Palam Colony, Part - I, Raj Nagar", "phone": "", "website": "https://anantatechnology.com/", "rating": 5, "review_count": "", "latitude": 28.584313899999998, "longitude": 77.0862543, "maps_url": "https://www.google.com/maps/place/?q=place_id:0x29182cd90b477205:0xafbdc18388b8d100"}, {"place_id": "0x41ddcb5488aa4703:0x5290c64921de1a5b", "name": "Bloatware IT Software Development Company | Game Development | Software Company in delhi", "category": "Software company", "street": "SILVER OAK FARMS", "city": "660, Mehrauli-Gurgaon Rd", "phone": "", "website": "https://bloatwareitsolutions.com/", "rating": 5, "review_count": "", "latitude": 28.4911034, "longitude": 77.1432663, "maps_url": "https://www.google.com/maps/place/?q=place_id:0x41ddcb5488aa4703:0x5290c64921de1a5b"}, {"place_id": "0x390ce3a2021e9897:0x28bf52d36a7d0c19", "name": "It Softtech - Website Designing and Development Company in Delhi, India", "category": "Internet marketing service", "street": "149, Ring Rd", "city": "opp. Maharani Bagh", "phone": "09810056177", "website": "", "rating": 5, "review_count": "", "latitude": 28.5763395, "longitude": 77.2640869, "maps_url": "https://www.google.com/maps/place/?q=place_id:0x390ce3a2021e9897:0x28bf52d36a7d0c19"}, {"place_id": "0x390d1dcedc71fde7:0x36857fe3e1b118f3", "name": "Zetablend innovations pvt ltd", "category": "Software company", "street": "Plot no 46/2", "city": "Palam Vihar, Shankar Vihar", "phone": "07903677368", "website": "https://zetablendinnovations.com/", "rating": "", "review_count": "", "latitude": 28.566106599999998, "longitude": 77.1399583, "maps_url": "https://www.google.com/maps/place/?q=place_id:0x390d1dcedc71fde7:0x36857fe3e1b118f3"}, {"place_id": "0x390d1b0076c735ad:0x13551f319095520a", "name": "Aftab IT information technology", "category": "Computer Hardware Company", "street": "C58", "city": "D Block, Kapas Hera Estate", "phone": "", "website": "", "rating": 5, "review_count": "", "latitude": 28.5221669, "longitude": 77.08510989999999, "maps_url": "https://www.google.com/maps/place/?q=place_id:0x390d1b0076c735ad:0x13551f319095520a"}, {"place_id": "0x390d1c60fcf8cc6b:0x58189b5fdae9d13d", "name": "Air Works India Engineering Pvt Ltd", "category": "Corporate office", "street": "8/2", "city": "Mehram Nagar West, Mehram Nagar", "phone": "", "website": "", "rating": 4.7, "review_count": "", "latitude": 28.5650266, "longitude": 77.1228321, "maps_url": "https://www.google.com/maps/place/?q=place_id:0x390d1c60fcf8cc6b:0x58189b5fdae9d13d"}, {"place_id": "0x390d05713cbc05f9:0x29ec332097ea9861", "name": "Bluebyte It Solutions", "category": "Software company", "street": "MS-83", "city": "Block MS, Mohan Garden, Uttam Nagar", "phone": "08178838292", "website": "https://www.bluebyteitsolutions.com/", "rating": 5, "review_count": "", "latitude": 28.6289797, "longitude": 77.0335781, "maps_url": "https://www.google.com/maps/place/?q=place_id:0x390d05713cbc05f9:0x29ec332097ea9861"}, {"place_id": "0x29182cd90b477205:0xafbdc18388b8d100", "name": "Ananta Technology - IT Company", "category": "Web hosting company", "street": "RZB-214, Old Mehrauli Rd", "city": "Palam Colony, Part - I, Raj Nagar", "phone": "", "website": "https://anantatechnology.com/", "rating": 5, "review_count": "", "latitude": 28.584313899999998, "longitude": 77.0862543, "maps_url": "https://www.google.com/maps/place/?q=place_id:0x29182cd90b477205:0xafbdc18388b8d100"}, {"place_id": "0x41ddcb5488aa4703:0x5290c64921de1a5b", "name": "Bloatware IT Software Development Company | Game Development | Software Company in delhi", "category": "Software company", "street": "SILVER OAK FARMS", "city": "660, Mehrauli-Gurgaon Rd", "phone": "", "website": "https://bloatwareitsolutions.com/", "rating": 5, "review_count": "", "latitude": 28.4911034, "longitude": 77.1432663, "maps_url": "https://www.google.com/maps/place/?q=place_id:0x41ddcb5488aa4703:0x5290c64921de1a5b"}, {"place_id": "0x390ce3a2021e9897:0x28bf52d36a7d0c19", "name": "It Softtech - Website Designing and Development Company in Delhi, India", "category": "Internet marketing service", "street": "149, Ring Rd", "city": "opp. Maharani Bagh", "phone": "09810056177", "website": "", "rating": 5, "review_count": "", "latitude": 28.5763395, "longitude": 77.2640869, "maps_url": "https://www.google.com/maps/place/?q=place_id:0x390ce3a2021e9897:0x28bf52d36a7d0c19"}, {"place_id": "0x390d1dcedc71fde7:0x36857fe3e1b118f3", "name": "Zetablend innovations pvt ltd", "category": "Software company", "street": "Plot no 46/2", "city": "Palam Vihar, Shankar Vihar", "phone": "07903677368", "website": "https://zetablendinnovations.com/", "rating": "", "review_count": "", "latitude": 28.566106599999998, "longitude": 77.1399583, "maps_url": "https://www.google.com/maps/place/?q=place_id:0x390d1dcedc71fde7:0x36857fe3e1b118f3"}, {"place_id": "0x390d1b0076c735ad:0x13551f319095520a", "name": "Aftab IT information technology", "category": "Computer Hardware Company", "street": "C58", "city": "D Block, Kapas Hera Estate", "phone": "", "website": "", "rating": 5, "review_count": "", "latitude": 28.5221669, "longitude": 77.08510989999999, "maps_url": "https://www.google.com/maps/place/?q=place_id:0x390d1b0076c735ad:0x13551f319095520a"}, {"place_id": "0x390d191598f48ef3:0x70991b4ff870f05d", "name": "Shree Partners LLC", "category": "Software company", "street": "1, Tower A, Building, Cyber City", "city": "Corporate Edge Level", "phone": "01246728815", "website": "https://www.shreepartners.com/", "rating": 4.3, "review_count": "", "latitude": 28.4936018, "longitude": 77.088325, "maps_url": "https://www.google.com/maps/place/?q=place_id:0x390d191598f48ef3:0x70991b4ff870f05d"}, {"place_id": "0x390d05f6807aba3f:0x8d4dbf179623854a", "name": "Erp Software Company Delhi | Crm Software Development Company in Delhi", "category": "Software company", "street": "3 Floor", "city": "B-77", "phone": "09266518819", "website": "https://www.weblyticsinfotech.com/crm-software-in-delhi.php", "rating": 5, "review_count": "", "latitude": 28.6150725, "longitude": 77.0341376, "maps_url": "https://www.google.com/maps/place/?q=place_id:0x390d05f6807aba3f:0x8d4dbf179623854a"}, {"place_id": "0x390d19174792f4db:0xcb5f589caa71b6e7", "name": "Knocial India Limited", "category": "Software company", "street": "60B", "city": "Udyog Vihar, Sector 22", "phone": "09354120847", "website": "https://www.knocialindia.com/", "rating": 4.7, "review_count": "", "latitude": 28.504239499999997, "longitude": 77.0651981, "maps_url": "https://www.google.com/maps/place/?q=place_id:0x390d19174792f4db:0xcb5f589caa71b6e7"}, {"place_id": "0x390d19437cb628b3:0x12e71803eb09ac16", "name": "Clavax Technologies", "category": "Software company", "street": "727", "city": "Udyog Vihar, Phase 5", "phone": "+18444252829", "website": "http://www.clavax.com/", "rating": 4.1, "review_count": "", "latitude": 28.5052123, "longitude": 77.0850025, "maps_url": "https://www.google.com/maps/place/?q=place_id:0x390d19437cb628b3:0x12e71803eb09ac16"}, {"place_id": "0x390d1b8e5b6999a1:0x522ffbc2c7c23362", "name": "Techthastu Private Limited (Techthaastu)", "category": "Software company", "street": "Techthaastu Office, Pt. Mehru Marg, Outer Bharthal Firni road Bharthal Village", "city": "near Govt. Girls senior secondary School", "phone": "08383889042", "website": "https://www.techthaastu.com/", "rating": 5, "review_count": "", "latitude": 28.5403192, "longitude": 77.0524594, "maps_url": "https://www.google.com/maps/place/?q=place_id:0x390d1b8e5b6999a1:0x522ffbc2c7c23362"}, {"place_id": "0x390d05c8987801e5:0x128e04dce6c4cbc4", "name": "Matrix Infotech Solution | Software Development Company", "category": "Software company", "street": "j j", "city": "Dwarka Mor, Block WE, Mohan Garden, Razapur Khurd", "phone": "08920817059", "website": "http://www.matrixinfotechsolution.com/", "rating": 3.9, "review_count": "", "latitude": 28.637037, "longitude": 77.0291258, "maps_url": "https://www.google.com/maps/place/?q=place_id:0x390d05c8987801e5:0x128e04dce6c4cbc4"}, {"place_id": "0x390d195c26bfa369:0x69bd8efd2e3a31fe", "name": "Radical Minds Technologies Pvt. Ltd.", "category": "BPO Company", "street": "368", "city": "Phase II, Udyog Vihar, Sector 20", "phone": "01244338366", "website": "http://www.radicalminds.in/", "rating": 4.2, "review_count": "", "latitude": 28.506335099999998, "longitude": 77.0877546, "maps_url": "https://www.google.com/maps/place/?q=place_id:0x390d195c26bfa369:0x69bd8efd2e3a31fe"}, {"place_id": "0x390d1bcd76384d39:0xdb32f9430e255f8e", "name": "WINISHTECH IT SOLUTIONS PRIVATE LIMITED", "category": "Software company", "street": "B1/639 A", "city": "Janakpuri West, Block B1, Janakpuri", "phone": "", "website": "https://winishtechitsolutions.com/", "rating": 5, "review_count": "", "latitude": 28.6324707, "longitude": 77.0857044, "maps_url": "https://www.google.com/maps/place/?q=place_id:0x390d1bcd76384d39:0xdb32f9430e255f8e"}, {"place_id": "0x390ce26dc4d4ba2d:0x9486a6d620e379f9", "name": "Akal Information Systems Ltd.", "category": "Software company", "street": "Tower J, World Trade Center", "city": "103", "phone": "01146503545", "website": "https://www.akalinfo.com/", "rating": 3.9, "review_count": "", "latitude": 28.567935499999997, "longitude": 77.1923202, "maps_url": "https://www.google.com/maps/place/?q=place_id:0x390ce26dc4d4ba2d:0x9486a6d620e379f9"}, {"place_id": "0x20616dbf813c03ef:0xc8fd1ca47f902e9e", "name": "Bloatware IT Software Company | website Designing Company | Software Company | MLM |CRM | Android Apps", "category": "Software company", "street": "C1", "city": "Rama Park", "phone": "08920750797", "website": "https://bloatwareitsolutions.com/", "rating": 4.5, "review_count": "", "latitude": 28.621265599999997, "longitude": 77.0324943, "maps_url": "https://www.google.com/maps/place/?q=place_id:0x20616dbf813c03ef:0xc8fd1ca47f902e9e"}, {"place_id": "0x390cfd4a4f5f7dbd:0x513251d01ca6b29", "name": "Sumitomo Corporation India Private Limited", "category": "Corporate office", "street": "5th Floor", "city": "West Wing, World Mark 1", "phone": "01142373181", "website": "https://www.sumitomocorp.com/en/asia-oceania/scin/?region_selector=true", "rating": 4.7, "review_count": "", "latitude": 28.5505881, "longitude": 77.1213783, "maps_url": "https://www.google.com/maps/place/?q=place_id:0x390cfd4a4f5f7dbd:0x513251d01ca6b29"}, {"place_id": "0x390d1d08bb7adc9b:0x627d728b2f5b286f", "name": "MEDESCORT INTERNATIONAL PRIVATE LIMITED", "category": "Corporate office", "street": "8/258 F/F MEHRAM NAGAR Oppo.Terminal 1,Arrival Hall (DOMESTIC AIRPORT IGI AIRPORT", "city": "New Delhi, Delhi 110037", "phone": "09774900430", "website": "", "rating": 5, "review_count": "", "latitude": 28.564808499999998, "longitude": 77.1298204, "maps_url": "https://www.google.com/maps/place/?q=place_id:0x390d1d08bb7adc9b:0x627d728b2f5b286f"}, {"place_id": "0x390d1960c2b8367f:0xd2d30e45ac71acea", "name": "Vorombetech Solutions - Top IT & Digitalization Service Company in Gurugram", "category": "Software company", "street": "249", "city": "Phase IV, Udyog Vihar, Sector 19", "phone": "", "website": "https://vorombetech.com/", "rating": 4.8, "review_count": "", "latitude": 28.4941475, "longitude": 77.0808448, "maps_url": "https://www.google.com/maps/place/?q=place_id:0x390d1960c2b8367f:0xd2d30e45ac71acea"}, {"place_id": "0x390d036a16f841d9:0x9b91311b1453f4c0", "name": "Zon Tec Solutions", "category": "Software company", "street": "3rd Floor", "city": "302 - 302 A, West", "phone": "09599902185", "website": "https://zontecsolutions.com/", "rating": 4.1, "review_count": "", "latitude": 28.6382303, "longitude": 77.1205162, "maps_url": "https://www.google.com/maps/place/?q=place_id:0x390d036a16f841d9:0x9b91311b1453f4c0"}, {"place_id": "0x390d1dd455555555:0xf0c0ae7cb8e85b43", "name": "AtoZ Group of Companies", "category": "Property management company", "street": "37/537, Vasant Kunj Rd", "city": "Block A, Mahipalpur Village, Mahipalpur", "phone": "09810818888", "website": "http://www.atozgroup.in/", "rating": 3.7, "review_count": "", "latitude": 28.5452659, "longitude": 77.128058, "maps_url": "https://www.google.com/maps/place/?q=place_id:0x390d1dd455555555:0xf0c0ae7cb8e85b43"}, {"place_id": "0x390d1b6807b97c57:0xb6dc40e91d71681f", "name": "Algo2bots Infotech", "category": "Software company", "street": "WZ-291, Street Number 8", "city": "Sadh Nagar I, Sadh Nagar, Palam", "phone": "09911447760", "website": "http://algo2botsinfotech.com/", "rating": 5, "review_count": "", "latitude": 28.587672599999998, "longitude": 77.09199129999999, "maps_url": "https://www.google.com/maps/place/?q=place_id:0x390d1b6807b97c57:0xb6dc40e91d71681f"}, {"place_id": "0x390d055ab880b807:0xcb5c025daa2b2795", "name": "Tech Web Mantra", "category": "Software company", "street": "B-77", "city": "near Dwarka Mor Metro Station", "phone": "09871521039", "website": "https://www.techwebmantra.com/", "rating": 5, "review_count": "", "latitude": 28.614187899999997, "longitude": 77.0362179, "maps_url": "https://www.google.com/maps/place/?q=place_id:0x390d055ab880b807:0xcb5c025daa2b2795"}, {"place_id": "0x390d1baaff346a7b:0x1b774913c94bd822", "name": "Ontech Digital Technologies Pvt. Ltd.", "category": "Website designer", "street": "3rd floor", "city": "Shyam Kunj Tower", "phone": "08802377021", "website": "https://ontechdigital.com/", "rating": 5, "review_count": "", "latitude": 28.5994429, "longitude": 77.0819152, "maps_url": "https://www.google.com/maps/place/?q=place_id:0x390d1baaff346a7b:0x1b774913c94bd822"}, {"place_id": "0x390d19ad585bba37:0xc7a1380f3c30571a", "name": "Wroffy Technologies Pvt Ltd", "category": "Computer support and services", "street": "304", "city": "Vipul Business Park", "phone": "01244349014", "website": "https://www.wroffy.com/", "rating": 4.3, "review_count": "", "latitude": 28.4226457, "longitude": 77.0376039, "maps_url": "https://www.google.com/maps/place/?q=place_id:0x390d19ad585bba37:0xc7a1380f3c30571a"}, {"place_id": "0x390d1d08bb7adc9b:0x627d728b2f5b286f", "name": "MEDESCORT INTERNATIONAL PRIVATE LIMITED", "category": "Ambulance service", "street": "8/258 F/F MEHRAM NAGAR Oppo.Terminal 1,Arrival Hall (DOMESTIC AIRPORT IGI AIRPORT", "city": "New Delhi, Delhi 110037", "phone": "09774900430", "website": "", "rating": 5, "review_count": "", "latitude": 28.564808499999998, "longitude": 77.1298204, "maps_url": "https://www.google.com/maps/place/?q=place_id:0x390d1d08bb7adc9b:0x627d728b2f5b286f"}, {"place_id": "0x390d19c4f81c373b:0x569790526001fe47", "name": "Pasenture Technologies - Web Development Company in Gurugram, Software Development Company in Gurgaon for CRM & Saas Software", "category": "Software company", "street": "2nd Floor", "city": "90, IDC", "phone": "09717197498", "website": "https://pasenture.in/", "rating": 4, "review_count": "", "latitude": 28.4716508, "longitude": 77.0509349, "maps_url": "https://www.google.com/maps/place/?q=place_id:0x390d19c4f81c373b:0x569790526001fe47"}, {"place_id": "0x390d1fb9b19cd7d7:0x2febfba590f33428", "name": "Corapana Technologies - Mobile App Development and Web Design Development Company Delhi", "category": "Software company", "street": "Ground floor", "city": "D-23", "phone": "08295242621", "website": "https://corapana.com/", "rating": 4.8, "review_count": "", "latitude": 28.496378999999997, "longitude": 77.17898, "maps_url": "https://www.google.com/maps/place/?q=place_id:0x390d1fb9b19cd7d7:0x2febfba590f33428"}, {"place_id": "0x390d0245a5555555:0x2b7e7ed6818c3ab7", "name": "CSB Charter Services Pvt Ltd", "category": "Corporate office", "street": "IGI, Terminal 1", "city": "8/23 1st", "phone": "09899115597", "website": "http://csbcharters.com/", "rating": 4.9, "review_count": "", "latitude": 28.565781899999998, "longitude": 77.1245344, "maps_url": "https://www.google.com/maps/place/?q=place_id:0x390d0245a5555555:0x2b7e7ed6818c3ab7"}, {"place_id": "0x390d1c46d556aa5f:0x860f671b4ab95401", "name": "OverseasOne Business Solutions", "category": "Consultant", "street": "A-294, Road No. 6", "city": "NH-8, Block RZ, Mahipalpur Village, Mahipalpur", "phone": "09205816999", "website": "http://overseasone.com/", "rating": 3.8, "review_count": "", "latitude": 28.550951599999998, "longitude": 77.1300701, "maps_url": "https://www.google.com/maps/place/?q=place_id:0x390d1c46d556aa5f:0x860f671b4ab95401"}, {"place_id": "0x390d1d0b472666c5:0xeca5e92cc2096465", "name": "ACS AEROS INDIA", "category": "Aviation consultant", "street": "Indira Gandhi International Airport", "city": "opp. G5 Building", "phone": "09315771702", "website": "http://www.acs-indi.com/", "rating": 4.8, "review_count": "", "latitude": 28.5657592, "longitude": 77.12285609999999, "maps_url": "https://www.google.com/maps/place/?q=place_id:0x390d1d0b472666c5:0xeca5e92cc2096465"}, {"place_id": "0x390d1c615045b3df:0x967d3ee0b5401d59", "name": "Airport Lift", "category": "Elevator service", "street": "H47C+64H", "city": "Indira Gandhi International Airport", "phone": "", "website": "http://dhimanhydraulics.in/", "rating": 4.3, "review_count": "", "latitude": 28.5630582, "longitude": 77.1203515, "maps_url": "https://www.google.com/maps/place/?q=place_id:0x390d1c615045b3df:0x967d3ee0b5401d59"}, {"place_id": "0x390d193c3a36e523:0xe68f8d2568faeaad", "name": "Espire Infolabs Pvt. Ltd.", "category": "Software company", "street": "486 & 487", "city": "Phase III, Udyog Vihar III, Sector 20", "phone": "01247173000", "website": "http://www.espire.com/", "rating": 4.1, "review_count": "", "latitude": 28.5119516, "longitude": 77.0899661, "maps_url": "https://www.google.com/maps/place/?q=place_id:0x390d193c3a36e523:0xe68f8d2568faeaad"}, {"place_id": "0x390d1d8c3bc9c68d:0xf71204a70007ed24", "name": "Hitachi India Pvt. Ltd. & Hitachi Lift India Pvt Ltd", "category": "Manufacturer", "street": "H42C+6GH, Indira Gandhi International Airport", "city": "Tower B", "phone": "01140605252", "website": "http://www.hitachi.co.in/", "rating": 1.4, "review_count": "", "latitude": 28.550555499999998, "longitude": 77.1213703, "maps_url": "https://www.google.com/maps/place/?q=place_id:0x390d1d8c3bc9c68d:0xf71204a70007ed24"}, {"place_id": "0x390d195a774465b1:0x2b370d83f394dd79", "name": "Calibrated Healthcare Systems", "category": "Corporate office", "street": "Aerocity, Indira Gandhi International Airport", "city": "New Delhi, Delhi 110037", "phone": "01244171500", "website": "https://calibratedhealthcare.com/", "rating": 3.9, "review_count": "", "latitude": 28.5527721, "longitude": 77.1217217, "maps_url": "https://www.google.com/maps/place/?q=place_id:0x390d195a774465b1:0x2b370d83f394dd79"}, {"place_id": "0x390d1db0320254cf:0x55622d8901ac1ec9", "name": "Vatech India", "category": "Dental radiology", "street": "2nd Floor", "city": "S.M. Plaza", "phone": "09599812206", "website": "http://vatechindia.in/", "rating": 4.3, "review_count": "", "latitude": 28.5480608, "longitude": 77.1331506, "maps_url": "https://www.google.com/maps/place/?q=place_id:0x390d1db0320254cf:0x55622d8901ac1ec9"}, {"place_id": "0x390d0302af76c545:0x97d6a46d40086acd", "name": "Solarman Technology Project Pvt Ltd - Digital Marketing Company in Delhi, India |Software Development Company | IT Company", "category": "Internet marketing service", "street": "6/14", "city": "Block 5, Kirti Nagar Industrial Area, Kirti Nagar", "phone": "07428086779", "website": "https://solarmantech.in/", "rating": 5, "review_count": "", "latitude": 28.6517841, "longitude": 77.14799649999999, "maps_url": "https://www.google.com/maps/place/?q=place_id:0x390d0302af76c545:0x97d6a46d40086acd"}, {"place_id": "0xac577056c2b5ff3d:0xaf00253141553d04", "name": "Devnotam | IT Company", "category": "Internet marketing service", "street": "", "city": "", "phone": "", "website": "https://devnotam.com/", "rating": 5, "review_count": "", "latitude": 28.692404999999997, "longitude": 77.090042, "maps_url": "https://www.google.com/maps/place/?q=place_id:0xac577056c2b5ff3d:0xaf00253141553d04"}, {"place_id": "0x390d1ed3c6e9f579:0x322eccdb00f350d2", "name": "Techjockey", "category": "Software company", "street": "Ground floor, Habitat India", "city": "C-3", "phone": "01142213003", "website": "https://www.techjockey.com/", "rating": 4, "review_count": "", "latitude": 28.536615299999998, "longitude": 77.1902978, "maps_url": "https://www.google.com/maps/place/?q=place_id:0x390d1ed3c6e9f579:0x322eccdb00f350d2"}, {"place_id": "0x390d19c4f81c373b:0x569790526001fe47", "name": "Pasenture Technologies - Web Development Company in Gurugram, Software Development Company in Gurgaon for CRM & Saas Software", "category": "Software company", "street": "2nd Floor", "city": "90, IDC", "phone": "09717197498", "website": "https://pasenture.in/", "rating": 4, "review_count": "", "latitude": 28.4716508, "longitude": 77.0509349, "maps_url": "https://www.google.com/maps/place/?q=place_id:0x390d19c4f81c373b:0x569790526001fe47"}, {"place_id": "0x390d0245a5555555:0x2b7e7ed6818c3ab7", "name": "CSB Charter Services Pvt Ltd", "category": "Corporate office", "street": "IGI, Terminal 1", "city": "8/23 1st", "phone": "09899115597", "website": "http://csbcharters.com/", "rating": 4.9, "review_count": "", "latitude": 28.565781899999998, "longitude": 77.1245344, "maps_url": "https://www.google.com/maps/place/?q=place_id:0x390d0245a5555555:0x2b7e7ed6818c3ab7"}, {"place_id": "0x390d1c46d556aa5f:0x860f671b4ab95401", "name": "OverseasOne Business Solutions", "category": "Software company", "street": "A-294, Road No. 6", "city": "NH-8, Block RZ, Mahipalpur Village, Mahipalpur", "phone": "09205816999", "website": "http://overseasone.com/", "rating": 3.8, "review_count": "", "latitude": 28.550951599999998, "longitude": 77.1300701, "maps_url": "https://www.google.com/maps/place/?q=place_id:0x390d1c46d556aa5f:0x860f671b4ab95401"}, {"place_id": "0x390d1d0b472666c5:0xeca5e92cc2096465", "name": "ACS AEROS INDIA", "category": "Aviation consultant", "street": "Indira Gandhi International Airport", "city": "opp. G5 Building", "phone": "09315771702", "website": "http://www.acs-indi.com/", "rating": 4.8, "review_count": "", "latitude": 28.5657592, "longitude": 77.12285609999999, "maps_url": "https://www.google.com/maps/place/?q=place_id:0x390d1d0b472666c5:0xeca5e92cc2096465"}, {"place_id": "0x390d1c615045b3df:0x967d3ee0b5401d59", "name": "Airport Lift", "category": "Elevator service", "street": "H47C+64H", "city": "Indira Gandhi International Airport", "phone": "", "website": "http://dhimanhydraulics.in/", "rating": 4.3, "review_count": "", "latitude": 28.5630582, "longitude": 77.1203515, "maps_url": "https://www.google.com/maps/place/?q=place_id:0x390d1c615045b3df:0x967d3ee0b5401d59"}, {"place_id": "0x390d193c3a36e523:0xe68f8d2568faeaad", "name": "Espire Infolabs Pvt. Ltd.", "category": "Software company", "street": "486 & 487", "city": "Phase III, Udyog Vihar III, Sector 20", "phone": "01247173000", "website": "http://www.espire.com/", "rating": 4.1, "review_count": "", "latitude": 28.5119516, "longitude": 77.0899661, "maps_url": "https://www.google.com/maps/place/?q=place_id:0x390d193c3a36e523:0xe68f8d2568faeaad"}, {"place_id": "0x390d1d8c3bc9c68d:0xf71204a70007ed24", "name": "Hitachi India Pvt. Ltd. & Hitachi Lift India Pvt Ltd", "category": "Manufacturer", "street": "H42C+6GH, Indira Gandhi International Airport", "city": "Tower B", "phone": "01140605252", "website": "http://www.hitachi.co.in/", "rating": 1.4, "review_count": "", "latitude": 28.550555499999998, "longitude": 77.1213703, "maps_url": "https://www.google.com/maps/place/?q=place_id:0x390d1d8c3bc9c68d:0xf71204a70007ed24"}, {"place_id": "0x390d195a774465b1:0x2b370d83f394dd79", "name": "Calibrated Healthcare Systems", "category": "Corporate office", "street": "Aerocity, Indira Gandhi International Airport", "city": "New Delhi, Delhi 110037", "phone": "01244171500", "website": "https://calibratedhealthcare.com/", "rating": 3.9, "review_count": "", "latitude": 28.5527721, "longitude": 77.1217217, "maps_url": "https://www.google.com/maps/place/?q=place_id:0x390d195a774465b1:0x2b370d83f394dd79"}, {"place_id": "0x390d1db0320254cf:0x55622d8901ac1ec9", "name": "Vatech India", "category": "Corporate office", "street": "2nd Floor", "city": "S.M. Plaza", "phone": "09599812206", "website": "http://vatechindia.in/", "rating": 4.3, "review_count": "", "latitude": 28.5480608, "longitude": 77.1331506, "maps_url": "https://www.google.com/maps/place/?q=place_id:0x390d1db0320254cf:0x55622d8901ac1ec9"}, {"place_id": "0x390d0302af76c545:0x97d6a46d40086acd", "name": "Solarman Technology Project Pvt Ltd - Digital Marketing Company in Delhi, India |Software Development Company | IT Company", "category": "Software company", "street": "6/14", "city": "Block 5, Kirti Nagar Industrial Area, Kirti Nagar", "phone": "07428086779", "website": "https://solarmantech.in/", "rating": 5, "review_count": "", "latitude": 28.6517841, "longitude": 77.14799649999999, "maps_url": "https://www.google.com/maps/place/?q=place_id:0x390d0302af76c545:0x97d6a46d40086acd"}, {"place_id": "0xac577056c2b5ff3d:0xaf00253141553d04", "name": "Devnotam | IT Company", "category": "Internet marketing service", "street": "", "city": "", "phone": "", "website": "https://devnotam.com/", "rating": 5, "review_count": "", "latitude": 28.692404999999997, "longitude": 77.090042, "maps_url": "https://www.google.com/maps/place/?q=place_id:0xac577056c2b5ff3d:0xaf00253141553d04"}, {"place_id": "0x390d1ed3c6e9f579:0x322eccdb00f350d2", "name": "Techjockey", "category": "Software company", "street": "Ground floor, Habitat India", "city": "C-3", "phone": "01142213003", "website": "https://www.techjockey.com/", "rating": 4, "review_count": "", "latitude": 28.536615299999998, "longitude": 77.1902978, "maps_url": "https://www.google.com/maps/place/?q=place_id:0x390d1ed3c6e9f579:0x322eccdb00f350d2"}, {"place_id": "0x390d1d686e3cfb7d:0x30d2b5283d5c3921", "name": "Blue Tokai Coffee Roasters | Terminal 1, IGI Airport", "category": "Cafe", "street": "T-1", "city": "Indira Gandhi International Airport", "phone": "09870403258", "website": "https://stores.bluetokaicoffee.com/blue-tokai-coffee-roasters-terminal-1-igi-airport-cafe-indira-gandhi-international-airport-new-delhi-447277/Home?utm_source=locator&utm_medium=googleplaces", "rating": 4.1, "review_count": "", "latitude": 28.5653859, "longitude": 77.12128469999999, "maps_url": "https://www.google.com/maps/place/?q=place_id:0x390d1d686e3cfb7d:0x30d2b5283d5c3921"}, {"place_id": "0x390d1db0aef40171:0xb748a2e6079dd53d", "name": "YB INFORMATICS", "category": "Computer support and services", "street": "43, Poorvi Marg", "city": "Block A, Vasant Vihar", "phone": "09650920040", "website": "http://www.ybinformatics.com/", "rating": 5, "review_count": "", "latitude": 28.560817399999998, "longitude": 77.1666408, "maps_url": "https://www.google.com/maps/place/?q=place_id:0x390d1db0aef40171:0xb748a2e6079dd53d"}, {"place_id": "0x390cfea83f36661b:0x893715bf8766e4ee", "name": "IT Solution", "category": "Software company", "street": "P7CG+RPF", "city": "Mahalaxmi Vihar, Phase 7, Block A, Shiv Vihar, Karawal Nagar", "phone": "09818231784", "website": "", "rating": 5, "review_count": "", "latitude": 28.722054399999998, "longitude": 77.2768011, "maps_url": "https://www.google.com/maps/place/?q=place_id:0x390cfea83f36661b:0x893715bf8766e4ee"}, {"place_id": "0x390cff4887f4e283:0x44be2fa6b6f771a5", "name": "Super Information Technology Services", "category": "Software company", "street": "Office No.3, Kh.No.414", "city": "Ambey Enclave", "phone": "09540499241", "website": "https://www.sits4.com/", "rating": 4.8, "review_count": "", "latitude": 28.753171899999998, "longitude": 77.2454748, "maps_url": "https://www.google.com/maps/place/?q=place_id:0x390cff4887f4e283:0x44be2fa6b6f771a5"}, {"place_id": "0x390d1b0010fc2321:0x12e9154c815cf007", "name": "Prashant Dwivedi IT company", "category": "Warehouse", "street": "G3P5+GVC", "city": "Nayak Pura, Bijwasan", "phone": "", "website": "", "rating": "", "review_count": "", "latitude": 28.536316, "longitude": 77.059649, "maps_url": "https://www.google.com/maps/place/?q=place_id:0x390d1b0010fc2321:0x12e9154c815cf007"}, {"place_id": "0x390cfb4bf15a6733:0xaf50e6f3c5fb7641", "name": "Digitals Daddy: Web & App Development Company", "category": "Software company", "street": "Metro Gate No. 2", "city": "Nearest Sikandarpur", "phone": "09818286609", "website": "https://www.digitalsdaddy.com/", "rating": 4.9, "review_count": "", "latitude": 28.4847884, "longitude": 77.0922192, "maps_url": "https://www.google.com/maps/place/?q=place_id:0x390cfb4bf15a6733:0xaf50e6f3c5fb7641"}, {"place_id": "0x390d1c1375428d95:0x329a5350d2f550ec", "name": "Global India Express Pvt Ltd", "category": "Corporate office", "street": "L-204, Street Number 7C", "city": "near Vijaya Bank", "phone": "09810497982", "website": "https://www.globalindiaexpress.com/", "rating": 4.6, "review_count": "", "latitude": 28.544389499999998, "longitude": 77.1232125, "maps_url": "https://www.google.com/maps/place/?q=place_id:0x390d1c1375428d95:0x329a5350d2f550ec"}, {"place_id": "0x390d1b44dac29e85:0xd19c8cf2057c43e8", "name": "AVC Dotfy LLP", "category": "Software company", "street": "C-157, Janak Cinema Community Center Janakpuri Janak Cinema Community Center", "city": "110056", "phone": "09821830895", "website": "https://dotfy.in/", "rating": 4.7, "review_count": "", "latitude": 28.6114547, "longitude": 77.0945327, "maps_url": "https://www.google.com/maps/place/?q=place_id:0x390d1b44dac29e85:0xd19c8cf2057c43e8"}]}