[{"place_id": "ChIJA6KtL5kCDTkR7wFe_OSD2bE", "name": "Omniscient IT Solutions Pvt. Ltd", "street": "4, 28, Saraswati Marg, Block 15A, WEA, Karol Bagh, New Delhi, Delhi, 110005, India", "phone": "+91 98110 27310", "rating": "4.6", "review_count": "", "website": "https://www.omniscientitsolutions.com/", "latitude": 28.646959, "longitude": 77.1882229, "maps_url": "https://www.google.com/maps/search/?api=1&query=Omniscient%20IT%20Solutions%20Pvt.%20Ltd&query_place_id=ChIJA6KtL5kCDTkR7wFe_OSD2bE"}, {"place_id": "ChIJPR796sD9DDkRLo5M9V9l1nA", "name": "Binarysoft Technologies (We bring IT)", "street": "1st Floor, 1626/33, Block 27F, Naiwala, Karol Bagh, Delhi, 110005, India", "phone": "+91 92054 71661", "rating": "5", "review_count": "", "website": "http://www.binarysoft.com/", "latitude": 28.647633, "longitude": 77.19496199999999, "maps_url": "https://www.google.com/maps/search/?api=1&query=Binarysoft%20Technologies%20%28We%20bring%20IT%29&query_place_id=ChIJPR796sD9DDkRLo5M9V9l1nA"}, {"place_id": "ChIJFeXlTZkCDTkRNw2aQAO8CNk", "name": "Himalayan IT Solutions | Best Website Designing Company in Delhi | SEO/Digital Marketing Company in Delhi NCR, India", "street": "61/4255, Padam Singh Rd, Block 29, Block 1, Regar Pura, Karol Bagh, Delhi, 110005, India", "phone": "+91 98990 98509", "rating": "3.9", "review_count": "", "website": "http://www.himalayanitsolutions.com/", "latitude": 28.649673999999997, "longitude": 77.186599, "maps_url": "https://www.google.com/maps/search/?api=1&query=Himalayan%20IT%20Solutions%20%7C%20Best%20Website%20Designing%20Company%20in%20Delhi%20%7C%20SEO/Digital%20Marketing%20Company%20in%20Delhi%20NCR%2C%20India&query_place_id=ChIJFeXlTZkCDTkRNw2aQAO8CNk"}, {"place_id": "ChIJXUaNbIEDDTkRGeQ542Caims", "name": "Paper Code Technologies", "street": "T-1871 D, Ashok Nagar Uppar Ridge Road Jhandewalan, Karol Bagh, New Delhi, Delhi 110055, India", "phone": "+91 85958 85110", "rating": "4.9", "review_count": "", "website": "https://papercodetech.com/", "latitude": 28.647361, "longitude": 77.2016883, "maps_url": "https://www.google.com/maps/search/?api=1&query=Paper%20Code%20Technologies&query_place_id=ChIJXUaNbIEDDTkRGeQ542Caims"}, {"place_id": "ChIJJS2nYJoCDTkR8ZKgzjgdREU", "name": "Payroll Software Companies", "street": "4/28, Ground Floor, Saraswati Marg, W.E.A, Karol Bagh, New Delhi, Delhi 110005, India", "phone": "+91 97111 95490", "rating": "4.3", "review_count": "", "website": "", "latitude": 28.6484551, "longitude": 77.1875826, "maps_url": "https://www.google.com/maps/search/?api=1&query=Payroll%20Software%20Companies&query_place_id=ChIJJS2nYJoCDTkR8ZKgzjgdREU"}, {"place_id": "ChIJB6AZSUD9DDkRuApv-5TZXZg", "name": "MMI Softwares Pvt. Ltd.", "street": "B-A4, 9/54, Namdhari Chamber, Desh Bandhu Gupta Rd, Block 53, Karol Bagh, New Delhi, Delhi 110005, India", "phone": "+91 99714 76501", "rating": "4.6", "review_count": "", "website": "http://www.mmsoftwares.com/", "latitude": 28.6536804, "longitude": 77.1916753, "maps_url": "https://www.google.com/maps/search/?api=1&query=MMI%20Softwares%20Pvt.%20Ltd.&query_place_id=ChIJB6AZSUD9DDkRuApv-5TZXZg"}, {"place_id": "ChIJq6qOI2L9DDkR38KnEgy0rzs", "name": "Chartered Information Systems Private Limited", "street": "222-233, Desh Bandhu Gupta Rd, Block 47, Beadonpura, Karol Bagh, New Delhi, Delhi, 110005, India", "phone": "+91 11 4503 7177", "rating": "4.9", "review_count": "", "website": "http://www.charteredinfo.com/", "latitude": 28.6504962, "longitude": 77.196344, "maps_url": "https://www.google.com/maps/search/?api=1&query=Chartered%20Information%20Systems%20Private%20Limited&query_place_id=ChIJq6qOI2L9DDkR38KnEgy0rzs"}, {"place_id": "ChIJL-nKSx0DDTkRYRIgQ0ZkHSo", "name": "OCPL Tech", "street": "Block 16, 16/17, Block 8, WEA, Karol Bagh, New Delhi, Delhi, 110005, India", "phone": "", "rating": "5", "review_count": "", "website": "https://ocpl.tech/", "latitude": 28.645553099999997, "longitude": 77.1931304, "maps_url": "https://www.google.com/maps/search/?api=1&query=OCPL%20Tech&query_place_id=ChIJL-nKSx0DDTkRYRIgQ0ZkHSo"}, {"place_id": "ChIJUX61TOUCDTkRPmeqyd2Pcps", "name": "IT Solutions & Services (ITSS)", "street": "T–2425 Street Number 21, Baljeet Nagar, West Patel Nagar, New Delhi, Delhi 110008, India", "phone": "+91 88004 19462", "rating": "4.7", "review_count": "", "website": "https://www.itssin.com/", "latitude": 28.6576111, "longitude": 77.160708, "maps_url": "https://www.google.com/maps/search/?api=1&query=IT%20Solutions%20%26%20Services%20%28ITSS%29&query_place_id=ChIJUX61TOUCDTkRPmeqyd2Pcps"}, {"place_id": "ChIJZaKPOJ4CDTkRXmdZo_-gxiM", "name": "Enbake Consulting Pvt. Ltd.", "street": "4B, 10184, Arya Samaj Rd, Block 15, WEA, Karol Bagh, New Delhi, Delhi, 110005, India", "phone": "+91 95827 45110", "rating": "3.8", "review_count": "", "website": "http://enbake.com/", "latitude": 28.647752699999998, "longitude": 77.1931573, "maps_url": "https://www.google.com/maps/search/?api=1&query=Enbake%20Consulting%20Pvt.%20Ltd.&query_place_id=ChIJZaKPOJ4CDTkRXmdZo_-gxiM"}, {"place_id": "ChIJL4BtX1wdDTkRIiNTpELCuuM", "name": "Nobilitas Infotech Pvt. Ltd. - IT Solutions Company", "street": "Padma Tower II, 210, Rajendra Place, New Delhi, Delhi 110005, India", "phone": "+91 84483 84926", "rating": "5", "review_count": "", "website": "https://www.nobilitasinfotech.com/", "latitude": 28.6451836, "longitude": 77.1780375, "maps_url": "https://www.google.com/maps/search/?api=1&query=Nobilitas%20Infotech%20Pvt.%20Ltd.%20-%20IT%20Solutions%20Company&query_place_id=ChIJL4BtX1wdDTkRIiNTpELCuuM"}, {"place_id": "ChIJs-qd8zMDDTkRI8WvMoIh69Y", "name": "Digitally Bird | Best eCommerce Website Design and Development company in Delhi, India", "street": "Block 29, 61/4255, Padam Singh Rd, Block 29, Block 11, Regar Pura, Karol Bagh, Delhi, 110005, India", "phone": "+91 97175 00603", "rating": "5", "review_count": "", "website": "https://www.digitallybird.com/", "latitude": 28.6497952, "longitude": 77.1873057, "maps_url": "https://www.google.com/maps/search/?api=1&query=Digitally%20Bird%20%7C%20Best%20eCommerce%20Website%20Design%20and%20Development%20company%20in%20Delhi%2C%20India&query_place_id=ChIJs-qd8zMDDTkRI8WvMoIh69Y"}, {"place_id": "ChIJSy2Jhp4CDTkR_0QSNabY9kM", "name": "Digital Marketing Agency, Software Development Company, SEO Services Company in Delhi", "street": "3rd Floor, 16/448, Block - I, Building Number, Military Rd, Karol Bagh, New Delhi, Delhi 110005, India", "phone": "+91 98183 53030", "rating": "5", "review_count": "", "website": "https://www.micromind.in/", "latitude": 28.655144999999997, "longitude": 77.18114899999999, "maps_url": "https://www.google.com/maps/search/?api=1&query=Digital%20Marketing%20Agency%2C%20Software%20Development%20Company%2C%20SEO%20Services%20Company%20in%20Delhi&query_place_id=ChIJSy2Jhp4CDTkR_0QSNabY9kM"}, {"place_id": "ChIJZ37rImL9DDkRNwd-MYPEWG0", "name": "Netmax Computers", "street": "2092/37 3rd Floor Naiwala, Karol Bagh, New Delhi, Delhi 110005, India", "phone": "+91 74289 67774", "rating": "4.3", "review_count": "", "website": "http://www.netmaxindia.com/", "latitude": 28.6504649, "longitude": 77.19629929999999, "maps_url": "https://www.google.com/maps/search/?api=1&query=Netmax%20Computers&query_place_id=ChIJZ37rImL9DDkRNwd-MYPEWG0"}, {"place_id": "ChIJ0Ql-EWL9DDkRWb24ujA3NdY", "name": "Web Design, Digital Marketing, Software & Mobile App Development.", "street": "", "phone": "", "rating": "3.7", "review_count": "", "website": "", "latitude": 28.692404999999997, "longitude": 77.090042, "maps_url": "https://www.google.com/maps/search/?api=1&query=Web%20Design%2C%20Digital%20Marketing%2C%20Software%20%26%20Mobile%20App%20Development.&query_place_id=ChIJ0Ql-EWL9DDkRWb24ujA3NdY"}, {"place_id": "ChIJL_8v6Ff9DDkRPU1CYhmlTfw", "name": "CONCAT - Business Consulting Firms In India | vCXO | Digital Marketing & Lead Generation", "street": "1E/2, Block E 4, Jhandewalan Extension, Karol Bagh, New Delhi, Delhi 110055, India", "phone": "", "rating": "5", "review_count": "", "website": "https://concators.com/", "latitude": 28.6444406, "longitude": 77.2002596, "maps_url": "https://www.google.com/maps/search/?api=1&query=CONCAT%20-%20Business%20Consulting%20Firms%20In%20India%20%7C%20vCXO%20%7C%20Digital%20Marketing%20%26%20Lead%20Generation&query_place_id=ChIJL_8v6Ff9DDkRPU1CYhmlTfw"}, {"place_id": "ChIJyfb1OOIR2KoR8nFNkmeTt3U", "name": "One India Tax Solution", "street": "14A/62 Ground Flour, near Saar Inn Hotel, Block 14A, WEA, Karol Bagh, Delhi, 110005, India", "phone": "+91 88518 03660", "rating": "5", "review_count": "", "website": "", "latitude": 28.6450584, "longitude": 77.1860743, "maps_url": "https://www.google.com/maps/search/?api=1&query=One%20India%20Tax%20Solution&query_place_id=ChIJyfb1OOIR2KoR8nFNkmeTt3U"}, {"place_id": "ChIJ51AtDZ0DDTkRF6QrEcB_6Ks", "name": "Renovision Automation Services Pvt.Ltd-karol bagh", "street": "16, 8, Arya Samaj Rd, Block 16, WEA, Karol Bagh, New Delhi, Delhi, 110005, India", "phone": "+91 93107 19624", "rating": "3.7", "review_count": "", "website": "http://www.raspl.com/", "latitude": 28.647336499999998, "longitude": 77.1937694, "maps_url": "https://www.google.com/maps/search/?api=1&query=Renovision%20Automation%20Services%20Pvt.Ltd-karol%20bagh&query_place_id=ChIJ51AtDZ0DDTkRF6QrEcB_6Ks"}, {"place_id": "ChIJV4blL5gCDTkRktgeIDWd3T8", "name": "Manning Consulting", "street": "", "phone": "+91 98112 22637", "rating": "4.8", "review_count": "", "website": "http://www.manningconsulting.in/", "latitude": 21.0680074, "longitude": 82.7525294, "maps_url": "https://www.google.com/maps/search/?api=1&query=Manning%20Consulting&query_place_id=ChIJV4blL5gCDTkRktgeIDWd3T8"}, {"place_id": "ChIJwf1Bi8blDDkR4WuGvDhiPwQ", "name": "TRIVENI WORLD - Buy Refurbished & Second Hand Mobile Phones Online In India", "street": "7, Telecom Plaza, Triveni World, Gurudwara Rd, Karol Bagh, New Delhi, Delhi 110005, India", "phone": "+91 70658 44397", "rating": "3.3", "review_count": "", "website": "http://www.triveniworld.com/", "latitude": 28.650418799999997, "longitude": 77.1914414, "maps_url": "https://www.google.com/maps/search/?api=1&query=TRIVENI%20WORLD%20-%20Buy%20Refurbished%20%26%20Second%20Hand%20Mobile%20Phones%20Online%20In%20India&query_place_id=ChIJwf1Bi8blDDkR4WuGvDhiPwQ"}, {"place_id": "ChIJvwmGY-r9DDkRkM1isX3WyfM", "name": "Aim Dynamics", "street": "Building No, 2168, Gurudwara Rd, Block 37J, Beadonpura, Karol Bagh, New Delhi, Delhi, 110005, India", "phone": "+91 79 7133 5690", "rating": "3.9", "review_count": "", "website": "", "latitude": 28.6498577, "longitude": 77.1943452, "maps_url": "https://www.google.com/maps/search/?api=1&query=Aim%20Dynamics&query_place_id=ChIJvwmGY-r9DDkRkM1isX3WyfM"}, {"place_id": "ChIJ_3wSn54CDTkRmKyS2Ohu2mM", "name": "AZ Infolink Pvt. Ltd.", "street": "Upper Ground Floor, AZ Infolink Pvt.Ltd, 4/3, near Hotel Grand Peepal, Block 4, WEA, Karol Bagh, New Delhi, Delhi, 110005, India", "phone": "+91 77019 93963", "rating": "4.2", "review_count": "", "website": "https://www.azlinkplus.com/", "latitude": 28.647926, "longitude": 77.18751, "maps_url": "https://www.google.com/maps/search/?api=1&query=AZ%20Infolink%20Pvt.%20Ltd.&query_place_id=ChIJ_3wSn54CDTkRmKyS2Ohu2mM"}, {"place_id": "ChIJVWDXk10DDTkRKhw_TcMD1Lk", "name": "Muvit Gadgets Co.", "street": "5/31, 3rd Floor, Saraswati Marg, Block 5, WEA, Karol Bagh, New Delhi, Delhi, 110005, India", "phone": "+91 96432 37575", "rating": "4.4", "review_count": "", "website": "https://muvit.in/", "latitude": 28.6477875, "longitude": 77.18907639999999, "maps_url": "https://www.google.com/maps/search/?api=1&query=Muvit%20Gadgets%20Co.&query_place_id=ChIJVWDXk10DDTkRKhw_TcMD1Lk"}, {"place_id": "ChIJ4_QbqvQDDTkRUV17EnOsFkk", "name": "QSpiders Delhi", "street": "No. 8/3, Part, Fourth Floor, Western Extn Karol Bagh Colony, Rajender Nagar Ward, Zone, Karol Bagh, New Delhi, Delhi 110005, India", "phone": "+91 89519 38997", "rating": "4.7", "review_count": "", "website": "https://qspiders.com/", "latitude": 28.645386499999997, "longitude": 77.1922999, "maps_url": "https://www.google.com/maps/search/?api=1&query=QSpiders%20Delhi&query_place_id=ChIJ4_QbqvQDDTkRUV17EnOsFkk"}, {"place_id": "ChIJdXCN3EEDDTkRoJINk8_fM1A", "name": "Ennod - IT Solutions", "street": "12-a/14, Saraswati Marg, Block 12A, WEA, Karol Bagh, New Delhi, Delhi, 110005, India", "phone": "+91 93105 55260", "rating": "", "review_count": "", "website": "https://ennod.com/", "latitude": 28.646982899999998, "longitude": 77.18712169999999, "maps_url": "https://www.google.com/maps/search/?api=1&query=Ennod%20-%20IT%20Solutions&query_place_id=ChIJdXCN3EEDDTkRoJINk8_fM1A"}, {"place_id": "ChIJQU2gj2wDDTkRCtE4pycX5n0", "name": "MARS ACCESSORIES INDIA PRIVATE LIMITED", "street": "5/31, 3rd Floor, Saraswati Marg, Block 5, WEA, Karol Bagh, Delhi, 110005, India", "phone": "+91 87662 67369", "rating": "4.1", "review_count": "", "website": "https://muvit.in/", "latitude": 28.6477078, "longitude": 77.18925829999999, "maps_url": "https://www.google.com/maps/search/?api=1&query=MARS%20ACCESSORIES%20INDIA%20PRIVATE%20LIMITED&query_place_id=ChIJQU2gj2wDDTkRCtE4pycX5n0"}, {"place_id": "ChIJq6q2H5wCDTkRppYnUcFbRVo", "name": "Makpower Mobile Accessories Manufacturer Delhi", "street": "1st floor, 5/31, Block 5, WEA, Karol Bagh, New Delhi, Delhi, 110005, India", "phone": "+91 78279 76524", "rating": "4.6", "review_count": "", "website": "https://makpowerindia.com/", "latitude": 28.648004699999998, "longitude": 77.189694, "maps_url": "https://www.google.com/maps/search/?api=1&query=Makpower%20Mobile%20Accessories%20Manufacturer%20Delhi&query_place_id=ChIJq6q2H5wCDTkRppYnUcFbRVo"}, {"place_id": "ChIJV7lWghD9DDkRO7rOH_4S4dU", "name": "Soroo - Premuim Mobile Accessories", "street": "First Floor Shop No. 105, 107 Universe, SOROO WORLD, 13/20, Karol Bagh, Delhi, 110005, India", "phone": "+91 85869 78510", "rating": "4.7", "review_count": "", "website": "https://whatsapp.com/channel/0029VbATw5W0wajxevmoAT11", "latitude": 28.6494085, "longitude": 77.189934, "maps_url": "https://www.google.com/maps/search/?api=1&query=Soroo%20-%20Premuim%20Mobile%20Accessories&query_place_id=ChIJV7lWghD9DDkRO7rOH_4S4dU"}, {"place_id": "ChIJpWxOgZsCDTkRuTCXKf-mBkw", "name": "KonaRRk - Lifestyle", "street": "Konarrk , Building No. 5/11 3rd floor, Saraswati Marg, Near Gaffar Market, WEA, Karol Bagh, Delhi, 110005, India", "phone": "+91 98998 45034", "rating": "4.7", "review_count": "", "website": "", "latitude": 28.647558099999998, "longitude": 77.1888975, "maps_url": "https://www.google.com/maps/search/?api=1&query=KonaRRk%20-%20Lifestyle&query_place_id=ChIJpWxOgZsCDTkRuTCXKf-mBkw"}, {"place_id": "ChIJXTn08c4DDTkRT9BnrXfAETU", "name": "Crocon", "street": "12A/39, 3rd Floor, Saraswati Marg, Block 4, WEA, Karol Bagh, New Delhi, Delhi, 110005, India", "phone": "+91 93153 81913", "rating": "5", "review_count": "", "website": "https://www.theindianhand.com/", "latitude": 28.6478666, "longitude": 77.1873458, "maps_url": "https://www.google.com/maps/search/?api=1&query=Crocon&query_place_id=ChIJXTn08c4DDTkRT9BnrXfAETU"}, {"place_id": "ChIJs7t2M5wCDTkRLQuQSzDtWm0", "name": "Baba Tools Store", "street": "Network Plaza, B3, 4, Gali Number 17, Beadonpura, Karol Bagh, New Delhi, Delhi 110005, India", "phone": "", "rating": "4.1", "review_count": "", "website": "https://www.babaocamachine.com/", "latitude": 28.6508377, "longitude": 77.19119649999999, "maps_url": "https://www.google.com/maps/search/?api=1&query=Baba%20Tools%20Store&query_place_id=ChIJs7t2M5wCDTkRLQuQSzDtWm0"}, {"place_id": "ChIJj1WgazQDDTkRWyFA8NOsfBc", "name": "Greyon Cosmetics", "street": "2nd Floor, Vardan, 17-A, 38-39, Ajmal Khan Rd, Block 5, WEA, Karol Bagh, New Delhi, Delhi, 110005, India", "phone": "", "rating": "4.7", "review_count": "", "website": "http://greyon.co/", "latitude": 28.6473481, "longitude": 77.1899028, "maps_url": "https://www.google.com/maps/search/?api=1&query=Greyon%20Cosmetics&query_place_id=ChIJj1WgazQDDTkRWyFA8NOsfBc"}, {"place_id": "ChIJ2YGWfQIDDTkRe1c_iIHOFSg", "name": "Taxgoal", "street": "17A/56 2nd floor, Triveni Plaza, 204, WEA, Karol Bagh, New Delhi, Delhi 110005, India", "phone": "+91 91385 31153", "rating": "4.9", "review_count": "", "website": "https://taxgoal.in/", "latitude": 28.6461527, "longitude": 77.1902662, "maps_url": "https://www.google.com/maps/search/?api=1&query=Taxgoal&query_place_id=ChIJ2YGWfQIDDTkRe1c_iIHOFSg"}, {"place_id": "ChIJbb549WH9DDkRVp0mRR9XtSs", "name": "Adequate Steel Fabricators", "street": "2015, Bank St, Block 47, Beadonpura, Karol Bagh, New Delhi, Delhi, 110005, India", "phone": "+91 98100 14985", "rating": "4.4", "review_count": "", "website": "https://www.adequatesteel.com/", "latitude": 28.649862, "longitude": 77.1957642, "maps_url": "https://www.google.com/maps/search/?api=1&query=Adequate%20Steel%20Fabricators&query_place_id=ChIJbb549WH9DDkRVp0mRR9XtSs"}, {"place_id": "ChIJMUoeuQQDDTkRgFbQldy8l_c", "name": "Wholemonkey Marketing E-Commerce", "street": "12/5, Block 12, WEA, Karol Bagh, New Delhi, Delhi, 110005, India", "phone": "+91 85018 02100", "rating": "3.9", "review_count": "", "website": "http://www.wholemonkey.com/", "latitude": 28.6497557, "longitude": 77.1885455, "maps_url": "https://www.google.com/maps/search/?api=1&query=Wholemonkey%20Marketing%20E-Commerce&query_place_id=ChIJMUoeuQQDDTkRgFbQldy8l_c"}, {"place_id": "ChIJE9NL9GD9DDkRaQa6HLygtd4", "name": "Vertex Fincorp Pvt Ltd", "street": "Number 3, Faiz Rd, Sewak Chember, Block 49A, Naiwala, Karol Bagh, New Delhi, Delhi, 110005, India", "phone": "", "rating": "4.8", "review_count": "", "website": "", "latitude": 28.648685399999998, "longitude": 77.19842109999999, "maps_url": "https://www.google.com/maps/search/?api=1&query=Vertex%20Fincorp%20Pvt%20Ltd&query_place_id=ChIJE9NL9GD9DDkRaQa6HLygtd4"}, {"place_id": "ChIJG8ZvuWT9DDkRmVHG94rdy5E", "name": "A2A Vision Pvt. Ltd.", "street": "316, 953-956, AJ Chamber, Pyarelal Rd, Gali Number 4, Block 49A, Naiwala, Karol Bagh, New Delhi, Delhi 110005, India", "phone": "+91 11 4300 3848", "rating": "5", "review_count": "", "website": "http://www.a2avision.com/", "latitude": 28.6484417, "longitude": 77.1983691, "maps_url": "https://www.google.com/maps/search/?api=1&query=A2A%20Vision%20Pvt.%20Ltd.&query_place_id=ChIJG8ZvuWT9DDkRmVHG94rdy5E"}, {"place_id": "ChIJidDON5wCDTkRtKJcVJeuv5s", "name": "Maxbhi.com", "street": "3rd floor, Network Plaza, 318, Saraswati Road, Beadonpura, Karol Bagh, New Delhi, Delhi, 110005, India", "phone": "+91 95991 97756", "rating": "4.2", "review_count": "", "website": "https://www.maxbhi.com/%20samsung%20galaxy%20a12%20front%20camera%20available%20hai%20sir", "latitude": 28.6507999, "longitude": 77.1910572, "maps_url": "https://www.google.com/maps/search/?api=1&query=Maxbhi.com&query_place_id=ChIJidDON5wCDTkRtKJcVJeuv5s"}, {"place_id": "ChIJNzGy7LYDDTkRNXf56mjXolg", "name": "The Creation", "street": "4th Floor, 17, Pusa Rd, Block 8, WEA, Karol Bagh, New Delhi, Delhi, 110005, India", "phone": "+91 98184 05894", "rating": "4.5", "review_count": "", "website": "http://www.thecreation.in/", "latitude": 28.64474, "longitude": 77.191228, "maps_url": "https://www.google.com/maps/search/?api=1&query=The%20Creation&query_place_id=ChIJNzGy7LYDDTkRNXf56mjXolg"}, {"place_id": "ChIJ7zX5Sd0DDTkRX1edCdDGywg", "name": "Intelenet Technologies", "street": "Office no.16A/19, 2nd Floor Office No F, 5, Ajmal Khan Rd, Karol Bagh, New Delhi, Delhi 110005, India", "phone": "", "rating": "1.4", "review_count": "", "website": "", "latitude": 28.6449258, "longitude": 77.18827859999999, "maps_url": "https://www.google.com/maps/search/?api=1&query=Intelenet%20Technologies&query_place_id=ChIJ7zX5Sd0DDTkRX1edCdDGywg"}, {"place_id": "ChIJGfrOswD9DDkRQw3eQjjHAtY", "name": "Electricita Energy Pvt. Ltd.", "street": "Plot No. 3, Block B Faiz Road, Jhandewalan, Estate, Karol Bagh, New Delhi, Delhi 110005, India", "phone": "+91 99119 23293", "rating": "3.3", "review_count": "", "website": "http://electricita.co.in/", "latitude": 28.650040999999998, "longitude": 77.200437, "maps_url": "https://www.google.com/maps/search/?api=1&query=Electricita%20Energy%20Pvt.%20Ltd.&query_place_id=ChIJGfrOswD9DDkRQw3eQjjHAtY"}, {"place_id": "ChIJj_ILDTsDDTkRHueVRwQtnVI", "name": "AJAH TECHNOLOGIES", "street": "12, 3, Saraswati Marg, Block 4, WEA, Karol Bagh, New Delhi, Delhi, 110005, India", "phone": "", "rating": "4.2", "review_count": "", "website": "", "latitude": 28.6479838, "longitude": 77.1887802, "maps_url": "https://www.google.com/maps/search/?api=1&query=AJAH%20TECHNOLOGIES&query_place_id=ChIJj_ILDTsDDTkRHueVRwQtnVI"}, {"place_id": "ChIJrT7OXBYDDTkRWEyLIpDrXDE", "name": "Web Techno Expert", "street": "4, 28, Saraswati Marg, Block 12, WEA, Karol Bagh, Delhi, 110005, India", "phone": "+91 98107 44660", "rating": "5", "review_count": "", "website": "https://www.webtechnoexperts.com/", "latitude": 28.649784999999998, "longitude": 77.18861989999999, "maps_url": "https://www.google.com/maps/search/?api=1&query=Web%20Techno%20Expert&query_place_id=ChIJrT7OXBYDDTkRWEyLIpDrXDE"}, {"place_id": "ChIJT-9H_fb9DDkRkQ6WB10y3hw", "name": "Buzzmeeh", "street": "Shop no 36 , ndmc market, Connaught Cir, Connaught Place, New Delhi, Delhi 110005, India", "phone": "+91 80109 69696", "rating": "3.8", "review_count": "", "website": "https://www.buzzmeeh.com/mobile-repair-in-delhi", "latitude": 28.646343299999998, "longitude": 77.1926946, "maps_url": "https://www.google.com/maps/search/?api=1&query=Buzzmeeh&query_place_id=ChIJT-9H_fb9DDkRkQ6WB10y3hw"}, {"place_id": "ChIJjaS3EQ8DDTkR60pI_xJkOB4", "name": "ISONIX - Mobile Accessories and Bluetooth Speakers", "street": "5, 37, Saraswati Marg, Block 4, WEA, Karol Bagh, New Delhi, Delhi, 110005, India", "phone": "+91 82878 78139", "rating": "5", "review_count": "", "website": "", "latitude": 28.6473464, "longitude": 77.187885, "maps_url": "https://www.google.com/maps/search/?api=1&query=ISONIX%20-%20Mobile%20Accessories%20and%20Bluetooth%20Speakers&query_place_id=ChIJjaS3EQ8DDTkR60pI_xJkOB4"}, {"place_id": "ChIJ1-nWQZ4CDTkR6IgbNef9w6Y", "name": "FURMATS", "street": "Pratap Chambers, 404, Gurudwara Rd, Block 25A, Naiwala, Karol Bagh, New Delhi, Delhi, 110005, India", "phone": "+91 11 3060 6000", "rating": "3.3", "review_count": "", "website": "https://furmats.com/", "latitude": 28.648244299999998, "longitude": 77.1928775, "maps_url": "https://www.google.com/maps/search/?api=1&query=FURMATS&query_place_id=ChIJ1-nWQZ4CDTkR6IgbNef9w6Y"}, {"place_id": "ChIJXehgrEUDDTkRQa6A0ZOfuWY", "name": "Surplus dekho", "street": "17a/53, Gurudwara Rd, opposite jassa ram hospital, above and, Block 6, WEA, Karol Bagh, New Delhi, Delhi, 110005, India", "phone": "+91 92122 00006", "rating": "4.4", "review_count": "", "website": "https://surplusdekho.com/", "latitude": 28.646079999999998, "longitude": 77.190666, "maps_url": "https://www.google.com/maps/search/?api=1&query=Surplus%20dekho&query_place_id=ChIJXehgrEUDDTkRQa6A0ZOfuWY"}, {"place_id": "ChIJXW3E2Z0CDTkRNGoAwf6QPSs", "name": "Vikram Creations Private Limited", "street": "2406, Hardhyan Singh Rd, Block 37J, Naiwala, Karol Bagh, New Delhi, Delhi, 110005, India", "phone": "+91 98111 44961", "rating": "4.7", "review_count": "", "website": "http://vikramcreations.com/", "latitude": 28.649887999999997, "longitude": 77.19242919999999, "maps_url": "https://www.google.com/maps/search/?api=1&query=Vikram%20Creations%20Private%20Limited&query_place_id=ChIJXW3E2Z0CDTkRNGoAwf6QPSs"}, {"place_id": "ChIJ822goJ4CDTkR3iH6m8_fvjM", "name": "JPW MOBILE ACCESSORIES", "street": "3793, Gali No.20, near Vishnu Mandir, Reghar Pura, Block 8, WEA, Karol Bagh, New Delhi, Delhi, 110005, India", "phone": "+91 1800 212 444 445", "rating": "4.6", "review_count": "", "website": "", "latitude": 28.6460559, "longitude": 77.1933117, "maps_url": "https://www.google.com/maps/search/?api=1&query=JPW%20MOBILE%20ACCESSORIES&query_place_id=ChIJ822goJ4CDTkR3iH6m8_fvjM"}, {"place_id": "ChIJy0WcY54CDTkR2-F3JWyRFaw", "name": "Mobatree Manufacturers Private Limited", "street": "", "phone": "+91 1800 120 5562", "rating": "4.7", "review_count": "", "website": "https://www.mobatree.com/", "latitude": 21.0680074, "longitude": 82.7525294, "maps_url": "https://www.google.com/maps/search/?api=1&query=Mobatree%20Manufacturers%20Private%20Limited&query_place_id=ChIJy0WcY54CDTkR2-F3JWyRFaw"}, {"place_id": "ChIJwb4YwGH9DDkRu96xB9w37Co", "name": "Shree Anjani Courier Services Pvt. Ltd.", "street": "House No.1381, Galli No.21, 2nd Floor, Nai Walan, Karol Bagh, New Delhi, Delhi 110005, India", "phone": "+91 79 2546 1202", "rating": "2.5", "review_count": "", "website": "", "latitude": 28.6498626, "longitude": 77.1960871, "maps_url": "https://www.google.com/maps/search/?api=1&query=Shree%20Anjani%20Courier%20Services%20Pvt.%20Ltd.&query_place_id=ChIJwb4YwGH9DDkRu96xB9w37Co"}, {"place_id": "ChIJG1iHIuEDDTkRFU3NYUTvk_I", "name": "Deluxe Cargo Packers And Movers", "street": "Plot No 14, Block 7, Block 16A, WEA, Karol Bagh, New Delhi, Delhi, 110005, India", "phone": "+91 88600 08146", "rating": "5", "review_count": "", "website": "http://www.deluxecargopackers.com/", "latitude": 28.645162, "longitude": 77.1895055, "maps_url": "https://www.google.com/maps/search/?api=1&query=Deluxe%20Cargo%20Packers%20And%20Movers&query_place_id=ChIJG1iHIuEDDTkRFU3NYUTvk_I"}, {"place_id": "ChIJL8jNVWD9DDkRheze-OjcWHQ", "name": "Teknomatics", "street": "", "phone": "+91 99530 65125", "rating": "3", "review_count": "", "website": "", "latitude": 21.0680074, "longitude": 82.7525294, "maps_url": "https://www.google.com/maps/search/?api=1&query=Teknomatics&query_place_id=ChIJL8jNVWD9DDkRheze-OjcWHQ"}, {"place_id": "ChIJh9C6W7YDDTkR9ApRxlpbgGo", "name": "Greymoons | Website Design Company in Delhi, India | Graphic Design", "street": "Block 29, Padam Singh Rd, Block 4, Regar Pura, Karol Bagh, New Delhi, Delhi, 110005, India", "phone": "+91 98218 81394", "rating": "5", "review_count": "", "website": "http://www.greymoons.com/", "latitude": 28.6491804, "longitude": 77.1880655, "maps_url": "https://www.google.com/maps/search/?api=1&query=Greymoons%20%7C%20Website%20Design%20Company%20in%20Delhi%2C%20India%20%7C%20Graphic%20Design&query_place_id=ChIJh9C6W7YDDTkR9ApRxlpbgGo"}, {"place_id": "ChIJ_f1Otz0FDTkRaULdKs4F6Dk", "name": "KARACT FILINGS", "street": "208, 2nd Floor, 2066/38-39, Gali Number 16, Pocket 29, Naiwala, Karol Bagh, New Delhi, Delhi, 110005, India", "phone": "+91 78629 92992", "rating": "5", "review_count": "", "website": "", "latitude": 28.6461729, "longitude": 77.19656859999999, "maps_url": "https://www.google.com/maps/search/?api=1&query=KARACT%20FILINGS&query_place_id=ChIJ_f1Otz0FDTkRaULdKs4F6Dk"}, {"place_id": "ChIJA_JAOmD9DDkRUTuRjOuh7BY", "name": "Click Mecha", "street": "Office no, 3, Arya Samaj Rd, near big biknervala, Block 18, WEA, Karol Bagh, New Delhi, Delhi, 110005, India", "phone": "+91 99990 08998", "rating": "4.9", "review_count": "", "website": "https://clickmecha.com/", "latitude": 28.646258999999997, "longitude": 77.195506, "maps_url": "https://www.google.com/maps/search/?api=1&query=Click%20Mecha&query_place_id=ChIJA_JAOmD9DDkRUTuRjOuh7BY"}]