{"timestamp": 1773734925.212473, "keyword": "IT company", "location": "Indore", "cell_idx": 119, "results": [{"place_id": "0x3963179ba819d679:0x97d67928bba81e05", "name": "ITGeeks Technologies Pvt. Ltd.", "category": "Software company", "street": "ITGeeks Technologies Pvt. Ltd", "city": "02, Yamuna nagar", "phone": "09179880603", "website": "http://www.itgeeks.com/", "rating": 4.6, "review_count": "", "latitude": 22.9538781, "longitude": 76.03808699999999, "maps_url": "https://www.google.com/maps/place/?q=place_id:0x3963179ba819d679:0x97d67928bba81e05"}, {"place_id": "0x3963179ca584a047:0xba87fc574f813753", "name": "Xlligent Softwares Pvt Ltd", "category": "Software company", "street": "111", "city": "near front of DCB Bank", "phone": "06261900209", "website": "https://www.xlligent-softwares.com/", "rating": 4.9, "review_count": "", "latitude": 22.9666632, "longitude": 76.0492101, "maps_url": "https://www.google.com/maps/place/?q=place_id:0x3963179ca584a047:0xba87fc574f813753"}, {"place_id": "0x3963171787e17b59:0x307a92533e921d11", "name": "Edithtech Softwares", "category": "Software company", "street": "44", "city": "Shourya Complex", "phone": "09109260321", "website": "https://edithtechsoftwares.com/", "rating": 4.8, "review_count": "", "latitude": 22.9547074, "longitude": 76.0365456, "maps_url": "https://www.google.com/maps/place/?q=place_id:0x3963171787e17b59:0x307a92533e921d11"}, {"place_id": "0x39631772fb57fa4d:0x1aeaaccddfab1b64", "name": "ITWEBINFO", "category": "Software company", "street": "103", "city": "Shivaji Nagar, Moti Bunglow", "phone": "07582995555", "website": "http://itwebinfo.com/", "rating": 5, "review_count": "", "latitude": 22.9710605, "longitude": 76.0480532, "maps_url": "https://www.google.com/maps/place/?q=place_id:0x39631772fb57fa4d:0x1aeaaccddfab1b64"}, {"place_id": "0x390ce458d0000001:0xf2123bd299ec4501", "name": "IT Company India", "category": "Software company", "street": "D56", "city": "D Block, Sector 10", "phone": "09999244854", "website": "https://www.itcompanyindia.in/", "rating": 4.7, "review_count": "", "latitude": 28.589917699999997, "longitude": 77.3351153, "maps_url": "https://www.google.com/maps/place/?q=place_id:0x390ce458d0000001:0xf2123bd299ec4501"}, {"place_id": "0x3963178ff220a477:0x51910ecd6deaed53", "name": "Cyber Elite Pvt Ltd.", "category": "Software company", "street": "226 LIG", "city": "Jawahar Nagar, Gomti Nagar", "phone": "07089899090", "website": "https://cyberelite.in/", "rating": 4.2, "review_count": "", "latitude": 22.953131199999998, "longitude": 76.0426221, "maps_url": "https://www.google.com/maps/place/?q=place_id:0x3963178ff220a477:0x51910ecd6deaed53"}, {"place_id": "0x39631792ea7d9083:0xc90228718db1b1af", "name": "Sypnosis Technologies - IT Company.", "category": "Software company", "street": "2nd Floor", "city": "10", "phone": "09039239604", "website": "https://sypnosistechnologies.com/", "rating": "", "review_count": "", "latitude": 22.955443499999998, "longitude": 76.0369978, "maps_url": "https://www.google.com/maps/place/?q=place_id:0x39631792ea7d9083:0xc90228718db1b1af"}, {"place_id": "0x3962e3d56c170eb1:0x876e329535a3531d", "name": "AG TECHNOLOGIES, Software Company in Indore", "category": "Software company", "street": "28, Shree Krishna Vihar Colony, Near Shree Chintaman Hanuman Mandir, Opp Malviya Petrol Pump, Radisson Square", "city": "Madhya Pradesh 452016", "phone": "", "website": "", "rating": 5, "review_count": "", "latitude": 22.744705999999997, "longitude": 75.910692, "maps_url": "https://www.google.com/maps/place/?q=place_id:0x3962e3d56c170eb1:0x876e329535a3531d"}, {"place_id": "0x39631736a0f7d871:0xf0f334accf365a3a", "name": "Ayat infotech", "category": "Software company", "street": "51", "city": "Anand nagar, Itawa", "phone": "09589981295", "website": "http://ayatinfotech.com/", "rating": 5, "review_count": "", "latitude": 22.9726128, "longitude": 76.05058269999999, "maps_url": "https://www.google.com/maps/place/?q=place_id:0x39631736a0f7d871:0xf0f334accf365a3a"}, {"place_id": "0x39630239f26f44ff:0x9990e42765534532", "name": "Hybrid Infotech Pvt Ltd", "category": "Software company", "street": "Forest colony, Shivaji Nagar, Moti Bunglow", "city": "Dewas, Madhya Pradesh 455001", "phone": "09993031042", "website": "http://hybridinfotech.com/", "rating": 5, "review_count": "", "latitude": 22.9662243, "longitude": 76.0484005, "maps_url": "https://www.google.com/maps/place/?q=place_id:0x39630239f26f44ff:0x9990e42765534532"}, {"place_id": "0x3962d7cd4bbe61e1:0xb647890dbb1b2392", "name": "Shree Dev Services", "category": "Computer service", "street": "Infront Of Polish Station", "city": "Hatpipliya, Madhya Pradesh 455223", "phone": "07240921013", "website": "", "rating": 5, "review_count": "", "latitude": 22.7757392, "longitude": 76.3022001, "maps_url": "https://www.google.com/maps/place/?q=place_id:0x3962d7cd4bbe61e1:0xb647890dbb1b2392"}, {"place_id": "0x3be7c21b5901e181:0x7fe794585addc1f6", "name": "Smartinfologiks - Software Development Company in India | IT Solutions", "category": "Software company", "street": "Hilton Center", "city": "514", "phone": "07400064691", "website": "https://www.smartinfologiks.com/", "rating": 4.6, "review_count": "", "latitude": 19.0139592, "longitude": 73.0382705, "maps_url": "https://www.google.com/maps/place/?q=place_id:0x3be7c21b5901e181:0x7fe794585addc1f6"}, {"place_id": "0x8400fb6b5e13d345:0x8d32b33ad218496", "name": "Kodetri Technologies", "category": "Software company", "street": "", "city": "", "phone": "08817854361", "website": "https://kodetri.vercel.app/", "rating": 5, "review_count": "", "latitude": 21.0680074, "longitude": 82.7525294, "maps_url": "https://www.google.com/maps/place/?q=place_id:0x8400fb6b5e13d345:0x8d32b33ad218496"}, {"place_id": "0x396317d794e16759:0x4060a0afc2cc5781", "name": "Webniya Infotech", "category": "Software company", "street": "", "city": "", "phone": "", "website": "https://www.webniya.tech/", "rating": 5, "review_count": "", "latitude": 21.0680074, "longitude": 82.7525294, "maps_url": "https://www.google.com/maps/place/?q=place_id:0x396317d794e16759:0x4060a0afc2cc5781"}, {"place_id": "0x3bc2becdc35b6937:0x515ac559c349eee3", "name": "Thinkitive Technologies Private Limited", "category": "Software company", "street": "4th Floor", "city": "ABIL IMPERIAL COMMERCIAL SPACES", "phone": "08956467327", "website": "https://www.thinkitive.com/", "rating": 3.9, "review_count": "", "latitude": 18.5563888, "longitude": 73.7729748, "maps_url": "https://www.google.com/maps/place/?q=place_id:0x3bc2becdc35b6937:0x515ac559c349eee3"}, {"place_id": "0x3962e7120255878b:0xb42bc41f83831f1", "name": "Vaidik Ecosystems Pvt. Ltd.", "category": "Business management consultant", "street": "Srijan Ground Floor Crystal IT Park", "city": "Indore, Madhya Pradesh 452020", "phone": "09993987422", "website": "http://www.vaidikecosystems.com/", "rating": 5, "review_count": "", "latitude": 22.606925699999998, "longitude": 76.0215904, "maps_url": "https://www.google.com/maps/place/?q=place_id:0x3962e7120255878b:0xb42bc41f83831f1"}, {"place_id": "0x3962fdc27594b36f:0xf1f29e4d59089c17", "name": "Rubik Corner IT Services and Consultants", "category": "Website designer", "street": "5/1 Ramchandra Nagar Extension", "city": "Madhya Pradesh 455001", "phone": "09691665576", "website": "", "rating": 5, "review_count": "", "latitude": 22.945536999999998, "longitude": 76.0402613, "maps_url": "https://www.google.com/maps/place/?q=place_id:0x3962fdc27594b36f:0xf1f29e4d59089c17"}, {"place_id": "0x396319c47fa0d885:0x3cad63e7362f4bd4", "name": "Cummins Turbo Technologies pvt limited", "category": "Manufacturer", "street": "IDI-CTT Dewas indirect,AB Rd 455001", "city": "Industrial Area No.2", "phone": "", "website": "https://www.cummins.com/components/turbochargers", "rating": 4.4, "review_count": "", "latitude": 22.9332459, "longitude": 76.0218867, "maps_url": "https://www.google.com/maps/place/?q=place_id:0x396319c47fa0d885:0x3cad63e7362f4bd4"}, {"place_id": "0x3962fb94fc28ce15:0x775c0704a9c3d320", "name": "intevest", "category": "Software company", "street": "", "city": "", "phone": "", "website": "", "rating": 5, "review_count": "", "latitude": 21.0680074, "longitude": 82.7525294, "maps_url": "https://www.google.com/maps/place/?q=place_id:0x3962fb94fc28ce15:0x775c0704a9c3d320"}, {"place_id": "0x396317cb7c6c3d3b:0x9f2bbbfa9937c9b", "name": "SOMTARA Infotech", "category": "Software company", "street": "TARA KUNJ 205", "city": "opp. Escort Junior College", "phone": "", "website": "https://www.somtarainfotech.com/", "rating": "", "review_count": "", "latitude": 22.954623599999998, "longitude": 76.0349313, "maps_url": "https://www.google.com/maps/place/?q=place_id:0x396317cb7c6c3d3b:0x9f2bbbfa9937c9b"}, {"place_id": "0x390ce458d0000001:0xf2123bd299ec4501", "name": "IT Company India", "category": "Software company", "street": "D56", "city": "D Block, Sector 10", "phone": "09999244854", "website": "https://www.itcompanyindia.in/", "rating": 4.7, "review_count": "", "latitude": 28.589917699999997, "longitude": 77.3351153, "maps_url": "https://www.google.com/maps/place/?q=place_id:0x390ce458d0000001:0xf2123bd299ec4501"}, {"place_id": "0x3962d7c504ea9eff:0x43bf5d55d9e05a1e", "name": "S. K. Electronics", "category": "Electronics store", "street": "Q8C3+V8H", "city": "Deogarh Rd", "phone": "09755005100", "website": "", "rating": 4, "review_count": "", "latitude": 22.7721874, "longitude": 76.3033556, "maps_url": "https://www.google.com/maps/place/?q=place_id:0x3962d7c504ea9eff:0x43bf5d55d9e05a1e"}, {"place_id": "0x39631938dd401e93:0xf2699c0bfbb1ada1", "name": "Linamar India Private Limited (Dewas)", "category": "Auto parts manufacturer", "street": "Police Colony, Industrial Area No. 3", "city": "Dewas, Madhya Pradesh 455001", "phone": "", "website": "http://www.linamar.com/", "rating": 4.3, "review_count": "", "latitude": 22.9333843, "longitude": 76.0362854, "maps_url": "https://www.google.com/maps/place/?q=place_id:0x39631938dd401e93:0xf2699c0bfbb1ada1"}, {"place_id": "0x3962df050576f81b:0xa0a0b63febbe1665", "name": "Anurag traders", "category": "Wholesaler", "street": "NH 47", "city": "Double chowki, Sajnodkheda, Madhya Pradesh 452016", "phone": "09303028899", "website": "", "rating": 5, "review_count": "", "latitude": 22.7001228, "longitude": 76.1111035, "maps_url": "https://www.google.com/maps/place/?q=place_id:0x3962df050576f81b:0xa0a0b63febbe1665"}, {"place_id": "0x773ac78f2d2d591:0xceaf1abf4cfd5dfe", "name": "Cerbosys Technologies Private Limited - IT and Marketing Company", "category": "Software company", "street": "", "city": "", "phone": "08839697183", "website": "https://www.cerbosys.com/", "rating": "", "review_count": "", "latitude": 2.7964412, "longitude": 75.3080562, "maps_url": "https://www.google.com/maps/place/?q=place_id:0x773ac78f2d2d591:0xceaf1abf4cfd5dfe"}, {"place_id": "0x39631792ea7d9083:0xc90228718db1b1af", "name": "Sypnosis Technologies - IT Company.", "category": "Software company", "street": "2nd Floor", "city": "10", "phone": "09039239604", "website": "https://sypnosistechnologies.com/", "rating": "", "review_count": "", "latitude": 22.955443499999998, "longitude": 76.0369978, "maps_url": "https://www.google.com/maps/place/?q=place_id:0x39631792ea7d9083:0xc90228718db1b1af"}, {"place_id": "0x39631f7882efc667:0x5bb61a889fbedc31", "name": "DECOLOGIC | Dorwell | Door manufacturing | Premium Door manufacturing", "category": "Door supplier", "street": "42/2/2 AND 44/3/1, Jagmal Pipliya Rd", "city": "POST, MANGLIYA", "phone": "09425131031", "website": "https://www.dorwell.in/", "rating": 5, "review_count": "", "latitude": 22.803285499999998, "longitude": 76.0012133, "maps_url": "https://www.google.com/maps/place/?q=place_id:0x39631f7882efc667:0x5bb61a889fbedc31"}, {"place_id": "0x3962fb94fc28ce15:0x775c0704a9c3d320", "name": "intevest", "category": "Software company", "street": "", "city": "", "phone": "", "website": "", "rating": 5, "review_count": "", "latitude": 21.0680074, "longitude": 82.7525294, "maps_url": "https://www.google.com/maps/place/?q=place_id:0x3962fb94fc28ce15:0x775c0704a9c3d320"}, {"place_id": "0x396317d794e16759:0x4060a0afc2cc5781", "name": "Webniya Infotech", "category": "Software company", "street": "", "city": "", "phone": "", "website": "https://www.webniya.tech/", "rating": 5, "review_count": "", "latitude": 21.0680074, "longitude": 82.7525294, "maps_url": "https://www.google.com/maps/place/?q=place_id:0x396317d794e16759:0x4060a0afc2cc5781"}, {"place_id": "0x3962d98ee049ef69:0x351b9dd18d0f6a6a", "name": "Shine Star Online Center", "category": "Computer support and services", "street": "Dehriya Sahu", "city": "Hatpipliya Road Vishnu Nagar Dehriya Sahu", "phone": "09754281661", "website": "", "rating": "", "review_count": "", "latitude": 22.7742093, "longitude": 76.235197, "maps_url": "https://www.google.com/maps/place/?q=place_id:0x3962d98ee049ef69:0x351b9dd18d0f6a6a"}, {"place_id": "0x3962d7c4fef4bcaf:0xfd4ef378be3b164b", "name": "Shivam Ele (daay ji ki dukan) || Best Electronic & Furniture Shop in Hatpipliya || Best Sofa || LED || Bed || Refrigeration", "category": "Electronics store", "street": "Infornet h.s.school", "city": "Hatpipliya, Madhya Pradesh 455223", "phone": "08827889156", "website": "https://www.instagram.com/shivam_electronics_hatpiplya?igsh=dzdlN2Z3YnZsd2Vs", "rating": 4.7, "review_count": "", "latitude": 22.771670999999998, "longitude": 76.30248449999999, "maps_url": "https://www.google.com/maps/place/?q=place_id:0x3962d7c4fef4bcaf:0xfd4ef378be3b164b"}, {"place_id": "0x3962d1b57ea116cf:0x628ea6faae9bcf42", "name": "Civil Abhiyanta Studio Bagli", "category": "Real Estate Builders & Construction Company", "street": "Bagli, Madhya Pradesh 455227", "city": "", "phone": "", "website": "", "rating": 4, "review_count": "", "latitude": 22.644804399999998, "longitude": 76.3430064, "maps_url": "https://www.google.com/maps/place/?q=place_id:0x3962d1b57ea116cf:0x628ea6faae9bcf42"}, {"place_id": "0x396327dd0749502f:0xc3432be49677e6d2", "name": "Jay Shree Shyam Mp Online", "category": "Computer support and services", "street": "45", "city": "Parwatpura, Madhya Pradesh 455221", "phone": "09516700870", "website": "", "rating": 5, "review_count": "", "latitude": 22.7862893, "longitude": 76.1809707, "maps_url": "https://www.google.com/maps/place/?q=place_id:0x396327dd0749502f:0xc3432be49677e6d2"}, {"place_id": "0x3962dd1f3f42acbf:0xd8f273ff73c4ac6f", "name": "Savariya Seth M P Online", "category": "Computer support and services", "street": "Gram Shivani Dewas", "city": "Indore, Shiwni, Madhya Pradesh 452016", "phone": "08234012622", "website": "", "rating": "", "review_count": "", "latitude": 22.6701203, "longitude": 76.14058349999999, "maps_url": "https://www.google.com/maps/place/?q=place_id:0x3962dd1f3f42acbf:0xd8f273ff73c4ac6f"}, {"place_id": "0x39631708d5d6fd53:0x6cf93c0e550356c9", "name": "Sharda Associates Engineers and Architect", "category": "Corporate office", "street": "MR-3", "city": "67 Balaji Dham, Balgarh Rd", "phone": "09584292171", "website": "", "rating": 4.9, "review_count": "", "latitude": 22.9471267, "longitude": 76.0373015, "maps_url": "https://www.google.com/maps/place/?q=place_id:0x39631708d5d6fd53:0x6cf93c0e550356c9"}, {"place_id": "0x396319876ee88faf:0x3ab85f67ba45c951", "name": "GAJRA DIFFERENTIAL GEARS LIMITED", "category": "Manufacturer", "street": "WX4V+JF5", "city": "Sunwanimahankal, Madhya Pradesh 455001", "phone": "02222662088", "website": "http://www.gajra.com/", "rating": 3.3, "review_count": "", "latitude": 22.9065104, "longitude": 75.9937298, "maps_url": "https://www.google.com/maps/place/?q=place_id:0x396319876ee88faf:0x3ab85f67ba45c951"}, {"place_id": "0x396319e845555555:0x1b3842080da83c8a", "name": "Dewas Metal Sections Ltd.", "category": "Manufacturer", "street": "W2C5+HGF", "city": "AB Rd", "phone": "08435501485", "website": "https://www.dmsl.co.in/", "rating": 4.4, "review_count": "", "latitude": 22.9224118, "longitude": 76.0073221, "maps_url": "https://www.google.com/maps/place/?q=place_id:0x396319e845555555:0x1b3842080da83c8a"}, {"place_id": "0x396319cd9c0c7cd5:0xa544a4064dc1a99f", "name": "H & R Johnson Ltd.", "category": "Ceramic manufacturer", "street": "InFront of Malwa Strips", "city": "Industrial Area", "phone": "1800227484", "website": "http://www.hrjohnsonindia.com/", "rating": 4.2, "review_count": "", "latitude": 22.936693899999998, "longitude": 76.0319124, "maps_url": "https://www.google.com/maps/place/?q=place_id:0x396319cd9c0c7cd5:0xa544a4064dc1a99f"}, {"place_id": "0x39632727749b2e29:0xa9f75702d5c5598f", "name": "DHAKAD MP Online", "category": "Computer support and services", "street": "Bus Stand", "city": "12, Nevri Rd", "phone": "07489656966", "website": "", "rating": "", "review_count": "", "latitude": 22.8595436, "longitude": 76.182355, "maps_url": "https://www.google.com/maps/place/?q=place_id:0x39632727749b2e29:0xa9f75702d5c5598f"}, {"place_id": "0x396317cb7c6c3d3b:0x9f2bbbfa9937c9b", "name": "SOMTARA Infotech", "category": "Software company", "street": "TARA KUNJ 205", "city": "opp. Escort Junior College", "phone": "", "website": "https://www.somtarainfotech.com/", "rating": "", "review_count": "", "latitude": 22.954623599999998, "longitude": 76.0349313, "maps_url": "https://www.google.com/maps/place/?q=place_id:0x396317cb7c6c3d3b:0x9f2bbbfa9937c9b"}]}