[{"place_id": "ChIJC3MN3zb9DDkR-JxtEG9cQg0", "name": "I. T. Solutions", "street": "Gate No. 8, A-6, 1st Floor, Inner Circle, Above Post office, near ICICI Bank, Bon Ton and Metro, Connaught Place, New Delhi, Delhi 110001, India", "phone": "+91 11 4152 3242", "rating": "4.9", "review_count": "", "website": "http://www.itsolutioncp.com/", "latitude": 28.6324367, "longitude": 77.2183441, "maps_url": "https://www.google.com/maps/search/?api=1&query=I.%20T.%20Solutions&query_place_id=ChIJC3MN3zb9DDkR-JxtEG9cQg0"}, {"place_id": "ChIJc-QFLnQSbQQRAu_8xjqxZFI", "name": "Info Tech India", "street": "KAILASH BUILDING, 1212, KG Marg, Barakhamba, New Delhi, Delhi 110001, India", "phone": "", "rating": "5", "review_count": "", "website": "https://infotechindia.in/", "latitude": 28.629473299999997, "longitude": 77.22220159999999, "maps_url": "https://www.google.com/maps/search/?api=1&query=Info%20Tech%20India&query_place_id=ChIJc-QFLnQSbQQRAu_8xjqxZFI"}, {"place_id": "ChIJfawe43D9DDkRZtHgN2jjzTc", "name": "Ammah TechSavvy Pvt. Ltd. Tally Partner Certified (Sales & Solution)", "street": "Block-H Indira Place, Office No. 31 IIIrd Floor, Connaught Place, New Delhi, Delhi 110001, India", "phone": "+91 99715 16460", "rating": "4.9", "review_count": "", "website": "http://www.ammahtechsavvy.com/", "latitude": 28.634802399999998, "longitude": 77.2186395, "maps_url": "https://www.google.com/maps/search/?api=1&query=Ammah%20TechSavvy%20Pvt.%20Ltd.%20Tally%20Partner%20Certified%20%28Sales%20%26%20Solution%29&query_place_id=ChIJfawe43D9DDkRZtHgN2jjzTc"}, {"place_id": "ChIJExoZbgP9DDkRd2Q8vmEWFgc", "name": "Posistrength Software Solution Pvt.Ltd.", "street": "Workingdom,E-13/29, First Floor, Harsha Bhawan, Inner Circle, Block E, Connaught Place, New Delhi, Delhi 110001, India", "phone": "+91 89832 05821", "rating": "4.9", "review_count": "", "website": "https://www.posistrength.com/", "latitude": 28.6326204, "longitude": 77.22187869999999, "maps_url": "https://www.google.com/maps/search/?api=1&query=Posistrength%20Software%20Solution%20Pvt.Ltd.&query_place_id=ChIJExoZbgP9DDkRd2Q8vmEWFgc"}, {"place_id": "ChIJlaY7HUv9DDkRXE7f2ZAgbLE", "name": "Infocera IT", "street": "First Floor, Block-L, L29 - L34, Block L, Connaught Place, New Delhi, Delhi 110001, India", "phone": "", "rating": "4.7", "review_count": "", "website": "https://infocera.in/", "latitude": 28.634275499999998, "longitude": 77.2217273, "maps_url": "https://www.google.com/maps/search/?api=1&query=Infocera%20IT&query_place_id=ChIJlaY7HUv9DDkRXE7f2ZAgbLE"}, {"place_id": "ChIJY05MZjb9DDkRTiB7cFBD48w", "name": "DataSlexIndia | On-Demand Software Development Company", "street": "210,211,212 BMC House, N1, Middle Cir, Connaught Place, New Delhi, Delhi 110001, India", "phone": "+91 11 2484 5172", "rating": "5", "review_count": "", "website": "https://dataslexindia.com/", "latitude": 28.630570499999997, "longitude": 77.2198088, "maps_url": "https://www.google.com/maps/search/?api=1&query=DataSlexIndia%20%7C%20On-Demand%20Software%20Development%20Company&query_place_id=ChIJY05MZjb9DDkRTiB7cFBD48w"}, {"place_id": "ChIJvf5v2kn9DDkRRLj0BpQjUPs", "name": "Asian infotech", "street": "J6J8+XMH, Connaught Cir, P-25, Connaught Place, New Delhi, Delhi 110001, India", "phone": "+91 98100 57894", "rating": "3.6", "review_count": "", "website": "", "latitude": 28.6324489, "longitude": 77.2167425, "maps_url": "https://www.google.com/maps/search/?api=1&query=Asian%20infotech&query_place_id=ChIJvf5v2kn9DDkRRLj0BpQjUPs"}, {"place_id": "ChIJp2QZy6PhDDkRo4MA8enlBaI", "name": "Highlex Technologies", "street": "1st Floor, Krishna Park, D-300, Connaught Place, New Delhi, Delhi 110001, India", "phone": "+91 85868 53031", "rating": "5", "review_count": "", "website": "https://highlex.in/", "latitude": 28.632742999999998, "longitude": 77.219597, "maps_url": "https://www.google.com/maps/search/?api=1&query=Highlex%20Technologies&query_place_id=ChIJp2QZy6PhDDkRo4MA8enlBaI"}, {"place_id": "ChIJO4sr49IDDTkRALZaeWsr-oI", "name": "Iraitech | Software Development Company", "street": "Central Square Complex 3, Unit No-1051, 1st Floor, Near Filmistan, DCM chowk, Bara Hindu Rao, Kishan Ganj, Delhi, 110006, India", "phone": "+91 81301 04108", "rating": "4.1", "review_count": "", "website": "https://www.iraitech.com/", "latitude": 28.6631951, "longitude": 77.20308639999999, "maps_url": "https://www.google.com/maps/search/?api=1&query=Iraitech%20%7C%20Software%20Development%20Company&query_place_id=ChIJO4sr49IDDTkRALZaeWsr-oI"}, {"place_id": "ChIJUTjmTlX9DDkRFs7kNi7bKuo", "name": "Globe Alley Tech. - Software Development Company", "street": "J6JG+6RW, 119, Fire Brigade Lane, Connaught Place, New Delhi, Delhi 110001, India", "phone": "+91 99107 10140", "rating": "4.9", "review_count": "", "website": "http://globealley.us/", "latitude": 28.6306084, "longitude": 77.22708829999999, "maps_url": "https://www.google.com/maps/search/?api=1&query=Globe%20Alley%20Tech.%20-%20Software%20Development%20Company&query_place_id=ChIJUTjmTlX9DDkRFs7kNi7bKuo"}, {"place_id": "ChIJLXrkS8z9DDkRIXIDU_ojar0", "name": "Web Players Technology- Website Designing Company in Central Delhi - Landing Page Designing Company in Delhi", "street": "CP N-12 UPPER GROUND FLOOR MUNSI LAL BUILDING, Connaught Cir, OPPOSITE KFC, Connaught Place, New Delhi, Delhi 110001, India", "phone": "+91 97172 92583", "rating": "5", "review_count": "", "website": "https://www.web-players.co.in/", "latitude": 28.6315566, "longitude": 77.22262119999999, "maps_url": "https://www.google.com/maps/search/?api=1&query=Web%20Players%20Technology-%20Website%20Designing%20Company%20in%20Central%20Delhi%20-%20Landing%20Page%20Designing%20Company%20in%20Delhi&query_place_id=ChIJLXrkS8z9DDkRIXIDU_ojar0"}, {"place_id": "ChIJ2ywHPEj9DDkRco1ymZ4DyJ4", "name": "ITAH Pvt. Ltd.", "street": "G-36 First Floor, Connaught Cir, Block G, Connaught Place, New Delhi, Delhi 110001, India", "phone": "", "rating": "5", "review_count": "", "website": "http://itahpvtltd.com/", "latitude": 28.6329645, "longitude": 77.216467, "maps_url": "https://www.google.com/maps/search/?api=1&query=ITAH%20Pvt.%20Ltd.&query_place_id=ChIJ2ywHPEj9DDkRco1ymZ4DyJ4"}, {"place_id": "ChIJ9ZOwCKP9DDkRSrZFLkI00po", "name": "FeathrAI", "street": "P21/90, Panchkuian Road Railway Colony, Railway Colony, Connaught Place, New Delhi, Delhi 110001, India", "phone": "", "rating": "5", "review_count": "", "website": "https://feathrai.xyz/", "latitude": 28.635936599999997, "longitude": 77.21566229999999, "maps_url": "https://www.google.com/maps/search/?api=1&query=FeathrAI&query_place_id=ChIJ9ZOwCKP9DDkRSrZFLkI00po"}, {"place_id": "ChIJgSY04jf9DDkRReg95uiL0Co", "name": "Grid IT Solutions", "street": "1st Floor B, 39, Middle Cir, Block B, Connaught Place, New Delhi, Delhi 110001, India", "phone": "+91 99966 39777", "rating": "4", "review_count": "", "website": "http://griditsolutions.net/", "latitude": 28.6340552, "longitude": 77.21794419999999, "maps_url": "https://www.google.com/maps/search/?api=1&query=Grid%20IT%20Solutions&query_place_id=ChIJgSY04jf9DDkRReg95uiL0Co"}, {"place_id": "ChIJSclvODL9DDkRYyaAVInQcz0", "name": "Alliancef Cyber & Web Technologies Pvt. Ltd.", "street": "Vijaya Building, 811, 8th Floor, Barakhamba Rd, New Delhi, Delhi 110001, India", "phone": "+91 93502 54293", "rating": "5", "review_count": "", "website": "https://www.alliancef.com/", "latitude": 28.628895699999998, "longitude": 77.2252187, "maps_url": "https://www.google.com/maps/search/?api=1&query=Alliancef%20Cyber%20%26%20Web%20Technologies%20Pvt.%20Ltd.&query_place_id=ChIJSclvODL9DDkRYyaAVInQcz0"}, {"place_id": "ChIJcesdOTX9DDkRtlHcx4gT3ds", "name": "Jak Software Pvt Ltd", "street": "52 Janpath, New Delhi, Delhi 110001, India", "phone": "+91 78272 49056", "rating": "4.4", "review_count": "", "website": "http://www.jaksoftware.co.in/", "latitude": 28.627537999999998, "longitude": 77.21878989999999, "maps_url": "https://www.google.com/maps/search/?api=1&query=Jak%20Software%20Pvt%20Ltd&query_place_id=ChIJcesdOTX9DDkRtlHcx4gT3ds"}, {"place_id": "ChIJc_B6gmP9DDkRsnPijQXIoak", "name": "Pankaj it Solution", "street": "H54, Block A, Connaught Place, New Delhi, Delhi 110001, India", "phone": "", "rating": "3.9", "review_count": "", "website": "", "latitude": 28.632901999999998, "longitude": 77.2182669, "maps_url": "https://www.google.com/maps/search/?api=1&query=Pankaj%20it%20Solution&query_place_id=ChIJc_B6gmP9DDkRsnPijQXIoak"}, {"place_id": "ChIJA__NwpX9DDkRCKBziFmp02U", "name": "Joy Web Solutions", "street": "G-36, Connaught Cir, Block G, Connaught Place, New Delhi, Delhi 110001, India", "phone": "", "rating": "", "review_count": "", "website": "https://jwsind.com/", "latitude": 28.6336031, "longitude": 77.2169363, "maps_url": "https://www.google.com/maps/search/?api=1&query=Joy%20Web%20Solutions&query_place_id=ChIJA__NwpX9DDkRCKBziFmp02U"}, {"place_id": "ChIJjcZpn6UGDTkRPRUJ1Y8OFng", "name": "UniSpark Innovation", "street": "1st Floor, Unispark innovation Pvt. ltd, B-39, Middle Cir, Block B, Connaught Place, New Delhi, Delhi 110001, India", "phone": "+91 88600 77276", "rating": "5", "review_count": "", "website": "https://www.unisparkinnovation.com/", "latitude": 28.633904299999998, "longitude": 77.21771, "maps_url": "https://www.google.com/maps/search/?api=1&query=UniSpark%20Innovation&query_place_id=ChIJjcZpn6UGDTkRPRUJ1Y8OFng"}, {"place_id": "ChIJ9aF3zD7BwjsRqtR_ycLqUCA", "name": "ICT Circle", "street": "G 36 Second Floor, Block G, Connaught Place, New Delhi, Delhi 110001, India", "phone": "+91 556687933", "rating": "5", "review_count": "", "website": "", "latitude": 28.6330812, "longitude": 77.216946, "maps_url": "https://www.google.com/maps/search/?api=1&query=ICT%20Circle&query_place_id=ChIJ9aF3zD7BwjsRqtR_ycLqUCA"}, {"place_id": "ChIJjeJIYfv9DDkRW6JxZ0ugd-A", "name": "Alliancef Global | Mobile App Development | eCommerce Website Design and Development company in Delhi, India", "street": "8th Floor, Vijaya Building, 811, Barakhamba Rd, Todermal Road Area, Mandi House, New Delhi, Delhi 110001, India", "phone": "+91 95821 99196", "rating": "5", "review_count": "", "website": "https://alliancef.global/", "latitude": 28.628632099999997, "longitude": 77.2269889, "maps_url": "https://www.google.com/maps/search/?api=1&query=Alliancef%20Global%20%7C%20Mobile%20App%20Development%20%7C%20eCommerce%20Website%20Design%20and%20Development%20company%20in%20Delhi%2C%20India&query_place_id=ChIJjeJIYfv9DDkRW6JxZ0ugd-A"}, {"place_id": "ChIJt1WsJQD9DDkRC_QeektzPUo", "name": "Prettify Creative | Software Development Company in Delhi | Logo Design Company in Delhi | Web Design Company in Delhi", "street": "7th Floor, 704, Atul Grove Road, Janpath, Prettify Creative, New Delhi, Delhi 110001, India", "phone": "+91 79851 91906", "rating": "4.9", "review_count": "", "website": "https://www.prettifycreative.com/?utm_source=google&utm_medium=gbp", "latitude": 28.627264699999998, "longitude": 77.22103469999999, "maps_url": "https://www.google.com/maps/search/?api=1&query=Prettify%20Creative%20%7C%20Software%20Development%20Company%20in%20Delhi%20%7C%20Logo%20Design%20Company%20in%20Delhi%20%7C%20Web%20Design%20Company%20in%20Delhi&query_place_id=ChIJt1WsJQD9DDkRC_QeektzPUo"}, {"place_id": "ChIJZTeh41z9DDkRqOcX1dR6fjA", "name": "iCRATS Technologies", "street": "A31, Mandir Marg, Sector D, Gole Market, New Delhi, Delhi 110001, India", "phone": "+91 73561 50111", "rating": "5", "review_count": "", "website": "https://www.icrats.com/products.html", "latitude": 28.6360183, "longitude": 77.2023614, "maps_url": "https://www.google.com/maps/search/?api=1&query=iCRATS%20Technologies&query_place_id=ChIJZTeh41z9DDkRqOcX1dR6fjA"}, {"place_id": "ChIJjTW40FvjDDkRMg33-9y4UpM", "name": "Asia Tech World", "street": "LB 15 ANSAL BHAWAN, KG Marg, Connaught Place, New Delhi, Delhi 110001, India", "phone": "+91 84470 19449", "rating": "5", "review_count": "", "website": "https://www.asiatechworld.in/", "latitude": 28.6228566, "longitude": 77.2253927, "maps_url": "https://www.google.com/maps/search/?api=1&query=Asia%20Tech%20World&query_place_id=ChIJjTW40FvjDDkRMg33-9y4UpM"}, {"place_id": "ChIJV7-kPW_9DDkRg0Sk8l3OsCU", "name": "Google Business Profile Support & Services", "street": "Block-B Connaught Place, Middle Cir, Block B, Connaught Place, New Delhi, Delhi, 110001, India", "phone": "+91 98967 69207", "rating": "4.4", "review_count": "", "website": "", "latitude": 28.634317099999997, "longitude": 77.2183714, "maps_url": "https://www.google.com/maps/search/?api=1&query=Google%20Business%20Profile%20Support%20%26%20Services&query_place_id=ChIJV7-kPW_9DDkRg0Sk8l3OsCU"}, {"place_id": "ChIJQ20KLJ39DDkRBtjOr7WTP-o", "name": "Teasoft Corporation", "street": "Market, Block F, Connaught Place, Delhi, New Delhi, Delhi 110001, India", "phone": "", "rating": "5", "review_count": "", "website": "", "latitude": 28.631121399999998, "longitude": 77.217388, "maps_url": "https://www.google.com/maps/search/?api=1&query=Teasoft%20Corporation&query_place_id=ChIJQ20KLJ39DDkRBtjOr7WTP-o"}, {"place_id": "ChIJPQiUPjf9DDkRJv_O4ga-qDQ", "name": "ARENA ANIMATION", "street": "Gate No - 7, A Block, CONNAUGHT PLACE, ARENA ANIMATION CP, A Block Center. 202, A-19, Middle Cir, near Rajiv Chowk Metro Station, New Delhi, Delhi 110001, India", "phone": "+91 96506 79762", "rating": "4.4", "review_count": "", "website": "https://www.arenaanimationcp.com/", "latitude": 28.6321884, "longitude": 77.2174757, "maps_url": "https://www.google.com/maps/search/?api=1&query=ARENA%20ANIMATION&query_place_id=ChIJPQiUPjf9DDkRJv_O4ga-qDQ"}, {"place_id": "ChIJCWzY-6z9DDkRZ0_bEJJgPaY", "name": "Lenovo Exclusive Store - Gopal Narain & Sons", "street": "P-26, Block P, Connaught Place, New Delhi, Delhi 110001, India", "phone": "+91 11 4014 4604", "rating": "4.9", "review_count": "", "website": "https://store.lenovo.com/in/en/marketplace/seller/profile/shop/1045", "latitude": 28.6329037, "longitude": 77.2160541, "maps_url": "https://www.google.com/maps/search/?api=1&query=Lenovo%20Exclusive%20Store%20-%20Gopal%20Narain%20%26%20Sons&query_place_id=ChIJCWzY-6z9DDkRZ0_bEJJgPaY"}, {"place_id": "ChIJl5geAqLjDDkRGQx9atNSvyg", "name": "It Softtech - Website Designing and Development Company in Delhi, India", "street": "149, Ring Rd, opp. Maharani Bagh, Kilokri, Phase 1, Hari Nagar Ashram, New Delhi, Delhi 110014, India", "phone": "+91 98100 56177", "rating": "5", "review_count": "", "website": "", "latitude": 28.5763395, "longitude": 77.2640869, "maps_url": "https://www.google.com/maps/search/?api=1&query=It%20Softtech%20-%20Website%20Designing%20and%20Development%20Company%20in%20Delhi%2C%20India&query_place_id=ChIJl5geAqLjDDkRGQx9atNSvyg"}, {"place_id": "ChIJdWY2sDf9DDkRLqwYxC0WSQ8", "name": "PRS International Group of Companies", "street": "Regus Level 5, Caddie Commercial Tower, Hospitality District Aerocity, IGI Airport, 110001, India", "phone": "+91 11 6654 4951", "rating": "4.8", "review_count": "", "website": "http://www.prsinternationalgroup.com/", "latitude": 28.632742999999998, "longitude": 77.219597, "maps_url": "https://www.google.com/maps/search/?api=1&query=PRS%20International%20Group%20of%20Companies&query_place_id=ChIJdWY2sDf9DDkRLqwYxC0WSQ8"}, {"place_id": "ChIJBwpa_jf9DDkR6lexq4I-1hE", "name": "Bira 91 Global HQ", "street": "H-106, 2nd Floor, Outer Circle, Connaught Place, New Delhi, Delhi 110001, India", "phone": "+91 1800 3002 3010", "rating": "4.3", "review_count": "", "website": "http://bira91.com/", "latitude": 28.6345417, "longitude": 77.21762509999999, "maps_url": "https://www.google.com/maps/search/?api=1&query=Bira%2091%20Global%20HQ&query_place_id=ChIJBwpa_jf9DDkR6lexq4I-1hE"}, {"place_id": "ChIJ7RrOnBv9DDkRY2urtGlPLUg", "name": "UNIQLO Connaught Place, Delhi", "street": "Building No. 1, 1-A, Radial Rd Number 2, Block A, Connaught Place, New Delhi, Delhi 110001, India", "phone": "+91 92209 02497", "rating": "4.3", "review_count": "", "website": "https://www.uniqlo.com/in/en/", "latitude": 28.6323252, "longitude": 77.2180715, "maps_url": "https://www.google.com/maps/search/?api=1&query=UNIQLO%20Connaught%20Place%2C%20Delhi&query_place_id=ChIJ7RrOnBv9DDkRY2urtGlPLUg"}, {"place_id": "ChIJ__-v1Tf9DDkRMqPVlyrFj6o", "name": "Kinheritance", "street": "1st Floor, A Block, Hamilton House, Block A, Connaught Place, New Delhi, Delhi 110001, India", "phone": "+91 81470 99290", "rating": "5", "review_count": "", "website": "http://kinheritance.com/", "latitude": 28.632217599999997, "longitude": 77.217657, "maps_url": "https://www.google.com/maps/search/?api=1&query=Kinheritance&query_place_id=ChIJ__-v1Tf9DDkRMqPVlyrFj6o"}, {"place_id": "ChIJoyOgWmr9DDkRe0ZlmGVlm68", "name": "Lift Digitally Best Internet Marketing Agency in Delhi", "street": "PVR Plaza, Block H, Connaught Place, New Delhi, Delhi 110001, India", "phone": "+91 97112 37678", "rating": "5", "review_count": "", "website": "https://liftdigitally.com/", "latitude": 28.634982299999997, "longitude": 77.2195529, "maps_url": "https://www.google.com/maps/search/?api=1&query=Lift%20Digitally%20Best%20Internet%20Marketing%20Agency%20in%20Delhi&query_place_id=ChIJoyOgWmr9DDkRe0ZlmGVlm68"}, {"place_id": "ChIJ2ffGOgDkDDkRFML1Wp8HO6s", "name": "ManpowerGroup Services India Pvt Ltd. | Permanent Recruitment in Delhi", "street": "Suite No.A-1A, 1st floor, Block H, Connaught Place, New Delhi, Delhi 110001, India", "phone": "+91 11 6649 7500", "rating": "4.4", "review_count": "", "website": "https://www.manpowergroup.co.in/", "latitude": 28.6350129, "longitude": 77.21855719999999, "maps_url": "https://www.google.com/maps/search/?api=1&query=ManpowerGroup%20Services%20India%20Pvt%20Ltd.%20%7C%20Permanent%20Recruitment%20in%20Delhi&query_place_id=ChIJ2ffGOgDkDDkRFML1Wp8HO6s"}, {"place_id": "ChIJMY6wyHPiDDkRuDFNTtYVk0s", "name": "SkillCircle", "street": "2nd floor, Middle Cir, above sbi bank, B-39, Connaught Place, New Delhi, Delhi 110001, India", "phone": "+91 98991 40180", "rating": "4.4", "review_count": "", "website": "https://www.skillcircle.in/", "latitude": 28.6347527, "longitude": 77.2192767, "maps_url": "https://www.google.com/maps/search/?api=1&query=SkillCircle&query_place_id=ChIJMY6wyHPiDDkRuDFNTtYVk0s"}, {"place_id": "ChIJ6ckbRWH9DDkRQhl7GiaST3o", "name": "TERN Group", "street": "1st Floor, Hamilton House, A1, above starbucks, Block A, Connaught Place, New Delhi, Delhi 110001, India", "phone": "+91 70651 00500", "rating": "4.9", "review_count": "", "website": "https://www.tern-group.com/", "latitude": 28.6321858, "longitude": 77.217783, "maps_url": "https://www.google.com/maps/search/?api=1&query=TERN%20Group&query_place_id=ChIJ6ckbRWH9DDkRQhl7GiaST3o"}, {"place_id": "ChIJLQT6z9z9DDkROwXM9VBT15s", "name": "The Bivouac", "street": "9 A, 3rd Floor, Phelps Building, Connaught Place, New Delhi, Delhi 110001, India", "phone": "+91 98184 51948", "rating": "4.9", "review_count": "", "website": "http://thebiv.co.in/", "latitude": 28.6325202, "longitude": 77.2174586, "maps_url": "https://www.google.com/maps/search/?api=1&query=The%20Bivouac&query_place_id=ChIJLQT6z9z9DDkROwXM9VBT15s"}, {"place_id": "ChIJk7L44jf9DDkRM4TEOf1BWsw", "name": "Blackberry Retail Brand Store", "street": "B-13, Middle Cir, Block B, Connaught Place, New Delhi, Delhi 110001, India", "phone": "+91 11 2331 0979", "rating": "4", "review_count": "", "website": "http://www.blackberrys.com/", "latitude": 28.6340348, "longitude": 77.2186473, "maps_url": "https://www.google.com/maps/search/?api=1&query=Blackberry%20Retail%20Brand%20Store&query_place_id=ChIJk7L44jf9DDkRM4TEOf1BWsw"}, {"place_id": "ChIJvx3R6379DDkRwohhYq1-fj0", "name": "My Traffic Store", "street": "Connaught Place, New Delhi, Delhi 110001, India", "phone": "", "rating": "", "review_count": "", "website": "", "latitude": 28.6327426, "longitude": 77.2195969, "maps_url": "https://www.google.com/maps/search/?api=1&query=My%20Traffic%20Store&query_place_id=ChIJvx3R6379DDkRwohhYq1-fj0"}, {"place_id": "ChIJb1pVesAnYqERaoqYTqc3bv0", "name": "Nukkad Natak & Event Company", "street": "Babar Rd, near shree ram centre, Connaught Place, New Delhi, Delhi 110001, India", "phone": "", "rating": "4.7", "review_count": "", "website": "https://all-india-nukkad-event.grexa.site/", "latitude": 28.632856, "longitude": 77.2194683, "maps_url": "https://www.google.com/maps/search/?api=1&query=Nukkad%20Natak%20%26%20Event%20Company&query_place_id=ChIJb1pVesAnYqERaoqYTqc3bv0"}, {"place_id": "ChIJCV8YH-X9DDkRgXRU7T20N0c", "name": "Indian Express Tourism", "street": "A, 23, Middle Cir, Block A, Connaught Place, New Delhi, Delhi 110001, India", "phone": "+91 88888 89905", "rating": "3.9", "review_count": "", "website": "https://zaidmir129.wixsite.com/website", "latitude": 28.6336525, "longitude": 77.2178173, "maps_url": "https://www.google.com/maps/search/?api=1&query=Indian%20Express%20Tourism&query_place_id=ChIJCV8YH-X9DDkRgXRU7T20N0c"}, {"place_id": "ChIJW4plToj9DDkR0Yg9pccFqQ4", "name": "SOP Help- Sop Writing Services", "street": "Marina Arcade, G-59, Middle Cir, Block G, Connaught Place, Delhi, New Delhi, Delhi 110001, India", "phone": "+91 98110 40404", "rating": "4.8", "review_count": "", "website": "http://sophelp.com/", "latitude": 28.633101999999997, "longitude": 77.21701759999999, "maps_url": "https://www.google.com/maps/search/?api=1&query=SOP%20Help-%20Sop%20Writing%20Services&query_place_id=ChIJW4plToj9DDkR0Yg9pccFqQ4"}, {"place_id": "ChIJMXA58Pv9DDkR5uD0oONmtEE", "name": "Brandholic- Influencer Marketing Agency", "street": "Second Floor, Marina Arcade, G-59, Middle Cir, Block G, Connaught Place, New Delhi, Delhi 110001, India", "phone": "", "rating": "4.6", "review_count": "", "website": "https://brandholic.in/contact-us/", "latitude": 28.633073099999997, "longitude": 77.21707289999999, "maps_url": "https://www.google.com/maps/search/?api=1&query=Brandholic-%20Influencer%20Marketing%20Agency&query_place_id=ChIJMXA58Pv9DDkR5uD0oONmtEE"}, {"place_id": "ChIJdxIIGFH9DDkRQH6YV1ElO7A", "name": "Chai Point - B Block, Connaught Place", "street": "Shop No - B1, B Block, Middle Cir, Block B, Connaught Place, New Delhi, Delhi 110001, India", "phone": "+91 76708 24196", "rating": "4.3", "review_count": "", "website": "https://connaughtplace.chaipoint.com/", "latitude": 28.6341556, "longitude": 77.2182059, "maps_url": "https://www.google.com/maps/search/?api=1&query=Chai%20Point%20-%20B%20Block%2C%20Connaught%20Place&query_place_id=ChIJdxIIGFH9DDkRQH6YV1ElO7A"}, {"place_id": "ChIJ6_DwIL39DDkRPkjXYhKJhAs", "name": "Office On", "street": "B-39, 1st Floor, Middle Cir, Connaught Place, New Delhi, Delhi 110001, India", "phone": "+91 81303 05534", "rating": "4.8", "review_count": "", "website": "http://www.officeon.in/", "latitude": 28.6347611, "longitude": 77.2194014, "maps_url": "https://www.google.com/maps/search/?api=1&query=Office%20On&query_place_id=ChIJ6_DwIL39DDkRPkjXYhKJhAs"}, {"place_id": "ChIJmT_WrKr9DDkRlALaTGdBfbs", "name": "SOTC for Holidays | Connaught Place, New Delhi", "street": "Metro Station, No B/33, First Floor, Kuthiala Building Connaught Place, nearby Inner Circle, New Delhi, Delhi 110001, India", "phone": "+91 96199 21871", "rating": "3.8", "review_count": "", "website": "https://stores.sotc.in/sotc/travel-agency-in-new-delhi/travel-agency-in-connaught-place/sotc-for-holidays-in-connaught-place-new-delhi--4fE4He/home", "latitude": 28.6339313, "longitude": 77.2185966, "maps_url": "https://www.google.com/maps/search/?api=1&query=SOTC%20for%20Holidays%20%7C%20Connaught%20Place%2C%20New%20Delhi&query_place_id=ChIJmT_WrKr9DDkRlALaTGdBfbs"}, {"place_id": "ChIJOXXPwED9DDkRcuV0VhztzvQ", "name": "Expert Content", "street": "A Block, Block A, Connaught Place, New Delhi, Delhi 110001, India", "phone": "+91 87662 46157", "rating": "5", "review_count": "", "website": "http://www.theexpertcontent.com/", "latitude": 28.632951499999997, "longitude": 77.2178366, "maps_url": "https://www.google.com/maps/search/?api=1&query=Expert%20Content&query_place_id=ChIJOXXPwED9DDkRcuV0VhztzvQ"}, {"place_id": "ChIJkzcKRkn9DDkRfByr5ucLuxk", "name": "Delhi tuk tuk travel", "street": "G, Block G, Connaught Place, New Delhi, Delhi 110001, India", "phone": "+91 99054 46453", "rating": "5", "review_count": "", "website": "https://wa.me/+919905446453", "latitude": 28.634215299999997, "longitude": 77.217252, "maps_url": "https://www.google.com/maps/search/?api=1&query=Delhi%20tuk%20tuk%20travel&query_place_id=ChIJkzcKRkn9DDkRfByr5ucLuxk"}, {"place_id": "ChIJ5y6xwMT9DDkRKiwoeVFalrM", "name": "Workingdom Plus-Coworking", "street": "A1, 1st Floor, Hamilton House, above starbucks, Block A, Connaught Place, New Delhi, Delhi 110001, India", "phone": "+91 99071 00200", "rating": "4.8", "review_count": "", "website": "https://www.workingdom.in/", "latitude": 28.6322308, "longitude": 77.21777809999999, "maps_url": "https://www.google.com/maps/search/?api=1&query=Workingdom%20Plus-Coworking&query_place_id=ChIJ5y6xwMT9DDkRKiwoeVFalrM"}, {"place_id": "ChIJxQG7qo0GDTkR8PgoXnyMRZ8", "name": "Tekniko Global - Top Mobile App Development Company in Delhi | Android & iOS", "street": "", "phone": "+91 93116 20027", "rating": "4.5", "review_count": "", "website": "https://www.teknikoglobal.com/", "latitude": 28.5870636, "longitude": 77.1721882, "maps_url": "https://www.google.com/maps/search/?api=1&query=Tekniko%20Global%20-%20Top%20Mobile%20App%20Development%20Company%20in%20Delhi%20%7C%20Android%20%26%20iOS&query_place_id=ChIJxQG7qo0GDTkR8PgoXnyMRZ8"}, {"place_id": "ChIJlxmy9Av9DDkRa-7bPzqu77g", "name": "AMF PRODUCTION HOUSE PVT LTD", "street": "Block B, Connaught Place, Delhi, New Delhi, Delhi 110001, India", "phone": "", "rating": "5", "review_count": "", "website": "", "latitude": 28.6340719, "longitude": 77.2187798, "maps_url": "https://www.google.com/maps/search/?api=1&query=AMF%20PRODUCTION%20HOUSE%20PVT%20LTD&query_place_id=ChIJlxmy9Av9DDkRa-7bPzqu77g"}, {"place_id": "ChIJV7Tarzf9DDkRhgc0y-Qqgkw", "name": "Radisson Blu Marina Hotel, Delhi Connaught Place", "street": "G-59 Connaught Circus, New Delhi, Delhi 110001, India", "phone": "+91 11 4690 9090", "rating": "4.6", "review_count": "", "website": "https://www.radissonhotels.com/en-us/hotels/radisson-blu-marina-new-delhi-connaught-place?cid=a:se+b:gmb+c:apac+i:local+e:rdb+d:ind+h:INDLDELMAR", "latitude": 28.6338968, "longitude": 77.2172409, "maps_url": "https://www.google.com/maps/search/?api=1&query=Radisson%20Blu%20Marina%20Hotel%2C%20Delhi%20Connaught%20Place&query_place_id=ChIJV7Tarzf9DDkRhgc0y-Qqgkw"}, {"place_id": "ChIJ1UJNMG_9DDkROPaKHbz9bqQ", "name": "Digital Mathur - Digital Marketing Consultant & Digital Marketing Trainer", "street": "First Floor, B-39, Middle Cir, Block B, Connaught Place, New Delhi, Delhi 110001, India", "phone": "+91 97167 51289", "rating": "4.9", "review_count": "", "website": "https://digitalmathur.com/", "latitude": 28.634797799999998, "longitude": 77.2194529, "maps_url": "https://www.google.com/maps/search/?api=1&query=Digital%20Mathur%20-%20Digital%20Marketing%20Consultant%20%26%20Digital%20Marketing%20Trainer&query_place_id=ChIJ1UJNMG_9DDkROPaKHbz9bqQ"}, {"place_id": "ChIJo8hVL0j9DDkR8NS7Yi269MQ", "name": "Travelucent", "street": "G 39, Pawan House, Middle Cir, Connaught Place, New Delhi, Delhi 110001, India", "phone": "+91 98111 56603", "rating": "4.1", "review_count": "", "website": "", "latitude": 28.632652999999998, "longitude": 77.217145, "maps_url": "https://www.google.com/maps/search/?api=1&query=Travelucent&query_place_id=ChIJo8hVL0j9DDkR8NS7Yi269MQ"}, {"place_id": "ChIJBbfdLgD9DDkReCtZiq00l-s", "name": "Rajiv Chowk Metro Station", "street": "J6M9+5PX, Connaught Place, New Delhi, Delhi 110001, India", "phone": "", "rating": "4.5", "review_count": "", "website": "", "latitude": 28.6329849, "longitude": 77.2193723, "maps_url": "https://www.google.com/maps/search/?api=1&query=Rajiv%20Chowk%20Metro%20Station&query_place_id=ChIJBbfdLgD9DDkReCtZiq00l-s"}, {"place_id": "ChIJIyTSNEj9DDkRNnAIelhmrFc", "name": "Rajput Jain & Associates", "street": "P 6/90, Connaught Circus Near Palika Bazar, Revoli Cinema, Connaught Place, New Delhi, Delhi 110001, India", "phone": "+91 98113 22785", "rating": "4.9", "review_count": "", "website": "http://www.carajput.com/", "latitude": 28.632217899999997, "longitude": 77.2162871, "maps_url": "https://www.google.com/maps/search/?api=1&query=Rajput%20Jain%20%26%20Associates&query_place_id=ChIJIyTSNEj9DDkRNnAIelhmrFc"}, {"place_id": "ChIJ4WwenT39DDkR_pyuUEcwvQM", "name": "KDM", "street": "Connaught Place, New Delhi, Delhi 110001, India", "phone": "", "rating": "", "review_count": "", "website": "", "latitude": 28.6327426, "longitude": 77.2195969, "maps_url": "https://www.google.com/maps/search/?api=1&query=KDM&query_place_id=ChIJ4WwenT39DDkR_pyuUEcwvQM"}, {"place_id": "ChIJp6qB9jf9DDkRQfEhD4HtfZo", "name": "Digiperform - Advanced Digital Marketing Course in Connaught Place, Delhi", "street": "Suite 29, Indra Palace, Middle Cir, Block H, Connaught Place, New Delhi, Delhi 110001, India", "phone": "+91 90900 07444", "rating": "4.5", "review_count": "", "website": "https://digiperform.org/digital-marketing-course-delhi/connaught-place/", "latitude": 28.635080799999997, "longitude": 77.2185552, "maps_url": "https://www.google.com/maps/search/?api=1&query=Digiperform%20-%20Advanced%20Digital%20Marketing%20Course%20in%20Connaught%20Place%2C%20Delhi&query_place_id=ChIJp6qB9jf9DDkRQfEhD4HtfZo"}, {"place_id": "ChIJcWLc70j9DDkR7QLsHVoSxTw", "name": "SMFG India Credit Co. Ltd. - Connaught Place (Branch)", "street": "Gate No 2, Metro Station, B - 45/47 Third Floor Connaught Place Near PVR Plaza and, Inner Cir, Delhi, 110001, India", "phone": "+91 1800 103 6001", "rating": "1.9", "review_count": "", "website": "https://branches.smfgindiacredit.com/Connaught-Place-New-Delhi-branch-435413/Home?utm_source=locator&utm_medium=googleplaces", "latitude": 28.635399699999997, "longitude": 77.2195967, "maps_url": "https://www.google.com/maps/search/?api=1&query=SMFG%20India%20Credit%20Co.%20Ltd.%20-%20Connaught%20Place%20%28Branch%29&query_place_id=ChIJcWLc70j9DDkR7QLsHVoSxTw"}, {"place_id": "ChIJe7E3kPT9DDkRJ3lY1K9uz4U", "name": "Social Squad India", "street": "Middle Cir, Block B, Connaught Place, New Delhi, Delhi 110001, India", "phone": "+91 99716 83129", "rating": "4.5", "review_count": "", "website": "https://socialsquadindia.com/", "latitude": 28.634071, "longitude": 77.21782139999999, "maps_url": "https://www.google.com/maps/search/?api=1&query=Social%20Squad%20India&query_place_id=ChIJe7E3kPT9DDkRJ3lY1K9uz4U"}, {"place_id": "ChIJ37JX85UZDTkR-jJbJ-zWFDs", "name": "The WallStreet School - FM&V, CFA®, ACCA®, CMA® (US), FRM®, CFP®, CIMA®, Stock Market, AI for Finance", "street": "3rd floor, 11 A, Block H, Connaught Place, New Delhi, Delhi 110001, India", "phone": "+91 93550 57509", "rating": "4.7", "review_count": "", "website": "https://www.thewallstreetschool.com/", "latitude": 28.634904499999998, "longitude": 77.21919299999999, "maps_url": "https://www.google.com/maps/search/?api=1&query=The%20WallStreet%20School%20-%20FM%26V%2C%20CFA%C2%AE%2C%20ACCA%C2%AE%2C%20CMA%C2%AE%20%28US%29%2C%20FRM%C2%AE%2C%20CFP%C2%AE%2C%20CIMA%C2%AE%2C%20Stock%20Market%2C%20AI%20for%20Finance&query_place_id=ChIJ37JX85UZDTkR-jJbJ-zWFDs"}, {"place_id": "ChIJWa5Zljf9DDkR8vVbCiVm9E8", "name": "Sulabh Toilet", "street": "D-19/20, Inner Cir, D Block, Connaught Place, New Delhi, Delhi 110001, India", "phone": "", "rating": "3.4", "review_count": "", "website": "http://www.sulabhinternational.org/", "latitude": 28.633728299999998, "longitude": 77.2194543, "maps_url": "https://www.google.com/maps/search/?api=1&query=Sulabh%20Toilet&query_place_id=ChIJWa5Zljf9DDkR8vVbCiVm9E8"}, {"place_id": "ChIJFV5Az_DvDDkRrO-k_mutEVE", "name": "Bhakti Route Premium Tours Private Limited", "street": "Plot No. 2A, Keher Singh State, Saidulajab, Railway Colony, Indirapuram, New Delhi, Delhi 110001, India", "phone": "", "rating": "4.6", "review_count": "", "website": "https://bhaktiroute.in/", "latitude": 28.635900799999998, "longitude": 77.2179938, "maps_url": "https://www.google.com/maps/search/?api=1&query=Bhakti%20Route%20Premium%20Tours%20Private%20Limited&query_place_id=ChIJFV5Az_DvDDkRrO-k_mutEVE"}, {"place_id": "ChIJd_xT1vD9DDkRmuE9JApin90", "name": "Airbedder", "street": "Regal Building, 29, Sansad Marg, Block G, Connaught Place, New Delhi, Delhi 110001, India", "phone": "", "rating": "4.8", "review_count": "", "website": "https://www.airbedder.com/", "latitude": 28.632340499999998, "longitude": 77.2167449, "maps_url": "https://www.google.com/maps/search/?api=1&query=Airbedder&query_place_id=ChIJd_xT1vD9DDkRmuE9JApin90"}, {"place_id": "ChIJ3_XyNzL9DDkRVG9YCEGoKnU", "name": "Electronic Repair Centre", "street": "number 7, S-21, Mini Market, Palika Bazaar Rd, near Gate, No 7, Connaught Place, New Delhi, Delhi 110001, India", "phone": "+91 98112 12279", "rating": "4.6", "review_count": "", "website": "", "latitude": 28.6329529, "longitude": 77.2193909, "maps_url": "https://www.google.com/maps/search/?api=1&query=Electronic%20Repair%20Centre&query_place_id=ChIJ3_XyNzL9DDkRVG9YCEGoKnU"}, {"place_id": "ChIJX6UnjrTjDDkRqNWxxCuhxVU", "name": "Finaco pro", "street": "Third Floor, Onkar Deep Building, A-19, Middle Cir, Block A, Connaught Place, New Delhi, Delhi 110001, India", "phone": "+91 99994 61417", "rating": "4.9", "review_count": "", "website": "http://www.finacopro.com/", "latitude": 28.632253, "longitude": 77.21748509999999, "maps_url": "https://www.google.com/maps/search/?api=1&query=Finaco%20pro&query_place_id=ChIJX6UnjrTjDDkRqNWxxCuhxVU"}, {"place_id": "ChIJd5KKSUwqPWARo6k4nFGmF48", "name": "Stelly", "street": "First Floor, Hamilton House, 1-A, Radial Rd Number 2, Block A, Connaught Place, New Delhi, Delhi 110001, India", "phone": "", "rating": "5", "review_count": "", "website": "https://www.stelly.club/", "latitude": 28.6322284, "longitude": 77.21777999999999, "maps_url": "https://www.google.com/maps/search/?api=1&query=Stelly&query_place_id=ChIJd5KKSUwqPWARo6k4nFGmF48"}, {"place_id": "ChIJ005-pZv9DDkRl2reCT3NOtA", "name": "GetMyActivation", "street": "Connaught Place, New Delhi, Delhi 110001, India", "phone": "+91 99710 43074", "rating": "", "review_count": "", "website": "", "latitude": 28.6327426, "longitude": 77.2195969, "maps_url": "https://www.google.com/maps/search/?api=1&query=GetMyActivation&query_place_id=ChIJ005-pZv9DDkRl2reCT3NOtA"}, {"place_id": "ChIJv745-bz9DDkReZAmM5t0Jo4", "name": "Skills Sources - Digital Marketing Institute", "street": "B 39, 1st floor, Middle Cir, Connaught Place, Delhi, 110001, India", "phone": "+91 87662 31668", "rating": "4.9", "review_count": "", "website": "https://www.skillssources.com/", "latitude": 28.6347296, "longitude": 77.2193338, "maps_url": "https://www.google.com/maps/search/?api=1&query=Skills%20Sources%20-%20Digital%20Marketing%20Institute&query_place_id=ChIJv745-bz9DDkReZAmM5t0Jo4"}, {"place_id": "ChIJMejcH0j9DDkRd-WqZ7-M5fo", "name": "WeTrust", "street": "WeTrust.in, 34, First Floor,, A-25, Middle Cir, Block A, Connaught Place, New Delhi, Delhi 110001, India", "phone": "", "rating": "3.5", "review_count": "", "website": "", "latitude": 28.6330764, "longitude": 77.2174545, "maps_url": "https://www.google.com/maps/search/?api=1&query=WeTrust&query_place_id=ChIJMejcH0j9DDkRd-WqZ7-M5fo"}, {"place_id": "ChIJkzRmRfX9DDkRnKuhfOORkGU", "name": "Veracious Creators Pvt Ltd", "street": "3rd Floor, 44, Regal Building, 69, Connaught Cir, Hanuman Road Area, Connaught Place, New Delhi, Delhi 110001, India", "phone": "", "rating": "", "review_count": "", "website": "https://www.veraciouscreators.com/", "latitude": 28.6322866, "longitude": 77.2164888, "maps_url": "https://www.google.com/maps/search/?api=1&query=Veracious%20Creators%20Pvt%20Ltd&query_place_id=ChIJkzRmRfX9DDkRnKuhfOORkGU"}]