[{"place_id": "ChIJxXX-MugdDTkRw_rle2Bp4Mk", "name": "F9 It Solutions", "street": "House no. 40, Shop no.1, Nanak Pura, South Moti Bagh, New Delhi, Delhi 110021, India", "phone": "+91 99909 29523", "rating": "4.9", "review_count": "", "website": "", "latitude": 28.5861506, "longitude": 77.1705046, "maps_url": "https://www.google.com/maps/search/?api=1&query=F9%20It%20Solutions&query_place_id=ChIJxXX-MugdDTkRw_rle2Bp4Mk"}, {"place_id": "ChIJ___vH4QdDTkRcfEk8wzF_JM", "name": "Netsure IT Solution Private Limited (NSIT GLOBAL)", "street": "Ansal Chamber-2, NSIT GLOBAL, 428, Bhikaji Cama Place, Rama Krishna Puram, New Delhi, Delhi 110066, India", "phone": "+91 1800 313 818 283", "rating": "4.3", "review_count": "", "website": "", "latitude": 28.5677649, "longitude": 77.187382, "maps_url": "https://www.google.com/maps/search/?api=1&query=Netsure%20IT%20Solution%20Private%20Limited%20%28NSIT%20GLOBAL%29&query_place_id=ChIJ___vH4QdDTkRcfEk8wzF_JM"}, {"place_id": "ChIJEZi4U8HjDDkRyul3V2h5ouc", "name": "IT Company", "street": "A-14, near iskcon temple, Block A, APB Garhi, Vasant Vihar, New Delhi, Delhi 110065, India", "phone": "", "rating": "3", "review_count": "", "website": "http://www.opuswiz.com/", "latitude": 28.557167, "longitude": 77.25424819999999, "maps_url": "https://www.google.com/maps/search/?api=1&query=IT%20Company&query_place_id=ChIJEZi4U8HjDDkRyul3V2h5ouc"}, {"place_id": "ChIJ0fRhZi8dDTkR0K3vaiMF6fw", "name": "ThreatBlock Security Consulting Private Limited", "street": "2nd Floor, 67, Satya Niketan, New Delhi, Delhi 110021, India", "phone": "+91 92202 33681", "rating": "5", "review_count": "", "website": "https://threatblock.io/", "latitude": 28.588008499999997, "longitude": 77.16825279999999, "maps_url": "https://www.google.com/maps/search/?api=1&query=ThreatBlock%20Security%20Consulting%20Private%20Limited&query_place_id=ChIJ0fRhZi8dDTkR0K3vaiMF6fw"}, {"place_id": "ChIJfdHTPckFDTkR8bDPnYX0mJM", "name": "BBB- Website Designing Company in Delhi, India", "street": "22/22, 22/22, B-1, Floor, Tilak Nagar, New Delhi, Delhi 110057, India", "phone": "+91 91490 39480", "rating": "4.9", "review_count": "", "website": "https://bigbrandbucket.com/", "latitude": 28.5668907, "longitude": 77.164493, "maps_url": "https://www.google.com/maps/search/?api=1&query=BBB-%20Website%20Designing%20Company%20in%20Delhi%2C%20India&query_place_id=ChIJfdHTPckFDTkR8bDPnYX0mJM"}, {"place_id": "ChIJcyHxpIYdDTkRYIJLb-pCazo", "name": "Softvanz Technologies Private Limited", "street": "Somdutt Chamber 1, BT-22/9, Bhikaji Cama Place, Rama Krishna Puram, New Delhi, Delhi 110066, India", "phone": "", "rating": "5", "review_count": "", "website": "https://softvanz.com/", "latitude": 28.567948899999998, "longitude": 77.1889269, "maps_url": "https://www.google.com/maps/search/?api=1&query=Softvanz%20Technologies%20Private%20Limited&query_place_id=ChIJcyHxpIYdDTkRYIJLb-pCazo"}, {"place_id": "ChIJS0PZthMdDTkR-_O0Lv9wBsI", "name": "Future Domain Consulting", "street": "33, Street A, Block 1, Satya Niketan, South Moti Bagh, New Delhi, Delhi 110021, India", "phone": "+91 88003 95426", "rating": "3.4", "review_count": "", "website": "", "latitude": 28.5871186, "longitude": 77.1705207, "maps_url": "https://www.google.com/maps/search/?api=1&query=Future%20Domain%20Consulting&query_place_id=ChIJS0PZthMdDTkR-_O0Lv9wBsI"}, {"place_id": "ChIJcW27W68dDTkRiIOiV9Tok9Q", "name": "DPM IT SOLUTIONS", "street": "2nd floor, madangiri, 111, E-2, Ambedkar Nagar, Block E, Vasant Vihar, New Delhi, Delhi 110062, India", "phone": "+91 96504 13450", "rating": "5", "review_count": "", "website": "https://dpmitsolutions.com/", "latitude": 28.565620799999998, "longitude": 77.16005679999999, "maps_url": "https://www.google.com/maps/search/?api=1&query=DPM%20IT%20SOLUTIONS&query_place_id=ChIJcW27W68dDTkRiIOiV9Tok9Q"}, {"place_id": "ChIJsauU3qgcDTkRWIVfHX9ocMA", "name": "Bita Infotech IT Solutions:: Website Designing & Development Company", "street": "Rz-31 B, Street No. 5, Block M, West Sagarpur, Sagar Pur, New Delhi, Delhi, 110046, India", "phone": "+91 81782 56664", "rating": "4.7", "review_count": "", "website": "https://bitainfotech.com/", "latitude": 28.6056495, "longitude": 77.1012293, "maps_url": "https://www.google.com/maps/search/?api=1&query=Bita%20Infotech%20IT%20Solutions%3A%3A%20Website%20Designing%20%26%20Development%20Company&query_place_id=ChIJsauU3qgcDTkRWIVfHX9ocMA"}, {"place_id": "ChIJOVMgpQYDDTkREZ_-vDlyQcg", "name": "RSS INFOTECH PVT.LTD", "street": "1st floor, Didar Complex, 6 DLE Industrial Area office no -128,129, 130, Shivaji Marg, near metro pillar no-311, Moti Nagar, New Delhi, Delhi 110015, India", "phone": "+91 99531 34732", "rating": "4.5", "review_count": "", "website": "https://www.rssindia.com/", "latitude": 28.656828299999997, "longitude": 77.1425177, "maps_url": "https://www.google.com/maps/search/?api=1&query=RSS%20INFOTECH%20PVT.LTD&query_place_id=ChIJOVMgpQYDDTkREZ_-vDlyQcg"}, {"place_id": "ChIJAa4AwXnjDDkRjjaOSu7jzvQ", "name": "Luezoid Technologies Private Limited", "street": "3rd Floor, 10, Satya Niketan Rd, Moti Bagh II, Satya Niketan, South Moti Bagh, New Delhi, Delhi 110021, India", "phone": "+91 96667 18620", "rating": "4.1", "review_count": "", "website": "http://www.luezoid.com/", "latitude": 28.5877226, "longitude": 77.1671204, "maps_url": "https://www.google.com/maps/search/?api=1&query=Luezoid%20Technologies%20Private%20Limited&query_place_id=ChIJAa4AwXnjDDkRjjaOSu7jzvQ"}, {"place_id": "ChIJq6qq2oUdDTkRid2GJgw5ukE", "name": "Team Computers Pvt Ltd", "street": "1, Mohammadpur Main Rd, Bhikaji Cama Place, Rama Krishna Puram, New Delhi, Delhi 110066, India", "phone": "+91 1800 102 4200", "rating": "4.2", "review_count": "", "website": "https://www.teamcomputers.com/", "latitude": 28.5661684, "longitude": 77.1871848, "maps_url": "https://www.google.com/maps/search/?api=1&query=Team%20Computers%20Pvt%20Ltd&query_place_id=ChIJq6qq2oUdDTkRid2GJgw5ukE"}, {"place_id": "ChIJk2R7nba4cioRrEzT1GYUJRE", "name": "WebZonal IT Company", "street": "Wz-258/2-3, D Block Rd, Khazan Basti, Nangal Raya, Janakpuri, New Delhi, Delhi 110046, India", "phone": "+91 98111 70903", "rating": "5", "review_count": "", "website": "http://webzonal.com/", "latitude": 28.6122102, "longitude": 77.11159549999999, "maps_url": "https://www.google.com/maps/search/?api=1&query=WebZonal%20IT%20Company&query_place_id=ChIJk2R7nba4cioRrEzT1GYUJRE"}, {"place_id": "ChIJVed5zP3lDDkR9k64UZLpnDA", "name": "Optyminds IT Solutions - Top AI and IT company I Best Digital agency in Noida | Delhi NCR | India", "street": "1st Floor, B-70, B Block, Sector 2, Noida, Uttar Pradesh 201301, India", "phone": "+91 89290 75975", "rating": "4.9", "review_count": "", "website": "https://optyminds.com/", "latitude": 28.584679599999998, "longitude": 77.3135042, "maps_url": "https://www.google.com/maps/search/?api=1&query=Optyminds%20IT%20Solutions%20-%20Top%20AI%20and%20IT%20company%20I%20Best%20Digital%20agency%20in%20Noida%20%7C%20Delhi%20NCR%20%7C%20India&query_place_id=ChIJVed5zP3lDDkR9k64UZLpnDA"}, {"place_id": "ChIJy3LmBBMdDTkR5YFXaKKzXIo", "name": "Createch Software Pvt Ltd", "street": "4,5 2nd Floor, Moti Bagh II, Satya Niketan, New Delhi, Delhi 110021, India", "phone": "+91 98100 79450", "rating": "4.6", "review_count": "", "website": "http://createch-software.com/", "latitude": 28.5877205, "longitude": 77.16924159999999, "maps_url": "https://www.google.com/maps/search/?api=1&query=Createch%20Software%20Pvt%20Ltd&query_place_id=ChIJy3LmBBMdDTkR5YFXaKKzXIo"}, {"place_id": "ChIJFeXlTZkCDTkRNw2aQAO8CNk", "name": "Himalayan IT Solutions | Best Website Designing Company in Delhi | SEO/Digital Marketing Company in Delhi NCR, India", "street": "61/4255, Padam Singh Rd, Block 29, Block 1, Regar Pura, Karol Bagh, Delhi, 110005, India", "phone": "+91 98990 98509", "rating": "3.9", "review_count": "", "website": "http://www.himalayanitsolutions.com/", "latitude": 28.649673999999997, "longitude": 77.186599, "maps_url": "https://www.google.com/maps/search/?api=1&query=Himalayan%20IT%20Solutions%20%7C%20Best%20Website%20Designing%20Company%20in%20Delhi%20%7C%20SEO/Digital%20Marketing%20Company%20in%20Delhi%20NCR%2C%20India&query_place_id=ChIJFeXlTZkCDTkRNw2aQAO8CNk"}, {"place_id": "ChIJW00PGoQdDTkR0xI2-NtLYDY", "name": "Intek Micro Systems Pvt.Ltd", "street": "E-131, 3rd Floor, Ganpathi Bhawan, Mohammadpur, opp. Bhikaji Cama Place, New Delhi, Delhi 110066, India", "phone": "+91 11 4608 9696", "rating": "3", "review_count": "", "website": "", "latitude": 28.567966799999997, "longitude": 77.1881528, "maps_url": "https://www.google.com/maps/search/?api=1&query=Intek%20Micro%20Systems%20Pvt.Ltd&query_place_id=ChIJW00PGoQdDTkR0xI2-NtLYDY"}, {"place_id": "ChIJc5gDKw8dDTkRJtqzwKFNJQE", "name": "IPRA Security Solutions Pvt. Ltd.", "street": "11 CSC, Anand Niketan, New Delhi, Delhi 110021, India", "phone": "+91 11 4102 8951", "rating": "4.7", "review_count": "", "website": "https://iprasecurity.com/", "latitude": 28.578773599999998, "longitude": 77.1649467, "maps_url": "https://www.google.com/maps/search/?api=1&query=IPRA%20Security%20Solutions%20Pvt.%20Ltd.&query_place_id=ChIJc5gDKw8dDTkRJtqzwKFNJQE"}, {"place_id": "ChIJr1awDVcdDTkReYmnytQ_CYA", "name": "Aprion Digital Locker", "street": "Ground floor, Between Pizza hut and Belgium waffle, Shop 3, Building No 282, next to passion music, Moti Bagh II, Satya Niketan, New Delhi, Delhi 110021, India", "phone": "+91 92570 38992", "rating": "5", "review_count": "", "website": "https://www.aprion.co/", "latitude": 28.5882369, "longitude": 77.1688112, "maps_url": "https://www.google.com/maps/search/?api=1&query=Aprion%20Digital%20Locker&query_place_id=ChIJr1awDVcdDTkReYmnytQ_CYA"}, {"place_id": "ChIJn9fdJg8dDTkRqmUAwhK42Ew", "name": "Delhi Institute of Digital Marketing", "street": "near, 3rd Floor, Plot no 12, opp. Venketeshwar, Satya Niketan, South Moti Bagh, New Delhi, Delhi 110021, India", "phone": "+91 88005 05151", "rating": "4.5", "review_count": "", "website": "https://www.didm.in/digital-marketing-course-in-satya-niketan", "latitude": 28.5877041, "longitude": 77.1671842, "maps_url": "https://www.google.com/maps/search/?api=1&query=Delhi%20Institute%20of%20Digital%20Marketing&query_place_id=ChIJn9fdJg8dDTkRqmUAwhK42Ew"}, {"place_id": "ChIJ7xABECbiDDkRA7-NRZnTKeU", "name": "First IT", "street": "S/F 776-A, Chirag Dilli, New Delhi, Delhi 110017, India", "phone": "+91 70117 09416", "rating": "5", "review_count": "", "website": "https://www.firstit.in/", "latitude": 28.5376318, "longitude": 77.2282863, "maps_url": "https://www.google.com/maps/search/?api=1&query=First%20IT&query_place_id=ChIJ7xABECbiDDkRA7-NRZnTKeU"}, {"place_id": "ChIJL7i0Y9rGFUIRZKmtphSoS3k", "name": "Asha Tech | Website Designing | App Development | IT Company in Delhi", "street": "no 2, 195, Lane No. 1, Westend Marg, near Saket Metro Gate, Saidulajab, Saket, Delhi 110030, India", "phone": "+91 75310 80874", "rating": "4.7", "review_count": "", "website": "https://ashatech.co.in/", "latitude": 28.519994099999998, "longitude": 77.2008791, "maps_url": "https://www.google.com/maps/search/?api=1&query=Asha%20Tech%20%7C%20Website%20Designing%20%7C%20App%20Development%20%7C%20IT%20Company%20in%20Delhi&query_place_id=ChIJL7i0Y9rGFUIRZKmtphSoS3k"}, {"place_id": "ChIJl2hT0fgdDTkR38424veNohY", "name": "Kush Sahu", "street": "Shop No 1, Nere School, Baba Balak Nath Mandir Marg, Block I, Opne, New Delhi, Delhi 110021, India", "phone": "+91 93045 30622", "rating": "", "review_count": "", "website": "", "latitude": 28.581657399999997, "longitude": 77.1709202, "maps_url": "https://www.google.com/maps/search/?api=1&query=Kush%20Sahu&query_place_id=ChIJl2hT0fgdDTkR38424veNohY"}, {"place_id": "ChIJdSxdJy4dDTkR7olG9NNDjs8", "name": "Dorma Sensor Door", "street": "Nanak Pura Market, West, Block I, South Moti Bagh, New Delhi, Delhi 110021, India", "phone": "+91 99900 09980", "rating": "5", "review_count": "", "website": "https://www.dvsautodoors.com/", "latitude": 28.583533499999998, "longitude": 77.1687156, "maps_url": "https://www.google.com/maps/search/?api=1&query=Dorma%20Sensor%20Door&query_place_id=ChIJdSxdJy4dDTkR7olG9NNDjs8"}, {"place_id": "ChIJoSmDoBMdDTkR59JQpVbCNRA", "name": "Future Track|Actuarial Coaching & Placement| Delhi and Mumbai", "street": "63, First Floor, Opp. Sri Venkateswara (Venki) College, Satya Niketan, South Moti Bagh, New Delhi, Delhi 110021, India", "phone": "+91 98914 28150", "rating": "4.8", "review_count": "", "website": "http://www.futuretrack.org/", "latitude": 28.5880005, "longitude": 77.16828799999999, "maps_url": "https://www.google.com/maps/search/?api=1&query=Future%20Track%7CActuarial%20Coaching%20%26%20Placement%7C%20Delhi%20and%20Mumbai&query_place_id=ChIJoSmDoBMdDTkR59JQpVbCNRA"}, {"place_id": "ChIJHcnV-7EdDTkRwCDE_3uuXnY", "name": "IElevate - Institute of Digital Marketing & Graphic Design", "street": "3rd Floor, 123, 124, Satya Niketan Rd, near Durgabai Deshmukh Metro station, Moti Bagh II, Satya Niketan, South Moti Bagh, New Delhi, Delhi 110021, India", "phone": "+91 98112 22774", "rating": "4.8", "review_count": "", "website": "https://www.ielevate.in/", "latitude": 28.5883018, "longitude": 77.1685195, "maps_url": "https://www.google.com/maps/search/?api=1&query=IElevate%20-%20Institute%20of%20Digital%20Marketing%20%26%20Graphic%20Design&query_place_id=ChIJHcnV-7EdDTkRwCDE_3uuXnY"}, {"place_id": "ChIJDY6dKt8dDTkRuQO3q1RF7qQ", "name": "Docsys Kalmin Solutions Pvt Ltd", "street": "Office Number 111-113, Ansal Chambers - 2 6, Bhikaji Cama Place, New Delhi, Delhi 110066, India", "phone": "+91 95601 08201", "rating": "5", "review_count": "", "website": "https://docsyskalmin.com/", "latitude": 28.5676629, "longitude": 77.18819069999999, "maps_url": "https://www.google.com/maps/search/?api=1&query=Docsys%20Kalmin%20Solutions%20Pvt%20Ltd&query_place_id=ChIJDY6dKt8dDTkRuQO3q1RF7qQ"}, {"place_id": "ChIJe1NpoCLlDDkR77aaaEPGBu8", "name": "Babbar Tours", "street": "Basrurkar Market Rd, Moti Bagh 1, Block D, North West Moti Bagh, New Delhi, Delhi 110021, India", "phone": "+91 99712 41477", "rating": "5", "review_count": "", "website": "", "latitude": 28.5823464, "longitude": 77.178545, "maps_url": "https://www.google.com/maps/search/?api=1&query=Babbar%20Tours&query_place_id=ChIJe1NpoCLlDDkR77aaaEPGBu8"}, {"place_id": "ChIJEc-qqRMdDTkR9X-KUgEc4pI", "name": "Sai Properties", "street": "73, Moti Bagh II, Satya Niketan, South Moti Bagh, New Delhi, Delhi 110021, India", "phone": "+91 99716 06067", "rating": "3.7", "review_count": "", "website": "", "latitude": 28.5874673, "longitude": 77.1686268, "maps_url": "https://www.google.com/maps/search/?api=1&query=Sai%20Properties&query_place_id=ChIJEc-qqRMdDTkR9X-KUgEc4pI"}, {"place_id": "ChIJ____L4gdDTkRuvxp-FoarZI", "name": "VAIKIN International Courier", "street": "H. No. 230, Satya Niketan, South Moti Bagh, New Delhi, Delhi 110021, India", "phone": "+91 98103 46031", "rating": "4.6", "review_count": "", "website": "http://www.vaikin.com/", "latitude": 28.5880802, "longitude": 77.16978089999999, "maps_url": "https://www.google.com/maps/search/?api=1&query=VAIKIN%20International%20Courier&query_place_id=ChIJ____L4gdDTkRuvxp-FoarZI"}, {"place_id": "ChIJq6qqRn0CDTkRCwZ_A82IREI", "name": "Creative Travel", "street": "27-30, Creative Plaza, Nanakpura, Moti Bagh South, New Delhi, Delhi 110021, India", "phone": "+91 124 456 7777", "rating": "3.9", "review_count": "", "website": "http://www.creative.travel/", "latitude": 28.586196899999997, "longitude": 77.1685071, "maps_url": "https://www.google.com/maps/search/?api=1&query=Creative%20Travel&query_place_id=ChIJq6qqRn0CDTkRCwZ_A82IREI"}, {"place_id": "ChIJpy4SVVfiDDkRQE6lG18h6Fk", "name": "Ministry Of Marketing - Best Performance Marketing Agency", "street": "7, Basrurkar Market Rd, Moti Bagh 1, Block D, Moti Bagh, New Delhi, Delhi 110021, India", "phone": "+91 87000 89990", "rating": "4.9", "review_count": "", "website": "http://www.ministryofmarketing.in/", "latitude": 28.581474099999998, "longitude": 77.1788444, "maps_url": "https://www.google.com/maps/search/?api=1&query=Ministry%20Of%20Marketing%20-%20Best%20Performance%20Marketing%20Agency&query_place_id=ChIJpy4SVVfiDDkRQE6lG18h6Fk"}, {"place_id": "ChIJdwUJ85YdDTkRy4JkhX56XAs", "name": "MAX LOGISTIC PACKERS MOVERS", "street": "G-259,Block -F,Guru, Moti Nagar, Nanak Pura, New Delhi, Delhi 110021, India", "phone": "+91 85880 00134", "rating": "4.7", "review_count": "", "website": "https://maxlogisticpackers.com/", "latitude": 28.5852307, "longitude": 77.16977899999999, "maps_url": "https://www.google.com/maps/search/?api=1&query=MAX%20LOGISTIC%20PACKERS%20MOVERS&query_place_id=ChIJdwUJ85YdDTkRy4JkhX56XAs"}, {"place_id": "ChIJlVOTVUwdDTkRxRshESdlUKs", "name": "Deluxe Cargo Packers & Movers", "street": "Shop No. 28, near Gurudwara, Block F, Nanak Pura, South Moti Bagh, New Delhi, Delhi 110021, India", "phone": "+91 89295 80075", "rating": "4.9", "review_count": "", "website": "http://www.deluxecargopackers.com/", "latitude": 28.5835272, "longitude": 77.16655, "maps_url": "https://www.google.com/maps/search/?api=1&query=Deluxe%20Cargo%20Packers%20%26%20Movers&query_place_id=ChIJlVOTVUwdDTkRxRshESdlUKs"}, {"place_id": "ChIJARi5IxMdDTkRpnCc3rJDSFo", "name": "SCG Contracts India Pvt. Ltd", "street": "240, 3rd & 4th Floor, Satya Niketan, Ring Road, New Delhi, Delhi 110021, India", "phone": "+91 11 4603 2435", "rating": "4.4", "review_count": "", "website": "http://scgindia.com/", "latitude": 28.587790799999997, "longitude": 77.1703265, "maps_url": "https://www.google.com/maps/search/?api=1&query=SCG%20Contracts%20India%20Pvt.%20Ltd&query_place_id=ChIJARi5IxMdDTkRpnCc3rJDSFo"}, {"place_id": "ChIJd5_zEHQdDTkRVnOfnpBx5qw", "name": "Shobha Star Events", "street": "Mata Vaishno Devi Mandir, j-27, Qtr. No 73, S Moti Bagh Rd, near Type-IV, North West Moti Bagh, New Delhi, Delhi 110021, India", "phone": "", "rating": "5", "review_count": "", "website": "", "latitude": 28.58671, "longitude": 77.17424199999999, "maps_url": "https://www.google.com/maps/search/?api=1&query=Shobha%20Star%20Events&query_place_id=ChIJd5_zEHQdDTkRVnOfnpBx5qw"}, {"place_id": "ChIJFwYrLasdDTkRrpxBZeM4ByM", "name": "CEMS India", "street": "3rd Floor, 16, Satya Niketan, New Delhi, Delhi 110021, India", "phone": "+91 98702 27007", "rating": "5", "review_count": "", "website": "http://cemsindia.in/", "latitude": 28.587615699999997, "longitude": 77.1670694, "maps_url": "https://www.google.com/maps/search/?api=1&query=CEMS%20India&query_place_id=ChIJFwYrLasdDTkRrpxBZeM4ByM"}, {"place_id": "ChIJ3aDfggkdDTkRDAzHLkG3BAQ", "name": "RKG Hygiene Solutions", "street": "8D, Mini Market, Arakpur Bagh Mochi, Nanak Pura, South Moti Bagh, New Delhi, Delhi 110021, India", "phone": "+91 99996 22545", "rating": "4.7", "review_count": "", "website": "", "latitude": 28.5851896, "longitude": 77.1706422, "maps_url": "https://www.google.com/maps/search/?api=1&query=RKG%20Hygiene%20Solutions&query_place_id=ChIJ3aDfggkdDTkRDAzHLkG3BAQ"}, {"place_id": "ChIJBUEE-JQdDTkR52TmwDo0GLE", "name": "Book My Tours India", "street": "413, Shri, Ram JJC, South Campus, South Moti Bagh, New Delhi, Delhi 110021, India", "phone": "+91 73027 78405", "rating": "4.9", "review_count": "", "website": "http://www.bookmytoursindia.in/", "latitude": 28.585137699999997, "longitude": 77.1696577, "maps_url": "https://www.google.com/maps/search/?api=1&query=Book%20My%20Tours%20India&query_place_id=ChIJBUEE-JQdDTkR52TmwDo0GLE"}, {"place_id": "ChIJPZFQDk0dDTkR6NTe737xHNs", "name": "Future Built", "street": "Type IV, Block E, South Moti Bagh, New Delhi, Delhi 110021, India", "phone": "+91 88027 28729", "rating": "5", "review_count": "", "website": "", "latitude": 28.5814272, "longitude": 77.1686859, "maps_url": "https://www.google.com/maps/search/?api=1&query=Future%20Built&query_place_id=ChIJPZFQDk0dDTkR6NTe737xHNs"}, {"place_id": "ChIJISP8EAAbDTkRB_BcgUwV6RI", "name": "Prashant Dwivedi IT company", "street": "G3P5+GVC, Nayak Pura, Bijwasan, Delhi, 110061, India", "phone": "", "rating": "", "review_count": "", "website": "", "latitude": 28.536316, "longitude": 77.059649, "maps_url": "https://www.google.com/maps/search/?api=1&query=Prashant%20Dwivedi%20IT%20company&query_place_id=ChIJISP8EAAbDTkRB_BcgUwV6RI"}, {"place_id": "ChIJvWFGTgwGB04RCre81x_xuGE", "name": "Full Web Mart - Digital Marketing Agency in Delhi", "street": "Ground Floor, 258, near Mini Market, New Delhi, Delhi 110021, India", "phone": "", "rating": "5", "review_count": "", "website": "https://fullwebmart.com/", "latitude": 28.5852671, "longitude": 77.1708575, "maps_url": "https://www.google.com/maps/search/?api=1&query=Full%20Web%20Mart%20-%20Digital%20Marketing%20Agency%20in%20Delhi&query_place_id=ChIJvWFGTgwGB04RCre81x_xuGE"}]