{"timestamp": 1773733399.2315817, "keyword": "IT company", "location": "Indore", "cell_idx": 17, "results": [{"place_id": "0x3962fd71266aaa83:0x82398caa17930a40", "name": "Octavian InfoTech LLP", "category": "Software company", "street": "A 41 Ayodhya Puri", "city": "Kodriya", "phone": "09977741168", "website": "https://www.octavianinfotech.com/", "rating": 5, "review_count": "", "latitude": 22.537258599999998, "longitude": 75.7726136, "maps_url": "https://www.google.com/maps/place/?q=place_id:0x3962fd71266aaa83:0x82398caa17930a40"}, {"place_id": "0x3962f9d55308990b:0xb6ebe2e177c52632", "name": "Prodigitaly Technologies", "category": "Software company", "street": "L-31 Supercity , Opposite Shanti Nagar ,Mhowgaon", "city": "Dr. Ambedkar Nagar, Madhya Pradesh 453441", "phone": "09877530727", "website": "https://prodigitaly.com/", "rating": 5, "review_count": "", "latitude": 22.5524372, "longitude": 75.7565273, "maps_url": "https://www.google.com/maps/place/?q=place_id:0x3962f9d55308990b:0xb6ebe2e177c52632"}, {"place_id": "0x3962f90050be525f:0xa62fbb831ddecfb7", "name": "Nevaloss Technologies Pvt. Ltd.", "category": "Software company", "street": "Mhow, Madhya Pradesh 453331", "city": "", "phone": "09479591781", "website": "https://www.nevalosstechnologies.com/", "rating": 5, "review_count": "", "latitude": 22.62643, "longitude": 75.796882, "maps_url": "https://www.google.com/maps/place/?q=place_id:0x3962f90050be525f:0xa62fbb831ddecfb7"}, {"place_id": "0x390ce458d0000001:0xf2123bd299ec4501", "name": "IT Company India", "category": "Software company", "street": "D56", "city": "D Block, Sector 10", "phone": "09999244854", "website": "https://www.itcompanyindia.in/", "rating": 4.7, "review_count": "", "latitude": 28.589917699999997, "longitude": 77.3351153, "maps_url": "https://www.google.com/maps/place/?q=place_id:0x390ce458d0000001:0xf2123bd299ec4501"}, {"place_id": "0x39625774032b2dd1:0x101c44ef5a877752", "name": "Varcas Nexgen | Digital Marketing & IT Services Company", "category": "Software company", "street": "AL163", "city": "H.B Colony", "phone": "08602758854", "website": "https://www.varcasnexgen.com/", "rating": 5, "review_count": "", "latitude": 22.599356999999998, "longitude": 75.68772539999999, "maps_url": "https://www.google.com/maps/place/?q=place_id:0x39625774032b2dd1:0x101c44ef5a877752"}, {"place_id": "0x3962f90d10bd7993:0xe34f9616e2e32c5e", "name": "Welloft IT Solutions", "category": "Website designer", "street": "301 Love App", "city": "SIMROL ROAD Sai Shardha colony Love apartment", "phone": "08819832755", "website": "https://wellsoft.in/", "rating": 5, "review_count": "", "latitude": 22.556339599999998, "longitude": 75.7805716, "maps_url": "https://www.google.com/maps/place/?q=place_id:0x3962f90d10bd7993:0xe34f9616e2e32c5e"}, {"place_id": "0x396264dba06d465d:0x7515a80bca46819", "name": "Sowmitras TechnoSoft Solutions Private Limited", "category": "Software company", "street": "4", "city": "Madhuban Colony", "phone": "08989133717", "website": "https://sowmitras.com/", "rating": 4.9, "review_count": "", "latitude": 22.178641499999998, "longitude": 75.5828774, "maps_url": "https://www.google.com/maps/place/?q=place_id:0x396264dba06d465d:0x7515a80bca46819"}, {"place_id": "0x3be7c21b5901e181:0x7fe794585addc1f6", "name": "Smartinfologiks - Software Development Company in India | IT Solutions", "category": "Software company", "street": "Hilton Center", "city": "514", "phone": "07400064691", "website": "https://www.smartinfologiks.com/", "rating": 4.6, "review_count": "", "latitude": 19.0139592, "longitude": 73.0382705, "maps_url": "https://www.google.com/maps/place/?q=place_id:0x3be7c21b5901e181:0x7fe794585addc1f6"}, {"place_id": "0x3bc2becdc35b6937:0x515ac559c349eee3", "name": "Thinkitive Technologies Private Limited", "category": "Software company", "street": "4th Floor", "city": "ABIL IMPERIAL COMMERCIAL SPACES", "phone": "08956467327", "website": "https://www.thinkitive.com/", "rating": 3.9, "review_count": "", "latitude": 18.5563888, "longitude": 73.7729748, "maps_url": "https://www.google.com/maps/place/?q=place_id:0x3bc2becdc35b6937:0x515ac559c349eee3"}, {"place_id": "0x396256a28661ad75:0xa315a629fe76f6be", "name": "Cummins Turbo Technologies Ltd.", "category": "Manufacturer", "street": "Indore Special Economic Zone Phase II", "city": "Division of Cummins Technologies India ltd, Plot No. M5, Sector 3", "phone": "07292301300", "website": "http://www.cummins.com/turbos", "rating": 4.5, "review_count": "", "latitude": 22.625135699999998, "longitude": 75.6430572, "maps_url": "https://www.google.com/maps/place/?q=place_id:0x396256a28661ad75:0xa315a629fe76f6be"}, {"place_id": "0x3962f9236d105caf:0xbbc3c9013b8d48dc", "name": "Compli-Tech - Startup Consultant | Company Registration | Website Designing | Ecommerce Website Development", "category": "Business management consultant", "street": "Malwa Complex", "city": "88", "phone": "09302151441", "website": "https://compli-tech.odoo.com/", "rating": "", "review_count": "", "latitude": 22.5676845, "longitude": 75.7600538, "maps_url": "https://www.google.com/maps/place/?q=place_id:0x3962f9236d105caf:0xbbc3c9013b8d48dc"}, {"place_id": "0x396255efadca2437:0xfed5742d979c4770", "name": "PRATAP DIGITAL COMMUNICATIONS PVT. LTD.", "category": "Manufacturer", "street": "Smart Industrial Park Natrip", "city": "Plot no. 40", "phone": "", "website": "https://www.corsis.in/", "rating": 4.7, "review_count": "", "latitude": 22.5818367, "longitude": 75.593475, "maps_url": "https://www.google.com/maps/place/?q=place_id:0x396255efadca2437:0xfed5742d979c4770"}, {"place_id": "0x39625f766fcb4239:0x805879318352fff3", "name": "Shree Sawariya Computer And Mobile Repairing", "category": "Computer support and services", "street": "1, Ab Road", "city": "near by Tejaji Mandir", "phone": "09575153691", "website": "", "rating": 5, "review_count": "", "latitude": 22.4331791, "longitude": 75.62092729999999, "maps_url": "https://www.google.com/maps/place/?q=place_id:0x39625f766fcb4239:0x805879318352fff3"}, {"place_id": "0x3962fd5eec2cf6a9:0xe1b5f67b53e20d06", "name": "Technoecorp Service Private Limited", "category": "Software company", "street": "C 180 chhatra Chhaya sector 01 Pithampur", "city": "Distt", "phone": "", "website": "http://www.technoecorp.com/", "rating": 4.9, "review_count": "", "latitude": 22.6052993, "longitude": 75.6858365, "maps_url": "https://www.google.com/maps/place/?q=place_id:0x3962fd5eec2cf6a9:0xe1b5f67b53e20d06"}, {"place_id": "0x3962f91a9a1deadb:0xf9192245761ff2c", "name": "SmartTech-Developers", "category": "Software company", "street": "Suman Colony", "city": "Mhow Gaon, Madhya Pradesh 453441", "phone": "09691985153", "website": "http://smarttech-developers.com/", "rating": "", "review_count": "", "latitude": 22.5753395, "longitude": 75.74259119999999, "maps_url": "https://www.google.com/maps/place/?q=place_id:0x3962f91a9a1deadb:0xf9192245761ff2c"}, {"place_id": "0x39625f6c69a29271:0x9bb96846636398b1", "name": "Shree Saawariya Online Services", "category": "Computer support and services", "street": "Gram Mend Mhow Indore Mend", "city": "Mhow - Indore Hwy", "phone": "08319913142", "website": "", "rating": 5, "review_count": "", "latitude": 22.4171071, "longitude": 75.7101895, "maps_url": "https://www.google.com/maps/place/?q=place_id:0x39625f6c69a29271:0x9bb96846636398b1"}, {"place_id": "0x396256464da4be57:0x81feca1ea650d13a", "name": "Kores India Engineering", "category": "Manufacturer", "street": "Plot no.6", "city": "Sector 1, Industrial Area, Sagour Kuti", "phone": "09223286731", "website": "https://engineering.kores.in/", "rating": 4.2, "review_count": "", "latitude": 22.6052629, "longitude": 75.68751019999999, "maps_url": "https://www.google.com/maps/place/?q=place_id:0x396256464da4be57:0x81feca1ea650d13a"}, {"place_id": "0x39625665383e0ec3:0xe07ade2d739f8b42", "name": "Acoem India", "category": "Manufacturer", "street": "Plot No 57 Pithampur", "city": "Sector 2", "phone": "07292426409", "website": "https://www.acoem.com/india", "rating": 4.5, "review_count": "", "latitude": 22.6248209, "longitude": 75.6773436, "maps_url": "https://www.google.com/maps/place/?q=place_id:0x39625665383e0ec3:0xe07ade2d739f8b42"}, {"place_id": "0x3962571f328ba1d1:0x7052e3a0dc6e3536", "name": "Altis Industries Pvt. Ltd.", "category": "Corporate office", "street": "BR 04, Industrial Growth Center Pithampur - V, De-Notified Area", "city": "Madhya Pradesh 454774", "phone": "07314780800", "website": "http://www.altis.in/", "rating": 4.1, "review_count": "", "latitude": 22.6199776, "longitude": 75.6465839, "maps_url": "https://www.google.com/maps/place/?q=place_id:0x3962571f328ba1d1:0x7052e3a0dc6e3536"}, {"place_id": "0x39625710d533ab11:0xfa00527d942051ef", "name": "Praveer Industries", "category": "3D printing service", "street": "Sunrise town", "city": "74/75", "phone": "09770205594", "website": "https://thepraveerstore.com/", "rating": 5, "review_count": "", "latitude": 22.589725299999998, "longitude": 75.6874455, "maps_url": "https://www.google.com/maps/place/?q=place_id:0x39625710d533ab11:0xfa00527d942051ef"}, {"place_id": "0x39625710d533ab11:0xfa00527d942051ef", "name": "Praveer Industries", "category": "3D printing service", "street": "Sunrise town", "city": "74/75", "phone": "09770205594", "website": "https://thepraveerstore.com/", "rating": 5, "review_count": "", "latitude": 22.589725299999998, "longitude": 75.6874455, "maps_url": "https://www.google.com/maps/place/?q=place_id:0x39625710d533ab11:0xfa00527d942051ef"}, {"place_id": "0x39625614deab87c9:0xac1a988eafd5ac01", "name": "Aeon Medical Private Limited", "category": "Manufacturer", "street": "Sector No.-1", "city": "62, 63 & 64A", "phone": "08989978403", "website": "http://www.aeonmedical.co.in/", "rating": 4.9, "review_count": "", "latitude": 22.6169555, "longitude": 75.6897161, "maps_url": "https://www.google.com/maps/place/?q=place_id:0x39625614deab87c9:0xac1a988eafd5ac01"}, {"place_id": "0x3962fce330e1541b:0x125ef4cec09bea4e", "name": "Twarak Infotech Pvt Ltd", "category": "Software company", "street": "201 Sankalp 1", "city": "Chinar Residency, Kishanganj", "phone": "08770604745", "website": "https://www.twarakinfotech.com/", "rating": 4.5, "review_count": "", "latitude": 22.5789062, "longitude": 75.77662269999999, "maps_url": "https://www.google.com/maps/place/?q=place_id:0x3962fce330e1541b:0x125ef4cec09bea4e"}, {"place_id": "0x3962517f515688ed:0xde8f4000edf9aa47", "name": "Jalpa Devi Engineering Pvt. Ltd., Dilip Buildcon Limited", "category": "Corporate office", "street": "Plot no. 831 to 836", "city": "near Indorama Mandir", "phone": "", "website": "", "rating": 4.4, "review_count": "", "latitude": 22.6217869, "longitude": 75.5746976, "maps_url": "https://www.google.com/maps/place/?q=place_id:0x3962517f515688ed:0xde8f4000edf9aa47"}, {"place_id": "0x396256a4c71572d3:0x347474341f5c85e3", "name": "Lupin Limited", "category": "Pharmaceutical company", "street": "Plot No. 2, SEZ Phase-II, Misc Zone, Apparel Park", "city": "District Dhar", "phone": "07292417300", "website": "https://www.lupin.com/", "rating": 4.1, "review_count": "", "latitude": 22.622044499999998, "longitude": 75.637076, "maps_url": "https://www.google.com/maps/place/?q=place_id:0x396256a4c71572d3:0x347474341f5c85e3"}, {"place_id": "0x3962561639dcf60f:0x73f3c8893e81980b", "name": "Cipla Limited (Unit 1)", "category": "Pharmaceutical company", "street": "Plot no. 9, SEZ", "city": "Pithampur Industrial Area", "phone": "02224826000", "website": "http://www.cipla.com/", "rating": 4.2, "review_count": "", "latitude": 22.629214899999997, "longitude": 75.6227652, "maps_url": "https://www.google.com/maps/place/?q=place_id:0x3962561639dcf60f:0x73f3c8893e81980b"}, {"place_id": "0x3962fb25e310c02f:0xc3b411c572aa8f40", "name": "Growtech Agri Science and Research Pvt Ltd", "category": "Corporate office", "street": "GMG7+7HW", "city": "Unnamed Road", "phone": "07312856994", "website": "http://www.growtechagriscience.com/", "rating": 4.7, "review_count": "", "latitude": 22.525745999999998, "longitude": 75.6639651, "maps_url": "https://www.google.com/maps/place/?q=place_id:0x3962fb25e310c02f:0xc3b411c572aa8f40"}, {"place_id": "0x396257edbb3a0893:0xe7479b53ae320e14", "name": "Universe Capsules Biotech Pvt. Ltd", "category": "Pharmaceutical company", "street": "Plot No. 83, Smart Industrial Park", "city": "Pithampur", "phone": "09589872422", "website": "https://universecapsules.com/", "rating": 5, "review_count": "", "latitude": 22.5730923, "longitude": 75.5957118, "maps_url": "https://www.google.com/maps/place/?q=place_id:0x396257edbb3a0893:0xe7479b53ae320e14"}, {"place_id": "0x396257738d472b69:0xac0ef39ab243dda7", "name": "ZF Steering Gear (India) Limited", "category": "Manufacturer", "street": "Pithampur Industrial Area", "city": "Pithampur, Madhya Pradesh 454774", "phone": "02137305100", "website": "http://www.zfindia.com/", "rating": 4.4, "review_count": "", "latitude": 22.6219598, "longitude": 75.6457784, "maps_url": "https://www.google.com/maps/place/?q=place_id:0x396257738d472b69:0xac0ef39ab243dda7"}, {"place_id": "0x3962565de2c263eb:0x3f95f7eb8a7214c5", "name": "VE Commercial Vehicles Limited", "category": "Corporate office", "street": "Pithampur Industrial Area", "city": "Pithampur, Madhya Pradesh 454775", "phone": "01244415600", "website": "http://www.vecv.in/", "rating": 4.3, "review_count": "", "latitude": 22.611927299999998, "longitude": 75.6744796, "maps_url": "https://www.google.com/maps/place/?q=place_id:0x3962565de2c263eb:0x3f95f7eb8a7214c5"}, {"place_id": "0x39625792f4c37da9:0x46ed324b14a9e54b", "name": "TECHNO BUILD ENTERPRISES", "category": "Civil engineering company", "street": "", "city": "", "phone": "07024869869", "website": "", "rating": 4.6, "review_count": "", "latitude": 22.6051772, "longitude": 75.68250119999999, "maps_url": "https://www.google.com/maps/place/?q=place_id:0x39625792f4c37da9:0x46ed324b14a9e54b"}, {"place_id": "0x396256ac375b75eb:0x2401e406b4ae6cf9", "name": "Bridgestone India Private Limited", "category": "Corporate office", "street": "Kheda Growth Centre", "city": "Plot No. 12, Post", "phone": "07292423333", "website": "http://www.bridgestone.co.in/", "rating": 4.3, "review_count": "", "latitude": 22.6240867, "longitude": 75.6249787, "maps_url": "https://www.google.com/maps/place/?q=place_id:0x396256ac375b75eb:0x2401e406b4ae6cf9"}, {"place_id": "0x3962518119320775:0x7fdc9b44dfe0d9e5", "name": "Torrent Pharmaceuticals Ltd", "category": "Pharmaceutical company", "street": "Plot. No. 810, Sector III, Industrial Area Pithampur", "city": "Kalibillod, Madhya Pradesh 454774", "phone": "07292256224", "website": "http://www.torrentpharma.com/", "rating": 4.3, "review_count": "", "latitude": 22.6242345, "longitude": 75.56933529999999, "maps_url": "https://www.google.com/maps/place/?q=place_id:0x3962518119320775:0x7fdc9b44dfe0d9e5"}, {"place_id": "0x396257adf5285e4f:0x47f23c9e72775fa", "name": "Eicher Company Pithampur", "category": "Manufacturer", "street": "Pithampur Industrial Area", "city": "Pithampur, Madhya Pradesh 454775", "phone": "", "website": "", "rating": 4.4, "review_count": "", "latitude": 22.6113166, "longitude": 75.6747529, "maps_url": "https://www.google.com/maps/place/?q=place_id:0x396257adf5285e4f:0x47f23c9e72775fa"}, {"place_id": "0x396256403e4814d1:0x3ac3418031db49ba", "name": "Prashanti Engineering Works Pvt. Ltd.", "category": "Auto parts manufacturer", "street": "Pithampur Industrial Area", "city": "Pithampur, Madhya Pradesh 454775", "phone": "", "website": "https://prashantiengg.com/", "rating": 4.2, "review_count": "", "latitude": 22.613792099999998, "longitude": 75.68907349999999, "maps_url": "https://www.google.com/maps/place/?q=place_id:0x396256403e4814d1:0x3ac3418031db49ba"}, {"place_id": "0x396256a9a6a6b611:0xd257ef1a76381913", "name": "Glenmark Pharmaceuticals Ltd.", "category": "Pharmaceutical company", "street": "Plot No.2, Phase II, Pharma Zone, ISEZ", "city": "Pithampur, Madhya Pradesh 454774", "phone": "07292667900", "website": "http://glenmarkpharma.com/", "rating": 4.5, "review_count": "", "latitude": 22.6303257, "longitude": 75.6284524, "maps_url": "https://www.google.com/maps/place/?q=place_id:0x396256a9a6a6b611:0xd257ef1a76381913"}, {"place_id": "0x396256877c6df571:0xd046f0f12a79401f", "name": "Piramal Pharma Limited", "category": "Pharmaceutical company", "street": "plot 67", "city": "70", "phone": "07292428383", "website": "https://www.piramalpharmasolutions.com/", "rating": 4.3, "review_count": "", "latitude": 22.6280648, "longitude": 75.6670381, "maps_url": "https://www.google.com/maps/place/?q=place_id:0x396256877c6df571:0xd046f0f12a79401f"}, {"place_id": "0x396261601700e369:0x8eab4d166fb96890", "name": "Nikhil Patidar Computers", "category": "Computer support and services", "street": "Main Road", "city": "Bablai, Madhya Pradesh 451221", "phone": "06266069958", "website": "", "rating": "", "review_count": "", "latitude": 22.2795506, "longitude": 75.64681519999999, "maps_url": "https://www.google.com/maps/place/?q=place_id:0x396261601700e369:0x8eab4d166fb96890"}, {"place_id": "0x396257148c4549b1:0x9a4ad0de3d372f5e", "name": "Motherson Sumi Wiring India Ltd (Plant 1)", "category": "Auto parts manufacturer", "street": "Plot No. 8", "city": "Sector-5", "phone": "", "website": "https://www.motherson.com/", "rating": 4.1, "review_count": "", "latitude": 22.618008, "longitude": 75.638375, "maps_url": "https://www.google.com/maps/place/?q=place_id:0x396257148c4549b1:0x9a4ad0de3d372f5e"}, {"place_id": "0x39625181a8160835:0xc71f64a785bc90ce", "name": "Signet Industries Ltd.", "category": "Pipe Manufacturer", "street": "JHFC+JHC", "city": "Pithampur Industrial Area", "phone": "07314217800", "website": "https://www.groupsignet.com/contact-us.html", "rating": 3.2, "review_count": "", "latitude": 22.624068599999998, "longitude": 75.571404, "maps_url": "https://www.google.com/maps/place/?q=place_id:0x39625181a8160835:0xc71f64a785bc90ce"}, {"place_id": "0x39625619956530f7:0x52ada2b7713e79d5", "name": "Diversitech General Engg. Pvt. Ltd. Unit 2", "category": "Manufacturer", "street": "Plot no. 201 A", "city": "Pithampur Industrial Area, Sector no. 1", "phone": "07292403106", "website": "https://www.diversitech.in/", "rating": 4.3, "review_count": "", "latitude": 22.621321, "longitude": 75.70338319999999, "maps_url": "https://www.google.com/maps/place/?q=place_id:0x39625619956530f7:0x52ada2b7713e79d5"}, {"place_id": "0x39625742e7f09c03:0x1422e205ccbcfc55", "name": "PEB Konstruct Technofab Pvt Ltd", "category": "Manufacturer", "street": "AH47", "city": "Pithampur Industrial Area", "phone": "08718000037", "website": "https://www.konstructpeb.com/", "rating": 5, "review_count": "", "latitude": 22.6193705, "longitude": 75.71231019999999, "maps_url": "https://www.google.com/maps/place/?q=place_id:0x39625742e7f09c03:0x1422e205ccbcfc55"}, {"place_id": "0x39625163ce25524d:0xda13e14634646d84", "name": "Erawat Pharma Limited", "category": "Manufacturer", "street": "512, Industrial Area No. 3, Pithampur, Rau - Pithampur Rd", "city": "Pithampur Industrial Area", "phone": "07316659100", "website": "http://www.erawat.com/", "rating": 3.9, "review_count": "", "latitude": 22.6256748, "longitude": 75.59043489999999, "maps_url": "https://www.google.com/maps/place/?q=place_id:0x39625163ce25524d:0xda13e14634646d84"}, {"place_id": "0x396256bcd8cfab9b:0x2ab07550da5c6766", "name": "Rubicon Research Ltd, Pithampur", "category": "Manufacturer", "street": "JJCR+G98", "city": "Pithampur Industrial Area", "phone": "", "website": "http://www.rubicon.co.in/", "rating": 4.4, "review_count": "", "latitude": 22.6212967, "longitude": 75.6409537, "maps_url": "https://www.google.com/maps/place/?q=place_id:0x396256bcd8cfab9b:0x2ab07550da5c6766"}, {"place_id": "0x3962573e64a3132f:0x1fff58d012af4d03", "name": "Motherson Sumi Electric Wires(MSEW)", "category": "Automation company", "street": "Plot No 3, Industrial Growth Centre", "city": "Pithampur Industrial Area", "phone": "", "website": "http://www.motherson.com/", "rating": 4, "review_count": "", "latitude": 22.6211363, "longitude": 75.6293762, "maps_url": "https://www.google.com/maps/place/?q=place_id:0x3962573e64a3132f:0x1fff58d012af4d03"}, {"place_id": "0x3962515b2909ef5f:0xfa7d0d95951452f4", "name": "Makin Laboratories Pvt.Ltd", "category": "Pharmaceutical company", "street": "JJC3+68Q", "city": "Pithampur Industrial Area", "phone": "", "website": "http://makinlaboratories.com/", "rating": 3.5, "review_count": "", "latitude": 22.6205851, "longitude": 75.60336749999999, "maps_url": "https://www.google.com/maps/place/?q=place_id:0x3962515b2909ef5f:0xfa7d0d95951452f4"}, {"place_id": "0x396256a3e438039f:0x15974c118b438a5b", "name": "Kusum Healthcare Pvt. Ltd.", "category": "Corporate office", "street": "M-3 SEZ", "city": "Pithampur, 454774", "phone": "01141005147", "website": "http://www.kusumhealthcare.com/", "rating": 4.4, "review_count": "", "latitude": 22.6272023, "longitude": 75.6386335, "maps_url": "https://www.google.com/maps/place/?q=place_id:0x396256a3e438039f:0x15974c118b438a5b"}, {"place_id": "0x39625646b84ffd91:0xceee27e308cc205d", "name": "Medilux Laboratories Pvt. Ltd.", "category": "Pharmaceutical company", "street": "Plot No. 98-99, Sector-1 454 775", "city": "Pithampur Industrial Area", "phone": "07292409991", "website": "https://www.medilux.co.in/", "rating": 4.4, "review_count": "", "latitude": 22.608520199999997, "longitude": 75.6872619, "maps_url": "https://www.google.com/maps/place/?q=place_id:0x39625646b84ffd91:0xceee27e308cc205d"}, {"place_id": "0x396256630fad880d:0x34336f61dc52c36", "name": "Swaraj Technocraft Ltd", "category": "Industrial equipment supplier", "street": "plot no. 40", "city": "Pithampur Industrial Area, Sector 2", "phone": "09752265813", "website": "http://swarajtechnocrafts.com/", "rating": 3.9, "review_count": "", "latitude": 22.6231241, "longitude": 75.6709223, "maps_url": "https://www.google.com/maps/place/?q=place_id:0x396256630fad880d:0x34336f61dc52c36"}, {"place_id": "0x3962f7a9cd6c9f71:0x66a31a84cc17dced", "name": "Sai Computers", "category": "Computer software store", "street": "1494, Chander Marg", "city": "Bombay Bazar, Hari Phatak", "phone": "09893545685", "website": "", "rating": "", "review_count": "", "latitude": 22.559409499999997, "longitude": 75.76513349999999, "maps_url": "https://www.google.com/maps/place/?q=place_id:0x3962f7a9cd6c9f71:0x66a31a84cc17dced"}, {"place_id": "0x3962681609290295:0xa59fc926cfc40933", "name": "webmillennium IT Company", "category": "Software company", "street": "8GC4+93C", "city": "Gujri, Madhya Pradesh 451224", "phone": "", "website": "", "rating": "", "review_count": "", "latitude": 22.3209491, "longitude": 75.5051264, "maps_url": "https://www.google.com/maps/place/?q=place_id:0x3962681609290295:0xa59fc926cfc40933"}, {"place_id": "0x3962564372fffbb7:0x3dc6aed1005384af", "name": "LEKHISOFT IT SERVICES AND CONSULTANCY", "category": "Software company", "street": "UG-2, Kesar Complex, Pithampur Sec 1, Dist. Dhar MP - 454775", "city": "Pithampur, Madhya Pradesh 454775", "phone": "07292400100", "website": "", "rating": 3.3, "review_count": "", "latitude": 22.620465, "longitude": 75.6848074, "maps_url": "https://www.google.com/maps/place/?q=place_id:0x3962564372fffbb7:0x3dc6aed1005384af"}, {"place_id": "0x39631d6ae4f42a97:0x83bc825e66f9983", "name": "Techwave IT Solutions Pvt Ltd | Software Development Company in Indore | Top IT Company in Indore | India", "category": "Software company", "street": "Bhopal Motors JCB", "city": "near Panchvati", "phone": "09009155444", "website": "http://techwaveitsolutions.com/", "rating": "", "review_count": "", "latitude": 22.792078399999998, "longitude": 75.90735409999999, "maps_url": "https://www.google.com/maps/place/?q=place_id:0x39631d6ae4f42a97:0x83bc825e66f9983"}, {"place_id": "0x3962f93bbf2be761:0xd4d10ddd80cb791a", "name": "digIT Consultants", "category": "Software company", "street": "Shop 1 - 15, Rajasva Nagar", "city": "Dharnaka", "phone": "08269639582", "website": "http://digitconsultants.co.in/", "rating": 5, "review_count": "", "latitude": 22.5656921, "longitude": 75.7485544, "maps_url": "https://www.google.com/maps/place/?q=place_id:0x3962f93bbf2be761:0xd4d10ddd80cb791a"}, {"place_id": "0x396303bd0b505bf9:0xf91ea7b7a07c038e", "name": "Cohort Innovations - A software development company", "category": "Software company", "street": "467, Shyam Nagar Main Rd", "city": "Shyam Nagar, Sukhliya", "phone": "07771000776", "website": "http://cohortinnovations.com/", "rating": 5, "review_count": "", "latitude": 22.7588278, "longitude": 75.8677902, "maps_url": "https://www.google.com/maps/place/?q=place_id:0x396303bd0b505bf9:0xf91ea7b7a07c038e"}, {"place_id": "0x39626773e7b9c63d:0x5fd6fa62c44e43ba", "name": "Annapurna Computers", "category": "Computer support and services", "street": "04, Maheshwar - Aashapur Rd", "city": "Aashapur, Sel, Madhya Pradesh 451224", "phone": "08435151191", "website": "", "rating": 5, "review_count": "", "latitude": 22.291550599999997, "longitude": 75.5638773, "maps_url": "https://www.google.com/maps/place/?q=place_id:0x39626773e7b9c63d:0x5fd6fa62c44e43ba"}, {"place_id": "0x3962f7258c7e67f5:0x3997f7bd639d8477", "name": "Business Consultant", "category": "Business management consultant", "street": "551,Vishwas Nagar, Banjari", "city": "Post", "phone": "08319803782", "website": "", "rating": "", "review_count": "", "latitude": 22.594945799999998, "longitude": 75.6916344, "maps_url": "https://www.google.com/maps/place/?q=place_id:0x3962f7258c7e67f5:0x3997f7bd639d8477"}, {"place_id": "0x396251541255d393:0xa2fa2b33030e3279", "name": "RITSPIN SYNTHETICS LIMITED", "category": "Corporate office", "street": "Pithampur Industrial Area", "city": "Pithampur, Madhya Pradesh 454774", "phone": "07292400102", "website": "http://www.wearitgroup.com/", "rating": 3.6, "review_count": "", "latitude": 22.6280395, "longitude": 75.6165339, "maps_url": "https://www.google.com/maps/place/?q=place_id:0x396251541255d393:0xa2fa2b33030e3279"}, {"place_id": "0x3962679bf0fcdb71:0xde216984da70ea12", "name": "Shree Online Center", "category": "Computer support and services", "street": "Main Road", "city": "Mohana, Samaspura, Madhya Pradesh 451224", "phone": "09977691413", "website": "", "rating": 3, "review_count": "", "latitude": 22.2733296, "longitude": 75.6078964, "maps_url": "https://www.google.com/maps/place/?q=place_id:0x3962679bf0fcdb71:0xde216984da70ea12"}]}