[{"place_id": "ChIJM-ZDIOXiDDkRHNlL6nlN1D4", "name": "Wirecto", "street": "Triloki Colony, C-49, South Extension I, Mahaveer Nagar, Kotla Mubarakpur, New Delhi, Delhi 110003, India", "phone": "+91 97166 70074", "rating": "5", "review_count": "", "website": "https://wirecto.app/", "latitude": 28.575404799999998, "longitude": 77.2250054, "maps_url": "https://www.google.com/maps/search/?api=1&query=Wirecto&query_place_id=ChIJM-ZDIOXiDDkRHNlL6nlN1D4"}, {"place_id": "ChIJAwAAQADjDDkRwdL55hBPtLM", "name": "Onestore India Private Limited", "street": "E-2, near Sanatan Dharm Mandir, Block E, Jungpura Extension, New Delhi, Delhi 110014, India", "phone": "+91 98110 04006", "rating": "3.3", "review_count": "", "website": "https://www.onestoreindia.com/", "latitude": 28.580519799999998, "longitude": 77.2452538, "maps_url": "https://www.google.com/maps/search/?api=1&query=Onestore%20India%20Private%20Limited&query_place_id=ChIJAwAAQADjDDkRwdL55hBPtLM"}, {"place_id": "ChIJEZi4U8HjDDkRyul3V2h5ouc", "name": "IT Company", "street": "A-14, near iskcon temple, Block A, APB Garhi, Vasant Vihar, New Delhi, Delhi 110065, India", "phone": "", "rating": "3", "review_count": "", "website": "http://www.opuswiz.com/", "latitude": 28.557167, "longitude": 77.25424819999999, "maps_url": "https://www.google.com/maps/search/?api=1&query=IT%20Company&query_place_id=ChIJEZi4U8HjDDkRyul3V2h5ouc"}, {"place_id": "ChIJU9nnQPTlDDkRtDJDfThvJBk", "name": "Cyberro Technologies Private Limited", "street": "E-2, near sanatan Dharam Mandir, Block E, Jungpura Extension, New Delhi, Delhi 110014, India", "phone": "+91 70420 72542", "rating": "3.2", "review_count": "", "website": "http://www.chyldmonitor.com/", "latitude": 28.5806611, "longitude": 77.2452109, "maps_url": "https://www.google.com/maps/search/?api=1&query=Cyberro%20Technologies%20Private%20Limited&query_place_id=ChIJU9nnQPTlDDkRtDJDfThvJBk"}, {"place_id": "ChIJXSqyvAfjDDkRJfz6ZVF7zJw", "name": "EDGISS IT SERVICES INC.", "street": "40, Jangpura Rd, Bhogal, New Delhi, Delhi 110014, India", "phone": "+91 79820 01184", "rating": "5", "review_count": "", "website": "https://www.edgiss.in/", "latitude": 28.582393699999997, "longitude": 77.24992309999999, "maps_url": "https://www.google.com/maps/search/?api=1&query=EDGISS%20IT%20SERVICES%20INC.&query_place_id=ChIJXSqyvAfjDDkRJfz6ZVF7zJw"}, {"place_id": "ChIJdehDIOXiDDkRYQBbS6-8wQI", "name": "Fair Infotech", "street": "1529/4, Western Peripheral Expy, South Extension I, Wazir Nagar, Pragati Vihar, New Delhi, Delhi 110003, India", "phone": "+91 88823 76856", "rating": "4.8", "review_count": "", "website": "", "latitude": 28.5916468, "longitude": 77.23178639999999, "maps_url": "https://www.google.com/maps/search/?api=1&query=Fair%20Infotech&query_place_id=ChIJdehDIOXiDDkRYQBbS6-8wQI"}, {"place_id": "ChIJ5VRVuMfjDDkRMXYkXsE55DQ", "name": "HAUT IT Solutions Pvt. Ltd", "street": "390, Sant Nagar, East of Kailash, New Delhi, Delhi 110065, India", "phone": "+91 99347 53003", "rating": "4.3", "review_count": "", "website": "http://www.hautitsolutions.com/", "latitude": 28.554910099999997, "longitude": 77.25111249999999, "maps_url": "https://www.google.com/maps/search/?api=1&query=HAUT%20IT%20Solutions%20Pvt.%20Ltd&query_place_id=ChIJ5VRVuMfjDDkRMXYkXsE55DQ"}, {"place_id": "ChIJ5QlVe1nhDDkRPE20N7kJgv0", "name": "IT Solutions India Private Limited", "street": "D-88/5, Pocket D, Okhla Phase I, Okhla Industrial Estate, New Delhi, Delhi 110020, India", "phone": "+91 98100 17429", "rating": "4.2", "review_count": "", "website": "https://www.itsipl.com/", "latitude": 28.520146, "longitude": 77.280431, "maps_url": "https://www.google.com/maps/search/?api=1&query=IT%20Solutions%20India%20Private%20Limited&query_place_id=ChIJ5QlVe1nhDDkRPE20N7kJgv0"}, {"place_id": "ChIJHa7J0lBlY4YRyZ6pQAVZpMM", "name": "KickRummy - Real Cash Rummy", "street": "BASEMENT, A-60, HARI NIWAS BUILDING, Defence Colony Flyover, Defense Colony, Defence Colony, New Delhi, Delhi 110024, India", "phone": "", "rating": "4.8", "review_count": "", "website": "https://www.kickrummy.com/", "latitude": 28.576753999999998, "longitude": 77.2339135, "maps_url": "https://www.google.com/maps/search/?api=1&query=KickRummy%20-%20Real%20Cash%20Rummy&query_place_id=ChIJHa7J0lBlY4YRyZ6pQAVZpMM"}, {"place_id": "ChIJRelCK1HjDDkRURJl4Qabzug", "name": "Instant IT services - Best Hardware & Software Related Services", "street": "koli camp, 69B, Phase 2, Hari Nagar Ashram, New Delhi, Delhi 110014, India", "phone": "+91 98048 36325", "rating": "4.7", "review_count": "", "website": "", "latitude": 28.5758728, "longitude": 77.2565554, "maps_url": "https://www.google.com/maps/search/?api=1&query=Instant%20IT%20services%20-%20Best%20Hardware%20%26%20Software%20Related%20Services&query_place_id=ChIJRelCK1HjDDkRURJl4Qabzug"}, {"place_id": "ChIJbTth_gDjDDkRigywJTgpyCo", "name": "QGS Infotech Pvt Ltd", "street": "24, Jangpura, Block I, Jungpura Extension, New Delhi, Delhi 110014, India", "phone": "+91 99714 89477", "rating": "5", "review_count": "", "website": "http://www.qgsinfotech.com/", "latitude": 28.582693199999998, "longitude": 77.24371529999999, "maps_url": "https://www.google.com/maps/search/?api=1&query=QGS%20Infotech%20Pvt%20Ltd&query_place_id=ChIJbTth_gDjDDkRigywJTgpyCo"}, {"place_id": "ChIJ6xG0sw-c-DkRWHWbfpc_R74", "name": "Kbeatech - Digital Solutions Company", "street": "1893, 1st Floor, Uday Chand Marg, South Extension I, Kotla Mubarakpur, New Delhi, Delhi 110049, India", "phone": "", "rating": "4.9", "review_count": "", "website": "https://kbeatech.in/", "latitude": 28.571338299999997, "longitude": 77.2228884, "maps_url": "https://www.google.com/maps/search/?api=1&query=Kbeatech%20-%20Digital%20Solutions%20Company&query_place_id=ChIJ6xG0sw-c-DkRWHWbfpc_R74"}, {"place_id": "ChIJCXxNvm1Yv04RbCL1O8hVhJY", "name": "Anchor IT Solutions- App Development | Website Development | Digital Marketing", "street": "4, Vinoba Puri, Lajpat Nagar II, Lajpat Nagar, New Delhi, Delhi 110024, India", "phone": "+91 76786 58584", "rating": "4.8", "review_count": "", "website": "", "latitude": 28.566371399999998, "longitude": 77.2486924, "maps_url": "https://www.google.com/maps/search/?api=1&query=Anchor%20IT%20Solutions-%20App%20Development%20%7C%20Website%20Development%20%7C%20Digital%20Marketing&query_place_id=ChIJCXxNvm1Yv04RbCL1O8hVhJY"}, {"place_id": "ChIJI5ZQ_0LjDDkRYAbD_7K4a6M", "name": "Cloudstrats", "street": "C-1, Block C, Lajpat Nagar I, Lajpat Nagar, New Delhi, Delhi 110024, India", "phone": "", "rating": "3", "review_count": "", "website": "http://www.cloudstrats.com/", "latitude": 28.577239, "longitude": 77.241252, "maps_url": "https://www.google.com/maps/search/?api=1&query=Cloudstrats&query_place_id=ChIJI5ZQ_0LjDDkRYAbD_7K4a6M"}, {"place_id": "ChIJaXbzr1PiDDkRgXOEI_sYFfk", "name": "Repotech Systems India Private Limited", "street": "C-113, Lajpat Nagar, Part-I, near Defence Colony Flyover, Market, Lajpat Nagar, New Delhi, Delhi 110024, India", "phone": "+91 11 4172 7722", "rating": "4.5", "review_count": "", "website": "", "latitude": 28.5773029, "longitude": 77.2390813, "maps_url": "https://www.google.com/maps/search/?api=1&query=Repotech%20Systems%20India%20Private%20Limited&query_place_id=ChIJaXbzr1PiDDkRgXOEI_sYFfk"}, {"place_id": "ChIJ8XVy-qHjDDkRNpU2vDkjeSw", "name": "Ezeetech Solutions", "street": "149-A, 1st Floor, Baba House Complex, Mahatma Gandhi Rd, Kilokri, Phase 1, Sunlight Colony, New Delhi, Delhi 110014, India", "phone": "+91 11 4990 1562", "rating": "4.9", "review_count": "", "website": "https://ezeetechonline.com/", "latitude": 28.576534199999998, "longitude": 77.26283029999999, "maps_url": "https://www.google.com/maps/search/?api=1&query=Ezeetech%20Solutions&query_place_id=ChIJ8XVy-qHjDDkRNpU2vDkjeSw"}, {"place_id": "ChIJl5geAqLjDDkRGQx9atNSvyg", "name": "It Softtech - Website Designing and Development Company in Delhi, India", "street": "149, Ring Rd, opp. Maharani Bagh, Kilokri, Phase 1, Hari Nagar Ashram, New Delhi, Delhi 110014, India", "phone": "+91 98100 56177", "rating": "5", "review_count": "", "website": "", "latitude": 28.5763395, "longitude": 77.2640869, "maps_url": "https://www.google.com/maps/search/?api=1&query=It%20Softtech%20-%20Website%20Designing%20and%20Development%20Company%20in%20Delhi%2C%20India&query_place_id=ChIJl5geAqLjDDkRGQx9atNSvyg"}, {"place_id": "ChIJGVzLMPrjDDkRVN2xjf7DucI", "name": "KIREN SMART SERVICES", "street": "D-196, New, G/F, Lajpat Nagar I, Lajpat Nagar, New Delhi, Delhi 110024, India", "phone": "+91 98739 07360", "rating": "4.1", "review_count": "", "website": "https://kirensmartservices.com/", "latitude": 28.5785903, "longitude": 77.2423422, "maps_url": "https://www.google.com/maps/search/?api=1&query=KIREN%20SMART%20SERVICES&query_place_id=ChIJGVzLMPrjDDkRVN2xjf7DucI"}, {"place_id": "ChIJY5YOOqrjDDkR6reT34q7o-Q", "name": "Magica Facility Management Services (I) Pvt Ltd", "street": "I-3, Lajpat Nagar 1st (near jal vihar bus terminal Block I, Lajpat Nagar 1, Lajpat Nagar, New Delhi, Delhi 110024, India", "phone": "+91 98911 99568", "rating": "4.4", "review_count": "", "website": "", "latitude": 28.5775604, "longitude": 77.24403649999999, "maps_url": "https://www.google.com/maps/search/?api=1&query=Magica%20Facility%20Management%20Services%20%28I%29%20Pvt%20Ltd&query_place_id=ChIJY5YOOqrjDDkR6reT34q7o-Q"}, {"place_id": "ChIJJ6Ck-ULiDDkRZtG5amW08rE", "name": "Metasoft IT Systems Pvt Ltd", "street": "South Extension Plaza 2, 401 402, Guneet Kashyap Marg Rd, South Extension II, Masjid Moth Village, New Delhi, Delhi 110049, India", "phone": "+91 99109 75699", "rating": "", "review_count": "", "website": "http://www.metasoft.co.in/", "latitude": 28.5636208, "longitude": 77.2198183, "maps_url": "https://www.google.com/maps/search/?api=1&query=Metasoft%20IT%20Systems%20Pvt%20Ltd&query_place_id=ChIJJ6Ck-ULiDDkRZtG5amW08rE"}, {"place_id": "ChIJ7xABECbiDDkRA7-NRZnTKeU", "name": "First IT", "street": "S/F 776-A, Chirag Dilli, New Delhi, Delhi 110017, India", "phone": "+91 70117 09416", "rating": "5", "review_count": "", "website": "https://www.firstit.in/", "latitude": 28.5376318, "longitude": 77.2282863, "maps_url": "https://www.google.com/maps/search/?api=1&query=First%20IT&query_place_id=ChIJ7xABECbiDDkRA7-NRZnTKeU"}, {"place_id": "ChIJT-ejMSnjDDkRsMpoQooEAB0", "name": "Anusha Technovision Experience Centre", "street": "Lower Ground Floor, D20, Block D, Jangpura, New Delhi, Delhi 110014, India", "phone": "+91 11 2432 4113", "rating": "4.8", "review_count": "", "website": "http://www.anushagroup.com/", "latitude": 28.5794268, "longitude": 77.2436901, "maps_url": "https://www.google.com/maps/search/?api=1&query=Anusha%20Technovision%20Experience%20Centre&query_place_id=ChIJT-ejMSnjDDkRsMpoQooEAB0"}, {"place_id": "ChIJhWhFSRPjDDkR76g9uPNWiWg", "name": "Servexa AI", "street": "1st Floor, C70, Block C, Lajpat Nagar I, Lajpat Nagar, New Delhi, Delhi 110024, India", "phone": "", "rating": "", "review_count": "", "website": "https://www.servexa.store/", "latitude": 28.578256, "longitude": 77.23943, "maps_url": "https://www.google.com/maps/search/?api=1&query=Servexa%20AI&query_place_id=ChIJhWhFSRPjDDkR76g9uPNWiWg"}, {"place_id": "ChIJYaq-KPEHxGMRs6lh8FblL2E", "name": "Venture Sarthi", "street": "283, Defence Colony Flyover, Block M, Jungpura Extension, Market, New Delhi, Delhi 110024, India", "phone": "+91 99111 31179", "rating": "5", "review_count": "", "website": "https://venturesarthi.com/", "latitude": 28.580765, "longitude": 77.2386939, "maps_url": "https://www.google.com/maps/search/?api=1&query=Venture%20Sarthi&query_place_id=ChIJYaq-KPEHxGMRs6lh8FblL2E"}, {"place_id": "ChIJQ0FFb-fjDDkRZwi9rIN7sC0", "name": "Media Mosiac OPC Private Limited", "street": "3rd Floor, D-152, Block D, Lajpat Nagar I, Lajpat Nagar, New Delhi, Delhi 110024, India", "phone": "+91 98101 22333", "rating": "4.9", "review_count": "", "website": "https://mediamosiac.com/", "latitude": 28.5782447, "longitude": 77.2425171, "maps_url": "https://www.google.com/maps/search/?api=1&query=Media%20Mosiac%20OPC%20Private%20Limited&query_place_id=ChIJQ0FFb-fjDDkRZwi9rIN7sC0"}, {"place_id": "ChIJa7owIQDjDDkRlq5V5VdLKDk", "name": "ABS Tech Consulting Private Limited", "street": "401, Building No. A-146, Near Piller No. 39, Shakarpur, New Delhi, Delhi 110014, India", "phone": "+91 95119 35729", "rating": "3.6", "review_count": "", "website": "", "latitude": 28.5813781, "longitude": 77.2406664, "maps_url": "https://www.google.com/maps/search/?api=1&query=ABS%20Tech%20Consulting%20Private%20Limited&query_place_id=ChIJa7owIQDjDDkRlq5V5VdLKDk"}, {"place_id": "ChIJ____vwDjDDkR6Y6AiW5vNeE", "name": "Skylark Elevator Company", "street": "208, Defence Colony Flyover, Block M, Jungpura Extension, Market, New Delhi, Delhi 110024, India", "phone": "+91 11 2435 1869", "rating": "2.6", "review_count": "", "website": "https://www.skylarkelevator.com/", "latitude": 28.5801894, "longitude": 77.238514, "maps_url": "https://www.google.com/maps/search/?api=1&query=Skylark%20Elevator%20Company&query_place_id=ChIJ____vwDjDDkR6Y6AiW5vNeE"}, {"place_id": "ChIJd9dOTA_jDDkR5RzlLANefDo", "name": "Appextech Software Solutions", "street": "Second Floor, Mohan Cooperative Industrial Estate, B1/A19, Block A, Vishwakarma Colony, Pul Pehladpur, New Delhi, Delhi 110044, India", "phone": "+91 99114 32451", "rating": "4.9", "review_count": "", "website": "https://www.appextech.com/", "latitude": 28.502260099999997, "longitude": 77.28519, "maps_url": "https://www.google.com/maps/search/?api=1&query=Appextech%20Software%20Solutions&query_place_id=ChIJd9dOTA_jDDkR5RzlLANefDo"}, {"place_id": "ChIJ8bmrr9zjDDkRHArLb1S2svU", "name": "KAPOOR & CO. (ADVOCATES)", "street": "D-5, Jangpura, Block D, Jungpura Extension, New Delhi, Delhi 110014, India", "phone": "+91 11 4371 7760", "rating": "4.9", "review_count": "", "website": "http://kapoorandcompany.com/", "latitude": 28.579458499999998, "longitude": 77.2453596, "maps_url": "https://www.google.com/maps/search/?api=1&query=KAPOOR%20%26%20CO.%20%28ADVOCATES%29&query_place_id=ChIJ8bmrr9zjDDkRHArLb1S2svU"}, {"place_id": "ChIJq94XOv7jDDkR8SOfV9F5Eok", "name": "Super Smelly", "street": "1st Floor, C-1, Block D, Lajpat Nagar I, Lajpat Nagar, New Delhi, Delhi 110024, India", "phone": "+91 98437 80077", "rating": "4.8", "review_count": "", "website": "", "latitude": 28.5772555, "longitude": 77.24155429999999, "maps_url": "https://www.google.com/maps/search/?api=1&query=Super%20Smelly&query_place_id=ChIJq94XOv7jDDkR8SOfV9F5Eok"}, {"place_id": "ChIJ9Z-wxKrjDDkR5IFFBewRSdM", "name": "MAGNUS BRAND SOLUTIONS | Best Digital Printing Service Providers in Delhi.", "street": "D-103, Block D, Lajpat Nagar I, Lajpat Nagar, New Delhi, Delhi 110024, India", "phone": "+91 98919 13033", "rating": "4.7", "review_count": "", "website": "https://api.whatsapp.com/send/?phone=919891913033&text&type=phone_number&app_absent=0", "latitude": 28.5776723, "longitude": 77.2415005, "maps_url": "https://www.google.com/maps/search/?api=1&query=MAGNUS%20BRAND%20SOLUTIONS%20%7C%20Best%20Digital%20Printing%20Service%20Providers%20in%20Delhi.&query_place_id=ChIJ9Z-wxKrjDDkR5IFFBewRSdM"}, {"place_id": "ChIJD78JU6rjDDkRMdNJt9ZgHfY", "name": "Jupiter Administrative & Security Services", "street": "B-112, Block B, Lajpat Nagar I, Lajpat Nagar, New Delhi, Delhi 110024, India", "phone": "+91 99535 91638", "rating": "3.5", "review_count": "", "website": "https://www.jupitersecurity.in/", "latitude": 28.578349799999998, "longitude": 77.2406191, "maps_url": "https://www.google.com/maps/search/?api=1&query=Jupiter%20Administrative%20%26%20Security%20Services&query_place_id=ChIJD78JU6rjDDkRMdNJt9ZgHfY"}, {"place_id": "ChIJOwD8TzLjDDkRvKgGlIg6y9s", "name": "Grog Events & Entertainment Pvt. Ltd.", "street": "1st Floor, C-95, 1, Birbal Rd, Lajpat Nagar, New Delhi, Delhi 110024, India", "phone": "+91 99997 71040", "rating": "5", "review_count": "", "website": "https://grogevents.com/", "latitude": 28.577280499999997, "longitude": 77.2390353, "maps_url": "https://www.google.com/maps/search/?api=1&query=Grog%20Events%20%26%20Entertainment%20Pvt.%20Ltd.&query_place_id=ChIJOwD8TzLjDDkRvKgGlIg6y9s"}, {"place_id": "ChIJWWPLA4_7DDkRGUnfUu-49BU", "name": "Brighten HVAC Services", "street": "D-106, Lajpat Nagar I, Lajpat Nagar, New Delhi, Delhi 110024, India", "phone": "+91 98189 47171", "rating": "4.8", "review_count": "", "website": "", "latitude": 28.577879, "longitude": 77.241507, "maps_url": "https://www.google.com/maps/search/?api=1&query=Brighten%20HVAC%20Services&query_place_id=ChIJWWPLA4_7DDkRGUnfUu-49BU"}, {"place_id": "ChIJSdZPivXjDDkRSjKlQ80bQaE", "name": "Khurmi Associates Pvt. Ltd.", "street": "Flat No.-16, First Floor, Block O, Jungpura Extension, Market, New Delhi, Delhi 110014, India", "phone": "+91 11 2431 0523", "rating": "5", "review_count": "", "website": "http://khurmiassociates.com/", "latitude": 28.580376599999997, "longitude": 77.2415377, "maps_url": "https://www.google.com/maps/search/?api=1&query=Khurmi%20Associates%20Pvt.%20Ltd.&query_place_id=ChIJSdZPivXjDDkRSjKlQ80bQaE"}, {"place_id": "ChIJByUwvgDjDDkRbNl5WcpV5_E", "name": "KARAN BINDRA", "street": "I-44, Basement, Block I, Jungpura Extension, New Delhi, Delhi 110014, India", "phone": "+91 98104 08400", "rating": "4.9", "review_count": "", "website": "http://www.kiaa.co.in/", "latitude": 28.5832166, "longitude": 77.243271, "maps_url": "https://www.google.com/maps/search/?api=1&query=KARAN%20BINDRA&query_place_id=ChIJByUwvgDjDDkRbNl5WcpV5_E"}, {"place_id": "ChIJjW-cv-rjDDkR4J2zdODnzjo", "name": "Indiacorp Law, Delhi", "street": "H -35, Jangpura Ext Rd, Block H, Jungpura Extension, New Delhi, Delhi 110014, India", "phone": "+91 88260 16751", "rating": "5", "review_count": "", "website": "http://www.indiacorplaw.com/", "latitude": 28.5817883, "longitude": 77.2412688, "maps_url": "https://www.google.com/maps/search/?api=1&query=Indiacorp%20Law%2C%20Delhi&query_place_id=ChIJjW-cv-rjDDkR4J2zdODnzjo"}, {"place_id": "ChIJiTW0L1HiDDkRWGmFhQwnjcE", "name": "Intellective Law Offices", "street": "A 74, LGF, Intellective law office, Block A, Defence Colony, New Delhi, Delhi 110003, India", "phone": "+91 11 4374 7425", "rating": "4.1", "review_count": "", "website": "https://ilolegal.com/", "latitude": 28.5777905, "longitude": 77.2315672, "maps_url": "https://www.google.com/maps/search/?api=1&query=Intellective%20Law%20Offices&query_place_id=ChIJiTW0L1HiDDkRWGmFhQwnjcE"}, {"place_id": "ChIJ07ngKd_jDDkRvI3y2FA9_rE", "name": "CATALYST LAW FIRM", "street": "6, Birbal Rd, UGF, Jungpura Extension, New Delhi, Delhi 110014, India", "phone": "+91 98998 27669", "rating": "5", "review_count": "", "website": "", "latitude": 28.583703999999997, "longitude": 77.2442001, "maps_url": "https://www.google.com/maps/search/?api=1&query=CATALYST%20LAW%20FIRM&query_place_id=ChIJ07ngKd_jDDkRvI3y2FA9_rE"}, {"place_id": "ChIJ9_SCfWTjDDkR98xuWo0bCCM", "name": "Arthaat Legal", "street": "Jangpura, Pant Nagar, New Delhi, Delhi 110014, India", "phone": "+91 81467 89362", "rating": "4.9", "review_count": "", "website": "http://www.arthaatlegal.com/", "latitude": 28.5832584, "longitude": 77.2448608, "maps_url": "https://www.google.com/maps/search/?api=1&query=Arthaat%20Legal&query_place_id=ChIJ9_SCfWTjDDkR98xuWo0bCCM"}, {"place_id": "ChIJ-b0Gj23jDDkRS3F1bB6zvr8", "name": "S F & CO, Chartered Accountants", "street": "1st Floor, C-131, Block C, Lajpat Nagar I, Lajpat Nagar, New Delhi, Delhi 110024, India", "phone": "+91 91231 09277", "rating": "4.9", "review_count": "", "website": "", "latitude": 28.578553699999997, "longitude": 77.2396186, "maps_url": "https://www.google.com/maps/search/?api=1&query=S%20F%20%26%20CO%2C%20Chartered%20Accountants&query_place_id=ChIJ-b0Gj23jDDkRS3F1bB6zvr8"}, {"place_id": "ChIJfwsl0prjDDkRkuqkDJOEUZA", "name": "Inculcar HR Consultancy", "street": "left Side, D-14, opposite Railway reservation, Block H, Jungpura Extension, New Delhi, Delhi 110014, India", "phone": "+91 85279 86928", "rating": "5", "review_count": "", "website": "", "latitude": 28.581256999999997, "longitude": 77.2419522, "maps_url": "https://www.google.com/maps/search/?api=1&query=Inculcar%20HR%20Consultancy&query_place_id=ChIJfwsl0prjDDkRkuqkDJOEUZA"}, {"place_id": "ChIJuzW0L1HiDDkRA6RBzlMOWsM", "name": "Liaison Lobbist India", "street": "First floor, C-113, Block C, Lajpat Nagar I, Lajpat Nagar, New Delhi, Delhi 110024, India", "phone": "+91 85959 40498", "rating": "3.5", "review_count": "", "website": "", "latitude": 28.5774321, "longitude": 77.238992, "maps_url": "https://www.google.com/maps/search/?api=1&query=Liaison%20Lobbist%20India&query_place_id=ChIJuzW0L1HiDDkRA6RBzlMOWsM"}, {"place_id": "ChIJsy2W8__iDDkRscIlvUb6zXE", "name": "MCO Legals (Meharia & Company)", "street": "Ground Floor, 6A, Jangpura, Block Q, Jungpura Extension, Delhi, New Delhi, Delhi 110014, India", "phone": "+91 11 4150 2006", "rating": "4.2", "review_count": "", "website": "https://www.mcolegals.in/", "latitude": 28.5798125, "longitude": 77.24037679999999, "maps_url": "https://www.google.com/maps/search/?api=1&query=MCO%20Legals%20%28Meharia%20%26%20Company%29&query_place_id=ChIJsy2W8__iDDkRscIlvUb6zXE"}, {"place_id": "ChIJ-9yAQFXiDDkR5BmHv5xjVKs", "name": "Goosebumps Brand Solutions Pvt. Ltd.", "street": "C-61, Block C, Lajpat Nagar I, Lajpat Nagar, New Delhi, Delhi 110024, India", "phone": "+91 11 2981 0368", "rating": "4.3", "review_count": "", "website": "http://www.goosebumps.co.in/", "latitude": 28.5781629, "longitude": 77.239334, "maps_url": "https://www.google.com/maps/search/?api=1&query=Goosebumps%20Brand%20Solutions%20Pvt.%20Ltd.&query_place_id=ChIJ-9yAQFXiDDkR5BmHv5xjVKs"}, {"place_id": "ChIJgVU_U6njDDkRm2PvllFTBX8", "name": "CrownMiz: Digital Marketing in Delhi", "street": "B- 55, Jangpura, Block D, Jungpura Extension, New Delhi, Delhi 110014, India", "phone": "", "rating": "4.7", "review_count": "", "website": "http://www.crownmiz.com/", "latitude": 28.581781199999998, "longitude": 77.2436462, "maps_url": "https://www.google.com/maps/search/?api=1&query=CrownMiz%3A%20Digital%20Marketing%20in%20Delhi&query_place_id=ChIJgVU_U6njDDkRm2PvllFTBX8"}, {"place_id": "ChIJCYjaSqrjDDkRhsPNNmkDxYc", "name": "SK IT Technologies", "street": "H-I-130, 131, Lajpat Nagar I, New Delhi, Delhi 110024, India", "phone": "+91 98998 32763", "rating": "", "review_count": "", "website": "", "latitude": 28.5772716, "longitude": 77.2446801, "maps_url": "https://www.google.com/maps/search/?api=1&query=SK%20IT%20Technologies&query_place_id=ChIJCYjaSqrjDDkRhsPNNmkDxYc"}, {"place_id": "ChIJ____vwDjDDkRTEj4kAWCtrE", "name": "OYE ONLINE", "street": "Ground Floor, N27 B, Block N, Jungpura Extension, New Delhi, Delhi 110014, India", "phone": "+91 98114 20446", "rating": "4.5", "review_count": "", "website": "http://www.oye.online/", "latitude": 28.581125, "longitude": 77.240242, "maps_url": "https://www.google.com/maps/search/?api=1&query=OYE%20ONLINE&query_place_id=ChIJ____vwDjDDkRTEj4kAWCtrE"}, {"place_id": "ChIJw1wgNkzjDDkRTsBM5tK3wuE", "name": "Dizzi logic it solution", "street": "359, co working spaces, sector 28, Gurugram, 110014, India", "phone": "", "rating": "", "review_count": "", "website": "", "latitude": 28.5833925, "longitude": 77.2449106, "maps_url": "https://www.google.com/maps/search/?api=1&query=Dizzi%20logic%20it%20solution&query_place_id=ChIJw1wgNkzjDDkRTsBM5tK3wuE"}, {"place_id": "ChIJgSDUKwDjDDkRTLnyZIY8xwI", "name": "Jangpura", "street": "Block C, 32, Jangpura Rd, Samman Bazar, Bhogal, Jangpura, New Delhi, Delhi 110014, India", "phone": "", "rating": "", "review_count": "", "website": "", "latitude": 28.583205999999997, "longitude": 77.248963, "maps_url": "https://www.google.com/maps/search/?api=1&query=Jangpura&query_place_id=ChIJgSDUKwDjDDkRTLnyZIY8xwI"}, {"place_id": "ChIJsyEIIAHjDDkRPyXHN30QR6U", "name": "The Business Mail", "street": "1, Birbal Road Office No. 5 & 11 Basement, Jangpura Extn., Delhi 110014, India", "phone": "+91 11 2431 9934", "rating": "2.7", "review_count": "", "website": "", "latitude": 28.583032499999998, "longitude": 77.2449146, "maps_url": "https://www.google.com/maps/search/?api=1&query=The%20Business%20Mail&query_place_id=ChIJsyEIIAHjDDkRPyXHN30QR6U"}, {"place_id": "ChIJX4BaYKrjDDkRCzv2YTObWc8", "name": "Parsoli Tours & Hospitality Pvt Ltd", "street": "3RD FLOOR, I 52 B, LAJPAT NAGAR 1ST, Lajpat Nagar, New Delhi, Delhi 110024, India", "phone": "+91 11 4612 1499", "rating": "4.6", "review_count": "", "website": "", "latitude": 28.5790088, "longitude": 77.24399249999999, "maps_url": "https://www.google.com/maps/search/?api=1&query=Parsoli%20Tours%20%26%20Hospitality%20Pvt%20Ltd&query_place_id=ChIJX4BaYKrjDDkRCzv2YTObWc8"}]