[{"place_id": "ChIJA6KtL5kCDTkR7wFe_OSD2bE", "name": "Omniscient IT Solutions Pvt. Ltd", "street": "4, 28, Saraswati Marg, Block 15A, WEA, Karol Bagh, New Delhi, Delhi, 110005, India", "phone": "+91 98110 27310", "rating": "4.6", "review_count": "", "website": "https://www.omniscientitsolutions.com/", "latitude": 28.646959, "longitude": 77.1882229, "maps_url": "https://www.google.com/maps/search/?api=1&query=Omniscient%20IT%20Solutions%20Pvt.%20Ltd&query_place_id=ChIJA6KtL5kCDTkR7wFe_OSD2bE"}, {"place_id": "ChIJFeXlTZkCDTkRNw2aQAO8CNk", "name": "Himalayan IT Solutions | Best Website Designing Company in Delhi | SEO/Digital Marketing Company in Delhi NCR, India", "street": "61/4255, Padam Singh Rd, Block 29, Block 1, Regar Pura, Karol Bagh, Delhi, 110005, India", "phone": "+91 98990 98509", "rating": "3.9", "review_count": "", "website": "http://www.himalayanitsolutions.com/", "latitude": 28.649673999999997, "longitude": 77.186599, "maps_url": "https://www.google.com/maps/search/?api=1&query=Himalayan%20IT%20Solutions%20%7C%20Best%20Website%20Designing%20Company%20in%20Delhi%20%7C%20SEO/Digital%20Marketing%20Company%20in%20Delhi%20NCR%2C%20India&query_place_id=ChIJFeXlTZkCDTkRNw2aQAO8CNk"}, {"place_id": "ChIJL4BtX1wdDTkRIiNTpELCuuM", "name": "Nobilitas Infotech Pvt. Ltd. - IT Solutions Company", "street": "Padma Tower II, 210, Rajendra Place, New Delhi, Delhi 110005, India", "phone": "+91 84483 84926", "rating": "5", "review_count": "", "website": "https://www.nobilitasinfotech.com/", "latitude": 28.6451836, "longitude": 77.1780375, "maps_url": "https://www.google.com/maps/search/?api=1&query=Nobilitas%20Infotech%20Pvt.%20Ltd.%20-%20IT%20Solutions%20Company&query_place_id=ChIJL4BtX1wdDTkRIiNTpELCuuM"}, {"place_id": "ChIJUX61TOUCDTkRPmeqyd2Pcps", "name": "IT Solutions & Services (ITSS)", "street": "T–2425 Street Number 21, Baljeet Nagar, West Patel Nagar, New Delhi, Delhi 110008, India", "phone": "+91 88004 19462", "rating": "4.7", "review_count": "", "website": "https://www.itssin.com/", "latitude": 28.6576111, "longitude": 77.160708, "maps_url": "https://www.google.com/maps/search/?api=1&query=IT%20Solutions%20%26%20Services%20%28ITSS%29&query_place_id=ChIJUX61TOUCDTkRPmeqyd2Pcps"}, {"place_id": "ChIJL955hJYCDTkREqQASrd_gPQ", "name": "Tick Softwares Ltd.", "street": "1207, Pragati Tower, 26, Prasad Nagar, Rajendra Place, New Delhi, Delhi, 110008, India", "phone": "+91 75330 16990", "rating": "4.5", "review_count": "", "website": "http://ticksoftwares.in/", "latitude": 28.645996, "longitude": 77.1773839, "maps_url": "https://www.google.com/maps/search/?api=1&query=Tick%20Softwares%20Ltd.&query_place_id=ChIJL955hJYCDTkREqQASrd_gPQ"}, {"place_id": "ChIJ____ewXiDDkRWkRWfPl6bfA", "name": "BNG Infotech Private Limited", "street": "509-511 Gagandeep Building, Rajendra Place, New Delhi, Delhi 110008, India", "phone": "+91 81006 41006", "rating": "4.4", "review_count": "", "website": "https://www.bng.co.in/", "latitude": 28.6439304, "longitude": 77.1772003, "maps_url": "https://www.google.com/maps/search/?api=1&query=BNG%20Infotech%20Private%20Limited&query_place_id=ChIJ____ewXiDDkRWkRWfPl6bfA"}, {"place_id": "ChIJ6fogp5QCDTkRX_8pAuL_gew", "name": "it company", "street": "Block 31/25, Block 31, East Patel Nagar, Patel Nagar, New Delhi, Delhi, 110008, India", "phone": "+91 98189 02645", "rating": "", "review_count": "", "website": "", "latitude": 28.6477211, "longitude": 77.1727298, "maps_url": "https://www.google.com/maps/search/?api=1&query=it%20company&query_place_id=ChIJ6fogp5QCDTkRX_8pAuL_gew"}, {"place_id": "ChIJPR796sD9DDkRLo5M9V9l1nA", "name": "Binarysoft Technologies (We bring IT)", "street": "1st Floor, 1626/33, Block 27F, Naiwala, Karol Bagh, Delhi, 110005, India", "phone": "+91 92054 71661", "rating": "5", "review_count": "", "website": "http://www.binarysoft.com/", "latitude": 28.647633, "longitude": 77.19496199999999, "maps_url": "https://www.google.com/maps/search/?api=1&query=Binarysoft%20Technologies%20%28We%20bring%20IT%29&query_place_id=ChIJPR796sD9DDkRLo5M9V9l1nA"}, {"place_id": "ChIJ____75YCDTkRjLFp7iFxdWw", "name": "Saraswati Accountants Software Pvt. Ltd. |Tally Prime | Tally Cloud | Tally Renewal | Tally Customization & Training|", "street": "Tower-4, Vikrant, 807, 8th, Rajendra Place, New Delhi, Delhi 110008, India", "phone": "+91 11 4766 0000", "rating": "4.9", "review_count": "", "website": "http://www.saraswatiaccountants.com/", "latitude": 28.6458658, "longitude": 77.177678, "maps_url": "https://www.google.com/maps/search/?api=1&query=Saraswati%20Accountants%20Software%20Pvt.%20Ltd.%20%7CTally%20Prime%20%7C%20Tally%20Cloud%20%7C%20Tally%20Renewal%20%7C%20Tally%20Customization%20%26%20Training%7C&query_place_id=ChIJ____75YCDTkRjLFp7iFxdWw"}, {"place_id": "ChIJuWHhgOADDTkRnxxopj0gupQ", "name": "Accuwisetech IT Solution & Digital Marketing Agency", "street": "Metro Station Patel Nagar, 2/15, station, West Patel Nagar, New Delhi, Delhi, 110008, India", "phone": "", "rating": "4.9", "review_count": "", "website": "https://accuwisetech.com/", "latitude": 28.645363, "longitude": 77.1688322, "maps_url": "https://www.google.com/maps/search/?api=1&query=Accuwisetech%20IT%20Solution%20%26%20Digital%20Marketing%20Agency&query_place_id=ChIJuWHhgOADDTkRnxxopj0gupQ"}, {"place_id": "ChIJlVh_25UCDTkROsUJvW4hYeo", "name": "Miri Infotech Pvt Ltd.", "street": "2/5, Block 2, West Patel Nagar, Patel Nagar, New Delhi, Delhi, 110008, India", "phone": "", "rating": "4.2", "review_count": "", "website": "", "latitude": 28.646421999999998, "longitude": 77.167783, "maps_url": "https://www.google.com/maps/search/?api=1&query=Miri%20Infotech%20Pvt%20Ltd.&query_place_id=ChIJlVh_25UCDTkROsUJvW4hYeo"}, {"place_id": "ChIJzRqnjpYCDTkRkI9ORTiyouY", "name": "Ascomp Technologies Pvt. Ltd.", "street": "1203, Padma Tower 1,, 5, Rajendra Place,, Prasad Nagar, Karol Bagh, New Delhi, Delhi 110005, India", "phone": "+91 11 4393 0000", "rating": "3.2", "review_count": "", "website": "http://www.ascomp.com/", "latitude": 28.6458937, "longitude": 77.1782388, "maps_url": "https://www.google.com/maps/search/?api=1&query=Ascomp%20Technologies%20Pvt.%20Ltd.&query_place_id=ChIJzRqnjpYCDTkRkI9ORTiyouY"}, {"place_id": "ChIJmehuOv8DDTkRExCAn5zYVfM", "name": "Esafe Hi-Tech Solutions Pvt. Ltd.", "street": "4/52 , 3rd Floor, Shankar Road, Old Rajinder Nagar, New Delhi, Delhi 110060, India", "phone": "+91 88000 15155", "rating": "5", "review_count": "", "website": "https://esafesolutions.org/", "latitude": 28.6378399, "longitude": 77.1810955, "maps_url": "https://www.google.com/maps/search/?api=1&query=Esafe%20Hi-Tech%20Solutions%20Pvt.%20Ltd.&query_place_id=ChIJmehuOv8DDTkRExCAn5zYVfM"}, {"place_id": "ChIJVSDU85wCDTkR3TEe80XmjVY", "name": "AI Micro Mind®Technology", "street": "3rd Floor, 16/448, Block I, Building Number, Military Rd, Karol Bagh, New Delhi, Delhi, 110005, India", "phone": "+91 98183 53030", "rating": "4.8", "review_count": "", "website": "http://micromind.in/", "latitude": 28.656936299999998, "longitude": 77.1817737, "maps_url": "https://www.google.com/maps/search/?api=1&query=AI%20Micro%20Mind%C2%AETechnology&query_place_id=ChIJVSDU85wCDTkR3TEe80XmjVY"}, {"place_id": "ChIJFcSNihYDDTkRbgMQW7yRJA0", "name": "Global tech co.", "street": "SHOP NO-10942, 1, Gali No. 4, Karol Bagh West Extension Area, Block 5A, Sat Nagar, Karol Bagh, New Delhi, Delhi, 110005, India", "phone": "+91 88008 48513", "rating": "4.9", "review_count": "", "website": "https://globel-tech-co.grexa.site/", "latitude": 28.6486934, "longitude": 77.18451809999999, "maps_url": "https://www.google.com/maps/search/?api=1&query=Global%20tech%20co.&query_place_id=ChIJFcSNihYDDTkRbgMQW7yRJA0"}, {"place_id": "ChIJ6TTJzu0CGIkR8o8RUVLIsx0", "name": "WebCraftBros", "street": "", "phone": "+91 73034 08500", "rating": "4.9", "review_count": "", "website": "https://webcraftbros.com/", "latitude": 21.0680074, "longitude": 82.7525294, "maps_url": "https://www.google.com/maps/search/?api=1&query=WebCraftBros&query_place_id=ChIJ6TTJzu0CGIkR8o8RUVLIsx0"}, {"place_id": "ChIJ7yxdoOsCDTkRQFTUEp0piHI", "name": "Vinsol (Vinayak Solutions Pvt Ltd)", "street": "1/4 (Basement, East Patel Nagar, Patel Nagar, New Delhi, Delhi 110008, India", "phone": "+91 4156 803 362", "rating": "3.4", "review_count": "", "website": "https://vinsol.com/", "latitude": 28.644902599999998, "longitude": 77.17004639999999, "maps_url": "https://www.google.com/maps/search/?api=1&query=Vinsol%20%28Vinayak%20Solutions%20Pvt%20Ltd%29&query_place_id=ChIJ7yxdoOsCDTkRQFTUEp0piHI"}, {"place_id": "ChIJ63KKlqQCDTkRqPofyw9JaEA", "name": "Shavsi Global Services", "street": "2/59 Basment, Rajinder Nagar, Delhi, 110060, India", "phone": "+91 98738 23236", "rating": "4.7", "review_count": "", "website": "http://www.shavsiglobalservices.com/", "latitude": 28.6364731, "longitude": 77.1846157, "maps_url": "https://www.google.com/maps/search/?api=1&query=Shavsi%20Global%20Services&query_place_id=ChIJ63KKlqQCDTkRqPofyw9JaEA"}, {"place_id": "ChIJs-qd8zMDDTkRI8WvMoIh69Y", "name": "Digitally Bird | Best eCommerce Website Design and Development company in Delhi, India", "street": "Block 29, 61/4255, Padam Singh Rd, Block 29, Block 11, Regar Pura, Karol Bagh, Delhi, 110005, India", "phone": "+91 97175 00603", "rating": "5", "review_count": "", "website": "https://www.digitallybird.com/", "latitude": 28.6497952, "longitude": 77.1873057, "maps_url": "https://www.google.com/maps/search/?api=1&query=Digitally%20Bird%20%7C%20Best%20eCommerce%20Website%20Design%20and%20Development%20company%20in%20Delhi%2C%20India&query_place_id=ChIJs-qd8zMDDTkRI8WvMoIh69Y"}, {"place_id": "ChIJc80Hk_0DDTkRzeDGAgk6Ino", "name": "Web Cloud Technology", "street": "3A/74 W.E.A, Sat Nagar, Karol Bagh, New Delhi, Delhi 110005, India", "phone": "+91 88823 24811", "rating": "4.4", "review_count": "", "website": "https://webcloudtechnology.in/", "latitude": 28.6465632, "longitude": 77.1824149, "maps_url": "https://www.google.com/maps/search/?api=1&query=Web%20Cloud%20Technology&query_place_id=ChIJc80Hk_0DDTkRzeDGAgk6Ino"}, {"place_id": "ChIJSy2Jhp4CDTkR_0QSNabY9kM", "name": "Digital Marketing Agency, Software Development Company, SEO Services Company in Delhi", "street": "3rd Floor, 16/448, Block - I, Building Number, Military Rd, Karol Bagh, New Delhi, Delhi 110005, India", "phone": "+91 98183 53030", "rating": "5", "review_count": "", "website": "https://www.micromind.in/", "latitude": 28.655144999999997, "longitude": 77.18114899999999, "maps_url": "https://www.google.com/maps/search/?api=1&query=Digital%20Marketing%20Agency%2C%20Software%20Development%20Company%2C%20SEO%20Services%20Company%20in%20Delhi&query_place_id=ChIJSy2Jhp4CDTkR_0QSNabY9kM"}, {"place_id": "ChIJl1XknesCDTkRCAvQm0XALHc", "name": "WebzPapa - SEO Company in Delhi I SEO Services Agency in Delhi", "street": "Gate no 6, Building - O, 4th Floor, South Patel Nagar Near Patel Nagar Metro Station, New Delhi, Delhi 110008, India", "phone": "+91 99539 93944", "rating": "4.7", "review_count": "", "website": "https://webzpapa.com/seo-company-delhi.html", "latitude": 28.6450192, "longitude": 77.1688623, "maps_url": "https://www.google.com/maps/search/?api=1&query=WebzPapa%20-%20SEO%20Company%20in%20Delhi%20I%20SEO%20Services%20Agency%20in%20Delhi&query_place_id=ChIJl1XknesCDTkRCAvQm0XALHc"}, {"place_id": "ChIJYbl5r-8CDTkRIFS6z_QHNkE", "name": "Support Star Corporate Services Pvt. Ltd", "street": "Cottage No 19, Lower Ground Floor, West Patel Nagar, Patel Nagar, New Delhi, Delhi 110008, India", "phone": "+91 70426 27575", "rating": "4.2", "review_count": "", "website": "", "latitude": 28.6500426, "longitude": 77.1623192, "maps_url": "https://www.google.com/maps/search/?api=1&query=Support%20Star%20Corporate%20Services%20Pvt.%20Ltd&query_place_id=ChIJYbl5r-8CDTkRIFS6z_QHNkE"}, {"place_id": "ChIJ2TcLVRYbDTkRrs5CtC-fN0I", "name": "ARV MULTIMEDIA", "street": "Third Floor, BP-13, West Patel Nagar, New Delhi, Delhi, 110008, India", "phone": "+91 93106 01573", "rating": "4.9", "review_count": "", "website": "http://www.arvmultimedia.com/", "latitude": 28.649299, "longitude": 77.1619414, "maps_url": "https://www.google.com/maps/search/?api=1&query=ARV%20MULTIMEDIA&query_place_id=ChIJ2TcLVRYbDTkRrs5CtC-fN0I"}, {"place_id": "ChIJWwWxD-sCDTkRjTu134yah5c", "name": "infotech Solution", "street": "2, 15, Patel Rd, Block 2, East Patel Nagar, Patel Nagar, New Delhi, Delhi 110008, India", "phone": "+91 83779 66458", "rating": "2.6", "review_count": "", "website": "", "latitude": 28.6455329, "longitude": 77.1685655, "maps_url": "https://www.google.com/maps/search/?api=1&query=infotech%20Solution&query_place_id=ChIJWwWxD-sCDTkRjTu134yah5c"}, {"place_id": "ChIJEZi4U8HjDDkRyul3V2h5ouc", "name": "IT Company", "street": "A-14, near iskcon temple, Block A, APB Garhi, Vasant Vihar, New Delhi, Delhi 110065, India", "phone": "", "rating": "3", "review_count": "", "website": "http://www.opuswiz.com/", "latitude": 28.557167, "longitude": 77.25424819999999, "maps_url": "https://www.google.com/maps/search/?api=1&query=IT%20Company&query_place_id=ChIJEZi4U8HjDDkRyul3V2h5ouc"}, {"place_id": "ChIJVVVl-ZUCDTkRFnU1G79sHbA", "name": "Peritus Exim Pvt Ltd", "street": "1206, 12th Floor, Vikram Tower, Rajendra Place, New Delhi, Delhi, 110060, India", "phone": "+91 11 4130 6047", "rating": "4.4", "review_count": "", "website": "http://www.peritusexim.com/", "latitude": 28.6430568, "longitude": 77.1783918, "maps_url": "https://www.google.com/maps/search/?api=1&query=Peritus%20Exim%20Pvt%20Ltd&query_place_id=ChIJVVVl-ZUCDTkRFnU1G79sHbA"}, {"place_id": "ChIJtXMHQGj9DDkRRE43pKtyAYM", "name": "Dvayweb Consultancy Services Pvt. Ltd.", "street": "Rani Jhansi Rd, Block E 4, Jhandewalan Extension, Jhandewalan, New Delhi, Delhi 110055, India", "phone": "+91 98730 30060", "rating": "4.6", "review_count": "", "website": "https://dvayweb.com/", "latitude": 28.645454599999997, "longitude": 77.2042455, "maps_url": "https://www.google.com/maps/search/?api=1&query=Dvayweb%20Consultancy%20Services%20Pvt.%20Ltd.&query_place_id=ChIJtXMHQGj9DDkRRE43pKtyAYM"}, {"place_id": "ChIJTyqt0JH030URiVyOx9ZARf8", "name": "Web Spark Tech Solutions", "street": "", "phone": "", "rating": "5", "review_count": "", "website": "https://websparktechsolutions.com/", "latitude": 21.0680074, "longitude": 82.7525294, "maps_url": "https://www.google.com/maps/search/?api=1&query=Web%20Spark%20Tech%20Solutions&query_place_id=ChIJTyqt0JH030URiVyOx9ZARf8"}, {"place_id": "ChIJUeADtcYDDTkRiYO1AfTtZAk", "name": "Webmount Solution Pvt. Ltd.", "street": "3rd Floor, T, 68, behind Road Number 20, near लाल मंदिर, West Patel Nagar, New Delhi, Delhi 110008, India", "phone": "+91 77108 43195", "rating": "4.9", "review_count": "", "website": "http://www.webmountindia.com/", "latitude": 28.6554641, "longitude": 77.1630981, "maps_url": "https://www.google.com/maps/search/?api=1&query=Webmount%20Solution%20Pvt.%20Ltd.&query_place_id=ChIJUeADtcYDDTkRiYO1AfTtZAk"}, {"place_id": "ChIJDyqA4pwCDTkR4LNbv90XL60", "name": "SELECTIVE GLOBAL SEARCH PRIVATE LIMITED", "street": "5TH FLOOR, Padma Tower 1, Unit 501-504, Prasad Nagar, Rajendra Place, New Delhi, Delhi, 110005, India", "phone": "+91 70425 99002", "rating": "4.7", "review_count": "", "website": "http://www.selectiveglobalsearch.com/", "latitude": 28.6458129, "longitude": 77.1782757, "maps_url": "https://www.google.com/maps/search/?api=1&query=SELECTIVE%20GLOBAL%20SEARCH%20PRIVATE%20LIMITED&query_place_id=ChIJDyqA4pwCDTkR4LNbv90XL60"}, {"place_id": "ChIJUzCnx8kFDTkRzXhond83eM0", "name": "Bestal HR Pvt Ltd", "street": "Gopala Tower, 9J & 9G, opposite to NABARD Towers, Prasad Nagar, Rajendra Place, Delhi, 110008, India", "phone": "+91 99717 79076", "rating": "4.8", "review_count": "", "website": "https://bestalhr.com/", "latitude": 28.645955299999997, "longitude": 77.1774873, "maps_url": "https://www.google.com/maps/search/?api=1&query=Bestal%20HR%20Pvt%20Ltd&query_place_id=ChIJUzCnx8kFDTkRzXhond83eM0"}, {"place_id": "ChIJy-UhwpkCDTkRkwvSJRT5zF4", "name": "Ravindra-Freelance Website developer/designer in Delhi India", "street": "604, Gali Keth Wali, Sangath Rashan Bazar, Paharganj, New Delhi, Delhi 110005, India", "phone": "+91 82728 58141", "rating": "4.7", "review_count": "", "website": "https://netcreator.co.in/website-design-development.php", "latitude": 28.6474174, "longitude": 77.184084, "maps_url": "https://www.google.com/maps/search/?api=1&query=Ravindra-Freelance%20Website%20developer/designer%20in%20Delhi%20India&query_place_id=ChIJy-UhwpkCDTkRkwvSJRT5zF4"}, {"place_id": "ChIJ____XIT9DDkRTh0Zai1y3yg", "name": "Holy-Land Marketing", "street": "D, 154, Rajender Nagar, New Rajinder Nagar, New Delhi, Delhi 110060, India", "phone": "+91 11 4125 5444", "rating": "4.8", "review_count": "", "website": "https://www.holylandgroup.org/", "latitude": 28.637186099999997, "longitude": 77.1819719, "maps_url": "https://www.google.com/maps/search/?api=1&query=Holy-Land%20Marketing&query_place_id=ChIJ____XIT9DDkRTh0Zai1y3yg"}, {"place_id": "ChIJV4blL5gCDTkRktgeIDWd3T8", "name": "Manning Consulting", "street": "", "phone": "+91 98112 22637", "rating": "4.8", "review_count": "", "website": "http://www.manningconsulting.in/", "latitude": 21.0680074, "longitude": 82.7525294, "maps_url": "https://www.google.com/maps/search/?api=1&query=Manning%20Consulting&query_place_id=ChIJV4blL5gCDTkRktgeIDWd3T8"}, {"place_id": "ChIJwy8wGZwCDTkR_cCIGoBZqP0", "name": "Samyak Online Services Pvt. Ltd. | Best Digital Marketing Agency in Delhi | SEO Services", "street": "M-4, Mezzanine Floor, Samrat Bhawan, Ranjit Nagar Commercial Complex, New Delhi, Delhi 110008, India", "phone": "+91 95996 35435", "rating": "4.9", "review_count": "", "website": "https://www.samyakonline.net/", "latitude": 28.650437999999998, "longitude": 77.1581497, "maps_url": "https://www.google.com/maps/search/?api=1&query=Samyak%20Online%20Services%20Pvt.%20Ltd.%20%7C%20Best%20Digital%20Marketing%20Agency%20in%20Delhi%20%7C%20SEO%20Services&query_place_id=ChIJwy8wGZwCDTkR_cCIGoBZqP0"}, {"place_id": "ChIJ_4BfnR8DDTkRFCoWp3KElfA", "name": "GREEN FUTURE PRIVATE LIMITED", "street": "507, 26, Rajendra Place, Delhi, 110008, India", "phone": "+91 98105 58695", "rating": "4.5", "review_count": "", "website": "http://www.greenfuturemill.com/", "latitude": 28.6458554, "longitude": 77.17758429999999, "maps_url": "https://www.google.com/maps/search/?api=1&query=GREEN%20FUTURE%20PRIVATE%20LIMITED&query_place_id=ChIJ_4BfnR8DDTkRFCoWp3KElfA"}, {"place_id": "ChIJV4DiGUVrx4gRyLzJzC2p7-4", "name": "Sam Web Studio", "street": "Second Floor, Plot no-68, South Patel Nagar, Block 8, Patel Nagar, New Delhi, Delhi 110008, India", "phone": "+91 99683 53570", "rating": "5", "review_count": "", "website": "https://www.samwebstudio.com/", "latitude": 28.644581799999997, "longitude": 77.168632, "maps_url": "https://www.google.com/maps/search/?api=1&query=Sam%20Web%20Studio&query_place_id=ChIJV4DiGUVrx4gRyLzJzC2p7-4"}, {"place_id": "ChIJH7rpve0CDTkR4QPL4HPAQP8", "name": "AERO PACK", "street": "18/10, Block 18, West Patel Nagar, Patel Nagar, New Delhi, Delhi, 110008, India", "phone": "+91 11 4248 8086", "rating": "4.3", "review_count": "", "website": "http://www.aeropack.net.in/", "latitude": 28.6514648, "longitude": 77.1677315, "maps_url": "https://www.google.com/maps/search/?api=1&query=AERO%20PACK&query_place_id=ChIJH7rpve0CDTkR4QPL4HPAQP8"}, {"place_id": "ChIJk2R7nba4cioRrEzT1GYUJRE", "name": "WebZonal IT Company", "street": "Wz-258/2-3, D Block Rd, Khazan Basti, Nangal Raya, Janakpuri, New Delhi, Delhi 110046, India", "phone": "+91 98111 70903", "rating": "5", "review_count": "", "website": "http://webzonal.com/", "latitude": 28.6122102, "longitude": 77.11159549999999, "maps_url": "https://www.google.com/maps/search/?api=1&query=WebZonal%20IT%20Company&query_place_id=ChIJk2R7nba4cioRrEzT1GYUJRE"}, {"place_id": "ChIJ3165gUMCDTkRHl2xEz3JuJM", "name": "Beta Soft Technology", "street": "3933/18, Third Floor, Metro Station, near Kanhiya Nagar, opposite Metro Pillar 224, Kanhiya Nagar, Tri Nagar, Delhi, 110035, India", "phone": "+91 99991 83189", "rating": "4.4", "review_count": "", "website": "https://www.betasofttechnology.com/", "latitude": 28.678439299999997, "longitude": 77.1660351, "maps_url": "https://www.google.com/maps/search/?api=1&query=Beta%20Soft%20Technology&query_place_id=ChIJ3165gUMCDTkRHl2xEz3JuJM"}, {"place_id": "ChIJDSmBfV0EDTkR_UoO0pAlp5M", "name": "Supertech Equipments Pvt Ltd(CANON Premium Partner)", "street": "E-10 & E-6, LGF,DDA MARKET, New Rajinder Nagar, New Delhi, Delhi 110060, India", "phone": "+91 85959 52131", "rating": "4.8", "review_count": "", "website": "http://www.indiamart.com/supertechequipmentpvtltd/", "latitude": 28.6363362, "longitude": 77.17785289999999, "maps_url": "https://www.google.com/maps/search/?api=1&query=Supertech%20Equipments%20Pvt%20Ltd%28CANON%20Premium%20Partner%29&query_place_id=ChIJDSmBfV0EDTkR_UoO0pAlp5M"}, {"place_id": "ChIJwTYR-ZQCDTkRnKFPrfn20cI", "name": "WOW Events Pvt Ltd", "street": "1/7 3rd Floor, WOW Events Pvt. Ltd, above SBI Bank, Block 1, East Patel Nagar, Patel Nagar, New Delhi, Delhi 110008, India", "phone": "+91 11 4248 8720", "rating": "4.7", "review_count": "", "website": "http://www.wowevents.in/", "latitude": 28.6445176, "longitude": 77.1702317, "maps_url": "https://www.google.com/maps/search/?api=1&query=WOW%20Events%20Pvt%20Ltd&query_place_id=ChIJwTYR-ZQCDTkRnKFPrfn20cI"}, {"place_id": "ChIJGVFKoN73QQYRn6-n3QsjAK0", "name": "Infotech Promotion Solutions", "street": "4th floor, Kapil dhaba, 2161/T-6 Lal Ratan Building Near Shadipur Mertro Station pillar number 231, New Delhi, Delhi 110008, India", "phone": "+91 93542 16978", "rating": "5", "review_count": "", "website": "https://www.infotechpromotionsolutions.com/", "latitude": 28.650811599999997, "longitude": 77.1592588, "maps_url": "https://www.google.com/maps/search/?api=1&query=Infotech%20Promotion%20Solutions&query_place_id=ChIJGVFKoN73QQYRn6-n3QsjAK0"}, {"place_id": "ChIJ4ShVir0CDTkR1ihrSFHdrsA", "name": "Borar & Company (CA Firm)", "street": "Aman Chamber, 202A, 47/22, New, Old Rajinder Nagar, Rajinder Nagar, New Delhi, Delhi 110060, India", "phone": "+91 11 4704 9931", "rating": "4.5", "review_count": "", "website": "", "latitude": 28.6424484, "longitude": 77.1788979, "maps_url": "https://www.google.com/maps/search/?api=1&query=Borar%20%26%20Company%20%28CA%20Firm%29&query_place_id=ChIJ4ShVir0CDTkR1ihrSFHdrsA"}, {"place_id": "ChIJAQAwfZYCDTkRrZHXwR51e2k", "name": "HBS SYSTEMS PRIVATE LIMITED", "street": "107-108, PADMA TOWER II 22, Rajendra Place, New Delhi, Delhi 110008, India", "phone": "+91 11 2576 7117", "rating": "3.5", "review_count": "", "website": "http://hbsindia.com/", "latitude": 28.6451836, "longitude": 77.1780375, "maps_url": "https://www.google.com/maps/search/?api=1&query=HBS%20SYSTEMS%20PRIVATE%20LIMITED&query_place_id=ChIJAQAwfZYCDTkRrZHXwR51e2k"}, {"place_id": "ChIJiwPCn1cDDTkRZReajY3KiX0", "name": "Appfinz Technologies", "street": "Nr Deep Chand Bandhu Hospital, B590 Ground Floor, Bunkar Colony, Phase 4, Ashok Vihar, New Delhi, Delhi 110052, India", "phone": "+91 83407 25097", "rating": "4.8", "review_count": "", "website": "https://www.appfinz.com/", "latitude": 28.682956299999997, "longitude": 77.17736959999999, "maps_url": "https://www.google.com/maps/search/?api=1&query=Appfinz%20Technologies&query_place_id=ChIJiwPCn1cDDTkRZReajY3KiX0"}, {"place_id": "ChIJl1XknesCDTkRpvPuM7uyEKw", "name": "INDIA RETAIL COMPANY", "street": "Plot No. 3046 , South Patel Nagar, Delhi, 110008, India", "phone": "+91 95823 60856", "rating": "3", "review_count": "", "website": "", "latitude": 28.6463269, "longitude": 77.1685907, "maps_url": "https://www.google.com/maps/search/?api=1&query=INDIA%20RETAIL%20COMPANY&query_place_id=ChIJl1XknesCDTkRpvPuM7uyEKw"}, {"place_id": "ChIJ__8vhTQCDTkRUWfmHwih9g0", "name": "Wingify", "street": "KLJ TOWER, North, Netaji Subhash Place, Pitampura, Delhi, 110034, India", "phone": "+91 11 4764 0497", "rating": "4.4", "review_count": "", "website": "https://wingify.com/", "latitude": 28.6911475, "longitude": 77.1509423, "maps_url": "https://www.google.com/maps/search/?api=1&query=Wingify&query_place_id=ChIJ__8vhTQCDTkRUWfmHwih9g0"}, {"place_id": "ChIJZ1pOrqz8DDkRfD__2DiXGpY", "name": "Need Infotech", "street": "110012, E-557, Budh Nagar, Inder Puri, New Delhi, Delhi 110028, India", "phone": "+91 88608 08752", "rating": "4.8", "review_count": "", "website": "https://www.needinfotech.com/", "latitude": 28.631518, "longitude": 77.1436078, "maps_url": "https://www.google.com/maps/search/?api=1&query=Need%20Infotech&query_place_id=ChIJZ1pOrqz8DDkRfD__2DiXGpY"}, {"place_id": "ChIJCZvSauwCDTkRNtRdydTbMv4", "name": "Healthwatch Telediagnostics Pvt. Ltd.", "street": "#26/1, CHC House, East Patel Nagar, New Delhi, Delhi 110008, India", "phone": "+91 99992 22554", "rating": "4.9", "review_count": "", "website": "https://www.chchealthwatch.com/", "latitude": 28.6448371, "longitude": 77.17479279999999, "maps_url": "https://www.google.com/maps/search/?api=1&query=Healthwatch%20Telediagnostics%20Pvt.%20Ltd.&query_place_id=ChIJCZvSauwCDTkRNtRdydTbMv4"}, {"place_id": "ChIJQU2gj2wDDTkRCtE4pycX5n0", "name": "MARS ACCESSORIES INDIA PRIVATE LIMITED", "street": "5/31, 3rd Floor, Saraswati Marg, Block 5, WEA, Karol Bagh, Delhi, 110005, India", "phone": "+91 87662 67369", "rating": "4.1", "review_count": "", "website": "https://muvit.in/", "latitude": 28.6477078, "longitude": 77.18925829999999, "maps_url": "https://www.google.com/maps/search/?api=1&query=MARS%20ACCESSORIES%20INDIA%20PRIVATE%20LIMITED&query_place_id=ChIJQU2gj2wDDTkRCtE4pycX5n0"}, {"place_id": "ChIJ__-_ygYDDTkRxM3tDYC0pJ8", "name": "Weblink.In Pvt. Ltd.", "street": "Metro Station Kirti Nagar, 33 & 33A, Rama Rd, near Kirti Nagar, Karampura Industrial Area, Najafgarh Road Industrial Area, New Delhi, Delhi, 110015, India", "phone": "+91 11 4142 8131", "rating": "4.4", "review_count": "", "website": "https://www.weblink.in/", "latitude": 28.6601586, "longitude": 77.1515378, "maps_url": "https://www.google.com/maps/search/?api=1&query=Weblink.In%20Pvt.%20Ltd.&query_place_id=ChIJ__-_ygYDDTkRxM3tDYC0pJ8"}, {"place_id": "ChIJ____75YCDTkR6fojxbF2rCA", "name": "Easy Source HR Solutions Pvt. Ltd.", "street": "3C&D, Gopala Tower, Pusa Rd, Prasad Nagar, Rajendra Place, New Delhi, Delhi 110008, India", "phone": "", "rating": "3.7", "review_count": "", "website": "https://www.easysourceindia.com/", "latitude": 28.645730699999998, "longitude": 77.1773712, "maps_url": "https://www.google.com/maps/search/?api=1&query=Easy%20Source%20HR%20Solutions%20Pvt.%20Ltd.&query_place_id=ChIJ____75YCDTkR6fojxbF2rCA"}, {"place_id": "ChIJXTn08c4DDTkRT9BnrXfAETU", "name": "Crocon", "street": "12A/39, 3rd Floor, Saraswati Marg, Block 4, WEA, Karol Bagh, New Delhi, Delhi, 110005, India", "phone": "+91 93153 81913", "rating": "5", "review_count": "", "website": "https://www.theindianhand.com/", "latitude": 28.6478666, "longitude": 77.1873458, "maps_url": "https://www.google.com/maps/search/?api=1&query=Crocon&query_place_id=ChIJXTn08c4DDTkRT9BnrXfAETU"}, {"place_id": "ChIJq6q2H5wCDTkRppYnUcFbRVo", "name": "Makpower Mobile Accessories Manufacturer Delhi", "street": "1st floor, 5/31, Block 5, WEA, Karol Bagh, New Delhi, Delhi, 110005, India", "phone": "+91 78279 76524", "rating": "4.6", "review_count": "", "website": "https://makpowerindia.com/", "latitude": 28.648004699999998, "longitude": 77.189694, "maps_url": "https://www.google.com/maps/search/?api=1&query=Makpower%20Mobile%20Accessories%20Manufacturer%20Delhi&query_place_id=ChIJq6q2H5wCDTkRppYnUcFbRVo"}, {"place_id": "ChIJE_4Tci0dyAYRsVXvsz3K03g", "name": "Asquare Consulting Group", "street": "2745, 2nd Floor, Gali Number 23, Beadonpura, Karol Bagh, Delhi, 110005, India", "phone": "+91 11 4654 2628", "rating": "4.8", "review_count": "", "website": "", "latitude": 28.6516213, "longitude": 77.1919178, "maps_url": "https://www.google.com/maps/search/?api=1&query=Asquare%20Consulting%20Group&query_place_id=ChIJE_4Tci0dyAYRsVXvsz3K03g"}, {"place_id": "ChIJ528iM4sDDTkR3240tTIrwwI", "name": "Ramacivil India Construction Private Limited", "street": "BP-22, W Patel Nagar Rd, opposite Metro pillar no-212, Block 1, West Patel Nagar, Patel Nagar, Delhi, 110008, India", "phone": "", "rating": "4.5", "review_count": "", "website": "", "latitude": 28.6487806, "longitude": 77.1636031, "maps_url": "https://www.google.com/maps/search/?api=1&query=Ramacivil%20India%20Construction%20Private%20Limited&query_place_id=ChIJ528iM4sDDTkR3240tTIrwwI"}, {"place_id": "ChIJRcV2rwIDDTkRzWoIQG2k1pc", "name": "Solarman Technology Project Pvt Ltd - Digital Marketing Company in Delhi, India |Software Development Company | IT Company", "street": "6/14, Block 5, Kirti Nagar Industrial Area, Kirti Nagar, New Delhi, Delhi, 110015, India", "phone": "+91 74280 86779", "rating": "5", "review_count": "", "website": "https://solarmantech.in/", "latitude": 28.6517841, "longitude": 77.14799649999999, "maps_url": "https://www.google.com/maps/search/?api=1&query=Solarman%20Technology%20Project%20Pvt%20Ltd%20-%20Digital%20Marketing%20Company%20in%20Delhi%2C%20India%20%7CSoftware%20Development%20Company%20%7C%20IT%20Company&query_place_id=ChIJRcV2rwIDDTkRzWoIQG2k1pc"}, {"place_id": "ChIJ2R1uyJUDDTkRxBkDXQkEius", "name": "HAE Digital Marketing Company", "street": "505, 5th Floor, Padma Tower II, Rajendra Place, New Delhi, Delhi 110005, India", "phone": "+91 92897 65898", "rating": "4.9", "review_count": "", "website": "https://www.haedigital.com/", "latitude": 28.6451836, "longitude": 77.1780375, "maps_url": "https://www.google.com/maps/search/?api=1&query=HAE%20Digital%20Marketing%20Company&query_place_id=ChIJ2R1uyJUDDTkRxBkDXQkEius"}, {"place_id": "ChIJOZd2wWIDDTkRMdyNCdCtCIQ", "name": "Groot Infotech", "street": "Padma Tower II, 502, Rajendra Place, New Delhi, Delhi 110005, India", "phone": "+91 85273 53508", "rating": "", "review_count": "", "website": "https://www.grootinfotech.com/", "latitude": 28.6451836, "longitude": 77.1780375, "maps_url": "https://www.google.com/maps/search/?api=1&query=Groot%20Infotech&query_place_id=ChIJOZd2wWIDDTkRMdyNCdCtCIQ"}, {"place_id": "ChIJNQ5069IDDTkRVxUjqgasxbo", "name": "Web Development Company", "street": "Metro station, A- 210 Ranjeet Nagar, near Tridev Properties, West Patel Nagar, Shadipur, New Delhi, Delhi 110008, India", "phone": "+91 91997 31501", "rating": "5", "review_count": "", "website": "http://www.annukedia.com/", "latitude": 28.6523263, "longitude": 77.1584972, "maps_url": "https://www.google.com/maps/search/?api=1&query=Web%20Development%20Company&query_place_id=ChIJNQ5069IDDTkRVxUjqgasxbo"}, {"place_id": "ChIJhZZTFZQPDTkRO-IYWevEiH0", "name": "Namah India", "street": "3/9 Basement, Block 6, East Patel Nagar, Patel Nagar, New Delhi, Delhi 110008, India", "phone": "+91 98598 51030", "rating": "4.9", "review_count": "", "website": "http://www.namahindia.com/", "latitude": 28.6451623, "longitude": 77.1703477, "maps_url": "https://www.google.com/maps/search/?api=1&query=Namah%20India&query_place_id=ChIJhZZTFZQPDTkRO-IYWevEiH0"}, {"place_id": "ChIJ51AtDZ0DDTkRF6QrEcB_6Ks", "name": "Renovision Automation Services Pvt.Ltd-karol bagh", "street": "16, 8, Arya Samaj Rd, Block 16, WEA, Karol Bagh, New Delhi, Delhi, 110005, India", "phone": "+91 93107 19624", "rating": "3.7", "review_count": "", "website": "http://www.raspl.com/", "latitude": 28.647336499999998, "longitude": 77.1937694, "maps_url": "https://www.google.com/maps/search/?api=1&query=Renovision%20Automation%20Services%20Pvt.Ltd-karol%20bagh&query_place_id=ChIJ51AtDZ0DDTkRF6QrEcB_6Ks"}, {"place_id": "ChIJQ5K8ZuADDTkRe4l1tHsQXP4", "name": "Neha R Gupta & Co.", "street": "1108, 11th floor, Pragati Tower, Rajendra Place, New Delhi, Delhi 110008, India", "phone": "+91 85959 17721", "rating": "4.8", "review_count": "", "website": "", "latitude": 28.6457469, "longitude": 77.1776534, "maps_url": "https://www.google.com/maps/search/?api=1&query=Neha%20R%20Gupta%20%26%20Co.&query_place_id=ChIJQ5K8ZuADDTkRe4l1tHsQXP4"}, {"place_id": "ChIJ4_QbqvQDDTkRUV17EnOsFkk", "name": "QSpiders Delhi", "street": "No. 8/3, Part, Fourth Floor, Western Extn Karol Bagh Colony, Rajender Nagar Ward, Zone, Karol Bagh, New Delhi, Delhi 110005, India", "phone": "+91 89519 38997", "rating": "4.7", "review_count": "", "website": "https://qspiders.com/", "latitude": 28.645386499999997, "longitude": 77.1922999, "maps_url": "https://www.google.com/maps/search/?api=1&query=QSpiders%20Delhi&query_place_id=ChIJ4_QbqvQDDTkRUV17EnOsFkk"}, {"place_id": "ChIJQ_Ay-1cCDTkRh2gFa2VBF0Y", "name": "Adventure Gears - Office", "street": "7th Floor, Padma Tower II, 701-710, Rajendra Place, New Delhi, Delhi 110005, India", "phone": "+91 11 4987 9350", "rating": "4.5", "review_count": "", "website": "https://www.adventuregears.com/", "latitude": 28.6451836, "longitude": 77.1780376, "maps_url": "https://www.google.com/maps/search/?api=1&query=Adventure%20Gears%20-%20Office&query_place_id=ChIJQ_Ay-1cCDTkRh2gFa2VBF0Y"}, {"place_id": "ChIJ__-PDQADDTkRK2R0lwQghR4", "name": "SJM Softech Pvt Ltd - Web Development, Web Design Company in Delhi NCR (INDIA), ERP, CRM, SAAS, Custom Software, Desktop", "street": "Harsha House Commercial Complex, M-2, Karampura Market, Karam Pura, New Delhi, Delhi, 110015, India", "phone": "+91 92051 33155", "rating": "3.9", "review_count": "", "website": "http://www.sjmsoftech.com/", "latitude": 28.661751499999998, "longitude": 77.1473224, "maps_url": "https://www.google.com/maps/search/?api=1&query=SJM%20Softech%20Pvt%20Ltd%20-%20Web%20Development%2C%20Web%20Design%20Company%20in%20Delhi%20NCR%20%28INDIA%29%2C%20ERP%2C%20CRM%2C%20SAAS%2C%20Custom%20Software%2C%20Desktop&query_place_id=ChIJ__-PDQADDTkRK2R0lwQghR4"}, {"place_id": "ChIJ6wQV6c_jDDkRnCCfvuxyEqo", "name": "TalentPro India - Payroll, Compliance & Staffing service provider in Delhi", "street": "8th Floor, Padma Tower II, 803, 804, Rajendra Place, New Delhi, Delhi 110005, India", "phone": "+91 1800 103 5642", "rating": "4", "review_count": "", "website": "https://www.talentproindia.com/hr-services-delhi", "latitude": 28.6453678, "longitude": 77.17797949999999, "maps_url": "https://www.google.com/maps/search/?api=1&query=TalentPro%20India%20-%20Payroll%2C%20Compliance%20%26%20Staffing%20service%20provider%20in%20Delhi&query_place_id=ChIJ6wQV6c_jDDkRnCCfvuxyEqo"}, {"place_id": "ChIJ7zX5Sd0DDTkRX1edCdDGywg", "name": "Intelenet Technologies", "street": "Office no.16A/19, 2nd Floor Office No F, 5, Ajmal Khan Rd, Karol Bagh, New Delhi, Delhi 110005, India", "phone": "", "rating": "1.4", "review_count": "", "website": "", "latitude": 28.6449258, "longitude": 77.18827859999999, "maps_url": "https://www.google.com/maps/search/?api=1&query=Intelenet%20Technologies&query_place_id=ChIJ7zX5Sd0DDTkRX1edCdDGywg"}, {"place_id": "ChIJve_HJ2b9DDkRzJphaUssbtE", "name": "Manu Info Solutions", "street": "51, Rani Jhansi Rd, Motia Khan, Paharganj, New Delhi, Delhi 110055, India", "phone": "+91 87001 32566", "rating": "5", "review_count": "", "website": "http://www.manuinfosolutions.com/", "latitude": 28.6490059, "longitude": 77.2058175, "maps_url": "https://www.google.com/maps/search/?api=1&query=Manu%20Info%20Solutions&query_place_id=ChIJve_HJ2b9DDkRzJphaUssbtE"}, {"place_id": "ChIJK6kJh4EDDTkRbCZ0HSHv31c", "name": "Onlincer", "street": "", "phone": "", "rating": "5", "review_count": "", "website": "http://www.directappoint.com/", "latitude": 9.374110199999999, "longitude": -74.9524576, "maps_url": "https://www.google.com/maps/search/?api=1&query=Onlincer&query_place_id=ChIJK6kJh4EDDTkRbCZ0HSHv31c"}, {"place_id": "ChIJn7nSjVwDDTkR51Q8Bq2XNg8", "name": "Oracle Logistics Pvt. Ltd.", "street": "3591, 10, Reghar Pura, Block 32, Krishna Nagar, Karol Bagh, New Delhi, Delhi, 110005, India", "phone": "+91 99993 43069", "rating": "5", "review_count": "", "website": "http://www.oraclelogistics.in/", "latitude": 28.6522811, "longitude": 77.1899086, "maps_url": "https://www.google.com/maps/search/?api=1&query=Oracle%20Logistics%20Pvt.%20Ltd.&query_place_id=ChIJn7nSjVwDDTkR51Q8Bq2XNg8"}, {"place_id": "ChIJOWiTFrwCDTkRZzZamyx0GeM", "name": "Redefine Marcom Pvt Ltd", "street": "584, near Saraswati Park, Pocket H, Rajender Nagar Part 1, New Rajinder Nagar, New Delhi, Delhi 110060, India", "phone": "+91 88000 99587", "rating": "4.3", "review_count": "", "website": "http://www.redefine.in/", "latitude": 28.63505, "longitude": 77.1793185, "maps_url": "https://www.google.com/maps/search/?api=1&query=Redefine%20Marcom%20Pvt%20Ltd&query_place_id=ChIJOWiTFrwCDTkRZzZamyx0GeM"}, {"place_id": "ChIJEUwFoFYDDTkR42Q8r_BNo3c", "name": "Eagle ace clothing company", "street": "E-16/1176, Tank Rd, near saluja gali gurudwara, Block Number 6, Bapa Nagar, Karol Bagh, New Delhi, Delhi, 110005, India", "phone": "+91 85889 47125", "rating": "5", "review_count": "", "website": "", "latitude": 28.652067199999998, "longitude": 77.182383, "maps_url": "https://www.google.com/maps/search/?api=1&query=Eagle%20ace%20clothing%20company&query_place_id=ChIJEUwFoFYDDTkR42Q8r_BNo3c"}, {"place_id": "ChIJj_ILDTsDDTkRHueVRwQtnVI", "name": "AJAH TECHNOLOGIES", "street": "12, 3, Saraswati Marg, Block 4, WEA, Karol Bagh, New Delhi, Delhi, 110005, India", "phone": "", "rating": "4.2", "review_count": "", "website": "", "latitude": 28.6479838, "longitude": 77.1887802, "maps_url": "https://www.google.com/maps/search/?api=1&query=AJAH%20TECHNOLOGIES&query_place_id=ChIJj_ILDTsDDTkRHueVRwQtnVI"}, {"place_id": "ChIJKxVFie8CDTkRgHo0tL5qAh8", "name": "Alpha kkc Logistics India Private Limited", "street": "Unit No - 402 & 403, 4th Floor, 12, Rajendra Place, New Delhi, Delhi 110008, India", "phone": "+91 11 4135 5555", "rating": "3.8", "review_count": "", "website": "http://www.alphakkclogistics.com/", "latitude": 28.644040999999998, "longitude": 77.17752639999999, "maps_url": "https://www.google.com/maps/search/?api=1&query=Alpha%20kkc%20Logistics%20India%20Private%20Limited&query_place_id=ChIJKxVFie8CDTkRgHo0tL5qAh8"}, {"place_id": "ChIJ8zVfgpYCDTkRnfLUpHTR0DU", "name": "Focus Energy Ltd", "street": "3rd Floor, Gopala Tower, 25, West, Prasad Nagar, Rajendra Place, New Delhi, Delhi, 110008, India", "phone": "+91 11 4230 0400", "rating": "2.5", "review_count": "", "website": "http://www.focusenergy.co.in/", "latitude": 28.6458768, "longitude": 77.17738489999999, "maps_url": "https://www.google.com/maps/search/?api=1&query=Focus%20Energy%20Ltd&query_place_id=ChIJ8zVfgpYCDTkRnfLUpHTR0DU"}, {"place_id": "ChIJrT7OXBYDDTkRWEyLIpDrXDE", "name": "Web Techno Expert", "street": "4, 28, Saraswati Marg, Block 12, WEA, Karol Bagh, Delhi, 110005, India", "phone": "+91 98107 44660", "rating": "5", "review_count": "", "website": "https://www.webtechnoexperts.com/", "latitude": 28.649784999999998, "longitude": 77.18861989999999, "maps_url": "https://www.google.com/maps/search/?api=1&query=Web%20Techno%20Expert&query_place_id=ChIJrT7OXBYDDTkRWEyLIpDrXDE"}, {"place_id": "ChIJ9R8ChfACDTkRsTe0HrY2aDM", "name": "TILHAN & COMPANY", "street": "T-235, A40, Hill Marg, near Hill Marg, Gurudwara, Baljit Nagar, Patel Nagar, New Delhi, Delhi, 110008, India", "phone": "+91 88268 31110", "rating": "5", "review_count": "", "website": "", "latitude": 28.6557824, "longitude": 77.1606133, "maps_url": "https://www.google.com/maps/search/?api=1&query=TILHAN%20%26%20COMPANY&query_place_id=ChIJ9R8ChfACDTkRsTe0HrY2aDM"}, {"place_id": "ChIJNzGy7LYDDTkRNXf56mjXolg", "name": "The Creation", "street": "4th Floor, 17, Pusa Rd, Block 8, WEA, Karol Bagh, New Delhi, Delhi, 110005, India", "phone": "+91 98184 05894", "rating": "4.5", "review_count": "", "website": "http://www.thecreation.in/", "latitude": 28.64474, "longitude": 77.191228, "maps_url": "https://www.google.com/maps/search/?api=1&query=The%20Creation&query_place_id=ChIJNzGy7LYDDTkRNXf56mjXolg"}, {"place_id": "ChIJ4z0gX-wDDTkR7apacHfwA3g", "name": "Taxfiniti:| Tax Audit | Accounting | Book Keeping | GST Return | GST Registration | Company Registration | CA Firm in Delhi", "street": "38/19, Govind Lal Sikka Marg, Block 38, East Patel Nagar, Patel Nagar, Delhi, New Delhi, Delhi 110008, India", "phone": "+91 87499 01234", "rating": "4.9", "review_count": "", "website": "https://taxfiniti.com/", "latitude": 28.6458633, "longitude": 77.1769272, "maps_url": "https://www.google.com/maps/search/?api=1&query=Taxfiniti%3A%7C%20Tax%20Audit%20%7C%20Accounting%20%7C%20Book%20Keeping%20%7C%20GST%20Return%20%7C%20GST%20Registration%20%7C%20Company%20Registration%20%7C%20CA%20Firm%20in%20Delhi&query_place_id=ChIJ4z0gX-wDDTkR7apacHfwA3g"}, {"place_id": "ChIJcesdOTX9DDkRtlHcx4gT3ds", "name": "Jak Software Pvt Ltd", "street": "52 Janpath, New Delhi, Delhi 110001, India", "phone": "+91 78272 49056", "rating": "4.4", "review_count": "", "website": "http://www.jaksoftware.co.in/", "latitude": 28.627537999999998, "longitude": 77.21878989999999, "maps_url": "https://www.google.com/maps/search/?api=1&query=Jak%20Software%20Pvt%20Ltd&query_place_id=ChIJcesdOTX9DDkRtlHcx4gT3ds"}, {"place_id": "ChIJd-3rnjD9DDkRl57EhpQsBF8", "name": "Mega Grain Trading Company Private Limited", "street": "402, Rajendra Place, New Delhi, Delhi 110060, India", "phone": "+91 11 2571 9896", "rating": "5", "review_count": "", "website": "https://www.megagrain.com/", "latitude": 28.6439639, "longitude": 77.1783969, "maps_url": "https://www.google.com/maps/search/?api=1&query=Mega%20Grain%20Trading%20Company%20Private%20Limited&query_place_id=ChIJd-3rnjD9DDkRl57EhpQsBF8"}, {"place_id": "ChIJW6eh6m4DDTkR_X3yTQcdTPI", "name": "Magicine Pharma | Cancer Medicine Manufacturer in India | Cancer Medicine Supplier in India", "street": "Gagandeep Building, Office No.2 Ground Floor, Govind Lal Sikka Marg, Rajendra Place, New Delhi, Delhi 110060, India", "phone": "+91 93191 13130", "rating": "4.8", "review_count": "", "website": "http://magicinepharma.com/", "latitude": 28.642034, "longitude": 77.177189, "maps_url": "https://www.google.com/maps/search/?api=1&query=Magicine%20Pharma%20%7C%20Cancer%20Medicine%20Manufacturer%20in%20India%20%7C%20Cancer%20Medicine%20Supplier%20in%20India&query_place_id=ChIJW6eh6m4DDTkR_X3yTQcdTPI"}, {"place_id": "ChIJVVVVceUCDTkR0NDQItnQJTc", "name": "Global Home Jobs", "street": "3rd Floor, R/o 2161/T-6, Block A, Guru Arjun Nagar, Shadipur, Delhi, 110008, India", "phone": "", "rating": "4.4", "review_count": "", "website": "", "latitude": 28.649668799999997, "longitude": 77.1589417, "maps_url": "https://www.google.com/maps/search/?api=1&query=Global%20Home%20Jobs&query_place_id=ChIJVVVVceUCDTkR0NDQItnQJTc"}, {"place_id": "ChIJz_pOD4b9DDkRXClfFZyE_r0", "name": "SJ Security Systems Pvt Ltd", "street": "2705/24, Second Floor, Bank St, Karol Bagh, New Delhi, Delhi 110005, India", "phone": "+91 99100 57500", "rating": "5", "review_count": "", "website": "https://www.sjsecurity.com/", "latitude": 28.6514208, "longitude": 77.1926269, "maps_url": "https://www.google.com/maps/search/?api=1&query=SJ%20Security%20Systems%20Pvt%20Ltd&query_place_id=ChIJz_pOD4b9DDkRXClfFZyE_r0"}, {"place_id": "ChIJ1TIGIgADDTkR0XpV08G3E20", "name": "Streetbite co.", "street": "Gol Chakkar, Bada Bazar Rd, Old Rajinder Nagar, Rajinder Nagar, Delhi, 110060, India", "phone": "", "rating": "4.6", "review_count": "", "website": "", "latitude": 28.638791599999998, "longitude": 77.18326669999999, "maps_url": "https://www.google.com/maps/search/?api=1&query=Streetbite%20co.&query_place_id=ChIJ1TIGIgADDTkR0XpV08G3E20"}, {"place_id": "ChIJOdImD7sCDTkR8Tqyoq5zC_I", "name": "Acezd Consultancy Services", "street": "229, First Floor DDA Site 1, New Rajinder Nagar, New Delhi, Delhi 110060, India", "phone": "+91 95999 69001", "rating": "2.6", "review_count": "", "website": "http://acezd.com/", "latitude": 28.639229999999998, "longitude": 77.175499, "maps_url": "https://www.google.com/maps/search/?api=1&query=Acezd%20Consultancy%20Services&query_place_id=ChIJOdImD7sCDTkR8Tqyoq5zC_I"}, {"place_id": "ChIJoS3RAkUDDTkRPPEFyJTMbQs", "name": "SPG & Associates- Company Secretaries", "street": "10th Floor, Vikram Towers, 1001, Rajendra Place, New Delhi, Delhi 110060, India", "phone": "+91 99683 00649", "rating": "4.8", "review_count": "", "website": "http://www.spgindia.co.in/", "latitude": 28.6429525, "longitude": 77.1784464, "maps_url": "https://www.google.com/maps/search/?api=1&query=SPG%20%26%20Associates-%20Company%20Secretaries&query_place_id=ChIJoS3RAkUDDTkRPPEFyJTMbQs"}, {"place_id": "ChIJUfbkbYoDDTkRKuOH9qcBems", "name": "Trigunam Foods Pvt.Ltd.", "street": "4A/59, Shankar Rd, Old Rajinder Nagar, Rajinder Nagar, New Delhi, Delhi, 110060, India", "phone": "", "rating": "4.9", "review_count": "", "website": "", "latitude": 28.6374529, "longitude": 77.1822597, "maps_url": "https://www.google.com/maps/search/?api=1&query=Trigunam%20Foods%20Pvt.Ltd.&query_place_id=ChIJUfbkbYoDDTkRKuOH9qcBems"}, {"place_id": "ChIJg4plhJYCDTkRMx7xON02Q0U", "name": "PARK MEDICLAIM TPA PVT LTD", "street": "702, Vikrant Tower,Rajendra Place, Delhi, 110005, India", "phone": "+91 1800 11 5533", "rating": "3.4", "review_count": "", "website": "http://www.parkmediclaim.co.in/", "latitude": 28.6458616, "longitude": 77.1779907, "maps_url": "https://www.google.com/maps/search/?api=1&query=PARK%20MEDICLAIM%20TPA%20PVT%20LTD&query_place_id=ChIJg4plhJYCDTkRMx7xON02Q0U"}, {"place_id": "ChIJG1iHIuEDDTkRFU3NYUTvk_I", "name": "Deluxe Cargo Packers And Movers", "street": "Plot No 14, Block 7, Block 16A, WEA, Karol Bagh, New Delhi, Delhi, 110005, India", "phone": "+91 88600 08146", "rating": "5", "review_count": "", "website": "http://www.deluxecargopackers.com/", "latitude": 28.645162, "longitude": 77.1895055, "maps_url": "https://www.google.com/maps/search/?api=1&query=Deluxe%20Cargo%20Packers%20And%20Movers&query_place_id=ChIJG1iHIuEDDTkRFU3NYUTvk_I"}, {"place_id": "ChIJ0RbfAR-p2kcRl6-kMH5Fj8E", "name": "Facezila Platform Private Limited | Best Software development Company Delhi | School Management Software | NGO WEBSITE", "street": "", "phone": "+91 80849 37696", "rating": "5", "review_count": "", "website": "https://facezila.in/", "latitude": 28.6759852, "longitude": 77.1436286, "maps_url": "https://www.google.com/maps/search/?api=1&query=Facezila%20Platform%20Private%20Limited%20%7C%20Best%20Software%20development%20Company%20Delhi%20%7C%20School%20Management%20Software%20%7C%20NGO%20WEBSITE&query_place_id=ChIJ0RbfAR-p2kcRl6-kMH5Fj8E"}, {"place_id": "ChIJwY2Lhr0CDTkRBvjLhvvWl_Q", "name": "SMC Real Estate Advisors Pvt. Ltd", "street": "3rd Floor, 11/5B, Pusa Rd, opposite Metro Pillar Number 132, Block 11, Old Rajinder Nagar, Rajinder Nagar, New Delhi, Delhi, 110005, India", "phone": "+91 81301 15544", "rating": "4.1", "review_count": "", "website": "https://www.smcrealty.com/", "latitude": 28.6426402, "longitude": 77.18167749999999, "maps_url": "https://www.google.com/maps/search/?api=1&query=SMC%20Real%20Estate%20Advisors%20Pvt.%20Ltd&query_place_id=ChIJwY2Lhr0CDTkRBvjLhvvWl_Q"}, {"place_id": "ChIJh9C6W7YDDTkR9ApRxlpbgGo", "name": "Greymoons | Website Design Company in Delhi, India | Graphic Design", "street": "Block 29, Padam Singh Rd, Block 4, Regar Pura, Karol Bagh, New Delhi, Delhi, 110005, India", "phone": "+91 98218 81394", "rating": "5", "review_count": "", "website": "http://www.greymoons.com/", "latitude": 28.6491804, "longitude": 77.1880655, "maps_url": "https://www.google.com/maps/search/?api=1&query=Greymoons%20%7C%20Website%20Design%20Company%20in%20Delhi%2C%20India%20%7C%20Graphic%20Design&query_place_id=ChIJh9C6W7YDDTkR9ApRxlpbgGo"}, {"place_id": "ChIJJ1taMi0FDTkRtEyy1B5WnDU", "name": "Master Brains", "street": "303, Prabhat Kiran Building, 17, Rajendra Place, New Delhi, Delhi 110060, India", "phone": "+91 85958 67402", "rating": "4.9", "review_count": "", "website": "https://masterbrains.co.in/", "latitude": 28.6439639, "longitude": 77.1783969, "maps_url": "https://www.google.com/maps/search/?api=1&query=Master%20Brains&query_place_id=ChIJJ1taMi0FDTkRtEyy1B5WnDU"}, {"place_id": "ChIJX_uKY74CDTkRAO66aKZhl6g", "name": "Unicorn Denmart Ltd", "street": "3, MOR Land, LSC, DDA Market Rd, near J Block, R-Block, Pocket J, Rajender Nagar Part 2, New Rajinder Nagar, New Delhi, Delhi 110060, India", "phone": "+91 11 4555 1200", "rating": "4.9", "review_count": "", "website": "https://www.unicorndenmart.com/", "latitude": 28.637829999999997, "longitude": 77.1770293, "maps_url": "https://www.google.com/maps/search/?api=1&query=Unicorn%20Denmart%20Ltd&query_place_id=ChIJX_uKY74CDTkRAO66aKZhl6g"}, {"place_id": "ChIJcXKWhCcFDTkRNEVFKwsKsds", "name": "LSONIC INDUSTRIES PVT. LTD.", "street": "Rajendra Place, New Delhi, Delhi 110008, India", "phone": "", "rating": "4.2", "review_count": "", "website": "http://lsonicindustries.com/", "latitude": 28.6432944, "longitude": 77.1779949, "maps_url": "https://www.google.com/maps/search/?api=1&query=LSONIC%20INDUSTRIES%20PVT.%20LTD.&query_place_id=ChIJcXKWhCcFDTkRNEVFKwsKsds"}, {"place_id": "ChIJ9WQmtZ4CDTkR1WdeOxHFcno", "name": "Galaxy Appliances", "street": "5/2, opposite Suruchi restaurant, Block 5, WEA, Karol Bagh, Delhi, 110005, India", "phone": "+91 98100 08066", "rating": "4.7", "review_count": "", "website": "http://www.indiamart.com/galaxyappliances-Delhi", "latitude": 28.647277, "longitude": 77.188588, "maps_url": "https://www.google.com/maps/search/?api=1&query=Galaxy%20Appliances&query_place_id=ChIJ9WQmtZ4CDTkR1WdeOxHFcno"}]