{"timestamp": 1773729485.154508, "keyword": "IT company", "location": "delhi", "cell_idx": 95, "results": [{"place_id": "0x390ce1224e2234dd:0x7790e7d5f1699ce4", "name": "Razor Infotech Pvt. Ltd. ( IT solutions)", "category": "Software company", "street": "627", "city": "F/F, Westend Marg", "phone": "01145034631", "website": "http://www.razorinfotech.com/", "rating": 4.9, "review_count": "", "latitude": 28.517411, "longitude": 77.198138, "maps_url": "https://www.google.com/maps/place/?q=place_id:0x390ce1224e2234dd:0x7790e7d5f1699ce4"}, {"place_id": "0x390ce1960d3d6e5b:0x26c38781f5361e34", "name": "Saffron Tech Pvt. Ltd.", "category": "Software company", "street": "57A, Central Ave", "city": "Block F, Sainik Farms Colony, Sainik Farm", "phone": "09179974750", "website": "https://www.saffrontech.net/", "rating": 3.8, "review_count": "", "latitude": 28.510424999999998, "longitude": 77.22409909999999, "maps_url": "https://www.google.com/maps/place/?q=place_id:0x390ce1960d3d6e5b:0x26c38781f5361e34"}, {"place_id": "0x390d1fcf6c34ab99:0x285f961d231b2c61", "name": "Aadiyar Infotech Private Limited", "category": "Software company", "street": "1st Floor", "city": "Pannal Building No. 2", "phone": "09810164525", "website": "https://www.aadiyar.in/", "rating": 4.9, "review_count": "", "latitude": 28.487146, "longitude": 77.185315, "maps_url": "https://www.google.com/maps/place/?q=place_id:0x390d1fcf6c34ab99:0x285f961d231b2c61"}, {"place_id": "0x390ce1a20e94f69d:0xf6c5af89da672917", "name": "Code IT Solutions", "category": "Software company", "street": "E45", "city": "Krishna Park Colony, Khanpur", "phone": "07992249312", "website": "http://codeitsolutionshub.com/", "rating": 4.9, "review_count": "", "latitude": 28.509770999999997, "longitude": 77.23377169999999, "maps_url": "https://www.google.com/maps/place/?q=place_id:0x390ce1a20e94f69d:0xf6c5af89da672917"}, {"place_id": "0x390ce1fb44618b65:0x8e06b2a6128352d1", "name": "Acropolis Infotech - Delhi Office", "category": "Software company", "street": "metro station gate", "city": "55, 2nd Floor, Lane 2", "phone": "09999876593", "website": "https://www.acropolisinfotech.com/", "rating": 4.6, "review_count": "", "latitude": 28.518907, "longitude": 77.2015435, "maps_url": "https://www.google.com/maps/place/?q=place_id:0x390ce1fb44618b65:0x8e06b2a6128352d1"}, {"place_id": "0x390ce1597b5509e5:0xfd8209b937b44d3c", "name": "IT Solutions India Private Limited", "category": "Software company", "street": "D-88/5", "city": "Pocket D, Okhla Phase I, Okhla Industrial Estate", "phone": "09810017429", "website": "https://www.itsipl.com/", "rating": 4.2, "review_count": "", "latitude": 28.520146, "longitude": 77.280431, "maps_url": "https://www.google.com/maps/place/?q=place_id:0x390ce1597b5509e5:0xfd8209b937b44d3c"}, {"place_id": "0x390d1fb30dd00ee3:0x77cfd1f858a2b9ee", "name": "Ionic Software Services", "category": "Software company", "street": "B-2/63, Africa Ave", "city": "Block A, Block B 2, Safdarjung Enclave", "phone": "08744941668", "website": "http://www.ionicsoftwares.com/", "rating": 4.7, "review_count": "", "latitude": 28.515873499999998, "longitude": 77.2044335, "maps_url": "https://www.google.com/maps/place/?q=place_id:0x390d1fb30dd00ee3:0x77cfd1f858a2b9ee"}, {"place_id": "0x390ce458d0000001:0xf2123bd299ec4501", "name": "IT Company India", "category": "Software company", "street": "D56", "city": "D Block, Sector 10", "phone": "09999244854", "website": "https://www.itcompanyindia.in/", "rating": 4.7, "review_count": "", "latitude": 28.589917699999997, "longitude": 77.3351153, "maps_url": "https://www.google.com/maps/place/?q=place_id:0x390ce458d0000001:0xf2123bd299ec4501"}, {"place_id": "0x390ce3c153b89811:0xe7a279685777e9ca", "name": "IT Company", "category": "Automation company", "street": "A-14", "city": "near iskcon temple", "phone": "", "website": "http://www.opuswiz.com/", "rating": 3, "review_count": "", "latitude": 28.557167, "longitude": 77.25424819999999, "maps_url": "https://www.google.com/maps/place/?q=place_id:0x390ce3c153b89811:0xe7a279685777e9ca"}, {"place_id": "0x8d1367491c694315:0xb6e1626c69d891d2", "name": "WebGridSolution - Software Development Digital Marketing Company", "category": "Software company", "street": "G-12/188", "city": "Talimabad, Sangam Vihar", "phone": "", "website": "https://webgridsolution.com/", "rating": 4.8, "review_count": "", "latitude": 28.506943099999997, "longitude": 77.2507213, "maps_url": "https://www.google.com/maps/place/?q=place_id:0x8d1367491c694315:0xb6e1626c69d891d2"}, {"place_id": "0x390ce227b000003f:0x68c684a3cbf810b", "name": "IT Solution INDIA", "category": "Computer support and services", "street": "Triveni Commercial Complex", "city": "Sheikh Sarai Phase 1, Sheikh Sarai", "phone": "09312209167", "website": "https://itsolutionindia.in/", "rating": 4.8, "review_count": "", "latitude": 28.5364054, "longitude": 77.22372, "maps_url": "https://www.google.com/maps/place/?q=place_id:0x390ce227b000003f:0x68c684a3cbf810b"}, {"place_id": "0x390ce2305c00002d:0x9f7efbacdc0d8271", "name": "ICO WebTech Pvt. Ltd. - Website Designing Company in Delhi", "category": "Website designer", "street": "J E 5, Ground Floor, Khirki Extension, Malviya Nagar", "city": "New Delhi, Delhi 110017", "phone": "08447380262", "website": "https://www.icowebsolutions.com/", "rating": 4.6, "review_count": "", "latitude": 28.535594, "longitude": 77.21577099999999, "maps_url": "https://www.google.com/maps/place/?q=place_id:0x390ce2305c00002d:0x9f7efbacdc0d8271"}, {"place_id": "0x390ce11e0c6904fb:0xa9a73edc193f73d3", "name": "RK Company- IT Services, Digital Marketing Agency", "category": "Computer support and services", "street": "402, IGNOU Rd", "city": "Block A 1, Neb Sarai, Sainik Farm", "phone": "09899651824", "website": "https://www.rkcompany.co.in/", "rating": 5, "review_count": "", "latitude": 28.509137199999998, "longitude": 77.20269069999999, "maps_url": "https://www.google.com/maps/place/?q=place_id:0x390ce11e0c6904fb:0xa9a73edc193f73d3"}, {"place_id": "0x390ce1bf050dac35:0x767bce4437d1bf6", "name": "DELHI COMPUTER SERVICE", "category": "Computer repair service", "street": "Landmark Country Club", "city": "W-8/28, W-8 Ln", "phone": "09811356956", "website": "", "rating": 4.8, "review_count": "", "latitude": 28.506446399999998, "longitude": 77.2122692, "maps_url": "https://www.google.com/maps/place/?q=place_id:0x390ce1bf050dac35:0x767bce4437d1bf6"}, {"place_id": "0x4215c6da63b4b82f:0x794ba814a6ada964", "name": "Asha Tech | Website Design, App Development & IT Solutions Delhi", "category": "Software company", "street": "no 2", "city": "195, Lane No. 1", "phone": "07531080874", "website": "https://ashatech.co.in/", "rating": 4.7, "review_count": "", "latitude": 28.519994099999998, "longitude": 77.2008791, "maps_url": "https://www.google.com/maps/place/?q=place_id:0x4215c6da63b4b82f:0x794ba814a6ada964"}, {"place_id": "0x390ce1b9de54d101:0xc5184256693b27dd", "name": "LCK Technologies - Website designing development company South Delhi", "category": "Website designer", "street": "439 1st floor", "city": "438", "phone": "09891337955", "website": "https://lckdigitalmedia.in/", "rating": 4.9, "review_count": "", "latitude": 28.5089698, "longitude": 77.20114769999999, "maps_url": "https://www.google.com/maps/place/?q=place_id:0x390ce1b9de54d101:0xc5184256693b27dd"}, {"place_id": "0x390ce1c475aaaab9:0x8c01562789395926", "name": "Unique Developers (P) Ltd", "category": "Real Estate Builders & Construction Company", "street": "174-B Lane W7A", "city": "Western Ave", "phone": "09971108375", "website": "", "rating": 4.5, "review_count": "", "latitude": 28.505416999999998, "longitude": 77.216471, "maps_url": "https://www.google.com/maps/place/?q=place_id:0x390ce1c475aaaab9:0x8c01562789395926"}, {"place_id": "0x390ce7d088b49e53:0xbe91d554f6056f4a", "name": "ARVI IT SOLUTIONS", "category": "Software company", "street": "G-454/20, Tajpur Rd", "city": "near standford convent school", "phone": "09971148719", "website": "https://arviitsolutions.com/", "rating": 4.9, "review_count": "", "latitude": 28.4926846, "longitude": 77.3079108, "maps_url": "https://www.google.com/maps/place/?q=place_id:0x390ce7d088b49e53:0xbe91d554f6056f4a"}, {"place_id": "0x390ce146624d3325:0xdef50cdb9e3f79b2", "name": "Hybridd Eminence IT Solutions", "category": "Computer service", "street": "No .A-66", "city": "H", "phone": "07011675606", "website": "https://www.google.com/search?q=hybrid+eminence+it+solutions&oq=hy&aqs=chrome.0.69i59j69i61j69i57j0i273l2j46i199i291i433i512j0i433i512l2.1129j0j4&client=ms-android-xiaomi&sourceid=chrome-mobile&ie=UTF-8#lkt=overview&trex=m_t:lcl_akp,rc_f:nav,rc_ludocids:16065761383106443698,rc_q:Hybrid%2520Eminence%2520IT%2520Solutions,ru_q:Hybrid%2520Eminence%2520IT%2520Solutions,trex_id:BTlVsc", "rating": 4.9, "review_count": "", "latitude": 28.504536299999998, "longitude": 77.2357723, "maps_url": "https://www.google.com/maps/place/?q=place_id:0x390ce146624d3325:0xdef50cdb9e3f79b2"}, {"place_id": "0x390ce1ae212ceacd:0xaa717b98753f80d4", "name": "E Global Soft Solutions", "category": "Software company", "street": "Head Office", "city": "A-5, Mehrauli - Badarpur Rd", "phone": "09899924546", "website": "http://www.eglobalsoftsolutions.com/", "rating": 4, "review_count": "", "latitude": 28.5146831, "longitude": 77.2312527, "maps_url": "https://www.google.com/maps/place/?q=place_id:0x390ce1ae212ceacd:0xaa717b98753f80d4"}, {"place_id": "0x390ce17b21078715:0xf0dbf88df61f8955", "name": "Startup Club India | Company Registration & Accounting firm in Delhi", "category": "Consultant", "street": "Second Floor, Building. 641, Lane No. 5", "city": "Westend Marg", "phone": "09468065626", "website": "https://www.startupclubindia.com/", "rating": 4.9, "review_count": "", "latitude": 28.5168462, "longitude": 77.1981155, "maps_url": "https://www.google.com/maps/place/?q=place_id:0x390ce17b21078715:0xf0dbf88df61f8955"}, {"place_id": "0x390ce18353e55aaf:0xb7f6a41b1d06a574", "name": "Vikas Gupta - Mobile App & Web developer", "category": "Software company", "street": "Second Floor", "city": "B-12/2", "phone": "09211344427", "website": "https://itcrafterhub.com/mobile-app-web-developer/", "rating": 5, "review_count": "", "latitude": 28.515264799999997, "longitude": 77.20236369999999, "maps_url": "https://www.google.com/maps/place/?q=place_id:0x390ce18353e55aaf:0xb7f6a41b1d06a574"}, {"place_id": "0x390d1fb30dd00ee3:0x77cfd1f858a2b9ee", "name": "Ionic Software Services", "category": "Software company", "street": "B-2/63, Africa Ave", "city": "Block A, Block B 2, Safdarjung Enclave", "phone": "08744941668", "website": "http://www.ionicsoftwares.com/", "rating": 4.7, "review_count": "", "latitude": 28.515873499999998, "longitude": 77.2044335, "maps_url": "https://www.google.com/maps/place/?q=place_id:0x390d1fb30dd00ee3:0x77cfd1f858a2b9ee"}, {"place_id": "0x390ce1c65555559b:0x622b7f3c243ab8f0", "name": "DTDC EXPRESS LIMITED", "category": "Courier service", "street": "AWB Logistics(India)Pvt.Ltd. ,23,Ist Floor,DDA Market,LSC 110062", "city": "Pushp Vihar", "phone": "01141649333", "website": "", "rating": 2.7, "review_count": "", "latitude": 28.499768, "longitude": 77.214647, "maps_url": "https://www.google.com/maps/place/?q=place_id:0x390ce1c65555559b:0x622b7f3c243ab8f0"}, {"place_id": "0x390ce18e402306b5:0x9dbfaada227164c4", "name": "Vijprat Tech Private Limited", "category": "Software company", "street": "Sangam Vihar", "city": "Block D, Hamdard Nagar", "phone": "08565013979", "website": "https://www.vijprat.com/", "rating": 4.8, "review_count": "", "latitude": 28.5153091, "longitude": 77.2498549, "maps_url": "https://www.google.com/maps/place/?q=place_id:0x390ce18e402306b5:0x9dbfaada227164c4"}, {"place_id": "0x390d1e186527b451:0x3d552630d3703e21", "name": "Inca Infotech Technologies Pvt Ltd", "category": "Computer support and services", "street": "D-23/405, UGF", "city": "100 Feet Rd", "phone": "18008891907", "website": "https://www.incainfotech.com/", "rating": 3.6, "review_count": "", "latitude": 28.506226899999998, "longitude": 77.1850521, "maps_url": "https://www.google.com/maps/place/?q=place_id:0x390d1e186527b451:0x3d552630d3703e21"}, {"place_id": "0x390d1f5abfb25fe1:0x7d9c4d5e159f2955", "name": "Jaimru Technology Pvt Ltd", "category": "Software company", "street": "WARD NO. 2", "city": "Plot No. 178 M 33 A/1", "phone": "07838153420", "website": "https://www.jaimru.com/", "rating": 4.9, "review_count": "", "latitude": 28.524347499999998, "longitude": 77.1731889, "maps_url": "https://www.google.com/maps/place/?q=place_id:0x390d1f5abfb25fe1:0x7d9c4d5e159f2955"}, {"place_id": "0x390ce1bef0c8c071:0xb0a64e46c6405fc6", "name": "Tech rise dynamics", "category": "Website designer", "street": "293, Lane-2, Westend Marg", "city": "near Saket Metro Station", "phone": "08750557052", "website": "https://www.techrisedynamics.com/", "rating": 5, "review_count": "", "latitude": 28.5177321, "longitude": 77.1986237, "maps_url": "https://www.google.com/maps/place/?q=place_id:0x390ce1bef0c8c071:0xb0a64e46c6405fc6"}, {"place_id": "0x390ce1ee17fe6f05:0x55186edcd4dd7513", "name": "Seven India IT Consulting", "category": "Software company", "street": "A 48, 1st Floor, Freedom Fighters Enclave, IGNOU Road", "city": "New Delhi, Delhi 110068", "phone": "", "website": "", "rating": 3.6, "review_count": "", "latitude": 28.512038, "longitude": 77.202288, "maps_url": "https://www.google.com/maps/place/?q=place_id:0x390ce1ee17fe6f05:0x55186edcd4dd7513"}, {"place_id": "0x66e4a3cfeb9c8ecf:0x6ec88b6cc3e72642", "name": "7k Network - Best News Portal Development Company In India", "category": "Marketing agency", "street": "", "city": "", "phone": "08287935889", "website": "http://7knetwork.in/", "rating": 4.7, "review_count": "", "latitude": 21.0680074, "longitude": 82.7525294, "maps_url": "https://www.google.com/maps/place/?q=place_id:0x66e4a3cfeb9c8ecf:0x6ec88b6cc3e72642"}, {"place_id": "0x390ce1c6c67c0837:0xc60c276aa00848d6", "name": "Portratt Advertising & Marketing Pvt. Ltd.", "category": "Website designer", "street": "104, Western Ave", "city": "Block E, Sainik Farm", "phone": "09560069537", "website": "http://www.teamportrait.in/", "rating": 4.6, "review_count": "", "latitude": 28.5028465, "longitude": 77.21439889999999, "maps_url": "https://www.google.com/maps/place/?q=place_id:0x390ce1c6c67c0837:0xc60c276aa00848d6"}, {"place_id": "0x390ce1ce534cb1e5:0x39fe77c42bc52616", "name": "ITeSolution- Odoo ERP , Mobile/Web Application Development Software Company in Noida, Delhi NCR India.", "category": "Software company", "street": "RZ60/9", "city": "T/F, Tughlakabad Extension, Tughlakabad", "phone": "09889294124", "website": "https://www.itesolution.co.in/", "rating": 4.9, "review_count": "", "latitude": 28.520523899999997, "longitude": 77.2570535, "maps_url": "https://www.google.com/maps/place/?q=place_id:0x390ce1ce534cb1e5:0x39fe77c42bc52616"}, {"place_id": "0x390ce1db87a55681:0x3ed43e2a189abcb9", "name": "Wisdom Techseal Private Limited", "category": "Civil engineering company", "street": "Freedom Fighter Cultural Center", "city": "B-1 (GF, IGNOU Rd", "phone": "07011673568", "website": "http://wisdomtechseal.com/", "rating": 3.7, "review_count": "", "latitude": 28.5103755, "longitude": 77.2011216, "maps_url": "https://www.google.com/maps/place/?q=place_id:0x390ce1db87a55681:0x3ed43e2a189abcb9"}, {"place_id": "0x8d1367491c694315:0xb6e1626c69d891d2", "name": "WebGridSolution - Software Development Digital Marketing Company", "category": "Software company", "street": "G-12/188", "city": "Talimabad, Sangam Vihar", "phone": "", "website": "https://webgridsolution.com/", "rating": 4.8, "review_count": "", "latitude": 28.506943099999997, "longitude": 77.2507213, "maps_url": "https://www.google.com/maps/place/?q=place_id:0x8d1367491c694315:0xb6e1626c69d891d2"}, {"place_id": "0x2a72b8b69d7b6493:0x11251466d4d34cac", "name": "WebZonal IT Company", "category": "Website designer", "street": "Wz-258/2-3, D Block Rd", "city": "Khazan Basti, Nangal Raya, Janakpuri", "phone": "09811170903", "website": "http://webzonal.com/", "rating": 5, "review_count": "", "latitude": 28.6122102, "longitude": 77.11159549999999, "maps_url": "https://www.google.com/maps/place/?q=place_id:0x2a72b8b69d7b6493:0x11251466d4d34cac"}, {"place_id": "0x390ce1bfd23f1707:0xe96c8ef6a8a4a34d", "name": "Inter Protect Marine Pvt. Ltd.", "category": "Corporate office", "street": "161-C", "city": "W-3, Manekshaw Marg", "phone": "09560720404", "website": "http://www.interprotectmarine.com/", "rating": 4.5, "review_count": "", "latitude": 28.5082852, "longitude": 77.2201193, "maps_url": "https://www.google.com/maps/place/?q=place_id:0x390ce1bfd23f1707:0xe96c8ef6a8a4a34d"}, {"place_id": "0x390ce13fbd6112a1:0xc9e836d86582fc6d", "name": "Taxpot Business Solution-Company Registration, CA & CS Services", "category": "Chartered accountant", "street": "Second Floor", "city": "Pilli Kothi", "phone": "07827455193", "website": "http://www.newcompanyregistrationdelhi.in/", "rating": 5, "review_count": "", "latitude": 28.508529499999998, "longitude": 77.2273353, "maps_url": "https://www.google.com/maps/place/?q=place_id:0x390ce13fbd6112a1:0xc9e836d86582fc6d"}, {"place_id": "0x390cfcb0fa00a53f:0x2c4569671b7ebbf7", "name": "Cloudespacio | Salesforce & Cloud Consulting Company in India", "category": "Software company", "street": "2nd floor", "city": "55", "phone": "09958584825", "website": "http://www.cloudespacio.com/", "rating": 4.3, "review_count": "", "latitude": 28.5177321, "longitude": 77.1986237, "maps_url": "https://www.google.com/maps/place/?q=place_id:0x390cfcb0fa00a53f:0x2c4569671b7ebbf7"}, {"place_id": "0x213278d23258ed1:0xda7ca71736196291", "name": "Astha Technologies - Top Mobile App Development Company in Delhi | Android & iOS", "category": "Software company", "street": "2ND FLOOR", "city": "55, LANE-2, Westend Marg", "phone": "", "website": "https://asthatechnologies.org/mobile-app-development-company-delhi/", "rating": 5, "review_count": "", "latitude": 28.518466099999998, "longitude": 77.19880739999999, "maps_url": "https://www.google.com/maps/place/?q=place_id:0x213278d23258ed1:0xda7ca71736196291"}, {"place_id": "0x390ce1e08aad0a03:0xf11f03753d86ae44", "name": "Blostem", "category": "Business banking service", "street": "163/F, W-2", "city": "Lane, Western Ave", "phone": "08588890832", "website": "http://www.blostem.com/", "rating": 4.4, "review_count": "", "latitude": 28.510039499999998, "longitude": 77.2206147, "maps_url": "https://www.google.com/maps/place/?q=place_id:0x390ce1e08aad0a03:0xf11f03753d86ae44"}, {"place_id": "0xa64f7e15b8ec9789:0x967e4f56d7e5b275", "name": "WebTech Inventor", "category": "Website designer", "street": "", "city": "", "phone": "09354948539", "website": "https://www.webtechinventor.com/", "rating": 5, "review_count": "", "latitude": 21.0680074, "longitude": 82.7525294, "maps_url": "https://www.google.com/maps/place/?q=place_id:0xa64f7e15b8ec9789:0x967e4f56d7e5b275"}, {"place_id": "0x390ce1c6c67c0837:0xc60c276aa00848d6", "name": "Portratt Advertising & Marketing Pvt. Ltd.", "category": "Website designer", "street": "104, Western Ave", "city": "Block E, Sainik Farm", "phone": "09560069537", "website": "http://www.teamportrait.in/", "rating": 4.6, "review_count": "", "latitude": 28.5028465, "longitude": 77.21439889999999, "maps_url": "https://www.google.com/maps/place/?q=place_id:0x390ce1c6c67c0837:0xc60c276aa00848d6"}, {"place_id": "0x390ce7efbc7aff21:0x5d574e48430142e", "name": "AANYA TECHSOFT LLP", "category": "Software company", "street": "1st & 2nd Floor", "city": "Metro Station Tughlakabad", "phone": "09811393975", "website": "https://aanyatech.co.in/", "rating": 4.9, "review_count": "", "latitude": 28.4950084, "longitude": 77.30347809999999, "maps_url": "https://www.google.com/maps/place/?q=place_id:0x390ce7efbc7aff21:0x5d574e48430142e"}, {"place_id": "0x390ce19d6aaaaaab:0x322f66cd91e8f6cd", "name": "Vikas Gupta Web Developer", "category": "Website designer", "street": "A-454 Dakshinpuri", "city": "New Delhi, Delhi 110062", "phone": "09643269244", "website": "https://itcrafterhub.com/website-developer-delhi/", "rating": 5, "review_count": "", "latitude": 28.522017599999998, "longitude": 77.2366923, "maps_url": "https://www.google.com/maps/place/?q=place_id:0x390ce19d6aaaaaab:0x322f66cd91e8f6cd"}, {"place_id": "0xa3f7b500ba6bee9b:0xbf6f44de92b28de", "name": "Yuvocreations Private Limited ( \u092f\u0941\u0935\u094b\u0915\u094d\u0930\u093f\u090f\u0936\u0928\u094d\u0938 \u092a\u094d\u0930\u093e\u0907\u0935\u0947\u091f \u0932\u093f\u092e\u093f\u091f\u0947\u0921 ) - Website Designing & Digital Marketing Agency", "category": "Software company", "street": "Lane no.4", "city": "Khasra no. 258, Westend Marg", "phone": "07042123166", "website": "https://yuvocreations.com/", "rating": 5, "review_count": "", "latitude": 28.5169774, "longitude": 77.19925789999999, "maps_url": "https://www.google.com/maps/place/?q=place_id:0xa3f7b500ba6bee9b:0xbf6f44de92b28de"}, {"place_id": "0x390ce3d606c913ef:0xd246bd5631eb2cad", "name": "Delvetech", "category": "Software company", "street": "87A/1, 3rd Floor, Opp. Block N-115, G.K-1, Near Moolchand Merto", "city": "Block B, Zamrudpur, Greater Kailash", "phone": "09873895154", "website": "http://www.delvetech.co.in/", "rating": 4.1, "review_count": "", "latitude": 28.5570597, "longitude": 77.2356981, "maps_url": "https://www.google.com/maps/place/?q=place_id:0x390ce3d606c913ef:0xd246bd5631eb2cad"}, {"place_id": "0x390ce3cfe91504eb:0x55346c5c499223d7", "name": "CCS Computers Private Limited", "category": "Computer support and services", "street": "2nd-3rd Floor Skipper House", "city": "Nehru Place", "phone": "01126463959", "website": "http://www.ccscomputers.co.in/", "rating": 4, "review_count": "", "latitude": 28.550090599999997, "longitude": 77.2537834, "maps_url": "https://www.google.com/maps/place/?q=place_id:0x390ce3cfe91504eb:0x55346c5c499223d7"}, {"place_id": "0x390d1fb9b19cd7d7:0x2febfba590f33428", "name": "Corapana Technologies - Mobile App Development and Web Design Development Company Delhi", "category": "Software company", "street": "Ground floor", "city": "D-23", "phone": "08295242621", "website": "https://corapana.com/", "rating": 4.8, "review_count": "", "latitude": 28.496378999999997, "longitude": 77.17898, "maps_url": "https://www.google.com/maps/place/?q=place_id:0x390d1fb9b19cd7d7:0x2febfba590f33428"}, {"place_id": "0x390ce1bfd23f1707:0xe96c8ef6a8a4a34d", "name": "Inter Protect Marine Pvt. Ltd.", "category": "Corporate office", "street": "161-C", "city": "W-3, Manekshaw Marg", "phone": "09560720404", "website": "http://www.interprotectmarine.com/", "rating": 4.5, "review_count": "", "latitude": 28.5082852, "longitude": 77.2201193, "maps_url": "https://www.google.com/maps/place/?q=place_id:0x390ce1bfd23f1707:0xe96c8ef6a8a4a34d"}, {"place_id": "0x390cfd9627f1ef6f:0x2ceaf9a99dfc7b29", "name": "QuaintX Innovations", "category": "Software company", "street": "3rd Floor, Building", "city": "125, Savitri Nagar Rd", "phone": "07015149213", "website": "https://quaintx.com/", "rating": 5, "review_count": "", "latitude": 28.5394647, "longitude": 77.21983519999999, "maps_url": "https://www.google.com/maps/place/?q=place_id:0x390cfd9627f1ef6f:0x2ceaf9a99dfc7b29"}, {"place_id": "0x390ce3b7c0000001:0x46ddd80ee502d937", "name": "Amtrak Technologies Private Limited", "category": "Computer support and services", "street": "6, Community Centre", "city": "East of Kailash", "phone": "01126448000", "website": "https://amtrak.co.in/", "rating": 4.4, "review_count": "", "latitude": 28.558434899999998, "longitude": 77.2463302, "maps_url": "https://www.google.com/maps/place/?q=place_id:0x390ce3b7c0000001:0x46ddd80ee502d937"}, {"place_id": "0x390cfcb0fa00a53f:0x2c4569671b7ebbf7", "name": "Cloudespacio | Salesforce & Cloud Consulting Company in India", "category": "Software company", "street": "2nd floor", "city": "55", "phone": "09958584825", "website": "http://www.cloudespacio.com/", "rating": 4.3, "review_count": "", "latitude": 28.5177321, "longitude": 77.1986237, "maps_url": "https://www.google.com/maps/place/?q=place_id:0x390cfcb0fa00a53f:0x2c4569671b7ebbf7"}, {"place_id": "0x390ce45bcd61048f:0x5f6a5602f4155df7", "name": "JK Technosoft Limited", "category": "Software company", "street": "F", "city": "3", "phone": "01204606300", "website": "https://jktech.com/", "rating": 4.2, "review_count": "", "latitude": 28.5802509, "longitude": 77.31793329999999, "maps_url": "https://www.google.com/maps/place/?q=place_id:0x390ce45bcd61048f:0x5f6a5602f4155df7"}, {"place_id": "0x390ce1dde9b455eb:0x7e117e619e01fd0e", "name": "Bring Innovations - Digital Marketing Agency in India, SEO Company, ORM Company, Social Media Agency India", "category": "Computer support and services", "street": "DBlock", "city": "H313", "phone": "09318306625", "website": "https://bringinnovations.com/", "rating": "", "review_count": "", "latitude": 28.5131336, "longitude": 77.2066778, "maps_url": "https://www.google.com/maps/place/?q=place_id:0x390ce1dde9b455eb:0x7e117e619e01fd0e"}, {"place_id": "0x390ce3c5130e43f3:0xce85951ee98d424e", "name": "MODI INFOSOL PVT. LTD.", "category": "Manufacturer", "street": "OFFICE # 168", "city": "D Block, Pocket D, Okhla Phase I, Okhla Industrial Estate", "phone": "01140746900", "website": "http://www.modiithub.com/", "rating": 3.6, "review_count": "", "latitude": 28.5209118, "longitude": 77.2783556, "maps_url": "https://www.google.com/maps/place/?q=place_id:0x390ce3c5130e43f3:0xce85951ee98d424e"}, {"place_id": "0x390ce1bfa60f9163:0x274b12327309f2f3", "name": "Ehsaas Organic", "category": "Organic farm", "street": "A 170, Lane W5", "city": "Block E, Sainik Farm", "phone": "09212310200", "website": "", "rating": 4.2, "review_count": "", "latitude": 28.506266, "longitude": 77.2196809, "maps_url": "https://www.google.com/maps/place/?q=place_id:0x390ce1bfa60f9163:0x274b12327309f2f3"}, {"place_id": "0x390ce1f67cdf0da1:0x53f5a25940eb27b1", "name": "Shuraa Business Setup - Rep Office", "category": "Business management consultant", "street": "Saket District Centre", "city": "District Centre", "phone": "", "website": "https://www.shuraa.in/", "rating": 4.9, "review_count": "", "latitude": 28.5188089, "longitude": 77.2264981, "maps_url": "https://www.google.com/maps/place/?q=place_id:0x390ce1f67cdf0da1:0x53f5a25940eb27b1"}, {"place_id": "0x390d1e468f7d999f:0x51b6337f3c5de23e", "name": "Smartechedu", "category": "Educational institution", "street": "135, IGNOU Rd", "city": "near HDFC bank", "phone": "", "website": "https://shareandaware.com/", "rating": 4.8, "review_count": "", "latitude": 28.506852799999997, "longitude": 77.19993579999999, "maps_url": "https://www.google.com/maps/place/?q=place_id:0x390d1e468f7d999f:0x51b6337f3c5de23e"}, {"place_id": "0x390ce456aaaaaaab:0x6e4e087895622564", "name": "Klasiinn", "category": "Software company", "street": "E-506, Inder Mohan Bhardwaj Marg", "city": "Block E, Greater Kailash II, Greater Kailash", "phone": "07827882870", "website": "http://klasiinn.in/", "rating": 5, "review_count": "", "latitude": 28.5358657, "longitude": 77.2384798, "maps_url": "https://www.google.com/maps/place/?q=place_id:0x390ce456aaaaaaab:0x6e4e087895622564"}, {"place_id": "0x390ce19b69a89b0f:0x5b5c42aea7ad4171", "name": "Dotflick", "category": "Consultant", "street": "62-A, Lane 2 Kehar Singh Estate", "city": "Westend Marg", "phone": "09871383058", "website": "http://www.dotflick.com/", "rating": 4.8, "review_count": "", "latitude": 28.517891199999998, "longitude": 77.19944869999999, "maps_url": "https://www.google.com/maps/place/?q=place_id:0x390ce19b69a89b0f:0x5b5c42aea7ad4171"}, {"place_id": "0x390ce1b674452737:0x522e9a99e2f3f649", "name": "SettleMint India Services Pvt Ltd", "category": "Corporate office", "street": "241, Westend Marg", "city": "Saidulajab, Mittal Garden, Sainik Farm", "phone": "", "website": "http://www.settlemint.com/", "rating": 5, "review_count": "", "latitude": 28.5158302, "longitude": 77.1959911, "maps_url": "https://www.google.com/maps/place/?q=place_id:0x390ce1b674452737:0x522e9a99e2f3f649"}, {"place_id": "0x390ce1e92eec0d49:0x8b4c598e70e40b8", "name": "Kito Infocom Pvt. Ltd", "category": "Internet marketing service", "street": "2nd Floor", "city": "B-38", "phone": "08826845665", "website": "https://kitoinfocom.com/", "rating": 4.6, "review_count": "", "latitude": 28.5302415, "longitude": 77.2719123, "maps_url": "https://www.google.com/maps/place/?q=place_id:0x390ce1e92eec0d49:0x8b4c598e70e40b8"}, {"place_id": "0x390ce1a34270de53:0x6914ab92257aa8af", "name": "Benstay", "category": "Website designer", "street": "C-151, Devli Rd", "city": "Pocket A, Jawahar Park, Khanpur", "phone": "09650715026", "website": "https://benstay.com/", "rating": 4.6, "review_count": "", "latitude": 28.5068645, "longitude": 77.23099189999999, "maps_url": "https://www.google.com/maps/place/?q=place_id:0x390ce1a34270de53:0x6914ab92257aa8af"}, {"place_id": "0x390ce12f3278e955:0xe7de7fb5e3fc26f5", "name": "Early Bird Squad", "category": "Event management company", "street": "C- 2", "city": "Pocket C, Raju Park, Khanpur", "phone": "09555634995", "website": "", "rating": 4.8, "review_count": "", "latitude": 28.5026434, "longitude": 77.2246165, "maps_url": "https://www.google.com/maps/place/?q=place_id:0x390ce12f3278e955:0xe7de7fb5e3fc26f5"}, {"place_id": "0x390d1ed3c6e9f579:0x322eccdb00f350d2", "name": "Techjockey", "category": "Software company", "street": "Ground floor, Habitat India", "city": "C-3", "phone": "01142213003", "website": "https://www.techjockey.com/", "rating": 4, "review_count": "", "latitude": 28.536615299999998, "longitude": 77.1902978, "maps_url": "https://www.google.com/maps/place/?q=place_id:0x390d1ed3c6e9f579:0x322eccdb00f350d2"}, {"place_id": "0x390ce24b3fffffff:0x9f587d89ba46604", "name": "Microchip Infotech Systems Private Limited", "category": "Software company", "street": "A 102", "city": "Amar Colony A Block, Block A, Lajpat Nagar 4, Lajpat Nagar", "phone": "01141324610", "website": "http://www.microchipindia.com/", "rating": 3.4, "review_count": "", "latitude": 28.561472499999997, "longitude": 77.2418012, "maps_url": "https://www.google.com/maps/place/?q=place_id:0x390ce24b3fffffff:0x9f587d89ba46604"}, {"place_id": "0x61679272b097afaf:0x2d8ff2b0d95a1e18", "name": "Busybots | RPA & Robotic Process Automation for Banking, Healthcare, AI Services & UiPath, Python Training in Delhi", "category": "Software company", "street": "1st Floor, D", "city": "25, 100 Feet Rd", "phone": "09315867465", "website": "https://www.busybots.in/", "rating": 5, "review_count": "", "latitude": 28.5055157, "longitude": 77.1852263, "maps_url": "https://www.google.com/maps/place/?q=place_id:0x61679272b097afaf:0x2d8ff2b0d95a1e18"}, {"place_id": "0x390ce23eeab015ab:0x92d6a7e8dbc46e1a", "name": "Odyssey Website Development Company", "category": "Website designer", "street": "B-59", "city": "Block B, Soami Nagar South, Soami Nagar", "phone": "09654486464", "website": "http://odysseyin.com/?utm_source=GMB&utm_medium=Organic&utm_term=Odyssey&utm_content=Listing&utm_campaign=GMB1", "rating": 3.6, "review_count": "", "latitude": 28.541823599999997, "longitude": 77.2262008, "maps_url": "https://www.google.com/maps/place/?q=place_id:0x390ce23eeab015ab:0x92d6a7e8dbc46e1a"}, {"place_id": "0x390ce1be890787cb:0x58431594e05da9ec", "name": "Raheja House", "category": "Corporate office", "street": "Central Ave", "city": "Block E, Sainik Farm", "phone": "", "website": "http://www.raheja.com/", "rating": 3.6, "review_count": "", "latitude": 28.506058399999997, "longitude": 77.2223365, "maps_url": "https://www.google.com/maps/place/?q=place_id:0x390ce1be890787cb:0x58431594e05da9ec"}, {"place_id": "0x390ce1462df4eec3:0x5c81469925a0fc29", "name": "SunRadiance Technologies Pvt Ltd", "category": "Solar Energy Company", "street": "B-15, Devli Rd", "city": "opposite Red Tape Showroom", "phone": "08285858535", "website": "http://www.sunradiance.in/", "rating": 5, "review_count": "", "latitude": 28.5096737, "longitude": 77.2320506, "maps_url": "https://www.google.com/maps/place/?q=place_id:0x390ce1462df4eec3:0x5c81469925a0fc29"}, {"place_id": "0x390ce1bf633be857:0xe00f94d6cdde001e", "name": "Teaffaire", "category": "Tea house", "street": "W-5D/5 WESTERN AVENUE SAINIK FARMS", "city": "New Delhi, Delhi 110080", "phone": "09899808999", "website": "https://www.amazon.in/s?marketplaceID=A21TJRUUN4KGV&me=A3OLCCB9HUAM9J&merchant=A3OLCCB9HUAM9J&redirect=true", "rating": 4.5, "review_count": "", "latitude": 28.5030707, "longitude": 77.2192144, "maps_url": "https://www.google.com/maps/place/?q=place_id:0x390ce1bf633be857:0xe00f94d6cdde001e"}, {"place_id": "0x390ce13fbd6112a1:0xc9e836d86582fc6d", "name": "Taxpot Business Solution-Company Registration, CA & CS Services", "category": "Chartered accountant", "street": "Second Floor", "city": "Pilli Kothi", "phone": "07827455193", "website": "http://www.newcompanyregistrationdelhi.in/", "rating": 5, "review_count": "", "latitude": 28.508529499999998, "longitude": 77.2273353, "maps_url": "https://www.google.com/maps/place/?q=place_id:0x390ce13fbd6112a1:0xc9e836d86582fc6d"}, {"place_id": "0x390ce1eb97206b71:0x13a9b777a272547b", "name": "AMPL", "category": "Business administration service", "street": "198, Cariappa Marg", "city": "City Forest Hauzrani, Sainik Farm", "phone": "09716889528", "website": "https://alkof.com/", "rating": 4.4, "review_count": "", "latitude": 28.5128071, "longitude": 77.2138387, "maps_url": "https://www.google.com/maps/place/?q=place_id:0x390ce1eb97206b71:0x13a9b777a272547b"}, {"place_id": "0x390ce21c24e85b2f:0xf80cd35fedbc3cea", "name": "Cyberspace Networking Systems (P) Ltd.", "category": "Website designer", "street": "NIL-36C, Shvalik, DDA Flats, Malviya Nagar", "city": "New Delhi, Delhi 110017", "phone": "01141892901", "website": "http://www.cyberspace.in/", "rating": 3.9, "review_count": "", "latitude": 28.534816, "longitude": 77.21120789999999, "maps_url": "https://www.google.com/maps/place/?q=place_id:0x390ce21c24e85b2f:0xf80cd35fedbc3cea"}, {"place_id": "0x390ce1fb51000005:0x7a6e84a45ea4ca68", "name": "SAWERI URJA Pvt. Ltd.", "category": "Solar Energy Company", "street": "Saiyad ul Ajaib, Sainik Farm", "city": "New Delhi, Delhi 110030", "phone": "09549889644", "website": "http://www.saweriurja.com/", "rating": 4.9, "review_count": "", "latitude": 28.5192205, "longitude": 77.2009205, "maps_url": "https://www.google.com/maps/place/?q=place_id:0x390ce1fb51000005:0x7a6e84a45ea4ca68"}, {"place_id": "0x390ce1db87a55681:0x3ed43e2a189abcb9", "name": "Wisdom Techseal Private Limited", "category": "Civil engineering company", "street": "Freedom Fighter Cultural Center", "city": "B-1 (GF, IGNOU Rd", "phone": "07011673568", "website": "http://wisdomtechseal.com/", "rating": 3.7, "review_count": "", "latitude": 28.5103755, "longitude": 77.2011216, "maps_url": "https://www.google.com/maps/place/?q=place_id:0x390ce1db87a55681:0x3ed43e2a189abcb9"}, {"place_id": "0x390ce3c577996141:0x6f0e309d0c4c2de1", "name": "Eagle Information Systems Pvt. Ltd.", "category": "Computer support and services", "street": "Madhuban Building", "city": "705", "phone": "09818188012", "website": "http://www.eagle.in/", "rating": 4.5, "review_count": "", "latitude": 28.5486501, "longitude": 77.2520914, "maps_url": "https://www.google.com/maps/place/?q=place_id:0x390ce3c577996141:0x6f0e309d0c4c2de1"}, {"place_id": "0x8335ecf853715cbf:0x10d99fb1fba2b0a8", "name": "Oceonic IT Solution Pvt Ltd", "category": "Software company", "street": "C14 C Block", "city": "JVTS Garden, Block A1, Chhatarpur", "phone": "08874000083", "website": "https://www.oceonic.co/", "rating": 3, "review_count": "", "latitude": 28.496824699999998, "longitude": 77.1828704, "maps_url": "https://www.google.com/maps/place/?q=place_id:0x8335ecf853715cbf:0x10d99fb1fba2b0a8"}, {"place_id": "0x390ce1322649123b:0xc2adb24232de287f", "name": "V Design Wonders", "category": "Website designer", "street": "Ras Vilas", "city": "Sainik Farms Colony, Sainik Farm", "phone": "09289293286", "website": "https://vdesignwonders.com/", "rating": 5, "review_count": "", "latitude": 28.509578299999998, "longitude": 77.2239566, "maps_url": "https://www.google.com/maps/place/?q=place_id:0x390ce1322649123b:0xc2adb24232de287f"}, {"place_id": "0x390ce3c598407061:0xa2f861b330a8229c", "name": "Nexgen Techtronics Pvt Ltd", "category": "Computer service", "street": "109 A", "city": "49-50", "phone": "08588814701", "website": "http://www.ntpl.co.in/", "rating": 4.7, "review_count": "", "latitude": 28.549304499999998, "longitude": 77.2514264, "maps_url": "https://www.google.com/maps/place/?q=place_id:0x390ce3c598407061:0xa2f861b330a8229c"}, {"place_id": "0x390ce24b3fffffff:0x9f587d89ba46604", "name": "Microchip Infotech Systems Private Limited", "category": "Software company", "street": "A 102", "city": "Amar Colony A Block, Block A, Lajpat Nagar 4, Lajpat Nagar", "phone": "01141324610", "website": "http://www.microchipindia.com/", "rating": 3.4, "review_count": "", "latitude": 28.561472499999997, "longitude": 77.2418012, "maps_url": "https://www.google.com/maps/place/?q=place_id:0x390ce24b3fffffff:0x9f587d89ba46604"}, {"place_id": "0x61679272b097afaf:0x2d8ff2b0d95a1e18", "name": "Busybots | RPA & Robotic Process Automation for Banking, Healthcare, AI Services & UiPath, Python Training in Delhi", "category": "Software company", "street": "1st Floor, D", "city": "25, 100 Feet Rd", "phone": "09315867465", "website": "https://www.busybots.in/", "rating": 5, "review_count": "", "latitude": 28.5055157, "longitude": 77.1852263, "maps_url": "https://www.google.com/maps/place/?q=place_id:0x61679272b097afaf:0x2d8ff2b0d95a1e18"}, {"place_id": "0x390ce23eeab015ab:0x92d6a7e8dbc46e1a", "name": "Odyssey Website Development Company", "category": "Website designer", "street": "B-59", "city": "Block B, Soami Nagar South, Soami Nagar", "phone": "09654486464", "website": "http://odysseyin.com/?utm_source=GMB&utm_medium=Organic&utm_term=Odyssey&utm_content=Listing&utm_campaign=GMB1", "rating": 3.6, "review_count": "", "latitude": 28.541823599999997, "longitude": 77.2262008, "maps_url": "https://www.google.com/maps/place/?q=place_id:0x390ce23eeab015ab:0x92d6a7e8dbc46e1a"}, {"place_id": "0x390ce1be890787cb:0x58431594e05da9ec", "name": "Raheja House", "category": "Corporate office", "street": "Central Ave", "city": "Block E, Sainik Farm", "phone": "", "website": "http://www.raheja.com/", "rating": 3.6, "review_count": "", "latitude": 28.506058399999997, "longitude": 77.2223365, "maps_url": "https://www.google.com/maps/place/?q=place_id:0x390ce1be890787cb:0x58431594e05da9ec"}, {"place_id": "0x390ce1462df4eec3:0x5c81469925a0fc29", "name": "SunRadiance Technologies Pvt Ltd", "category": "Solar Energy Company", "street": "B-15, Devli Rd", "city": "opposite Red Tape Showroom", "phone": "08285858535", "website": "http://www.sunradiance.in/", "rating": 5, "review_count": "", "latitude": 28.5096737, "longitude": 77.2320506, "maps_url": "https://www.google.com/maps/place/?q=place_id:0x390ce1462df4eec3:0x5c81469925a0fc29"}, {"place_id": "0x390ce1bf633be857:0xe00f94d6cdde001e", "name": "Teaffaire", "category": "Tea house", "street": "W-5D/5 WESTERN AVENUE SAINIK FARMS", "city": "New Delhi, Delhi 110080", "phone": "09899808999", "website": "https://www.amazon.in/s?marketplaceID=A21TJRUUN4KGV&me=A3OLCCB9HUAM9J&merchant=A3OLCCB9HUAM9J&redirect=true", "rating": 4.5, "review_count": "", "latitude": 28.5030707, "longitude": 77.2192144, "maps_url": "https://www.google.com/maps/place/?q=place_id:0x390ce1bf633be857:0xe00f94d6cdde001e"}, {"place_id": "0x390ce1361c1d0ec9:0xaf1e699c9ad610ca", "name": "VIRMANI SOFTWARE & HARDWARE SOLUTION", "category": "Computer Hardware Company", "street": "F1/67", "city": "Block F 2, Sangam Vihar", "phone": "", "website": "", "rating": 5, "review_count": "", "latitude": 28.502211499999998, "longitude": 77.2441462, "maps_url": "https://www.google.com/maps/place/?q=place_id:0x390ce1361c1d0ec9:0xaf1e699c9ad610ca"}, {"place_id": "0x390ce13fbd6112a1:0xc9e836d86582fc6d", "name": "Taxpot Business Solution-Company Registration, CA & CS Services", "category": "Chartered accountant", "street": "Second Floor", "city": "Pilli Kothi", "phone": "07827455193", "website": "http://www.newcompanyregistrationdelhi.in/", "rating": 5, "review_count": "", "latitude": 28.508529499999998, "longitude": 77.2273353, "maps_url": "https://www.google.com/maps/place/?q=place_id:0x390ce13fbd6112a1:0xc9e836d86582fc6d"}, {"place_id": "0x390ce1eb97206b71:0x13a9b777a272547b", "name": "AMPL", "category": "Business administration service", "street": "198, Cariappa Marg", "city": "City Forest Hauzrani, Sainik Farm", "phone": "09716889528", "website": "https://alkof.com/", "rating": 4.4, "review_count": "", "latitude": 28.5128071, "longitude": 77.2138387, "maps_url": "https://www.google.com/maps/place/?q=place_id:0x390ce1eb97206b71:0x13a9b777a272547b"}, {"place_id": "0x390ce21c24e85b2f:0xf80cd35fedbc3cea", "name": "Cyberspace Networking Systems (P) Ltd.", "category": "Website designer", "street": "NIL-36C, Shvalik, DDA Flats, Malviya Nagar", "city": "New Delhi, Delhi 110017", "phone": "01141892901", "website": "http://www.cyberspace.in/", "rating": 3.9, "review_count": "", "latitude": 28.534816, "longitude": 77.21120789999999, "maps_url": "https://www.google.com/maps/place/?q=place_id:0x390ce21c24e85b2f:0xf80cd35fedbc3cea"}, {"place_id": "0x390ce1fb51000005:0x7a6e84a45ea4ca68", "name": "SAWERI URJA Pvt. Ltd.", "category": "Solar Energy Company", "street": "Saiyad ul Ajaib, Sainik Farm", "city": "New Delhi, Delhi 110030", "phone": "09549889644", "website": "http://www.saweriurja.com/", "rating": 4.9, "review_count": "", "latitude": 28.5192205, "longitude": 77.2009205, "maps_url": "https://www.google.com/maps/place/?q=place_id:0x390ce1fb51000005:0x7a6e84a45ea4ca68"}, {"place_id": "0x390ce1db87a55681:0x3ed43e2a189abcb9", "name": "Wisdom Techseal Private Limited", "category": "Civil engineering company", "street": "Freedom Fighter Cultural Center", "city": "B-1 (GF, IGNOU Rd", "phone": "07011673568", "website": "http://wisdomtechseal.com/", "rating": 3.7, "review_count": "", "latitude": 28.5103755, "longitude": 77.2011216, "maps_url": "https://www.google.com/maps/place/?q=place_id:0x390ce1db87a55681:0x3ed43e2a189abcb9"}, {"place_id": "0x390ce3c577996141:0x6f0e309d0c4c2de1", "name": "Eagle Information Systems Pvt. Ltd.", "category": "Computer support and services", "street": "Madhuban Building", "city": "705", "phone": "09818188012", "website": "http://www.eagle.in/", "rating": 4.5, "review_count": "", "latitude": 28.5486501, "longitude": 77.2520914, "maps_url": "https://www.google.com/maps/place/?q=place_id:0x390ce3c577996141:0x6f0e309d0c4c2de1"}, {"place_id": "0x8335ecf853715cbf:0x10d99fb1fba2b0a8", "name": "Oceonic IT Solution Pvt Ltd", "category": "Software company", "street": "C14 C Block", "city": "JVTS Garden, Block A1, Chhatarpur", "phone": "08874000083", "website": "https://www.oceonic.co/", "rating": 3, "review_count": "", "latitude": 28.496824699999998, "longitude": 77.1828704, "maps_url": "https://www.google.com/maps/place/?q=place_id:0x8335ecf853715cbf:0x10d99fb1fba2b0a8"}, {"place_id": "0x390ce1322649123b:0xc2adb24232de287f", "name": "V Design Wonders", "category": "Website designer", "street": "Ras Vilas", "city": "Sainik Farms Colony, Sainik Farm", "phone": "09289293286", "website": "https://vdesignwonders.com/", "rating": 5, "review_count": "", "latitude": 28.509578299999998, "longitude": 77.2239566, "maps_url": "https://www.google.com/maps/place/?q=place_id:0x390ce1322649123b:0xc2adb24232de287f"}, {"place_id": "0x390ce3c598407061:0xa2f861b330a8229c", "name": "Nexgen Techtronics Pvt Ltd", "category": "Computer service", "street": "109 A", "city": "49-50", "phone": "08588814701", "website": "http://www.ntpl.co.in/", "rating": 4.7, "review_count": "", "latitude": 28.549304499999998, "longitude": 77.2514264, "maps_url": "https://www.google.com/maps/place/?q=place_id:0x390ce3c598407061:0xa2f861b330a8229c"}, {"place_id": "0x390ce1be2d2a7377:0x5020cce4790298e1", "name": "AJWA KAIF PVT LTD", "category": "Computer support and services", "street": "Ground Floor", "city": "Khirki Vill", "phone": "01142502100", "website": "https://www.ajwakaif.com/", "rating": 5, "review_count": "", "latitude": 28.5309287, "longitude": 77.2194186, "maps_url": "https://www.google.com/maps/place/?q=place_id:0x390ce1be2d2a7377:0x5020cce4790298e1"}, {"place_id": "0x390ce3c55c032d59:0x87699e5f0de3fe1c", "name": "Protosoft Technologies", "category": "Software company", "street": "508-509 5th Floor", "city": "Modi Tower", "phone": "09664278364", "website": "https://protosofttechnologies.com/", "rating": 3.4, "review_count": "", "latitude": 28.547665, "longitude": 77.2523873, "maps_url": "https://www.google.com/maps/place/?q=place_id:0x390ce3c55c032d59:0x87699e5f0de3fe1c"}, {"place_id": "0x390d04d9c62ecba9:0xac7a8b4e3f5338e8", "name": "Original Products Private Limited", "category": "Manufacturer", "street": "School Rd", "city": "Shiv Park, Khanpur Village, Khanpur", "phone": "08860597553", "website": "http://www.opplin.com/", "rating": 3.7, "review_count": "", "latitude": 28.5108046, "longitude": 77.2285868, "maps_url": "https://www.google.com/maps/place/?q=place_id:0x390d04d9c62ecba9:0xac7a8b4e3f5338e8"}, {"place_id": "0x390ce17b21078715:0xf0dbf88df61f8955", "name": "Startup Club India | Company Registration & Accounting firm in Delhi", "category": "Consultant", "street": "Second Floor, Building. 641, Lane No. 5", "city": "Westend Marg", "phone": "09468065626", "website": "https://www.startupclubindia.com/", "rating": 4.9, "review_count": "", "latitude": 28.5168462, "longitude": 77.1981155, "maps_url": "https://www.google.com/maps/place/?q=place_id:0x390ce17b21078715:0xf0dbf88df61f8955"}]}