{"timestamp": 1773735053.9416764, "keyword": "IT company", "location": "Indore", "cell_idx": 161, "results": [{"place_id": "0x3963179ba819d679:0x97d67928bba81e05", "name": "ITGeeks Technologies Pvt. Ltd.", "category": "Software company", "street": "ITGeeks Technologies Pvt. Ltd", "city": "02, Yamuna nagar", "phone": "09179880603", "website": "http://www.itgeeks.com/", "rating": 4.6, "review_count": "", "latitude": 22.9538781, "longitude": 76.03808699999999, "maps_url": "https://www.google.com/maps/place/?q=place_id:0x3963179ba819d679:0x97d67928bba81e05"}, {"place_id": "0x39631780e5eb3c53:0xfc15871ccdfd3ccb", "name": "PebblePot Technologies Private Limited", "category": "Software company", "street": "04 Harshal Manglik Bhawan", "city": "AB Rd", "phone": "07898661161", "website": "https://www.pebblepot.in/", "rating": 4.7, "review_count": "", "latitude": 22.966351799999998, "longitude": 76.0499313, "maps_url": "https://www.google.com/maps/place/?q=place_id:0x39631780e5eb3c53:0xfc15871ccdfd3ccb"}, {"place_id": "0x39631d62557ed507:0x5dc2b67a2ba7971a", "name": "Royal IT Service - IT Company in Indore", "category": "Software company", "street": "426 Scheme No. 114 Part 2", "city": "Anurag Nagar Ln", "phone": "09285192850", "website": "http://royalitservice.com/", "rating": 4.3, "review_count": "", "latitude": 22.7622528, "longitude": 75.9022899, "maps_url": "https://www.google.com/maps/place/?q=place_id:0x39631d62557ed507:0x5dc2b67a2ba7971a"}, {"place_id": "0x3962fd6d5c629411:0x1d5537feb843f85e", "name": "WebCraft IT", "category": "Software company", "street": "96-FB, Sch.94, Near Pipliyahana Square", "city": "Eastern Ring Rd", "phone": "07314959456", "website": "https://webcraft.co.in/", "rating": 4.3, "review_count": "", "latitude": 22.712849199999997, "longitude": 75.9063407, "maps_url": "https://www.google.com/maps/place/?q=place_id:0x3962fd6d5c629411:0x1d5537feb843f85e"}, {"place_id": "0x396317edff48b3f5:0xc5c058b66ca61b0c", "name": "OminiFlow Enterprises - WhatsApp Api Provider, ChatBot, RealState lead Automation, Business Growth", "category": "Software company", "street": "18", "city": "Kalani Bagh, Tarani Colony, Pachunkar Colony, Ram Nagar", "phone": "09755332357", "website": "", "rating": 4.9, "review_count": "", "latitude": 22.962981799999998, "longitude": 76.0456596, "maps_url": "https://www.google.com/maps/place/?q=place_id:0x396317edff48b3f5:0xc5c058b66ca61b0c"}, {"place_id": "0x39631da0239602ff:0xa13448656bdbfa7a", "name": "Softsnare Technologies | IT Company | Software Company in Indore", "category": "Software company", "street": "R-353", "city": "Sector R, Mahalaxmi Nagar", "phone": "06264741175", "website": "http://www.softsnare.com/", "rating": 4.6, "review_count": "", "latitude": 22.758209299999997, "longitude": 75.9096251, "maps_url": "https://www.google.com/maps/place/?q=place_id:0x39631da0239602ff:0xa13448656bdbfa7a"}, {"place_id": "0x3963171787e17b59:0x307a92533e921d11", "name": "Edithtech Softwares", "category": "Software company", "street": "44", "city": "Shourya Complex", "phone": "09109260321", "website": "https://edithtechsoftwares.com/", "rating": 4.8, "review_count": "", "latitude": 22.9547074, "longitude": 76.0365456, "maps_url": "https://www.google.com/maps/place/?q=place_id:0x3963171787e17b59:0x307a92533e921d11"}, {"place_id": "0x39631772fb57fa4d:0x1aeaaccddfab1b64", "name": "ITWEBINFO", "category": "Software company", "street": "103", "city": "Shivaji Nagar, Moti Bunglow", "phone": "07582995555", "website": "http://itwebinfo.com/", "rating": 5, "review_count": "", "latitude": 22.9710605, "longitude": 76.0480532, "maps_url": "https://www.google.com/maps/place/?q=place_id:0x39631772fb57fa4d:0x1aeaaccddfab1b64"}, {"place_id": "0x39631d50a1dac501:0x6812a9e44b9f710a", "name": "Codizant IT Solutions", "category": "Software company", "street": "138 D", "city": "Scheme 134, Nipania", "phone": "09407553364", "website": "https://www.codizant.com/", "rating": 4.8, "review_count": "", "latitude": 22.7469036, "longitude": 75.9238661, "maps_url": "https://www.google.com/maps/place/?q=place_id:0x39631d50a1dac501:0x6812a9e44b9f710a"}, {"place_id": "0x3963179ca584a047:0xba87fc574f813753", "name": "Xlligent Softwares Pvt Ltd", "category": "Software company", "street": "111", "city": "near front of DCB Bank", "phone": "06261900209", "website": "https://www.xlligent-softwares.com/", "rating": 4.9, "review_count": "", "latitude": 22.9666632, "longitude": 76.0492101, "maps_url": "https://www.google.com/maps/place/?q=place_id:0x3963179ca584a047:0xba87fc574f813753"}, {"place_id": "0x3963177600d4efb5:0x33c81c908e54629c", "name": "Soham Web Solution - Web Development Company", "category": "Software company", "street": "Chamunda Complex", "city": "12, Civil Line", "phone": "07748018188", "website": "http://sohamsolution.com/", "rating": 4, "review_count": "", "latitude": 22.9648902, "longitude": 76.0480299, "maps_url": "https://www.google.com/maps/place/?q=place_id:0x3963177600d4efb5:0x33c81c908e54629c"}, {"place_id": "0x396302a8544ff46f:0x7c09afb7ae4f2c08", "name": "Conative IT Solutions Pvt. Ltd.", "category": "Software company", "street": "Office No. 608, 6th Floor", "city": "Airen Heights", "phone": "08269788173", "website": "https://conativeitsolutions.com/", "rating": 3.7, "review_count": "", "latitude": 22.745121299999997, "longitude": 75.89222699999999, "maps_url": "https://www.google.com/maps/place/?q=place_id:0x396302a8544ff46f:0x7c09afb7ae4f2c08"}, {"place_id": "0x39631dbc5e7d2a29:0x1c8746aae1d098c8", "name": "Logical Soft Tech Private Limited ( Software Development IT Company and Software IT training)", "category": "Software company", "street": "388, PU4", "city": "next to Krozzon Hotel", "phone": "08210251824", "website": "http://logicalsofttech.com/", "rating": 4.3, "review_count": "", "latitude": 22.747576, "longitude": 75.896326, "maps_url": "https://www.google.com/maps/place/?q=place_id:0x39631dbc5e7d2a29:0x1c8746aae1d098c8"}, {"place_id": "0x3962fdc6969403b1:0xde0646c82299c250", "name": "IT Spark Technology Pvt. Ltd.", "category": "Software company", "street": "4th Floor 418 Shekhar Central Manoramaganj", "city": "New Palasia", "phone": "09109845654", "website": "http://www.itsparktechnology.com/", "rating": 4.8, "review_count": "", "latitude": 22.722727, "longitude": 75.88707099999999, "maps_url": "https://www.google.com/maps/place/?q=place_id:0x3962fdc6969403b1:0xde0646c82299c250"}, {"place_id": "0x3962e35a406f4051:0x73250245ff2a3e50", "name": "TekIT Software Solutions - An IT Staff Augmentation & Managed Services Company", "category": "Software company", "street": "Samradhi Park 5", "city": "Chauhan Nagar", "phone": "09685308585", "website": "https://tekitsolution.com/", "rating": 4.5, "review_count": "", "latitude": 22.7024133, "longitude": 75.9094243, "maps_url": "https://www.google.com/maps/place/?q=place_id:0x3962e35a406f4051:0x73250245ff2a3e50"}, {"place_id": "0x3962fd480d635977:0x72f82e2825baa4f3", "name": "Mango IT Solutions", "category": "Software company", "street": "15/3, Old Palasia Rd", "city": "behind sarda house", "phone": "07314046693", "website": "http://www.mangoitsolutions.com/", "rating": 4.3, "review_count": "", "latitude": 22.7276298, "longitude": 75.8888766, "maps_url": "https://www.google.com/maps/place/?q=place_id:0x3962fd480d635977:0x72f82e2825baa4f3"}, {"place_id": "0x39631792ea7d9083:0xc90228718db1b1af", "name": "Sypnosis Technologies - IT Company.", "category": "Software company", "street": "2nd Floor", "city": "10", "phone": "09039239604", "website": "https://sypnosistechnologies.com/", "rating": "", "review_count": "", "latitude": 22.955443499999998, "longitude": 76.0369978, "maps_url": "https://www.google.com/maps/place/?q=place_id:0x39631792ea7d9083:0xc90228718db1b1af"}, {"place_id": "0x3963029cbe7dad9d:0x2702a5ef1ada853d", "name": "Vista IT Solutions Pvt. Ltd.", "category": "Software company", "street": "142-A, New IT Park building", "city": "Electronic Complex, Pardesipura", "phone": "", "website": "http://www.vitspl.com/", "rating": 4, "review_count": "", "latitude": 22.7532702, "longitude": 75.8653544, "maps_url": "https://www.google.com/maps/place/?q=place_id:0x3963029cbe7dad9d:0x2702a5ef1ada853d"}, {"place_id": "0x3962fd35e73d0c9f:0x20bfb80cfbe962fe", "name": "Ignis IT Solutions", "category": "Software company", "street": "406, 410", "city": "The Mark", "phone": "09977255575", "website": "http://www.ignisitsolutions.com/", "rating": 4.2, "review_count": "", "latitude": 22.725711, "longitude": 75.894176, "maps_url": "https://www.google.com/maps/place/?q=place_id:0x3962fd35e73d0c9f:0x20bfb80cfbe962fe"}, {"place_id": "0x3963178ff220a477:0x1f25eae0f1ef5a7d", "name": "Himanshu Softtech", "category": "Software company", "street": "4-A , agroha nagar , AB road", "city": "Dewas, Madhya Pradesh 455001", "phone": "09425919122", "website": "http://www.himanshusofttech.com/", "rating": 4.7, "review_count": "", "latitude": 22.9619793, "longitude": 76.0464191, "maps_url": "https://www.google.com/maps/place/?q=place_id:0x3963178ff220a477:0x1f25eae0f1ef5a7d"}, {"place_id": "0x3963029b14b59d97:0x2910f9065ca3612e", "name": "SynergyTop Inc", "category": "Software company", "street": "114 Ground Floor, IT Park", "city": "New IT Park Building", "phone": "07879123770", "website": "http://synergytop.com/", "rating": 4.6, "review_count": "", "latitude": 22.7522576, "longitude": 75.865411, "maps_url": "https://www.google.com/maps/place/?q=place_id:0x3963029b14b59d97:0x2910f9065ca3612e"}, {"place_id": "0x3962fce2f55ec489:0x92b2a8119dc6c125", "name": "MINDIII Systems Pvt. Ltd", "category": "Software company", "street": "501-504, Fifth Floor", "city": "Krishna tower", "phone": "09165613316", "website": "https://www.mindiii.com/", "rating": 4, "review_count": "", "latitude": 22.7051394, "longitude": 75.9090727, "maps_url": "https://www.google.com/maps/place/?q=place_id:0x3962fce2f55ec489:0x92b2a8119dc6c125"}, {"place_id": "0x396302b379920c87:0xae77c7696c44f45c", "name": "JTG_TECHNOLAB", "category": "Software company", "street": "40, Karoli nagar", "city": "near Kela Mata temple", "phone": "07974666953", "website": "https://jtgtechnolab.com/", "rating": 5, "review_count": "", "latitude": 22.9583767, "longitude": 76.0352805, "maps_url": "https://www.google.com/maps/place/?q=place_id:0x396302b379920c87:0xae77c7696c44f45c"}, {"place_id": "0x3962fd115f9bdb93:0x763ee98f66e77650", "name": "Young Decade IT Software Solution", "category": "Software company", "street": "office No 202, 2nd floor, Gracia Heights", "city": "Devi Ahilya Marg", "phone": "07987611372", "website": "http://www.youngdecade.com/", "rating": 4.7, "review_count": "", "latitude": 22.7279596, "longitude": 75.8631723, "maps_url": "https://www.google.com/maps/place/?q=place_id:0x3962fd115f9bdb93:0x763ee98f66e77650"}, {"place_id": "0x396317226b2c42df:0x47098e396f961017", "name": "Expound Coderz Private Limited", "category": "Software company", "street": "267", "city": "Ram Nagar Extension, Mishrilal Nagar, Ganga Nagar", "phone": "07415752727", "website": "https://expoundcoderz.com/", "rating": 4.8, "review_count": "", "latitude": 22.9577816, "longitude": 76.0379663, "maps_url": "https://www.google.com/maps/place/?q=place_id:0x396317226b2c42df:0x47098e396f961017"}, {"place_id": "0x3962fd319c598969:0xa4e99d10e653ecb8", "name": "Shanti Infosoft LLP - AI / Web and App Design And Development Company", "category": "Software company", "street": "1st - 3rd floor PU4", "city": "Plot no 70, Vijay Nagar Square", "phone": "09981225000", "website": "https://shantiinfosoft.com/", "rating": 4.7, "review_count": "", "latitude": 22.7437818, "longitude": 75.89660649999999, "maps_url": "https://www.google.com/maps/place/?q=place_id:0x3962fd319c598969:0xa4e99d10e653ecb8"}, {"place_id": "0x3963172b725b9649:0xca9958ddaa36af60", "name": "PixelNX", "category": "Software company", "street": "03", "city": "Bhartiya Grah Nirman Colony, Shivaji Nagar, Moti Bunglow", "phone": "09685829300", "website": "http://www.pixelnx.com/", "rating": 4.6, "review_count": "", "latitude": 22.967811299999997, "longitude": 76.0457447, "maps_url": "https://www.google.com/maps/place/?q=place_id:0x3963172b725b9649:0xca9958ddaa36af60"}, {"place_id": "0x3962fd539a99e26d:0x58058ec7f07ab479", "name": "Softude Infotech Pvt. Ltd.", "category": "Software company", "street": "14th Floor", "city": "Skye Corporate Park", "phone": "09303800613", "website": "https://www.softude.com/", "rating": 4.4, "review_count": "", "latitude": 22.7638708, "longitude": 75.8988577, "maps_url": "https://www.google.com/maps/place/?q=place_id:0x3962fd539a99e26d:0x58058ec7f07ab479"}, {"place_id": "0x3962fd558cb68b8f:0xa5df2c7d0568e24", "name": "BestPeers", "category": "Software company", "street": "Bestpeers InfoSystem Pvt. Ltd. 142-A, First Floor, New IT Park Building", "city": "Electronic Complex, Pardesipura", "phone": "07314984840", "website": "https://www.bestpeers.com/", "rating": 4.2, "review_count": "", "latitude": 22.7533355, "longitude": 75.86544339999999, "maps_url": "https://www.google.com/maps/place/?q=place_id:0x3962fd558cb68b8f:0xa5df2c7d0568e24"}, {"place_id": "0x3962fcc4b88b97ef:0x4f66ffd5f4437c1c", "name": "VKAPS IT Solutions Pvt. Ltd", "category": "Software company", "street": "Swadesh Bhawan", "city": "1-B, AB Rd", "phone": "07314239176", "website": "http://vkaps.com/", "rating": 4.7, "review_count": "", "latitude": 22.738246999999998, "longitude": 75.89278929999999, "maps_url": "https://www.google.com/maps/place/?q=place_id:0x3962fcc4b88b97ef:0x4f66ffd5f4437c1c"}, {"place_id": "0x3962fd3785155555:0x839d1e33ed814607", "name": "Abut Technology", "category": "Software company", "street": "Badwani plaza Building", "city": "19/2", "phone": "08839753153", "website": "http://www.abuttechnology.com/", "rating": 4.9, "review_count": "", "latitude": 22.7241476, "longitude": 75.88906949999999, "maps_url": "https://www.google.com/maps/place/?q=place_id:0x3962fd3785155555:0x839d1e33ed814607"}, {"place_id": "0x3962fd406f121e19:0x24de4839d9a8539c", "name": "bluCursor Infotech Pvt Ltd", "category": "Software company", "street": "315, 2nd Floor 142 A, Electronic Complex Pardesi Pura", "city": "Sukhliya", "phone": "09165304278", "website": "https://www.blucursor.com/", "rating": 4.6, "review_count": "", "latitude": 22.7524418, "longitude": 75.8654639, "maps_url": "https://www.google.com/maps/place/?q=place_id:0x3962fd406f121e19:0x24de4839d9a8539c"}, {"place_id": "0x3962fd06a3b128c1:0x9edfc9ae850bd40a", "name": "Jmbliss IT Solutions", "category": "Software company", "street": "Skye Corporate Park", "city": "1301, AB Rd", "phone": "07314288813", "website": "https://www.jmbliss.com/", "rating": 4.8, "review_count": "", "latitude": 22.7568318, "longitude": 75.89643819999999, "maps_url": "https://www.google.com/maps/place/?q=place_id:0x3962fd06a3b128c1:0x9edfc9ae850bd40a"}, {"place_id": "0x3962fcfd2ac6c2f3:0x84bcc6d5601300ef", "name": "TechInfini Solutions Pvt Ltd", "category": "Software company", "street": "Airen Heights", "city": "402", "phone": "09302974394", "website": "https://techinfini.in/", "rating": 4.3, "review_count": "", "latitude": 22.745121299999997, "longitude": 75.89222699999999, "maps_url": "https://www.google.com/maps/place/?q=place_id:0x3962fcfd2ac6c2f3:0x84bcc6d5601300ef"}, {"place_id": "0x39630306d5f55c83:0x45941e88b5eda4d8", "name": "Episeron Private Limited", "category": "Software company", "street": "H 1117", "city": "Rajiv Awas Vihar, Part I, Scheme No 114", "phone": "07974604975", "website": "http://episeron.com/", "rating": 4.9, "review_count": "", "latitude": 22.769620999999997, "longitude": 75.888701, "maps_url": "https://www.google.com/maps/place/?q=place_id:0x39630306d5f55c83:0x45941e88b5eda4d8"}, {"place_id": "0x39630290e555553f:0x3e3f56427ca41603", "name": "Software Company Indore Msorasys", "category": "Software company", "street": "6 radhika society , Scheme No 54", "city": "DDU Nagar, Sukhliya", "phone": "09630186161", "website": "", "rating": 5, "review_count": "", "latitude": 22.7615931, "longitude": 75.8692351, "maps_url": "https://www.google.com/maps/place/?q=place_id:0x39630290e555553f:0x3e3f56427ca41603"}, {"place_id": "0x3962fd23ffffff91:0x4f12a71cfd1a9c6f", "name": "Samyotech Software Solutions Pvt. Ltd.", "category": "Software company", "street": "1st Floor Pramukh Plaza", "city": "near Sajan Prabha Garden", "phone": "07869999639", "website": "http://samyotech.com/", "rating": 4.5, "review_count": "", "latitude": 22.7496656, "longitude": 75.89972829999999, "maps_url": "https://www.google.com/maps/place/?q=place_id:0x3962fd23ffffff91:0x4f12a71cfd1a9c6f"}, {"place_id": "0x39631781f7b0a2a7:0xe3e4f6269a463f9d", "name": "Hostihelp", "category": "Software company", "street": "237 SunCity 1", "city": "AB Rd", "phone": "09755688860", "website": "http://hostihelpservices.epizy.com/", "rating": 4.9, "review_count": "", "latitude": 22.9460408, "longitude": 76.02948649999999, "maps_url": "https://www.google.com/maps/place/?q=place_id:0x39631781f7b0a2a7:0xe3e4f6269a463f9d"}, {"place_id": "0x3962fd47fd6da719:0x27b869ecdc06d81", "name": "Impetus Technologies India Pvt. Ltd.", "category": "Software company", "street": "Sarda House", "city": "24-B", "phone": "07314269300", "website": "http://www.impetus.com/", "rating": 4.5, "review_count": "", "latitude": 22.7274711, "longitude": 75.888379, "maps_url": "https://www.google.com/maps/place/?q=place_id:0x3962fd47fd6da719:0x27b869ecdc06d81"}, {"place_id": "0x3962fd315b9b97b3:0x802fe3df65171895", "name": "Alphawizz Technologies Pvt. Ltd.", "category": "Software company", "street": "Plot Number 152, Ratanlok Colony", "city": "Scheme No 53", "phone": "08815399989", "website": "http://www.alphawizz.com/", "rating": 4.6, "review_count": "", "latitude": 22.7468373, "longitude": 75.8981886, "maps_url": "https://www.google.com/maps/place/?q=place_id:0x3962fd315b9b97b3:0x802fe3df65171895"}, {"place_id": "0x3963178ff220a477:0x51910ecd6deaed53", "name": "Cyber Elite Pvt Ltd.", "category": "Software company", "street": "226 LIG", "city": "Jawahar Nagar, Gomti Nagar", "phone": "07089899090", "website": "https://cyberelite.in/", "rating": 4.2, "review_count": "", "latitude": 22.953131199999998, "longitude": 76.0426221, "maps_url": "https://www.google.com/maps/place/?q=place_id:0x3963178ff220a477:0x51910ecd6deaed53"}, {"place_id": "0x3962fd144b8f674d:0x368e971cd0aedabc", "name": "AM Webtech Pvt Ltd.", "category": "Software company", "street": "BCC House", "city": "8/5/5", "phone": "08448449003", "website": "https://amwebtech.com/", "rating": 4.2, "review_count": "", "latitude": 22.7156013, "longitude": 75.8855232, "maps_url": "https://www.google.com/maps/place/?q=place_id:0x3962fd144b8f674d:0x368e971cd0aedabc"}, {"place_id": "0x396303d5f0171575:0x3da8cb17f6e36c79", "name": "Captain Infotech Pvt Ltd", "category": "Software company", "street": "Satya Sai Square, iBus stop", "city": "902 Skye Corporate park", "phone": "09074929734", "website": "https://thecaptaininfotech.com/", "rating": 5, "review_count": "", "latitude": 22.7639869, "longitude": 75.89903919999999, "maps_url": "https://www.google.com/maps/place/?q=place_id:0x396303d5f0171575:0x3da8cb17f6e36c79"}, {"place_id": "0x3962fd4a4404a3b1:0x7872c7444e47039f", "name": "IBR Infotech", "category": "Software company", "street": "IBR Infotech, Second Floor, A-Square ED-153, Scheme no.94, Sector D, ring road", "city": "near Khajrana square", "phone": "07400699956", "website": "https://www.ibrinfotech.com/", "rating": 4.4, "review_count": "", "latitude": 22.735993999999998, "longitude": 75.9025678, "maps_url": "https://www.google.com/maps/place/?q=place_id:0x3962fd4a4404a3b1:0x7872c7444e47039f"}, {"place_id": "0x3962fd7221978859:0xf7a3ac341920f06f", "name": "Parkhya Solutions Pvt. Ltd.", "category": "Software company", "street": "121, Devi Ahilya Marg", "city": "Sahakar Nagar, Snehlataganj", "phone": "", "website": "http://www.parkhya.com/", "rating": 4.4, "review_count": "", "latitude": 22.729563499999998, "longitude": 75.863581, "maps_url": "https://www.google.com/maps/place/?q=place_id:0x3962fd7221978859:0xf7a3ac341920f06f"}, {"place_id": "0x3962e2c99432dc5b:0x856ffb203358138", "name": "Golden Eagle IT Technologies", "category": "Software company", "street": "4th Floor", "city": "Plot No. 8", "phone": "09584309000", "website": "https://goldeneagle.ai/", "rating": 4.2, "review_count": "", "latitude": 22.747516599999997, "longitude": 75.8972604, "maps_url": "https://www.google.com/maps/place/?q=place_id:0x3962e2c99432dc5b:0x856ffb203358138"}, {"place_id": "0x39631736a0f7d871:0xf0f334accf365a3a", "name": "Ayat infotech", "category": "Software company", "street": "51", "city": "Anand nagar, Itawa", "phone": "09589981295", "website": "http://ayatinfotech.com/", "rating": 5, "review_count": "", "latitude": 22.9726128, "longitude": 76.05058269999999, "maps_url": "https://www.google.com/maps/place/?q=place_id:0x39631736a0f7d871:0xf0f334accf365a3a"}, {"place_id": "0x3962fd0671fe43ab:0x5a053d4150ac5792", "name": "Digiprima Technologies | Mobile App | Custom Software Development", "category": "Software company", "street": "PVXR+42Q, Om Gurudev Plaza", "city": "110", "phone": "09039928143", "website": "https://www.digiprima.com/", "rating": 4.6, "review_count": "", "latitude": 22.7478125, "longitude": 75.8900625, "maps_url": "https://www.google.com/maps/place/?q=place_id:0x3962fd0671fe43ab:0x5a053d4150ac5792"}, {"place_id": "0x3962fd129587df1d:0x45efb9d53409ccde", "name": "Technomatz IT Solutions Private Limited", "category": "Software company", "street": "Commercial", "city": "2nd Floor, Plot No. 159, Sch. No. 54", "phone": "07314866631", "website": "https://technomatz.com/", "rating": 4.4, "review_count": "", "latitude": 22.7446715, "longitude": 75.89622, "maps_url": "https://www.google.com/maps/place/?q=place_id:0x3962fd129587df1d:0x45efb9d53409ccde"}, {"place_id": "0x396317c3b78fb617:0xcad69c162e743e9", "name": "Farflung Technologies Pvt ltd", "category": "Software company", "street": "3 A", "city": "Pachunkar Colony, Panchsheel Nagar", "phone": "", "website": "https://farflungtechnologies.com/", "rating": 5, "review_count": "", "latitude": 22.9624773, "longitude": 76.0426938, "maps_url": "https://www.google.com/maps/place/?q=place_id:0x396317c3b78fb617:0xcad69c162e743e9"}, {"place_id": "0x3962fd0bbd8c165d:0xf3bbc58bdb8c77ca", "name": "Tcs victor building ITPL", "category": "Software company", "street": "3rd Floor, Plot Number 359", "city": "Scheme 54 PU4", "phone": "07314050227", "website": "http://www.idealittechno.com/", "rating": 3.7, "review_count": "", "latitude": 22.747061, "longitude": 75.89609899999999, "maps_url": "https://www.google.com/maps/place/?q=place_id:0x3962fd0bbd8c165d:0xf3bbc58bdb8c77ca"}, {"place_id": "0x39630396f8f29591:0x89941c1df2cc0c2e", "name": "Cerbosys Technologies Private Limited | Enterprise Solutions & IT Consulting", "category": "Software company", "street": "Trade Center", "city": "M 24, Jain Mandir Rd", "phone": "", "website": "https://www.cerbosys.com/", "rating": 4.7, "review_count": "", "latitude": 22.7215173, "longitude": 75.8831027, "maps_url": "https://www.google.com/maps/place/?q=place_id:0x39630396f8f29591:0x89941c1df2cc0c2e"}, {"place_id": "0x3962fd5c301b1de7:0xd50e7aa6dfc77b4c", "name": "Webkorps Services India Private Limited", "category": "Software company", "street": "4th Floor", "city": "Winway world offices", "phone": "", "website": "https://www.webkorps.com/", "rating": 4.4, "review_count": "", "latitude": 22.7535445, "longitude": 75.8983646, "maps_url": "https://www.google.com/maps/place/?q=place_id:0x3962fd5c301b1de7:0xd50e7aa6dfc77b4c"}, {"place_id": "0x3963177f0bb72c01:0x7dc0fc1caf36fcb", "name": "Adroit Technosoft", "category": "Software company", "street": "2nd floor, sri sawariya complex", "city": "AB Rd", "phone": "09713000193", "website": "https://adroittechnosoft.in/", "rating": 4.3, "review_count": "", "latitude": 22.9666878, "longitude": 76.0494731, "maps_url": "https://www.google.com/maps/place/?q=place_id:0x3963177f0bb72c01:0x7dc0fc1caf36fcb"}, {"place_id": "0x3962e2ce8d0c8e49:0xdc163b3f996ee4c", "name": "NWAY Technologies Pvt. Ltd. | Best ERP Software in Indore | ERP Software in Indore | Construction ERP Software in India", "category": "Software company", "street": "Solitaire Park", "city": "298", "phone": "", "website": "https://www.nwayerp.com/", "rating": 4.5, "review_count": "", "latitude": 22.7593633, "longitude": 75.9380312, "maps_url": "https://www.google.com/maps/place/?q=place_id:0x3962e2ce8d0c8e49:0xdc163b3f996ee4c"}, {"place_id": "0x3962e2ce2f47899b:0x9f44070e6f8cca45", "name": "Techwave IT Solutions Pvt Ltd", "category": "Software company", "street": "Bhopal Motors JCB", "city": "near Panchvati", "phone": "09009155444", "website": "http://techwaveitsolutions.com/", "rating": 4.6, "review_count": "", "latitude": 22.7920648, "longitude": 75.9074073, "maps_url": "https://www.google.com/maps/place/?q=place_id:0x3962e2ce2f47899b:0x9f44070e6f8cca45"}, {"place_id": "0x396303818a953817:0xf67c56bdd73dbf71", "name": "InfiminTus Technologies - Website Design, Application and Software Development IT Company", "category": "Website designer", "street": "2nd Floor", "city": "Chetak Chamber", "phone": "09754316154", "website": "https://infimintustech.com/", "rating": 4.4, "review_count": "", "latitude": 22.7128428, "longitude": 75.8758618, "maps_url": "https://www.google.com/maps/place/?q=place_id:0x396303818a953817:0xf67c56bdd73dbf71"}, {"place_id": "0x39631d45471322b1:0xef446c3272c938cd", "name": "Vsple Technologies Pvt. Ltd.", "category": "Software company", "street": "702 Skye Corporate Park, Plot no. 25 Scheme no. 78", "city": "AB Rd", "phone": "07314674304", "website": "https://vsple.com/", "rating": 5, "review_count": "", "latitude": 22.7639674, "longitude": 75.8986918, "maps_url": "https://www.google.com/maps/place/?q=place_id:0x39631d45471322b1:0xef446c3272c938cd"}, {"place_id": "0x3962fd558b664649:0x8d0acd9f8082bfa8", "name": "ABIT CORP", "category": "Software company", "street": "345,P Plaza Square, Kanadia Bypass", "city": "Main Rd", "phone": "09893298123", "website": "https://www.abitcorp.com/", "rating": 4.5, "review_count": "", "latitude": 22.7245807, "longitude": 75.92063499999999, "maps_url": "https://www.google.com/maps/place/?q=place_id:0x3962fd558b664649:0x8d0acd9f8082bfa8"}, {"place_id": "0x3962fd40a62b9225:0x1dcbe63ab6cdfa6b", "name": "ThirdEssential IT Solutions Pvt. Ltd.", "category": "Software company", "street": "SR Villa", "city": "155, MR-1", "phone": "09993344255", "website": "http://www.thirdessential.com/", "rating": 4.2, "review_count": "", "latitude": 22.7540998, "longitude": 75.9129564, "maps_url": "https://www.google.com/maps/place/?q=place_id:0x3962fd40a62b9225:0x1dcbe63ab6cdfa6b"}, {"place_id": "0x3962fd19c553ee35:0x764cedb2503060d6", "name": "ThinkDebug Indore", "category": "Software company", "street": "301,302", "city": "Shanti Corporate 116", "phone": "09098002268", "website": "https://thinkdebug.com/", "rating": 4.9, "review_count": "", "latitude": 22.702656299999997, "longitude": 75.87068699999999, "maps_url": "https://www.google.com/maps/place/?q=place_id:0x3962fd19c553ee35:0x764cedb2503060d6"}, {"place_id": "0x3962e2cbd98f0bf7:0xbafbbde339deec8a", "name": "i-SOFTZONE - Software Development Company", "category": "Software company", "street": "Shagun Arcade", "city": "Vijay Nagar Square", "phone": "07415664456", "website": "http://www.isoftzone.com/", "rating": 4, "review_count": "", "latitude": 22.749023299999998, "longitude": 75.8953915, "maps_url": "https://www.google.com/maps/place/?q=place_id:0x3962e2cbd98f0bf7:0xbafbbde339deec8a"}, {"place_id": "0x3962fd5f08d732d1:0x1a5c3ac4c26c1ace", "name": "BridgeFix Technology Private Limited", "category": "Software company", "street": "389-390", "city": "Vijay Nagar, Scheme 54 PU4", "phone": "09425960946", "website": "", "rating": 4.3, "review_count": "", "latitude": 22.7475119, "longitude": 75.8966706, "maps_url": "https://www.google.com/maps/place/?q=place_id:0x3962fd5f08d732d1:0x1a5c3ac4c26c1ace"}, {"place_id": "0x39631d55cb5efbc3:0xfbf17bbed2c95ca5", "name": "SoftGetix - IT Staff Augmentation Services", "category": "Software company", "street": "519", "city": "Shagun Tower", "phone": "07314002699", "website": "https://softgetix.com/", "rating": 4.1, "review_count": "", "latitude": 22.7497081, "longitude": 75.89555829999999, "maps_url": "https://www.google.com/maps/place/?q=place_id:0x39631d55cb5efbc3:0xfbf17bbed2c95ca5"}, {"place_id": "0x3963029d00000001:0x5f6e7fce2e45988b", "name": "DXC Technology", "category": "Software company", "street": "4th & 5th Floor, Brilliant Titanium", "city": "Plot No. 9, Scheme 78, Part II", "phone": "07314430666", "website": "http://dxc.technology/", "rating": 4.1, "review_count": "", "latitude": 22.763708899999997, "longitude": 75.8834308, "maps_url": "https://www.google.com/maps/place/?q=place_id:0x3963029d00000001:0x5f6e7fce2e45988b"}, {"place_id": "0x3962fd544d612ce9:0x61c0acb58c7eef7f", "name": "Lemosys - Web Designing & Development | IT Staff Augmentation Company", "category": "Software company", "street": "Plot 169, Scheme 78,Part II", "city": "Behind Kanak Hospital", "phone": "07314091887", "website": "https://www.lemosys.com/?utm_source=gmb&utm_medium=referral", "rating": 4.3, "review_count": "", "latitude": 22.764789999999998, "longitude": 75.886524, "maps_url": "https://www.google.com/maps/place/?q=place_id:0x3962fd544d612ce9:0x61c0acb58c7eef7f"}, {"place_id": "0x3963029b81c0ed53:0x5879b13e0ef427bd", "name": "EMPOWER INTEGRATED SOLUTIONS (P) LTD.", "category": "Software company", "street": "IT Park, New IT Park Building", "city": "Office No. 110, Ground Floor Right Wing", "phone": "09826027230", "website": "http://www.empower-solutions.com/", "rating": 4.3, "review_count": "", "latitude": 22.7526512, "longitude": 75.8653411, "maps_url": "https://www.google.com/maps/place/?q=place_id:0x3963029b81c0ed53:0x5879b13e0ef427bd"}, {"place_id": "0x3963173c14b63e79:0x65b66e0752b01a8c", "name": "Techconqueror \u2013 Software & IT Services", "category": "Software company", "street": "528 EWS", "city": "Mukherjee Nagar, Anukul Nagar", "phone": "08982396663", "website": "https://techconqueror.com/", "rating": 4.9, "review_count": "", "latitude": 22.971609599999997, "longitude": 76.0386747, "maps_url": "https://www.google.com/maps/place/?q=place_id:0x3963173c14b63e79:0x65b66e0752b01a8c"}, {"place_id": "0x3962fd569c206d9f:0x40de67f329c8afd7", "name": "Canopus Infosystems Private Limited", "category": "Software company", "street": "Office no. 203, 2nd Floor", "city": "Princes Business Skypark", "phone": "07312551963", "website": "https://www.canopusinfosystems.com/", "rating": 3.8, "review_count": "", "latitude": 22.7458507, "longitude": 75.8930609, "maps_url": "https://www.google.com/maps/place/?q=place_id:0x3962fd569c206d9f:0x40de67f329c8afd7"}, {"place_id": "0x3962fd16933a8487:0xb5856b3bc9e32f8b", "name": "Infowind Technologies | Top Mobile App Development Company in India | Hire Developers in React Native, Node.js, & React.js", "category": "Software company", "street": "804", "city": "Shekhar central", "phone": "07314108634", "website": "https://www.infowindtech.com/", "rating": 4.5, "review_count": "", "latitude": 22.722858499999997, "longitude": 75.8867946, "maps_url": "https://www.google.com/maps/place/?q=place_id:0x3962fd16933a8487:0xb5856b3bc9e32f8b"}, {"place_id": "0x3962fd380ebca3b3:0x9ccc6ea708a0fa2c", "name": "GraffersID - IT Staff Augmentation Company", "category": "Software company", "street": "816 Shekhar Central Palasia", "city": "Square", "phone": "07314915234", "website": "https://graffersid.com/?utm_source=Google+Organic&utm_medium=gmb&utm_campaign=home", "rating": 4.3, "review_count": "", "latitude": 22.7227168, "longitude": 75.8871544, "maps_url": "https://www.google.com/maps/place/?q=place_id:0x3962fd380ebca3b3:0x9ccc6ea708a0fa2c"}, {"place_id": "0x3962fd457f5260fd:0xcd2c51a579c7db5", "name": "Codiant Software Technologies", "category": "Software company", "street": "101", "city": "Bansi Trade Centre", "phone": "07314032967", "website": "https://codiant.com/", "rating": 4.5, "review_count": "", "latitude": 22.7236461, "longitude": 75.8816631, "maps_url": "https://www.google.com/maps/place/?q=place_id:0x3962fd457f5260fd:0xcd2c51a579c7db5"}, {"place_id": "0x3962fd3947eaaaab:0xb1bf95e1bf846118", "name": "Pixler IT Solution Pvt Ltd", "category": "Software company", "street": "1st Floor", "city": "Pipliyahana Rd", "phone": "07314022124", "website": "http://www.pixlritllc.com/", "rating": 3.8, "review_count": "", "latitude": 22.7079831, "longitude": 75.9133998, "maps_url": "https://www.google.com/maps/place/?q=place_id:0x3962fd3947eaaaab:0xb1bf95e1bf846118"}, {"place_id": "0x3963029cb1d6af1f:0xcf1bea3e7e7a08bd", "name": "Engineer Master Solutions Pvt. Ltd. | Software Company | Website and Mobile app Development", "category": "Software company", "street": "276", "city": "behind Malhar Mega Mall", "phone": "07314980455", "website": "http://www.engineermaster.in/", "rating": 4.4, "review_count": "", "latitude": 22.745530499999997, "longitude": 75.89538809999999, "maps_url": "https://www.google.com/maps/place/?q=place_id:0x3963029cb1d6af1f:0xcf1bea3e7e7a08bd"}, {"place_id": "0x3962fceefff1c439:0xb0fa7789cf76d47f", "name": "SSV Technologies", "category": "Software company", "street": "26, AB Rd, Scheme 54 PU4", "city": "Vijay Nagar", "phone": "09039063936", "website": "https://ssvtechnologies.in/", "rating": 4, "review_count": "", "latitude": 22.7454435, "longitude": 75.8965633, "maps_url": "https://www.google.com/maps/place/?q=place_id:0x3962fceefff1c439:0xb0fa7789cf76d47f"}, {"place_id": "0x3962fd470f1c8cf3:0x7fc7417560117321", "name": "Maverick Console Services Pvt. Ltd.", "category": "Software company", "street": "MG Road 109 , Royal Ratan Building", "city": "Madhya Pradesh 452007", "phone": "08889785888", "website": "http://www.maverickconsole.com/", "rating": 4.8, "review_count": "", "latitude": 22.7195626, "longitude": 75.8577153, "maps_url": "https://www.google.com/maps/place/?q=place_id:0x3962fd470f1c8cf3:0x7fc7417560117321"}, {"place_id": "0x3962fd4433e69369:0x2d2b7975bf30daec", "name": "Kritin Digital Solutions Pvt. Ltd.", "category": "Software company", "street": "Block NoJ", "city": "Gold Plaza", "phone": "07773004080", "website": "https://kritin.in/", "rating": 4.6, "review_count": "", "latitude": 22.7588811, "longitude": 75.9224916, "maps_url": "https://www.google.com/maps/place/?q=place_id:0x3962fd4433e69369:0x2d2b7975bf30daec"}, {"place_id": "0x3962fd558df1e307:0xc681e51830ad104c", "name": "Advantal Technologies Ltd | Product Engineering Firm | Global OEM Solutions Provider", "category": "Software company", "street": "17-A", "city": "Electronic Complex, Pardesipura", "phone": "07314037720", "website": "https://advantaltechnologies.com/", "rating": 4, "review_count": "", "latitude": 22.75162, "longitude": 75.86542949999999, "maps_url": "https://www.google.com/maps/place/?q=place_id:0x3962fd558df1e307:0xc681e51830ad104c"}, {"place_id": "0x39630328ba695d7b:0x792447e6ff8a135d", "name": "Covetus Technologies Pvt Ltd", "category": "Software company", "street": "256, Scheme No 78 - III", "city": "Scheme Number 78, Vijay Nagar, Part II, Scheme 78, Vijay Nagar", "phone": "07314200152", "website": "https://www.covetus.com/", "rating": 3.9, "review_count": "", "latitude": 22.763654799999998, "longitude": 75.8880435, "maps_url": "https://www.google.com/maps/place/?q=place_id:0x39630328ba695d7b:0x792447e6ff8a135d"}, {"place_id": "0x3962fd3a65855555:0x6374d2fd9460384c", "name": "Dai Software Solution", "category": "Software company", "street": "Highlight House", "city": "507, MR-5", "phone": "09826356926", "website": "https://www.daisoftware.com/", "rating": 4, "review_count": "", "latitude": 22.7597479, "longitude": 75.9112177, "maps_url": "https://www.google.com/maps/place/?q=place_id:0x3962fd3a65855555:0x6374d2fd9460384c"}, {"place_id": "0x3962fd558df1e307:0xc681e51830ad104c", "name": "Advantal Technologies Ltd | Product Engineering Firm | Global OEM Solutions Provider", "category": "Software company", "street": "17-A", "city": "Electronic Complex, Pardesipura", "phone": "07314037720", "website": "https://advantaltechnologies.com/", "rating": 4, "review_count": "", "latitude": 22.75162, "longitude": 75.86542949999999, "maps_url": "https://www.google.com/maps/place/?q=place_id:0x3962fd558df1e307:0xc681e51830ad104c"}, {"place_id": "0x39630328ba695d7b:0x792447e6ff8a135d", "name": "Covetus Technologies Pvt Ltd", "category": "Software company", "street": "256, Scheme No 78 - III", "city": "Scheme Number 78, Vijay Nagar, Part II, Scheme 78, Vijay Nagar", "phone": "07314200152", "website": "https://www.covetus.com/", "rating": 3.9, "review_count": "", "latitude": 22.763654799999998, "longitude": 75.8880435, "maps_url": "https://www.google.com/maps/place/?q=place_id:0x39630328ba695d7b:0x792447e6ff8a135d"}, {"place_id": "0x3962fd3a65855555:0x6374d2fd9460384c", "name": "Dai Software Solution", "category": "Software company", "street": "Highlight House", "city": "507, MR-5", "phone": "09826356926", "website": "https://www.daisoftware.com/", "rating": 4, "review_count": "", "latitude": 22.7597479, "longitude": 75.9112177, "maps_url": "https://www.google.com/maps/place/?q=place_id:0x3962fd3a65855555:0x6374d2fd9460384c"}, {"place_id": "0x3962fd7f4f8baf87:0x598f75f3363bc558", "name": "Aimfortech - Software | SaaS | Web | E-Commerce Gaming App Development Company in India", "category": "Software company", "street": "103, Greater Kailash Road", "city": "above Nafees Restaurant", "phone": "07314066773", "website": "https://www.aimfortech.com/", "rating": 5, "review_count": "", "latitude": 22.7257765, "longitude": 75.8878778, "maps_url": "https://www.google.com/maps/place/?q=place_id:0x3962fd7f4f8baf87:0x598f75f3363bc558"}, {"place_id": "0x3962fd37c63496b9:0xf190bda9147f9d62", "name": "Walkover", "category": "Software company", "street": "5th floor", "city": "Top LIC Tower PU - 03", "phone": "07312560056", "website": "https://walkover.in/", "rating": 4.2, "review_count": "", "latitude": 22.746951199999998, "longitude": 75.8929134, "maps_url": "https://www.google.com/maps/place/?q=place_id:0x3962fd37c63496b9:0xf190bda9147f9d62"}, {"place_id": "0x3962fd56993c50d5:0xfbbfbc4eeb0789b9", "name": "CDN Solutions Group", "category": "Software company", "street": "Unit No. 304", "city": "Princes Business Skypark", "phone": "07314035928", "website": "https://www.cdnsol.com/", "rating": 3.8, "review_count": "", "latitude": 22.745851, "longitude": 75.893061, "maps_url": "https://www.google.com/maps/place/?q=place_id:0x3962fd56993c50d5:0xfbbfbc4eeb0789b9"}, {"place_id": "0x3962fd0db114f33f:0xdcb51ed2e10c8ca4", "name": "Synsoft Global", "category": "Software company", "street": "403-404, Airen Heights, PU-14,", "city": "Scheme- 54, A. B. Road, Opposite Orbit Mall", "phone": "07316612100", "website": "https://www.synsoftglobal.com/", "rating": 4.4, "review_count": "", "latitude": 22.745017, "longitude": 75.89227699999999, "maps_url": "https://www.google.com/maps/place/?q=place_id:0x3962fd0db114f33f:0xdcb51ed2e10c8ca4"}, {"place_id": "0x3963035bff8a4a33:0xd1b08870eb9e0cf6", "name": "CYBEANS", "category": "Software company", "street": "1/12, Vijay Nagar Square", "city": "Vijay Nagar, Scheme No 54", "phone": "", "website": "http://www.cybeans.com/", "rating": 5, "review_count": "", "latitude": 22.7551253, "longitude": 75.8927916, "maps_url": "https://www.google.com/maps/place/?q=place_id:0x3963035bff8a4a33:0xd1b08870eb9e0cf6"}, {"place_id": "0x3962fd4b09bfe885:0x3d265575f7a4e0ec", "name": "Mactosys | Web Development & Design | Mobile App Development | Digital Marketing Company", "category": "Software company", "street": "502", "city": "Airen Heights", "phone": "07314964875", "website": "http://www.mactosys.com/", "rating": 3.8, "review_count": "", "latitude": 22.745033, "longitude": 75.8921697, "maps_url": "https://www.google.com/maps/place/?q=place_id:0x3962fd4b09bfe885:0x3d265575f7a4e0ec"}, {"place_id": "0x39631d586940ba29:0xc9d0a564e32c6fce", "name": "WahInnovations Technologies", "category": "Software company", "street": "4th Floor", "city": "B ZONE BUSINESS SPACES", "phone": "09329911531", "website": "https://www.wahinnovations.com/", "rating": 4.6, "review_count": "", "latitude": 22.770793899999997, "longitude": 75.9103718, "maps_url": "https://www.google.com/maps/place/?q=place_id:0x39631d586940ba29:0xc9d0a564e32c6fce"}, {"place_id": "0x39631d5891adfb65:0xea28a34c2ba3a5ab", "name": "MoreYeahs", "category": "Software company", "street": "4th Floor", "city": "B ZONE BUSINESS SPACES", "phone": "09329911531", "website": "https://www.moreyeahs.com/", "rating": 4.3, "review_count": "", "latitude": 22.7708004, "longitude": 75.9103715, "maps_url": "https://www.google.com/maps/place/?q=place_id:0x39631d5891adfb65:0xea28a34c2ba3a5ab"}, {"place_id": "0x396302ab0db87d2d:0x21904cb1ee649626", "name": "Five Exceptions Software Solutions", "category": "Software company", "street": "301, Gravity Tower, Roshan Singh Bhandari Rd", "city": "Janjeerwala Square", "phone": "07314002593", "website": "http://5exceptions.com/", "rating": 4.5, "review_count": "", "latitude": 22.7256324, "longitude": 75.8811552, "maps_url": "https://www.google.com/maps/place/?q=place_id:0x396302ab0db87d2d:0x21904cb1ee649626"}, {"place_id": "0x39630239f26f44ff:0x9990e42765534532", "name": "Hybrid Infotech Pvt Ltd", "category": "Software company", "street": "Forest colony, Shivaji Nagar, Moti Bunglow", "city": "Dewas, Madhya Pradesh 455001", "phone": "09993031042", "website": "http://hybridinfotech.com/", "rating": 5, "review_count": "", "latitude": 22.9662243, "longitude": 76.0484005, "maps_url": "https://www.google.com/maps/place/?q=place_id:0x39630239f26f44ff:0x9990e42765534532"}, {"place_id": "0x39631d7d94d5152d:0xdb9aab37e170d03f", "name": "THE IT TALENT", "category": "Software company", "street": "213 Landlord State Colony, Nipania Main Rd", "city": "Nipania", "phone": "09826819200", "website": "https://theittalent.com/", "rating": 5, "review_count": "", "latitude": 22.7652814, "longitude": 75.9240852, "maps_url": "https://www.google.com/maps/place/?q=place_id:0x39631d7d94d5152d:0xdb9aab37e170d03f"}, {"place_id": "0x3962fd1640000001:0xc84268147247332c", "name": "Cyber Infrastructure (P) Ltd", "category": "Software company", "street": "142 A", "city": "Electronic Complex, Pardesipura", "phone": "07313564000", "website": "https://www.cisin.com/", "rating": 4, "review_count": "", "latitude": 22.7533372, "longitude": 75.86522389999999, "maps_url": "https://www.google.com/maps/place/?q=place_id:0x3962fd1640000001:0xc84268147247332c"}, {"place_id": "0x3962fce916194e67:0x33e01992b67a4659", "name": "Worldpay Inc.", "category": "Software company", "street": "Brilliant Solitaire", "city": "Scheme Number 78, Part II, Scheme 78, Vijay Nagar", "phone": "", "website": "https://www.worldpay.com/", "rating": 4.3, "review_count": "", "latitude": 22.763866399999998, "longitude": 75.88271449999999, "maps_url": "https://www.google.com/maps/place/?q=place_id:0x3962fce916194e67:0x33e01992b67a4659"}, {"place_id": "0x396302a395f14cab:0x365833ad69192332", "name": "HotWax Systems", "category": "Software company", "street": "80", "city": "Scheme Number 78, Vijay Nagar, Part II, Scheme 78, Vijay Nagar", "phone": "07313622711", "website": "http://www.hotwaxsystems.com/", "rating": 4.2, "review_count": "", "latitude": 22.7624665, "longitude": 75.88540139999999, "maps_url": "https://www.google.com/maps/place/?q=place_id:0x396302a395f14cab:0x365833ad69192332"}, {"place_id": "0x3962fd99c963b103:0xf8722b03ae5b08c2", "name": "Devnion Technologies Pvt. Ltd.", "category": "Software company", "street": "4-A, Plot No 19, 102, First Floor", "city": "MR 9 Rd", "phone": "07313500489", "website": "https://devnion.com/", "rating": 5, "review_count": "", "latitude": 22.7420759, "longitude": 75.8989106, "maps_url": "https://www.google.com/maps/place/?q=place_id:0x3962fd99c963b103:0xf8722b03ae5b08c2"}, {"place_id": "0x3962fd3a1539dce9:0xf75259fe96e1e164", "name": "Syscraft Information System Pvt. Ltd.", "category": "Software company", "street": "601", "city": "Mahasagar Corporate", "phone": "", "website": "https://syscraftonline.com/", "rating": 4.1, "review_count": "", "latitude": 22.718868399999998, "longitude": 75.8868323, "maps_url": "https://www.google.com/maps/place/?q=place_id:0x3962fd3a1539dce9:0xf75259fe96e1e164"}, {"place_id": "0x3963038cad505623:0x8843fe388b843b60", "name": "Softvyom Consulting Services Pvt. Ltd.", "category": "Software company", "street": "Shagun Arcade", "city": "312", "phone": "", "website": "http://softvyom.com/", "rating": 5, "review_count": "", "latitude": 22.7490453, "longitude": 75.8953947, "maps_url": "https://www.google.com/maps/place/?q=place_id:0x3963038cad505623:0x8843fe388b843b60"}, {"place_id": "0x3962fd541a5d7a63:0x98c68254ae88f99b", "name": "Slash Technologies - Website Design , Digital Marketing and Mobile App Development Company", "category": "Software company", "street": "Near", "city": "427 4th Floor Orbit Mall", "phone": "08319125661", "website": "https://slashtechnologies.com/", "rating": 4.5, "review_count": "", "latitude": 22.744118099999998, "longitude": 75.8940227, "maps_url": "https://www.google.com/maps/place/?q=place_id:0x3962fd541a5d7a63:0x98c68254ae88f99b"}, {"place_id": "0x3962fdb5c2380727:0x859cb1b40afbe442", "name": "Samaritan InfoTech", "category": "Software company", "street": "Malwa Tower", "city": "Square", "phone": "09993671402", "website": "https://www.samaritaninfotech.com/", "rating": 4.6, "review_count": "", "latitude": 22.7254206, "longitude": 75.8862863, "maps_url": "https://www.google.com/maps/place/?q=place_id:0x3962fdb5c2380727:0x859cb1b40afbe442"}, {"place_id": "0x3962fd725f04cfdd:0x21fe795725afdb82", "name": "India Websoft - Website Design and Development Company", "category": "Software company", "street": "106", "city": "NRK BizPark", "phone": "09755907700", "website": "https://www.indiawebsoft.com/", "rating": 4.8, "review_count": "", "latitude": 22.745765499999997, "longitude": 75.89632329999999, "maps_url": "https://www.google.com/maps/place/?q=place_id:0x3962fd725f04cfdd:0x21fe795725afdb82"}, {"place_id": "0x396317fb8085a529:0x6218c068e21409af", "name": "Caplers Solutions Dewas", "category": "Software company", "street": "Station Rd", "city": "in front of 52 Dukaan", "phone": "07415119928", "website": "https://caplers.com/", "rating": 5, "review_count": "", "latitude": 22.9715527, "longitude": 76.0550499, "maps_url": "https://www.google.com/maps/place/?q=place_id:0x396317fb8085a529:0x6218c068e21409af"}, {"place_id": "0x3962fd181e9da7b9:0xaf349f63cacd9d35", "name": "Techsysd IT Solution - Website Design & Mobile App Development Company", "category": "Software company", "street": "Sterling Tower", "city": "206, Mahatma Gandhi Rd", "phone": "08109032576", "website": "https://www.techsysd.com/", "rating": 4.9, "review_count": "", "latitude": 22.7229954, "longitude": 75.8840811, "maps_url": "https://www.google.com/maps/place/?q=place_id:0x3962fd181e9da7b9:0xaf349f63cacd9d35"}, {"place_id": "0x3962fd1775834153:0x228cd29ca22a8bef", "name": "NCS^", "category": "Software company", "street": "NCS^ House, 80", "city": "Jaora Compound", "phone": "07313505885", "website": "http://www.nenosystems.com/", "rating": 4.7, "review_count": "", "latitude": 22.711851199999998, "longitude": 75.877246, "maps_url": "https://www.google.com/maps/place/?q=place_id:0x3962fd1775834153:0x228cd29ca22a8bef"}, {"place_id": "0x3962fce207f10061:0xe8234aa87cb88aad", "name": "Winlancer Technologies", "category": "Software company", "street": "619", "city": "Shekhar central", "phone": "09926372815", "website": "http://www.winlancers.com/", "rating": 4.6, "review_count": "", "latitude": 22.722727, "longitude": 75.88707099999999, "maps_url": "https://www.google.com/maps/place/?q=place_id:0x3962fce207f10061:0xe8234aa87cb88aad"}, {"place_id": "0x3962fda407bf831b:0x676d3a93d84cd559", "name": "Niyoin Coders Private Limited", "category": "Software company", "street": "Office No. 206", "city": "Om Gurudev Plaza", "phone": "07000802198", "website": "https://www.niyoin.com/", "rating": 4.3, "review_count": "", "latitude": 22.7479402, "longitude": 75.8901501, "maps_url": "https://www.google.com/maps/place/?q=place_id:0x3962fda407bf831b:0x676d3a93d84cd559"}, {"place_id": "0x396303297c7cf2ef:0x965300c0d82fac7c", "name": "IW Technocrats | IT Company", "category": "Software company", "street": "Corporate Park", "city": "816, Cliffton Park Rd", "phone": "", "website": "https://www.iwtechnocrats.in/", "rating": "", "review_count": "", "latitude": 22.763570599999998, "longitude": 75.8794769, "maps_url": "https://www.google.com/maps/place/?q=place_id:0x396303297c7cf2ef:0x965300c0d82fac7c"}, {"place_id": "0x3962fd16c6da7fff:0xa16ada7dbc36f449", "name": "Hvantage Tech Solutions Pvt. Ltd.", "category": "Software company", "street": "509 block B corporate house 5th floor, RNT Marg", "city": "Indore, Madhya Pradesh 452001", "phone": "07314074459", "website": "https://hvantagetechnologies.com/", "rating": 3.2, "review_count": "", "latitude": 22.7172125, "longitude": 75.87177729999999, "maps_url": "https://www.google.com/maps/place/?q=place_id:0x3962fd16c6da7fff:0xa16ada7dbc36f449"}, {"place_id": "0x390ce458d0000001:0xf2123bd299ec4501", "name": "IT Company India", "category": "Software company", "street": "D56", "city": "D Block, Sector 10", "phone": "09999244854", "website": "https://www.itcompanyindia.in/", "rating": 4.7, "review_count": "", "latitude": 28.589917699999997, "longitude": 77.3351153, "maps_url": "https://www.google.com/maps/place/?q=place_id:0x390ce458d0000001:0xf2123bd299ec4501"}, {"place_id": "0x3962fd16f9e66369:0x2f7da749193be981", "name": "Ideavate Solutions", "category": "Software company", "street": "306, Silver Sanchora Castle", "city": "RNT Marg", "phone": "07314025351", "website": "http://www.ideavate.com/", "rating": 4.4, "review_count": "", "latitude": 22.716825, "longitude": 75.873437, "maps_url": "https://www.google.com/maps/place/?q=place_id:0x3962fd16f9e66369:0x2f7da749193be981"}, {"place_id": "0x39631defce7d164d:0x19e4d1398f24790a", "name": "Civica Resource Pvt. Ltd.", "category": "Software company", "street": "2nd Floor Skye", "city": "Earth Corporate Park", "phone": "09313921741", "website": "https://www.civica.com/en-in/", "rating": 4.9, "review_count": "", "latitude": 22.7639377, "longitude": 75.8986888, "maps_url": "https://www.google.com/maps/place/?q=place_id:0x39631defce7d164d:0x19e4d1398f24790a"}, {"place_id": "0x3962fd0d844ff999:0xa2fe349a7486018f", "name": "TopHat Software Pvt. Ltd.", "category": "Software company", "street": "Mechanic Nagar, Scheme No 54", "city": "Indore, Madhya Pradesh 452011", "phone": "09329937885", "website": "http://www.tophatsoft.com/", "rating": 5, "review_count": "", "latitude": 22.7481032, "longitude": 75.8900997, "maps_url": "https://www.google.com/maps/place/?q=place_id:0x3962fd0d844ff999:0xa2fe349a7486018f"}, {"place_id": "0x3962fd3f35699959:0x60a1ecf32851850a", "name": "Chapter247 Infotech", "category": "Software company", "street": "6th Floor", "city": "611-612-613", "phone": "07773077715", "website": "https://www.chapter247.com/", "rating": 3.8, "review_count": "", "latitude": 22.7592613, "longitude": 75.9238235, "maps_url": "https://www.google.com/maps/place/?q=place_id:0x3962fd3f35699959:0x60a1ecf32851850a"}, {"place_id": "0x3963029c8772bdbd:0xf5117d10890d47d1", "name": "Oswal Computers & Consultants Pvt. Ltd.", "category": "Software company", "street": "60", "city": "Electronic Complex, Pardesipura", "phone": "07312551745", "website": "https://www.oswaldata.com/", "rating": 3.8, "review_count": "", "latitude": 22.753197999999998, "longitude": 75.867932, "maps_url": "https://www.google.com/maps/place/?q=place_id:0x3963029c8772bdbd:0xf5117d10890d47d1"}, {"place_id": "0x3962fdc27594b36f:0xf1f29e4d59089c17", "name": "Rubik Corner IT Services and Consultants", "category": "Website designer", "street": "5/1 Ramchandra Nagar Extension", "city": "Madhya Pradesh 455001", "phone": "09691665576", "website": "", "rating": 5, "review_count": "", "latitude": 22.945536999999998, "longitude": 76.0402613, "maps_url": "https://www.google.com/maps/place/?q=place_id:0x3962fdc27594b36f:0xf1f29e4d59089c17"}, {"place_id": "0x396317f6bce105ad:0x1b97ddd1edb96f8a", "name": "TechMac Digital Solutions", "category": "Software company", "street": "05 M.I.G, Ujjain Rd", "city": "near Water Tank", "phone": "08982878781", "website": "https://techmacdigital.com/", "rating": 4.7, "review_count": "", "latitude": 22.977732099999997, "longitude": 76.0322268, "maps_url": "https://www.google.com/maps/place/?q=place_id:0x396317f6bce105ad:0x1b97ddd1edb96f8a"}, {"place_id": "0x3962fd5d9b59644d:0xce0a63c54471d620", "name": "Webllisto", "category": "Software company", "street": "801", "city": "Airen Heights", "phone": "09589849623", "website": "https://www.webllisto.com/", "rating": 4.5, "review_count": "", "latitude": 22.7450533, "longitude": 75.8923633, "maps_url": "https://www.google.com/maps/place/?q=place_id:0x3962fd5d9b59644d:0xce0a63c54471d620"}, {"place_id": "0x3962fda9638f76d3:0xf46aa7d34cc4b2a6", "name": "Blockchain & Mobile App Development Company - Virtual Height IT Services Pvt. Ltd.", "category": "Software company", "street": "Shekhar central", "city": "719, AB Rd", "phone": "09510987700", "website": "https://www.virtualheight.com/?utm_source=GBP&utm_medium=Organic", "rating": 4.5, "review_count": "", "latitude": 22.722727, "longitude": 75.88707099999999, "maps_url": "https://www.google.com/maps/place/?q=place_id:0x3962fda9638f76d3:0xf46aa7d34cc4b2a6"}, {"place_id": "0x39631d66b1470cd9:0x71666e1ea8060b5f", "name": "Quintus Tech Pvt Ltd", "category": "Software company", "street": "Shagun Arcade", "city": "505", "phone": "", "website": "https://www.quintustech.in/", "rating": 4.8, "review_count": "", "latitude": 22.749023299999998, "longitude": 75.8953915, "maps_url": "https://www.google.com/maps/place/?q=place_id:0x39631d66b1470cd9:0x71666e1ea8060b5f"}, {"place_id": "0x3962fd5594a5981f:0xe44d7df8e141cec9", "name": "Genesis Technologies", "category": "Software company", "street": "EB-103 Scheme Number 94, Ring Road", "city": "Service Rd", "phone": "", "website": "http://genesistechnologies.in/", "rating": 3.8, "review_count": "", "latitude": 22.760212499999998, "longitude": 75.90659409999999, "maps_url": "https://www.google.com/maps/place/?q=place_id:0x3962fd5594a5981f:0xe44d7df8e141cec9"}, {"place_id": "0x3963179e783f3caf:0x370c4af9c04c7225", "name": "Satisfaction Web Solution Pvt. Ltd", "category": "Software company", "street": "146 Alkapuri", "city": "behind Shri Munisuvrat Swami Shwetambar Jain Mandir Dewas", "phone": "09826073695", "website": "http://www.satisfactionwebsolution.com/", "rating": 4.4, "review_count": "", "latitude": 22.967319, "longitude": 76.0412837, "maps_url": "https://www.google.com/maps/place/?q=place_id:0x3963179e783f3caf:0x370c4af9c04c7225"}, {"place_id": "0x3963179e5a662b61:0x1c73df34266e678a", "name": "Infybright Tech Solution", "category": "Computer support and services", "street": "145 A, AB Rd", "city": "Kalani Bagh, Gomti Nagar", "phone": "", "website": "http://infybright.com/", "rating": 5, "review_count": "", "latitude": 22.957948899999998, "longitude": 76.0431546, "maps_url": "https://www.google.com/maps/place/?q=place_id:0x3963179e5a662b61:0x1c73df34266e678a"}, {"place_id": "0x396317d794e16759:0x4060a0afc2cc5781", "name": "Webniya Infotech", "category": "Software company", "street": "", "city": "", "phone": "", "website": "https://www.webniya.tech/", "rating": 5, "review_count": "", "latitude": 21.0680074, "longitude": 82.7525294, "maps_url": "https://www.google.com/maps/place/?q=place_id:0x396317d794e16759:0x4060a0afc2cc5781"}, {"place_id": "0x3963021c0be40a73:0x551def50b4297bcf", "name": "Infosys Indore", "category": "Software company", "street": "Near Super Corridor, Scheme No. 151 and 169B", "city": "Super Corridor Rd", "phone": "07314747200", "website": "https://www.infosys.com/", "rating": 4.4, "review_count": "", "latitude": 22.761215, "longitude": 75.8130511, "maps_url": "https://www.google.com/maps/place/?q=place_id:0x3963021c0be40a73:0x551def50b4297bcf"}, {"place_id": "0x3963179b47845d21:0x3c484352310d1dfd", "name": "Projection (Training & Placement Company)", "category": "Software Training Institute", "street": "05, Shayam Plaza, Patwardhan marg, Just", "city": "behind Grace Church", "phone": "09617569993", "website": "https://www.projectiononline.com/", "rating": 4.7, "review_count": "", "latitude": 22.967597899999998, "longitude": 76.050913, "maps_url": "https://www.google.com/maps/place/?q=place_id:0x3963179b47845d21:0x3c484352310d1dfd"}, {"place_id": "0x3963035df09fc263:0x7359a04a773d38fe", "name": "Ailogix Software Solutions India Pvt. Ltd.", "category": "Software company", "street": "No. 202, Mahaveer Palace AG - 147, Scheme No. 54", "city": "Vijay Nagar", "phone": "09810778213", "website": "https://www.ailogix.in/", "rating": 3.8, "review_count": "", "latitude": 22.7550547, "longitude": 75.8919536, "maps_url": "https://www.google.com/maps/place/?q=place_id:0x3963035df09fc263:0x7359a04a773d38fe"}, {"place_id": "0x3962e32b2894590f:0x4e73ebc1261cc50", "name": "TheRapidHire Private Limited - Software ,Website & Mobile App Development Company in India, USA", "category": "Software company", "street": "51", "city": "Electronic Complex, Pardesipura", "phone": "07313581354", "website": "https://www.therapidhire.com/", "rating": 3.5, "review_count": "", "latitude": 22.752822, "longitude": 75.867381, "maps_url": "https://www.google.com/maps/place/?q=place_id:0x3962e32b2894590f:0x4e73ebc1261cc50"}, {"place_id": "0x396302aca4de5411:0x6929089532ea5399", "name": "Clarigo Infotech Private Limited", "category": "Software company", "street": "Office No. M1", "city": "Plot-22", "phone": "07312577048", "website": "https://clarigoinfotech.com/", "rating": 4.1, "review_count": "", "latitude": 22.7491816, "longitude": 75.8992823, "maps_url": "https://www.google.com/maps/place/?q=place_id:0x396302aca4de5411:0x6929089532ea5399"}, {"place_id": "0x3962fd16b8dfba73:0xa54b27af45f7d14d", "name": "Techvalens Software Systems", "category": "Software company", "street": "OM Gurudev Plaza", "city": "410", "phone": "09644506070", "website": "https://www.techvalens.com/", "rating": 3.7, "review_count": "", "latitude": 22.747921899999998, "longitude": 75.8899612, "maps_url": "https://www.google.com/maps/place/?q=place_id:0x3962fd16b8dfba73:0xa54b27af45f7d14d"}, {"place_id": "0x396317170221cccd:0xdc916aeffd9100ea", "name": "Webaashi Technologies", "category": "Software company", "street": "C 82, AB Rd", "city": "Kalani Bagh, Agroha Nagar, Gomti Nagar", "phone": "", "website": "http://webaashi.com/", "rating": 4.9, "review_count": "", "latitude": 22.9586091, "longitude": 76.0484482, "maps_url": "https://www.google.com/maps/place/?q=place_id:0x396317170221cccd:0xdc916aeffd9100ea"}, {"place_id": "0x260f709038d69ae7:0x24f557626910bd98", "name": "Avinika Solution - IT Staff Augmentation | IT Project Outsourcing | Outsourcing Team Management | EOR | HR", "category": "Software company", "street": "Shagun Arcade", "city": "203, Rasoma Square", "phone": "09584415151", "website": "https://www.avinikasolution.in/", "rating": 4.9, "review_count": "", "latitude": 22.7490307, "longitude": 75.895406, "maps_url": "https://www.google.com/maps/place/?q=place_id:0x260f709038d69ae7:0x24f557626910bd98"}, {"place_id": "0x3962fd5a6d8958bd:0x16c643e91c85a839", "name": "PixelMarketo", "category": "Software company", "street": "Office No.1, 1st Floor", "city": "New IT Park building", "phone": "08109575543", "website": "https://pixelmarketo.com/", "rating": 4.8, "review_count": "", "latitude": 22.7533899, "longitude": 75.8654219, "maps_url": "https://www.google.com/maps/place/?q=place_id:0x3962fd5a6d8958bd:0x16c643e91c85a839"}, {"place_id": "0x3962fd1790b2e6cb:0x47270a7fe30947bf", "name": "TECHFROLIC", "category": "Software company", "street": "Office No. 509, 165", "city": "Fortune Business Center", "phone": "06479922645", "website": "http://techfrolic.com/", "rating": 5, "review_count": "", "latitude": 22.7143998, "longitude": 75.8745102, "maps_url": "https://www.google.com/maps/place/?q=place_id:0x3962fd1790b2e6cb:0x47270a7fe30947bf"}, {"place_id": "0x396317edb498db2d:0x820ff94014864b5b", "name": "Active Now Tech", "category": "Software company", "street": "Mahalaxmi Nagar", "city": "09", "phone": "08839779337", "website": "https://activenow.in/", "rating": 5, "review_count": "", "latitude": 22.9575802, "longitude": 76.0409086, "maps_url": "https://www.google.com/maps/place/?q=place_id:0x396317edb498db2d:0x820ff94014864b5b"}, {"place_id": "0x3962fd00704fbad7:0x62c67058e5974eb8", "name": "Brain Inventory", "category": "Software company", "street": "618", "city": "Shekhar central", "phone": "08109561401", "website": "https://braininventory.in/", "rating": 4.4, "review_count": "", "latitude": 22.722678, "longitude": 75.8871721, "maps_url": "https://www.google.com/maps/place/?q=place_id:0x3962fd00704fbad7:0x62c67058e5974eb8"}, {"place_id": "0x287cf0225a1c0f9:0x78c06e25e68f9246", "name": "Ivision Systech Private Limited", "category": "Design engineer", "street": "412", "city": "E.W.S., Mukherjee Nagar, Raja Ram Nagar", "phone": "08269897542", "website": "https://www.ivisionsystech.com/", "rating": 5, "review_count": "", "latitude": 22.9665379, "longitude": 76.0391159, "maps_url": "https://www.google.com/maps/place/?q=place_id:0x287cf0225a1c0f9:0x78c06e25e68f9246"}, {"place_id": "0x3962fd35e60e5555:0xd0b79afcf723c113", "name": "Expertinasia Pvt. Ltd.", "category": "Software company", "street": "302", "city": "Shagun Arcade", "phone": "08770497477", "website": "https://expertinasia.com/", "rating": 4.8, "review_count": "", "latitude": 22.749023299999998, "longitude": 75.8953915, "maps_url": "https://www.google.com/maps/place/?q=place_id:0x3962fd35e60e5555:0xd0b79afcf723c113"}, {"place_id": "0x3962fd5684f3ffff:0x70794951e809d186", "name": "Eminence Infotech", "category": "Software company", "street": "3rd Floor", "city": "AICTSL Campus", "phone": "07566514634", "website": "http://eminenceinfotech.com/", "rating": 4.2, "review_count": "", "latitude": 22.7143431, "longitude": 75.8842609, "maps_url": "https://www.google.com/maps/place/?q=place_id:0x3962fd5684f3ffff:0x70794951e809d186"}, {"place_id": "0x39631701eea4e413:0x809181633710dae", "name": "1 Will Tech Solutions", "category": "Industrial technical engineers association", "street": "38", "city": "Ram Nagar Extension, Pachunkar Colony, Ram Nagar", "phone": "09752414558", "website": "", "rating": 5, "review_count": "", "latitude": 22.957904799999998, "longitude": 76.0411088, "maps_url": "https://www.google.com/maps/place/?q=place_id:0x39631701eea4e413:0x809181633710dae"}, {"place_id": "0x396303b717951bb1:0x3b1772c366227c5f", "name": "Kanpai CMS | Best Web Development and IT Company in Indore| Best website design", "category": "Software company", "street": "6th floor, infront of Radisson blue hotel", "city": "c21 business park", "phone": "09229491675", "website": "https://kanpaiglobal.com/", "rating": 5, "review_count": "", "latitude": 22.7496594, "longitude": 75.90490299999999, "maps_url": "https://www.google.com/maps/place/?q=place_id:0x396303b717951bb1:0x3b1772c366227c5f"}, {"place_id": "0x2d1fb13b66f9b3b9:0xd8d6782015bc63e4", "name": "Dharmdesigner IT Services", "category": "Internet marketing service", "street": "Silver Park", "city": "Balaji Nagar", "phone": "08120348239", "website": "https://dharmdesigner.com/", "rating": 5, "review_count": "", "latitude": 22.947556799999997, "longitude": 76.05479059999999, "maps_url": "https://www.google.com/maps/place/?q=place_id:0x2d1fb13b66f9b3b9:0xd8d6782015bc63e4"}, {"place_id": "0x396302a97eaaaaab:0x47d2f775686fee19", "name": "Sourcebae", "category": "Software company", "street": "Plot No. 108", "city": "Dhanare Complex", "phone": "09981192339", "website": "https://sourcebae.com/", "rating": 4.8, "review_count": "", "latitude": 22.762706299999998, "longitude": 75.885741, "maps_url": "https://www.google.com/maps/place/?q=place_id:0x396302a97eaaaaab:0x47d2f775686fee19"}, {"place_id": "0x6cfaa7c055002bd5:0x9543a5812d93766", "name": "Updevix \u2013 Web & App Development Company", "category": "Software company", "street": "software Employment Ofiice", "city": "1st floor, Updevix \u2013 Web & App Development Company", "phone": "", "website": "https://www.updevix.com/", "rating": 5, "review_count": "", "latitude": 22.967655699999998, "longitude": 76.0543464, "maps_url": "https://www.google.com/maps/place/?q=place_id:0x6cfaa7c055002bd5:0x9543a5812d93766"}, {"place_id": "0x396319c8c2d58ded:0xfc9bf8b2d14e3cda", "name": "Surlon Precision Solutions India Limited", "category": "Manufacturer", "street": "Industrial Area No.2", "city": "Dewas, Madhya Pradesh 455001", "phone": "07272258373", "website": "http://www.tataprecision.com/", "rating": 4.4, "review_count": "", "latitude": 22.933703599999998, "longitude": 76.021577, "maps_url": "https://www.google.com/maps/place/?q=place_id:0x396319c8c2d58ded:0xfc9bf8b2d14e3cda"}, {"place_id": "0x3962fd699309ac7f:0x4b560b934acd04e9", "name": "American Chase LLP", "category": "Software company", "street": "1st Floor, Winway World Offices, Plot No. B-7 Scheme No. 54", "city": "PU 4, Near Vijay Nagar Square, Vijay Nagar, Commercial", "phone": "", "website": "http://www.americanchase.com/", "rating": 4.8, "review_count": "", "latitude": 22.7535517, "longitude": 75.8983319, "maps_url": "https://www.google.com/maps/place/?q=place_id:0x3962fd699309ac7f:0x4b560b934acd04e9"}, {"place_id": "0x396302a97eaaaaab:0xcaa86ccb05d65273", "name": "Codecrisp", "category": "Software company", "street": "393", "city": "sant nagar, Part I, Scheme No 114", "phone": "09806851570", "website": "", "rating": 5, "review_count": "", "latitude": 22.7701873, "longitude": 75.89912149999999, "maps_url": "https://www.google.com/maps/place/?q=place_id:0x396302a97eaaaaab:0xcaa86ccb05d65273"}, {"place_id": "0x39630399aea28199:0x908d0cee5314233a", "name": "Eagle In Cloud", "category": "Software company", "street": "Princess Business SkyPark", "city": "109", "phone": "09755592974", "website": "https://eagleincloud.io/", "rating": 5, "review_count": "", "latitude": 22.7705208, "longitude": 75.89852429999999, "maps_url": "https://www.google.com/maps/place/?q=place_id:0x39630399aea28199:0x908d0cee5314233a"}, {"place_id": "0x3962fd6188b57d47:0x26b0abd8515dc291", "name": "eWebWorld | Website & Mobile App Development Company in Indore", "category": "Website designer", "street": "Office number 504,505", "city": "Mahasagar Corporate", "phone": "09074976014", "website": "https://ewebworld.in/", "rating": 4.8, "review_count": "", "latitude": 22.718743399999997, "longitude": 75.8867485, "maps_url": "https://www.google.com/maps/place/?q=place_id:0x3962fd6188b57d47:0x26b0abd8515dc291"}, {"place_id": "0x3962fd447b4de707:0x24093ad8d03871ae", "name": "EngineerBabu", "category": "Software company", "street": "Infront of Prestige College", "city": "Plot no 156", "phone": "07771890007", "website": "https://www.engineerbabu.com/", "rating": 4.1, "review_count": "", "latitude": 22.764306599999998, "longitude": 75.8871281, "maps_url": "https://www.google.com/maps/place/?q=place_id:0x3962fd447b4de707:0x24093ad8d03871ae"}, {"place_id": "0x812b55556fbdddf3:0x37a051c28a19caf4", "name": "TanmayiSoft - Website Design Company in Indore", "category": "Software company", "street": "Trade House", "city": "415", "phone": "", "website": "https://tanmayisoft.com/", "rating": 5, "review_count": "", "latitude": 22.7159305, "longitude": 75.8757761, "maps_url": "https://www.google.com/maps/place/?q=place_id:0x812b55556fbdddf3:0x37a051c28a19caf4"}, {"place_id": "0x396319e845555555:0x1b3842080da83c8a", "name": "Dewas Metal Sections Ltd.", "category": "Manufacturer", "street": "W2C5+HGF", "city": "AB Rd", "phone": "08435501485", "website": "https://www.dmsl.co.in/", "rating": 4.4, "review_count": "", "latitude": 22.9224118, "longitude": 76.0073221, "maps_url": "https://www.google.com/maps/place/?q=place_id:0x396319e845555555:0x1b3842080da83c8a"}, {"place_id": "0x3962fd7be9357d4f:0xb9a7bbb603b98163", "name": "Inwizards Software Technology", "category": "Software company", "street": "603", "city": "Airen Heights", "phone": "09667584436", "website": "https://www.inwizards.com/", "rating": 4.7, "review_count": "", "latitude": 22.745121299999997, "longitude": 75.89222699999999, "maps_url": "https://www.google.com/maps/place/?q=place_id:0x3962fd7be9357d4f:0xb9a7bbb603b98163"}, {"place_id": "0x3962fd54200f24ef:0x78252dc78392d3f", "name": "Yashco Systems, Inc.", "category": "Software company", "street": "172,173,174", "city": "Plot No. 305-306, AB Rd", "phone": "08552927426", "website": "https://yashco.com/", "rating": 4.3, "review_count": "", "latitude": 22.7453485, "longitude": 75.8942118, "maps_url": "https://www.google.com/maps/place/?q=place_id:0x3962fd54200f24ef:0x78252dc78392d3f"}, {"place_id": "0x396317cb7c6c3d3b:0x9f2bbbfa9937c9b", "name": "SOMTARA Infotech", "category": "Software company", "street": "TARA KUNJ 205", "city": "opp. Escort Junior College", "phone": "", "website": "https://www.somtarainfotech.com/", "rating": "", "review_count": "", "latitude": 22.954623599999998, "longitude": 76.0349313, "maps_url": "https://www.google.com/maps/place/?q=place_id:0x396317cb7c6c3d3b:0x9f2bbbfa9937c9b"}, {"place_id": "0x396319e7b24e0b9d:0x3e56ec0df631cef1", "name": "Vippy Industries Limited", "category": "Food Processing Company", "street": "28, AB Rd", "city": "Industrial Area No. 1", "phone": "07272258545", "website": "http://www.vippysoya.com/", "rating": 3.8, "review_count": "", "latitude": 22.9384363, "longitude": 76.0143614, "maps_url": "https://www.google.com/maps/place/?q=place_id:0x396319e7b24e0b9d:0x3e56ec0df631cef1"}, {"place_id": "0x3963194c0a91d77d:0xc0227c345ba30719", "name": "Gabriel India Limited", "category": "Corporate office", "street": "Industrial Area No.2", "city": "Dewas, Madhya Pradesh 455001", "phone": "", "website": "", "rating": 4.1, "review_count": "", "latitude": 22.929257399999997, "longitude": 76.0389397, "maps_url": "https://www.google.com/maps/place/?q=place_id:0x3963194c0a91d77d:0xc0227c345ba30719"}, {"place_id": "0x3962fd40a728d10d:0x8b26f9a00afefd19", "name": "Maven Cluster", "category": "Software company", "street": "173 PU4", "city": "Vijay Nagar", "phone": "09755555032", "website": "https://www.mavencluster.com/", "rating": 3.9, "review_count": "", "latitude": 22.7450622, "longitude": 75.8958028, "maps_url": "https://www.google.com/maps/place/?q=place_id:0x3962fd40a728d10d:0x8b26f9a00afefd19"}, {"place_id": "0x396317929f6eb6ff:0xd309788e3f800c63", "name": "Lumic technologies", "category": "Software company", "street": "28, Sardar Patel Marg", "city": "Sutar Bakhal, Old Town, Gomti Nagar", "phone": "07804920240", "website": "http://www.lumicsoft.com/", "rating": "", "review_count": "", "latitude": 22.9654703, "longitude": 76.0527128, "maps_url": "https://www.google.com/maps/place/?q=place_id:0x396317929f6eb6ff:0xd309788e3f800c63"}, {"place_id": "0x396302abec73dd37:0xfdf983062294d89", "name": "AVALON SOLUTIONS PVT LTD", "category": "Software company", "street": "PSP 11", "city": "Scheme No 78 - II", "phone": "07312553368", "website": "https://www.avalonsolution.com/", "rating": 3.8, "review_count": "", "latitude": 22.763496099999998, "longitude": 75.88506459999999, "maps_url": "https://www.google.com/maps/place/?q=place_id:0x396302abec73dd37:0xfdf983062294d89"}, {"place_id": "0x39631d002aa18805:0xc3d4ec3d66c86ef6", "name": "TechnoGriff Solutions", "category": "Software company", "street": "Ward 36", "city": "40 A, Tirupati Palace, Zone 6", "phone": "", "website": "http://www.technogriffsolutions.com/", "rating": 4, "review_count": "", "latitude": 22.7658165, "longitude": 75.92879839999999, "maps_url": "https://www.google.com/maps/place/?q=place_id:0x39631d002aa18805:0xc3d4ec3d66c86ef6"}, {"place_id": "0x396303a0b00a9073:0x14504de356ba36a3", "name": "Supersourcing", "category": "Software company", "street": "Plot no 156, Scheme no 78", "city": "behind Vrindawan Restaurant", "phone": "08225007007", "website": "https://supersourcing.com/", "rating": 4.4, "review_count": "", "latitude": 22.7643359, "longitude": 75.88706479999999, "maps_url": "https://www.google.com/maps/place/?q=place_id:0x396303a0b00a9073:0x14504de356ba36a3"}, {"place_id": "0x3962fd4709ae42a1:0x2c0bd793ec2b2ee4", "name": "Ashwarya Infotech", "category": "Website designer", "street": "Malay Corporate", "city": "201", "phone": "09981114480", "website": "https://ashwaryainfotech.com/", "rating": 4.7, "review_count": "", "latitude": 22.7474493, "longitude": 75.8908792, "maps_url": "https://www.google.com/maps/place/?q=place_id:0x3962fd4709ae42a1:0x2c0bd793ec2b2ee4"}, {"place_id": "0x396302aaf5500001:0xb7ca9e747df71628", "name": "Codingkart IT Services", "category": "Software company", "street": "", "city": "", "phone": "08349889628", "website": "http://www.codingkart.com/", "rating": 4.1, "review_count": "", "latitude": 21.0680074, "longitude": 82.7525294, "maps_url": "https://www.google.com/maps/place/?q=place_id:0x396302aaf5500001:0xb7ca9e747df71628"}, {"place_id": "0x396318244daf11b5:0xc4a7dcfa7008013d", "name": "Bappa Creation India : Video Advertising Company", "category": "Video production service", "street": "Balgarh, balaji nagar, Industrial Area No.2, Dewas, Madhya Pradesh 455111", "city": "Dewas, Madhya Pradesh 455001", "phone": "08602895443", "website": "https://bappacreationindia.wixsite.com/bappacreationindia", "rating": 5, "review_count": "", "latitude": 22.9429922, "longitude": 76.05390899999999, "maps_url": "https://www.google.com/maps/place/?q=place_id:0x396318244daf11b5:0xc4a7dcfa7008013d"}, {"place_id": "0x3962fdfe4894aa8d:0x913f8b566b42c504", "name": "CFA - Consultants From Asia", "category": "Software company", "street": "408, 4th Floor, Satguru Parinay, PU-3", "city": "AB Rd", "phone": "", "website": "https://consultantsfromasia.com/", "rating": 5, "review_count": "", "latitude": 22.744073399999998, "longitude": 75.8921194, "maps_url": "https://www.google.com/maps/place/?q=place_id:0x3962fdfe4894aa8d:0x913f8b566b42c504"}, {"place_id": "0x39631dbb2049dd65:0xb667eb306f1b92c5", "name": "IT Company", "category": "Information services", "street": "Chikitsak Nagar", "city": "Indore, Madhya Pradesh 452010", "phone": "", "website": "", "rating": 2, "review_count": "", "latitude": 22.7569083, "longitude": 75.9056753, "maps_url": "https://www.google.com/maps/place/?q=place_id:0x39631dbb2049dd65:0xb667eb306f1b92c5"}, {"place_id": "0x3962e3a1f303ab4f:0xa640efe119bac6a3", "name": "RAMO PVT LTD", "category": "Software company", "street": "", "city": "", "phone": "", "website": "https://ramo.co.in/", "rating": 3.8, "review_count": "", "latitude": 21.0680074, "longitude": 82.7525294, "maps_url": "https://www.google.com/maps/place/?q=place_id:0x3962e3a1f303ab4f:0xa640efe119bac6a3"}, {"place_id": "0x3be7c21b5901e181:0x7fe794585addc1f6", "name": "Smartinfologiks - Software Development Company in India | IT Solutions", "category": "Software company", "street": "Hilton Center", "city": "514", "phone": "07400064691", "website": "https://www.smartinfologiks.com/", "rating": 4.6, "review_count": "", "latitude": 19.0139592, "longitude": 73.0382705, "maps_url": "https://www.google.com/maps/place/?q=place_id:0x3be7c21b5901e181:0x7fe794585addc1f6"}, {"place_id": "0x3962e39b92ff9d77:0xc79d3a2696ab1651", "name": "Mxpertz Infolabs - Transforming By Tech | Web & Mobile Development | UI/UX Design | Cloud Solutions | AI/ML Innovations", "category": "Software company", "street": "105", "city": "Captain C.S Naidu Arcade", "phone": "07314957900", "website": "https://www.mxpertz.com/", "rating": 3.9, "review_count": "", "latitude": 22.725223699999997, "longitude": 75.8902705, "maps_url": "https://www.google.com/maps/place/?q=place_id:0x3962e39b92ff9d77:0xc79d3a2696ab1651"}, {"place_id": "0x39631d6ae4f42a97:0x83bc825e66f9983", "name": "Techwave IT Solutions Pvt Ltd | Software Development Company in Indore | Top IT Company in Indore | India", "category": "Software company", "street": "Bhopal Motors JCB", "city": "near Panchvati", "phone": "09009155444", "website": "http://techwaveitsolutions.com/", "rating": "", "review_count": "", "latitude": 22.792078399999998, "longitude": 75.90735409999999, "maps_url": "https://www.google.com/maps/place/?q=place_id:0x39631d6ae4f42a97:0x83bc825e66f9983"}, {"place_id": "0x396319e550167c0f:0xc21ae8f7a537ddd9", "name": "Win Infotech Software Solutions", "category": "Financial consultant", "street": "14", "city": "Labour Colony, Balaji Nagar", "phone": "09179298291", "website": "https://wininfotech.in/", "rating": 5, "review_count": "", "latitude": 22.947784, "longitude": 76.050197, "maps_url": "https://www.google.com/maps/place/?q=place_id:0x396319e550167c0f:0xc21ae8f7a537ddd9"}, {"place_id": "0x2bc24365ff52a955:0x6a060283e756ed53", "name": "KaalCyberSec", "category": "Software company", "street": "", "city": "", "phone": "09399667551", "website": "https://kaal-1-commit.github.io/KaalCyberSec/index.html", "rating": 5, "review_count": "", "latitude": 22.6947699, "longitude": 75.8674897, "maps_url": "https://www.google.com/maps/place/?q=place_id:0x2bc24365ff52a955:0x6a060283e756ed53"}, {"place_id": "0x3bc2becdc35b6937:0x515ac559c349eee3", "name": "Thinkitive Technologies Private Limited", "category": "Software company", "street": "4th Floor", "city": "ABIL IMPERIAL COMMERCIAL SPACES", "phone": "08956467327", "website": "https://www.thinkitive.com/", "rating": 3.9, "review_count": "", "latitude": 18.5563888, "longitude": 73.7729748, "maps_url": "https://www.google.com/maps/place/?q=place_id:0x3bc2becdc35b6937:0x515ac559c349eee3"}, {"place_id": "0x3962fd91141818ad:0xa496e301e28e3226", "name": "Sion Data matics India Pvt. Ltd| Best IT Company In Madhya Pradesh", "category": "Software company", "street": "11,5", "city": "bano doctor compound", "phone": "07880136882", "website": "https://www.sdmipl.com/", "rating": 3.9, "review_count": "", "latitude": 22.7181933, "longitude": 75.87494319999999, "maps_url": "https://www.google.com/maps/place/?q=place_id:0x3962fd91141818ad:0xa496e301e28e3226"}, {"place_id": "0x39631d3398181fb3:0x36571d5568ee09ed", "name": "Viprax - Website Design Company In Indore", "category": "Website designer", "street": "Shekhar central", "city": "717", "phone": "07999685683", "website": "https://viprax.com/", "rating": 4.6, "review_count": "", "latitude": 22.7228618, "longitude": 75.8869101, "maps_url": "https://www.google.com/maps/place/?q=place_id:0x39631d3398181fb3:0x36571d5568ee09ed"}, {"place_id": "0x3962e3e2960b98f7:0xe6edcca61da2f17d", "name": "Inspark Technologies", "category": "Website designer", "street": "101, Shree vinayak residency Bengali Square", "city": "Madhya Pradesh 452016", "phone": "09407116798", "website": "https://insparktechnologies.com/", "rating": 5, "review_count": "", "latitude": 22.7249613, "longitude": 75.9085673, "maps_url": "https://www.google.com/maps/place/?q=place_id:0x3962e3e2960b98f7:0xe6edcca61da2f17d"}, {"place_id": "0x3962fd26e1e5f981:0xb89f44cd635e87a8", "name": "Ksolves", "category": "Software company", "street": "Brilliant Solitaire", "city": "503-504", "phone": "08527471031", "website": "https://www.ksolves.com/", "rating": 3.8, "review_count": "", "latitude": 22.763866399999998, "longitude": 75.88271449999999, "maps_url": "https://www.google.com/maps/place/?q=place_id:0x3962fd26e1e5f981:0xb89f44cd635e87a8"}, {"place_id": "0x396317d7b9fce5ed:0x76f34aad91692f9e", "name": "Cyber Veins", "category": "Software company", "street": "", "city": "", "phone": "08085747661", "website": "http://cyber-veins.in/", "rating": 5, "review_count": "", "latitude": 14.157641199999999, "longitude": -16.7424939, "maps_url": "https://www.google.com/maps/place/?q=place_id:0x396317d7b9fce5ed:0x76f34aad91692f9e"}, {"place_id": "0x3962fd1528c961ef:0x62b25d266448236e", "name": "Tejhaksh Technologies Pvt. Ltd. Digital Marketing, Website Design, Website Development, Graphic Design Company in Indore", "category": "Marketing agency", "street": "5th Floor", "city": "Kanchan Sagar", "phone": "07049001117", "website": "https://www.tejhaksh.com/", "rating": 5, "review_count": "", "latitude": 22.728439599999998, "longitude": 75.8878573, "maps_url": "https://www.google.com/maps/place/?q=place_id:0x3962fd1528c961ef:0x62b25d266448236e"}, {"place_id": "0x396317b7851457a7:0x7a94f0ec899aea6b", "name": "Teamify", "category": "Software company", "street": "", "city": "", "phone": "06264308387", "website": "https://teamifyinternational.com/", "rating": 4.8, "review_count": "", "latitude": 21.0680074, "longitude": 82.7525294, "maps_url": "https://www.google.com/maps/place/?q=place_id:0x396317b7851457a7:0x7a94f0ec899aea6b"}, {"place_id": "0x3962e37b64b9370b:0x9e561b536c709b5", "name": "Rakuten Symphony", "category": "Corporate office", "street": "Pushp Vihar Colony, Scheme No 131", "city": "Indore, Madhya Pradesh 452010", "phone": "", "website": "https://symphony.rakuten.com/", "rating": 4.2, "review_count": "", "latitude": 22.750048, "longitude": 75.9052169, "maps_url": "https://www.google.com/maps/place/?q=place_id:0x3962e37b64b9370b:0x9e561b536c709b5"}, {"place_id": "0x3962fdc85cc64f77:0x348f9f2b2a9242e9", "name": "Task Source", "category": "Corporate office", "street": "701, 702, 703", "city": "Princes' Business Skypark", "phone": "09522884040", "website": "http://www.tasksource.net/", "rating": 4.5, "review_count": "", "latitude": 22.745618, "longitude": 75.8933851, "maps_url": "https://www.google.com/maps/place/?q=place_id:0x3962fdc85cc64f77:0x348f9f2b2a9242e9"}, {"place_id": "0x3962fc4b042f955b:0xdbb299274d4bcc68", "name": "Web N Soft Solution", "category": "Software company", "street": "112 1st Floor", "city": "Shagun Arcade", "phone": "08269431920", "website": "https://webnsoftsolution.com/", "rating": 3.8, "review_count": "", "latitude": 22.749023299999998, "longitude": 75.8953915, "maps_url": "https://www.google.com/maps/place/?q=place_id:0x3962fc4b042f955b:0xdbb299274d4bcc68"}, {"place_id": "0x3963170d63cf0f6b:0xa071a4f09875f22e", "name": "Punyai Group", "category": "Software company", "street": "", "city": "", "phone": "", "website": "http://bit.ly/2S6gV7Y", "rating": 5, "review_count": "", "latitude": 20.2162413, "longitude": 76.1931778, "maps_url": "https://www.google.com/maps/place/?q=place_id:0x3963170d63cf0f6b:0xa071a4f09875f22e"}, {"place_id": "0x396317b791f9f921:0xaa9d68312ca2f97b", "name": "Robopie Inc.", "category": "Research and product development", "street": "48/A", "city": "near The Guardian School", "phone": "09479561907", "website": "https://www.robopie.in/", "rating": "", "review_count": "", "latitude": 22.9586862, "longitude": 76.0394522, "maps_url": "https://www.google.com/maps/place/?q=place_id:0x396317b791f9f921:0xaa9d68312ca2f97b"}, {"place_id": "0x39631bc8b54f8db3:0xd0ef2e1777e6547c", "name": "Eagle Seeds & Biotech Ltd.", "category": "Agricultural Seed Store", "street": "NH 3 Kshipra", "city": "Pirkaradiya, Indore, Madhya Pradesh 455001", "phone": "", "website": "http://www.eagleseeds.com/", "rating": 4.1, "review_count": "", "latitude": 22.9014299, "longitude": 75.9763169, "maps_url": "https://www.google.com/maps/place/?q=place_id:0x39631bc8b54f8db3:0xd0ef2e1777e6547c"}, {"place_id": "0x396303ac526c0d5f:0xb791eb0c16fb2698", "name": "GangaTara Technologies Pvt. Ltd.", "category": "Software company", "street": "CW-175 Sukhliya Back side of Primecare Hospital 22", "city": "Madhya Pradesh 452010", "phone": "09009494056", "website": "https://gangatara.com/", "rating": 4.9, "review_count": "", "latitude": 22.761795799999998, "longitude": 75.8752745, "maps_url": "https://www.google.com/maps/place/?q=place_id:0x396303ac526c0d5f:0xb791eb0c16fb2698"}, {"place_id": "0x39631834933c0a2d:0x5e6c39bcf3857f7e", "name": "VE Commercial", "category": "Manufacturer", "street": "Police Colony, Industrial Area No. 3", "city": "Dewas, Madhya Pradesh 455001", "phone": "", "website": "http://www.vecv.in/", "rating": 4, "review_count": "", "latitude": 22.931657299999998, "longitude": 76.04093639999999, "maps_url": "https://www.google.com/maps/place/?q=place_id:0x39631834933c0a2d:0x5e6c39bcf3857f7e"}, {"place_id": "0x3962fdfa2191c2f1:0x137db89243391c07", "name": "Turgajo Technologies Pvt. Ltd.", "category": "Software company", "street": "G Floor, Plot 290-291, PU-4, Scheme No. 54 Behind Malhar Mega Mall", "city": "Vijay Nagar", "phone": "", "website": "https://turgajo.com/", "rating": 4.3, "review_count": "", "latitude": 22.7453224, "longitude": 75.89504269999999, "maps_url": "https://www.google.com/maps/place/?q=place_id:0x3962fdfa2191c2f1:0x137db89243391c07"}, {"place_id": "0x396319f659dad8f9:0xfebf479257a5399d", "name": "Eicher Dewas", "category": "Corporate office", "street": "W2JR+HFP", "city": "Vikas Nagar, Police Colony, Industrial Area No. 3", "phone": "", "website": "", "rating": 4, "review_count": "", "latitude": 22.9314617, "longitude": 76.041195, "maps_url": "https://www.google.com/maps/place/?q=place_id:0x396319f659dad8f9:0xfebf479257a5399d"}, {"place_id": "0x3963031c00643839:0x8e799c31760d97c9", "name": "Etcetera Technologies", "category": "Software company", "street": "Minal Shree Apartment", "city": "19", "phone": "", "website": "", "rating": 4.8, "review_count": "", "latitude": 22.732077099999998, "longitude": 75.87504489999999, "maps_url": "https://www.google.com/maps/place/?q=place_id:0x3963031c00643839:0x8e799c31760d97c9"}, {"place_id": "0x3963179b199ebc09:0x19d986d195a033c1", "name": "Ntier Solutions", "category": "Software company", "street": "Daya Shree Complex", "city": "AB Rd", "phone": "09893776747", "website": "http://www.outputwebtech.com/", "rating": "", "review_count": "", "latitude": 22.960306499999998, "longitude": 76.0439695, "maps_url": "https://www.google.com/maps/place/?q=place_id:0x3963179b199ebc09:0x19d986d195a033c1"}, {"place_id": "0x39631d521e337c17:0xa5bc2ee3552e83a8", "name": "Webmuse Technology", "category": "Software company", "street": "vasant vihar", "city": "41 C, Bombay Hospital Service Rd", "phone": "07000602982", "website": "", "rating": 5, "review_count": "", "latitude": 22.7613783, "longitude": 75.9055698, "maps_url": "https://www.google.com/maps/place/?q=place_id:0x39631d521e337c17:0xa5bc2ee3552e83a8"}, {"place_id": "0x3962e2c8b661e3cd:0xc761b7784b672eb2", "name": "Techiasm IT Company", "category": "Software company", "street": "near Bengali square", "city": "Ashish Nagar", "phone": "", "website": "", "rating": "", "review_count": "", "latitude": 22.7227757, "longitude": 75.9102118, "maps_url": "https://www.google.com/maps/place/?q=place_id:0x3962e2c8b661e3cd:0xc761b7784b672eb2"}, {"place_id": "0x396317bd43c6cae9:0x93e7d2a1d33dd13f", "name": "Anahcra Infotech Private Limited", "category": "Marketing agency", "street": "81, Khari Bawadi Road", "city": "Old Town, Hanuman Bakhal", "phone": "07987071323", "website": "", "rating": 5, "review_count": "", "latitude": 22.9622605, "longitude": 76.0569897, "maps_url": "https://www.google.com/maps/place/?q=place_id:0x396317bd43c6cae9:0x93e7d2a1d33dd13f"}, {"place_id": "0x3963175dbfbef98b:0x5ddd1ccdfba37de0", "name": "Trushja Softech", "category": "Software company", "street": "in front of Sharda Mata Mandir", "city": "Chamunda Kunj Colony, Mishrilal Nagar, Ganga Nagar", "phone": "07771094445", "website": "http://trushjasoftech.in/", "rating": "", "review_count": "", "latitude": 22.9539071, "longitude": 76.0376828, "maps_url": "https://www.google.com/maps/place/?q=place_id:0x3963175dbfbef98b:0x5ddd1ccdfba37de0"}]}