[{"place_id": "ChIJM-ZDIOXiDDkRHNlL6nlN1D4", "name": "Wirecto", "street": "Triloki Colony, C-49, South Extension I, Mahaveer Nagar, Kotla Mubarakpur, New Delhi, Delhi 110003, India", "phone": "+91 97166 70074", "rating": "5", "review_count": "", "website": "https://wirecto.app/", "latitude": 28.575404799999998, "longitude": 77.2250054, "maps_url": "https://www.google.com/maps/search/?api=1&query=Wirecto&query_place_id=ChIJM-ZDIOXiDDkRHNlL6nlN1D4"}, {"place_id": "ChIJEZi4U8HjDDkRyul3V2h5ouc", "name": "IT Company", "street": "A-14, near iskcon temple, Block A, APB Garhi, Vasant Vihar, New Delhi, Delhi 110065, India", "phone": "", "rating": "3", "review_count": "", "website": "http://www.opuswiz.com/", "latitude": 28.557167, "longitude": 77.25424819999999, "maps_url": "https://www.google.com/maps/search/?api=1&query=IT%20Company&query_place_id=ChIJEZi4U8HjDDkRyul3V2h5ouc"}, {"place_id": "ChIJ6xG0sw-c-DkRWHWbfpc_R74", "name": "Kbeatech - Digital Solutions Company", "street": "1893, 1st Floor, Uday Chand Marg, South Extension I, Kotla Mubarakpur, New Delhi, Delhi 110049, India", "phone": "", "rating": "4.9", "review_count": "", "website": "https://kbeatech.in/", "latitude": 28.571338299999997, "longitude": 77.2228884, "maps_url": "https://www.google.com/maps/search/?api=1&query=Kbeatech%20-%20Digital%20Solutions%20Company&query_place_id=ChIJ6xG0sw-c-DkRWHWbfpc_R74"}, {"place_id": "ChIJ5QlVe1nhDDkRPE20N7kJgv0", "name": "IT Solutions India Private Limited", "street": "D-88/5, Pocket D, Okhla Phase I, Okhla Industrial Estate, New Delhi, Delhi 110020, India", "phone": "+91 98100 17429", "rating": "4.2", "review_count": "", "website": "https://www.itsipl.com/", "latitude": 28.520146, "longitude": 77.280431, "maps_url": "https://www.google.com/maps/search/?api=1&query=IT%20Solutions%20India%20Private%20Limited&query_place_id=ChIJ5QlVe1nhDDkRPE20N7kJgv0"}, {"place_id": "ChIJf0vgss3jDDkRXzr2g_p_rkM", "name": "GIBS (Global IT Business Solutions)", "street": "15A Basement, Golf Apartments, near Sujan Singh Park, Khan Market, Sujan Singh Park, New Delhi, Delhi 110003, India", "phone": "+91 98112 26600", "rating": "4.9", "review_count": "", "website": "https://gibsit.com/", "latitude": 28.5991413, "longitude": 77.2288398, "maps_url": "https://www.google.com/maps/search/?api=1&query=GIBS%20%28Global%20IT%20Business%20Solutions%29&query_place_id=ChIJf0vgss3jDDkRXzr2g_p_rkM"}, {"place_id": "ChIJXSqyvAfjDDkRJfz6ZVF7zJw", "name": "EDGISS IT SERVICES INC.", "street": "40, Jangpura Rd, Bhogal, New Delhi, Delhi 110014, India", "phone": "+91 79820 01184", "rating": "5", "review_count": "", "website": "https://www.edgiss.in/", "latitude": 28.582393699999997, "longitude": 77.24992309999999, "maps_url": "https://www.google.com/maps/search/?api=1&query=EDGISS%20IT%20SERVICES%20INC.&query_place_id=ChIJXSqyvAfjDDkRJfz6ZVF7zJw"}, {"place_id": "ChIJVed5zP3lDDkR9k64UZLpnDA", "name": "Optyminds IT Solutions - Top AI and IT company I Best Digital agency in Noida | Delhi NCR | India", "street": "1st Floor, B-70, B Block, Sector 2, Noida, Uttar Pradesh 201301, India", "phone": "+91 89290 75975", "rating": "4.9", "review_count": "", "website": "https://optyminds.com/", "latitude": 28.584679599999998, "longitude": 77.3135042, "maps_url": "https://www.google.com/maps/search/?api=1&query=Optyminds%20IT%20Solutions%20-%20Top%20AI%20and%20IT%20company%20I%20Best%20Digital%20agency%20in%20Noida%20%7C%20Delhi%20NCR%20%7C%20India&query_place_id=ChIJVed5zP3lDDkR9k64UZLpnDA"}, {"place_id": "ChIJcyHxpIYdDTkRYIJLb-pCazo", "name": "Softvanz Technologies Private Limited", "street": "Somdutt Chamber 1, BT-22/9, Bhikaji Cama Place, Rama Krishna Puram, New Delhi, Delhi 110066, India", "phone": "", "rating": "5", "review_count": "", "website": "https://softvanz.com/", "latitude": 28.567948899999998, "longitude": 77.1889269, "maps_url": "https://www.google.com/maps/search/?api=1&query=Softvanz%20Technologies%20Private%20Limited&query_place_id=ChIJcyHxpIYdDTkRYIJLb-pCazo"}, {"place_id": "ChIJVVVVgV7iDDkRR38SUjV3P_k", "name": "SANEKT SOFTWARE SOLUTION", "street": "Top floor, H 11, South Extension, Block H, New Delhi, Delhi 110049, India", "phone": "+91 11 4158 9565", "rating": "5", "review_count": "", "website": "http://sanekt.com/", "latitude": 28.571361, "longitude": 77.221733, "maps_url": "https://www.google.com/maps/search/?api=1&query=SANEKT%20SOFTWARE%20SOLUTION&query_place_id=ChIJVVVVgV7iDDkRR38SUjV3P_k"}, {"place_id": "ChIJ8XVy-qHjDDkRNpU2vDkjeSw", "name": "Ezeetech Solutions", "street": "149-A, 1st Floor, Baba House Complex, Mahatma Gandhi Rd, Kilokri, Phase 1, Sunlight Colony, New Delhi, Delhi 110014, India", "phone": "+91 11 4990 1562", "rating": "4.9", "review_count": "", "website": "https://ezeetechonline.com/", "latitude": 28.576534199999998, "longitude": 77.26283029999999, "maps_url": "https://www.google.com/maps/search/?api=1&query=Ezeetech%20Solutions&query_place_id=ChIJ8XVy-qHjDDkRNpU2vDkjeSw"}, {"place_id": "ChIJl5geAqLjDDkRGQx9atNSvyg", "name": "It Softtech - Website Designing and Development Company in Delhi, India", "street": "149, Ring Rd, opp. Maharani Bagh, Kilokri, Phase 1, Hari Nagar Ashram, New Delhi, Delhi 110014, India", "phone": "+91 98100 56177", "rating": "5", "review_count": "", "website": "", "latitude": 28.5763395, "longitude": 77.2640869, "maps_url": "https://www.google.com/maps/search/?api=1&query=It%20Softtech%20-%20Website%20Designing%20and%20Development%20Company%20in%20Delhi%2C%20India&query_place_id=ChIJl5geAqLjDDkRGQx9atNSvyg"}, {"place_id": "ChIJz9fYoZPiDDkR53a0TjM66ww", "name": "Combine Company", "street": "35 A, Prithvi Raj Road, New Delhi, Delhi 110003, India", "phone": "+91 98101 11169", "rating": "4.4", "review_count": "", "website": "https://bestfituniversities.com/", "latitude": 28.592962699999998, "longitude": 77.21440319999999, "maps_url": "https://www.google.com/maps/search/?api=1&query=Combine%20Company&query_place_id=ChIJz9fYoZPiDDkR53a0TjM66ww"}, {"place_id": "ChIJCXxNvm1Yv04RbCL1O8hVhJY", "name": "Anchor IT Solutions- App Development | Website Development | Digital Marketing", "street": "4, Vinoba Puri, Lajpat Nagar II, Lajpat Nagar, New Delhi, Delhi 110024, India", "phone": "+91 76786 58584", "rating": "4.8", "review_count": "", "website": "", "latitude": 28.566371399999998, "longitude": 77.2486924, "maps_url": "https://www.google.com/maps/search/?api=1&query=Anchor%20IT%20Solutions-%20App%20Development%20%7C%20Website%20Development%20%7C%20Digital%20Marketing&query_place_id=ChIJCXxNvm1Yv04RbCL1O8hVhJY"}, {"place_id": "ChIJFeXlTZkCDTkRNw2aQAO8CNk", "name": "Himalayan IT Solutions | Best Website Designing Company in Delhi | SEO/Digital Marketing Company in Delhi NCR, India", "street": "61/4255, Padam Singh Rd, Block 29, Block 1, Regar Pura, Karol Bagh, Delhi, 110005, India", "phone": "+91 98990 98509", "rating": "3.9", "review_count": "", "website": "http://www.himalayanitsolutions.com/", "latitude": 28.649673999999997, "longitude": 77.186599, "maps_url": "https://www.google.com/maps/search/?api=1&query=Himalayan%20IT%20Solutions%20%7C%20Best%20Website%20Designing%20Company%20in%20Delhi%20%7C%20SEO/Digital%20Marketing%20Company%20in%20Delhi%20NCR%2C%20India&query_place_id=ChIJFeXlTZkCDTkRNw2aQAO8CNk"}, {"place_id": "ChIJDRsYVtnjDDkRMpAU72wni74", "name": "Eastman Colour Restaurants Pvt Ltd.", "street": "SECOND FLOOR, J30, Jor Bagh, BK Dutt Colony, New Delhi, Delhi 110003, India", "phone": "", "rating": "4.4", "review_count": "", "website": "", "latitude": 28.5856803, "longitude": 77.21709109999999, "maps_url": "https://www.google.com/maps/search/?api=1&query=Eastman%20Colour%20Restaurants%20Pvt%20Ltd.&query_place_id=ChIJDRsYVtnjDDkRMpAU72wni74"}, {"place_id": "ChIJ7Wr1xKTtDzkR7MCP44eydyI", "name": "Dizivan IT Solutions Pvt Ltd- App Development & Digital Marketing Company", "street": "near Metro Station New Ashok Nagar, Block B, New Ashok Nagar, New Delhi, Delhi, 110096, India", "phone": "+91 91420 92979", "rating": "5", "review_count": "", "website": "https://dizivan.com/", "latitude": 28.5891575, "longitude": 77.3020624, "maps_url": "https://www.google.com/maps/search/?api=1&query=Dizivan%20IT%20Solutions%20Pvt%20Ltd-%20App%20Development%20%26%20Digital%20Marketing%20Company&query_place_id=ChIJ7Wr1xKTtDzkR7MCP44eydyI"}, {"place_id": "ChIJm_3YCUbkDDkR9hCWZycPaJw", "name": "Crestech Software", "street": "Plot No. D, Vyapar Marg, D Block, Sector 2, Noida, Uttar Pradesh 201301, India", "phone": "+91 88266 66755", "rating": "3.6", "review_count": "", "website": "https://www.crestechsoftware.com/", "latitude": 28.5836924, "longitude": 77.3166213, "maps_url": "https://www.google.com/maps/search/?api=1&query=Crestech%20Software&query_place_id=ChIJm_3YCUbkDDkR9hCWZycPaJw"}, {"place_id": "ChIJtaZJfLbjDDkRxuKZ3O22nBw", "name": "AdOne Network Pvt Ltd", "street": "Web SEO India 1, Sujan Sing Park North, Sujan Singh Park, New Delhi, Delhi 110003, India", "phone": "+91 97176 81813", "rating": "4.7", "review_count": "", "website": "http://www.ad1.in/", "latitude": 28.6021972, "longitude": 77.22852259999999, "maps_url": "https://www.google.com/maps/search/?api=1&query=AdOne%20Network%20Pvt%20Ltd&query_place_id=ChIJtaZJfLbjDDkRxuKZ3O22nBw"}, {"place_id": "ChIJq6qqLpPjDDkRUjjZ4KrZCLM", "name": "Al Hadaf Technologies– ERP, CRM, HRM, Hospital, School, Billing Software Development Company in Delhi NCR", "street": "96, Gate No-2, opp. Escort Hospital, Sarai Jullena, Okhla, New Delhi, Delhi 110025, India", "phone": "+91 85869 72994", "rating": "4.9", "review_count": "", "website": "https://www.alhadaftech.com/", "latitude": 28.5562397, "longitude": 77.2762099, "maps_url": "https://www.google.com/maps/search/?api=1&query=Al%20Hadaf%20Technologies%E2%80%93%20ERP%2C%20CRM%2C%20HRM%2C%20Hospital%2C%20School%2C%20Billing%20Software%20Development%20Company%20in%20Delhi%20NCR&query_place_id=ChIJq6qqLpPjDDkRUjjZ4KrZCLM"}, {"place_id": "ChIJAQAAwLfjDDkRN9kC5Q7Y3UY", "name": "Amtrak Technologies Private Limited", "street": "6, Community Centre, East of Kailash, New Delhi, Delhi 110065, India", "phone": "+91 11 2644 8000", "rating": "4.4", "review_count": "", "website": "https://amtrak.co.in/", "latitude": 28.558434899999998, "longitude": 77.2463302, "maps_url": "https://www.google.com/maps/search/?api=1&query=Amtrak%20Technologies%20Private%20Limited&query_place_id=ChIJAQAAwLfjDDkRN9kC5Q7Y3UY"}, {"place_id": "ChIJEWC-3RDjDDkRlaR-qGzH5yk", "name": "DigiTecholic Private Limited", "street": "1st Floor, H-11, near Bengali Sweet Center, South Extension I, Block H, New Delhi, Delhi 110049, India", "phone": "+91 77008 40888", "rating": "5", "review_count": "", "website": "https://www.digitecholic.com/", "latitude": 28.5713112, "longitude": 77.2219863, "maps_url": "https://www.google.com/maps/search/?api=1&query=DigiTecholic%20Private%20Limited&query_place_id=ChIJEWC-3RDjDDkRlaR-qGzH5yk"}, {"place_id": "ChIJ7xPJBtbjDDkRrSzrMVa9RtI", "name": "Delvetech", "street": "87A/1, 3rd Floor, Opp. Block N-115, G.K-1, Near Moolchand Merto, Block B, Zamrudpur, Greater Kailash, New Delhi, Delhi 110048, India", "phone": "+91 98738 95154", "rating": "4.1", "review_count": "", "website": "http://www.delvetech.co.in/", "latitude": 28.5570597, "longitude": 77.2356981, "maps_url": "https://www.google.com/maps/search/?api=1&query=Delvetech&query_place_id=ChIJ7xPJBtbjDDkRrSzrMVa9RtI"}, {"place_id": "ChIJEbS1uZXjDDkRk2MVB7rDV5A", "name": "IntelliSmart Infrastructure Pvt. Ltd.", "street": "First Floor, Lodhi Rd, Pragati Vihar, New Delhi, Delhi 110003, India", "phone": "+91 124 471 0330", "rating": "4.2", "review_count": "", "website": "https://intellismartinfra.in/", "latitude": 28.586567, "longitude": 77.2307502, "maps_url": "https://www.google.com/maps/search/?api=1&query=IntelliSmart%20Infrastructure%20Pvt.%20Ltd.&query_place_id=ChIJEbS1uZXjDDkRk2MVB7rDV5A"}, {"place_id": "ChIJn1Ams43iDDkR7sNbhH-QELM", "name": "Dauphin Travel Marketing Pvt. Ltd.", "street": "Tirupati Plaza, A-212-C/304, Street No. 1, Shakarpur, Delhi, New Delhi, Delhi 110003, India", "phone": "+91 11 6554 5430", "rating": "3.8", "review_count": "", "website": "http://www.dtmbazaar.com/about-us.html", "latitude": 28.585794, "longitude": 77.2137355, "maps_url": "https://www.google.com/maps/search/?api=1&query=Dauphin%20Travel%20Marketing%20Pvt.%20Ltd.&query_place_id=ChIJn1Ams43iDDkR7sNbhH-QELM"}, {"place_id": "ChIJI8eBDIbjDDkRPmqowEMO9cU", "name": "Nextr Technology", "street": "2nd Floor, 1483/A-1, South Extension I, Wazir Nagar, New Delhi, Delhi 110003, India", "phone": "+91 99117 51575", "rating": "4.9", "review_count": "", "website": "http://www.nextr.in/", "latitude": 28.574374, "longitude": 77.224284, "maps_url": "https://www.google.com/maps/search/?api=1&query=Nextr%20Technology&query_place_id=ChIJI8eBDIbjDDkRPmqowEMO9cU"}, {"place_id": "ChIJUcFQGe7iDDkRhexdF5KwQxM", "name": "HUDCO Corporate Office", "street": "Core 7A, India Habitat Centre, Lodhi Rd, Institutional Area, Lodi Colony, New Delhi, Delhi 110003, India", "phone": "+91 11 2464 8160", "rating": "4.5", "review_count": "", "website": "https://hudco.org.in/Site/FormTemplete/frmTempforData.aspx?MnId=522&Flag=RO&Sid=1", "latitude": 28.5899769, "longitude": 77.22483129999999, "maps_url": "https://www.google.com/maps/search/?api=1&query=HUDCO%20Corporate%20Office&query_place_id=ChIJUcFQGe7iDDkRhexdF5KwQxM"}, {"place_id": "ChIJyTIs3u3iDDkRXA7be3Pk0b0", "name": "WWF-India", "street": "Pirojsha Godrej Building, 172 B, Lodhi Rd, Lodhi Gardens, Lodhi Estate, New Delhi, Delhi 110003, India", "phone": "+91 11 4150 4814", "rating": "4.5", "review_count": "", "website": "http://www.wwfindia.org/", "latitude": 28.590964999999997, "longitude": 77.223072, "maps_url": "https://www.google.com/maps/search/?api=1&query=WWF-India&query_place_id=ChIJyTIs3u3iDDkRXA7be3Pk0b0"}, {"place_id": "ChIJJxEZLa38DDkRjqnAHiAFyIM", "name": "IT Nucleus", "street": "310, 3rd Floor, S-524, Aggarwal House Opp-Metro Pillar 27, School Block shakarpur, Laxmi Nagar, Delhi, 110092, India", "phone": "+91 11 4300 1828", "rating": "4.9", "review_count": "", "website": "http://www.itnucleus.com/", "latitude": 28.629542599999997, "longitude": 77.2766257, "maps_url": "https://www.google.com/maps/search/?api=1&query=IT%20Nucleus&query_place_id=ChIJJxEZLa38DDkRjqnAHiAFyIM"}, {"place_id": "ChIJjwRhzVvkDDkR910V9AJWal8", "name": "JK Technosoft Limited", "street": "F, 3, Block F, Noida Sector 3, Noida, Uttar Pradesh 201301, India", "phone": "+91 120 460 6300", "rating": "4.2", "review_count": "", "website": "https://jktech.com/", "latitude": 28.5802509, "longitude": 77.31793329999999, "maps_url": "https://www.google.com/maps/search/?api=1&query=JK%20Technosoft%20Limited&query_place_id=ChIJjwRhzVvkDDkR910V9AJWal8"}, {"place_id": "ChIJW5OBLOziDDkRmDWw-hOUIh8", "name": "United Nations Development Programme (UNDP), India", "street": "55, Joseph Stein Lane, Lodhi Gardens, Lodhi Estate, New Delhi, Delhi 110003, India", "phone": "+91 11 4653 2333", "rating": "4.7", "review_count": "", "website": "https://www.undp.org/india", "latitude": 28.5925105, "longitude": 77.22290579999999, "maps_url": "https://www.google.com/maps/search/?api=1&query=United%20Nations%20Development%20Programme%20%28UNDP%29%2C%20India&query_place_id=ChIJW5OBLOziDDkRmDWw-hOUIh8"}, {"place_id": "ChIJ4___PwDjDDkRaecDhqKS2B0", "name": "Corporate Infotech Pvt Ltd.", "street": "E-81, E Block, Sector 6, Noida, Uttar Pradesh 201301, India", "phone": "+91 1800 11 6474", "rating": "4.4", "review_count": "", "website": "https://cipl.org.in/", "latitude": 28.5937284, "longitude": 77.3206974, "maps_url": "https://www.google.com/maps/search/?api=1&query=Corporate%20Infotech%20Pvt%20Ltd.&query_place_id=ChIJ4___PwDjDDkRaecDhqKS2B0"}, {"place_id": "ChIJL7i0Y9rGFUIRZKmtphSoS3k", "name": "Asha Tech | Website Designing | App Development | IT Company in Delhi", "street": "no 2, 195, Lane No. 1, Westend Marg, near Saket Metro Gate, Saidulajab, Saket, Delhi 110030, India", "phone": "+91 75310 80874", "rating": "4.7", "review_count": "", "website": "https://ashatech.co.in/", "latitude": 28.519994099999998, "longitude": 77.2008791, "maps_url": "https://www.google.com/maps/search/?api=1&query=Asha%20Tech%20%7C%20Website%20Designing%20%7C%20App%20Development%20%7C%20IT%20Company%20in%20Delhi&query_place_id=ChIJL7i0Y9rGFUIRZKmtphSoS3k"}, {"place_id": "ChIJM5vpNV7iDDkRzI9Om-arQ_Q", "name": "Synapse Valuetech Private Limited", "street": "Lower Ground Floor, 221, Kailash Hills, East of Kailash, New Delhi, Delhi 110065, India", "phone": "+91 11 4662 8882", "rating": "4.3", "review_count": "", "website": "https://www.synapsevaluetech.com/", "latitude": 28.558165, "longitude": 77.2592385, "maps_url": "https://www.google.com/maps/search/?api=1&query=Synapse%20Valuetech%20Private%20Limited&query_place_id=ChIJM5vpNV7iDDkRzI9Om-arQ_Q"}, {"place_id": "ChIJd9dOTA_jDDkR5RzlLANefDo", "name": "Appextech Software Solutions", "street": "Second Floor, Mohan Cooperative Industrial Estate, B1/A19, Block A, Vishwakarma Colony, Pul Pehladpur, New Delhi, Delhi 110044, India", "phone": "+91 99114 32451", "rating": "4.9", "review_count": "", "website": "https://www.appextech.com/", "latitude": 28.502260099999997, "longitude": 77.28519, "maps_url": "https://www.google.com/maps/search/?api=1&query=Appextech%20Software%20Solutions&query_place_id=ChIJd9dOTA_jDDkR5RzlLANefDo"}, {"place_id": "ChIJ5-NJpZLiDDkRvg9U_8qDICA", "name": "iPATE", "street": "The Mantosh Sondhi Centre, 23, Lodhi Rd, Institutional Area, Jor Bagh, New Delhi, Delhi 110003, India", "phone": "+91 85858 25530", "rating": "2", "review_count": "", "website": "http://ipate.in/", "latitude": 28.589468999999998, "longitude": 77.21704199999999, "maps_url": "https://www.google.com/maps/search/?api=1&query=iPATE&query_place_id=ChIJ5-NJpZLiDDkRvg9U_8qDICA"}, {"place_id": "ChIJ6wQV6c_jDDkR1yOSSVxsNFU", "name": "CCS Computers Private Limited", "street": "2nd-3rd Floor Skipper House, Nehru Place, New Delhi, Delhi 110019, India", "phone": "+91 11 2646 3959", "rating": "4", "review_count": "", "website": "http://www.ccscomputers.co.in/", "latitude": 28.550090599999997, "longitude": 77.2537834, "maps_url": "https://www.google.com/maps/search/?api=1&query=CCS%20Computers%20Private%20Limited&query_place_id=ChIJ6wQV6c_jDDkR1yOSSVxsNFU"}, {"place_id": "ChIJO6wMd3LiDDkRkOa6Hh0J2yQ", "name": "TERI - The Energy and Resources Institute", "street": "6C, Darbari Seth Block, Lodhi Rd, Institutional Area, Lodi Colony, New Delhi, Delhi 110003, India", "phone": "+91 11 2468 2100", "rating": "4.5", "review_count": "", "website": "http://www.teriin.org/", "latitude": 28.5900462, "longitude": 77.22506729999999, "maps_url": "https://www.google.com/maps/search/?api=1&query=TERI%20-%20The%20Energy%20and%20Resources%20Institute&query_place_id=ChIJO6wMd3LiDDkRkOa6Hh0J2yQ"}, {"place_id": "ChIJSwAK01XiDDkReuYSLHV-3fo", "name": "UN Women India Country Office", "street": "UN House, 55, Lodhi Estate, New Delhi, Delhi 110003, India", "phone": "+91 11 4653 2250", "rating": "4.6", "review_count": "", "website": "http://asiapacific.unwomen.org/en/countries/india", "latitude": 28.592582, "longitude": 77.22293859999999, "maps_url": "https://www.google.com/maps/search/?api=1&query=UN%20Women%20India%20Country%20Office&query_place_id=ChIJSwAK01XiDDkReuYSLHV-3fo"}, {"place_id": "ChIJX-4MRtvjDDkRD6RWqtTopkc", "name": "Injoria Technologies: Website, Custome Software, Mobile Apps Development company", "street": "Second Floor, Pandav Nagar Complex, C - 40, Block C, Ganesh Nagar, Delhi, 110092, India", "phone": "+91 99111 77045", "rating": "4.5", "review_count": "", "website": "", "latitude": 28.6215884, "longitude": 77.2842872, "maps_url": "https://www.google.com/maps/search/?api=1&query=Injoria%20Technologies%3A%20Website%2C%20Custome%20Software%2C%20Mobile%20Apps%20Development%20company&query_place_id=ChIJX-4MRtvjDDkRD6RWqtTopkc"}, {"place_id": "ChIJcesdOTX9DDkRtlHcx4gT3ds", "name": "Jak Software Pvt Ltd", "street": "52 Janpath, New Delhi, Delhi 110001, India", "phone": "+91 78272 49056", "rating": "4.4", "review_count": "", "website": "http://www.jaksoftware.co.in/", "latitude": 28.627537999999998, "longitude": 77.21878989999999, "maps_url": "https://www.google.com/maps/search/?api=1&query=Jak%20Software%20Pvt%20Ltd&query_place_id=ChIJcesdOTX9DDkRtlHcx4gT3ds"}, {"place_id": "ChIJL6Sj4lnkDDkRciwMCULgot0", "name": "InfiCare Technologies Pvt. Ltd", "street": "D-92 Second/Third floor, Sector 2, Noida, Uttar Pradesh 201301, India", "phone": "+91 97112 65591", "rating": "3.8", "review_count": "", "website": "http://www.inficaretech.com/", "latitude": 28.582936099999998, "longitude": 77.3175146, "maps_url": "https://www.google.com/maps/search/?api=1&query=InfiCare%20Technologies%20Pvt.%20Ltd&query_place_id=ChIJL6Sj4lnkDDkRciwMCULgot0"}, {"place_id": "ChIJVVVVRY3iDDkR_pkn9J-tY_k", "name": "IG Hospitality India Pvt. Ltd.", "street": "89, Jor Bagh, New Delhi, Delhi 110003, India", "phone": "+91 93191 95005", "rating": "4.4", "review_count": "", "website": "http://www.ighospitalityindia.com/", "latitude": 28.5882251, "longitude": 77.2141726, "maps_url": "https://www.google.com/maps/search/?api=1&query=IG%20Hospitality%20India%20Pvt.%20Ltd.&query_place_id=ChIJVVVVRY3iDDkR_pkn9J-tY_k"}, {"place_id": "ChIJq6qqmq3jDDkRmEOhwyhvHc0", "name": "Team Building Pro - Corporate Team Building Company in Delhi NCR", "street": "1st-Floor, B-94, Block B, Lajpat Nagar I, Lajpat Nagar, New Delhi, Delhi 110024, India", "phone": "+91 98710 30465", "rating": "4.9", "review_count": "", "website": "https://teambuildingpro.in/", "latitude": 28.5744208, "longitude": 77.23969579999999, "maps_url": "https://www.google.com/maps/search/?api=1&query=Team%20Building%20Pro%20-%20Corporate%20Team%20Building%20Company%20in%20Delhi%20NCR&query_place_id=ChIJq6qqmq3jDDkRmEOhwyhvHc0"}, {"place_id": "ChIJLxIvL-ziDDkRUnVOsyz9hbM", "name": "United Nations Population Fund", "street": "55, Lodhi Estate, Lodhi Road, New Delhi, Delhi 110003, India", "phone": "+91 11 4653 2224", "rating": "4.8", "review_count": "", "website": "https://www.unfpa.org/", "latitude": 28.5926103, "longitude": 77.22316289999999, "maps_url": "https://www.google.com/maps/search/?api=1&query=United%20Nations%20Population%20Fund&query_place_id=ChIJLxIvL-ziDDkRUnVOsyz9hbM"}, {"place_id": "ChIJeehk1vHiDDkR4Ua8P8LB-JY", "name": "International Labour Organization", "street": "3rd Floor, Core 4B, Lodhi Rd, Institutional Area, Lodi Colony, New Delhi, Delhi 110003, India", "phone": "+91 11 2460 2101", "rating": "4.2", "review_count": "", "website": "http://www.ilo.org/", "latitude": 28.589543799999998, "longitude": 77.2257423, "maps_url": "https://www.google.com/maps/search/?api=1&query=International%20Labour%20Organization&query_place_id=ChIJeehk1vHiDDkR4Ua8P8LB-JY"}, {"place_id": "ChIJq11ZZh3jDDkRwveAi1IL7fg", "name": "Indian Renewable Energy Development Agency Limited", "street": "Core-4a, 1st Floor, India Habitat Centre, East Court, Lodhi Road, New Delhi, Delhi 110003, India", "phone": "+91 11 2468 2214", "rating": "4.4", "review_count": "", "website": "", "latitude": 28.589932299999997, "longitude": 77.2253138, "maps_url": "https://www.google.com/maps/search/?api=1&query=Indian%20Renewable%20Energy%20Development%20Agency%20Limited&query_place_id=ChIJq11ZZh3jDDkRwveAi1IL7fg"}, {"place_id": "ChIJ76qqOprjDDkRsAnu5xyCV8o", "name": "Smart IT Technologies", "street": "Saroj Sadan, 100, Block C, New Friends Colony, New Delhi, Delhi 110025, India", "phone": "+91 88402 74824", "rating": "5", "review_count": "", "website": "https://smartittechnologies.com/", "latitude": 28.5697218, "longitude": 77.2680354, "maps_url": "https://www.google.com/maps/search/?api=1&query=Smart%20IT%20Technologies&query_place_id=ChIJ76qqOprjDDkRsAnu5xyCV8o"}, {"place_id": "ChIJ_5If8cHjDDkR_H4a3JEK_m0", "name": "AMBER CYBER CAFE , gift and stationery shop", "street": "17, Lodhi Rd, behind shop No 16, Meharchand Market, Lodi Colony, New Delhi, Delhi 110003, India", "phone": "+91 98993 09674", "rating": "4.3", "review_count": "", "website": "", "latitude": 28.586441899999997, "longitude": 77.2265499, "maps_url": "https://www.google.com/maps/search/?api=1&query=AMBER%20CYBER%20CAFE%20%2C%20gift%20and%20stationery%20shop&query_place_id=ChIJ_5If8cHjDDkR_H4a3JEK_m0"}, {"place_id": "ChIJfR9xklfiDDkRqU1BQIVARiY", "name": "GRIHA Council - Green Rating for Integrated Habitat Assessment", "street": "3rd Floor, Core 1B, Lodhi Rd, Institutional Area, Lodi Colony, New Delhi, Delhi 110003, India", "phone": "+91 11 4644 4500", "rating": "4.6", "review_count": "", "website": "https://www.grihaindia.org/", "latitude": 28.589918299999997, "longitude": 77.2256062, "maps_url": "https://www.google.com/maps/search/?api=1&query=GRIHA%20Council%20-%20Green%20Rating%20for%20Integrated%20Habitat%20Assessment&query_place_id=ChIJfR9xklfiDDkRqU1BQIVARiY"}, {"place_id": "ChIJz8iLzeLjDDkRZE9RpJ917ag", "name": "common time | lodhi colony", "street": "Shop no, 2 & 3, Meharchand Market, Lodi Colony, New Delhi, Delhi 110003, India", "phone": "+91 63901 71717", "rating": "4.2", "review_count": "", "website": "https://commontime.in/", "latitude": 28.586828999999998, "longitude": 77.2263756, "maps_url": "https://www.google.com/maps/search/?api=1&query=common%20time%20%7C%20lodhi%20colony&query_place_id=ChIJz8iLzeLjDDkRZE9RpJ917ag"}, {"place_id": "ChIJq11ZZh3jDDkR0fyvf0i6bI8", "name": "SIAM", "street": "5th Floor, India Habitat Centre, Core 4B, Lodhi Rd, New Delhi, Delhi 110003, India", "phone": "+91 11 4710 3010", "rating": "4.1", "review_count": "", "website": "http://www.siam.in/", "latitude": 28.5897242, "longitude": 77.2259206, "maps_url": "https://www.google.com/maps/search/?api=1&query=SIAM&query_place_id=ChIJq11ZZh3jDDkR0fyvf0i6bI8"}, {"place_id": "ChIJq6qqavziDDkRuk0JV1rplPI", "name": "Castrol India Limited", "street": "5th Floor, East Tower Nbcc Place, Pragati Vihar, B P Marg, Kotla Mubarakpur, Kotla Mubarakpur, New Delhi, Delhi 110003, India", "phone": "+91 11 2436 5025", "rating": "4.3", "review_count": "", "website": "http://www.castrol.com/", "latitude": 28.586782799999998, "longitude": 77.2311509, "maps_url": "https://www.google.com/maps/search/?api=1&query=Castrol%20India%20Limited&query_place_id=ChIJq6qqavziDDkRuk0JV1rplPI"}, {"place_id": "ChIJnSs9bl_iDDkRm_Ull_yg81c", "name": "YATRA POINT TOURISM COMPANY INDIA", "street": "OFFICE NO-7, BULDING NO N-1, LGF, 4, near BANSALI JEWLLERS L, South Extension I, New Delhi, Delhi 110003, India", "phone": "+91 88600 16982", "rating": "4.9", "review_count": "", "website": "", "latitude": 28.574078, "longitude": 77.219089, "maps_url": "https://www.google.com/maps/search/?api=1&query=YATRA%20POINT%20TOURISM%20COMPANY%20INDIA&query_place_id=ChIJnSs9bl_iDDkRm_Ull_yg81c"}, {"place_id": "ChIJpWa_fFviDDkRq3qmI_sKcf4", "name": "Jetking South Ext. Learning Center", "street": "F-38 , Second Floor, Infront of McDonald Part 1, South Extension I, Block F, New Delhi, Delhi 110049, India", "phone": "+91 11 4106 8989", "rating": "4.7", "review_count": "", "website": "https://www.jetking.com/centres/south-extension", "latitude": 28.569656, "longitude": 77.2196429, "maps_url": "https://www.google.com/maps/search/?api=1&query=Jetking%20South%20Ext.%20Learning%20Center&query_place_id=ChIJpWa_fFviDDkRq3qmI_sKcf4"}, {"place_id": "ChIJPX6JDlfjDDkRZwmA4t_-LHQ", "name": "Golden promises", "street": "Block 15, Lodi Colony, New Delhi, Delhi 110003, India", "phone": "", "rating": "5", "review_count": "", "website": "", "latitude": 28.5862855, "longitude": 77.2242371, "maps_url": "https://www.google.com/maps/search/?api=1&query=Golden%20promises&query_place_id=ChIJPX6JDlfjDDkRZwmA4t_-LHQ"}, {"place_id": "ChIJ5yf0_k7kDDkRXvYZJVIQCk0", "name": "Omnie Solutions (I) Pvt Ltd", "street": "D-108, Sector 2, D Block, Sector 2, Noida, Uttar Pradesh 201301, India", "phone": "+91 92667 54671", "rating": "3.4", "review_count": "", "website": "https://www.omniesolutions.com/", "latitude": 28.583485, "longitude": 77.316155, "maps_url": "https://www.google.com/maps/search/?api=1&query=Omnie%20Solutions%20%28I%29%20Pvt%20Ltd&query_place_id=ChIJ5yf0_k7kDDkRXvYZJVIQCk0"}, {"place_id": "ChIJt-TocY3iDDkRXAJHTUHTUIw", "name": "Dr Lal PathLabs – Patient Service Centre", "street": "Arya Bhavan 139-140, Jorbagh, Market, Jor Bagh, New Delhi, Delhi 110003, India", "phone": "+91 11 2465 6593", "rating": "4.9", "review_count": "", "website": "https://www.lalpathlabs.com/", "latitude": 28.587421499999998, "longitude": 77.2163377, "maps_url": "https://www.google.com/maps/search/?api=1&query=Dr%20Lal%20PathLabs%20%E2%80%93%20Patient%20Service%20Centre&query_place_id=ChIJt-TocY3iDDkRXAJHTUHTUIw"}, {"place_id": "ChIJmZ8IW-3iDDkROx28z8cpPH0", "name": "Jor Bagh Telephone Exchange", "street": "H6Q9+R9G, Aliganj, Jor Bagh, New Delhi, Delhi 110003, India", "phone": "", "rating": "3.6", "review_count": "", "website": "http://mtnldelhi.in/", "latitude": 28.5895515, "longitude": 77.2184654, "maps_url": "https://www.google.com/maps/search/?api=1&query=Jor%20Bagh%20Telephone%20Exchange&query_place_id=ChIJmZ8IW-3iDDkROx28z8cpPH0"}, {"place_id": "ChIJ_Q_2B13jDDkRIs-047Dg63w", "name": "CTC cabs", "street": "Lodhi Rd, Old Prem Nagar, Block M, Lodi Colony, New Delhi, Delhi 110003, India", "phone": "", "rating": "5", "review_count": "", "website": "", "latitude": 28.590256, "longitude": 77.2235999, "maps_url": "https://www.google.com/maps/search/?api=1&query=CTC%20cabs&query_place_id=ChIJ_Q_2B13jDDkRIs-047Dg63w"}, {"place_id": "ChIJZRaY6bXjDDkRPL7VkG-R024", "name": "Netsoft Consulting Services", "street": "24, IInd Floor, Community Center, East Of Kailash, behind Sapna Cinema, New Delhi, Delhi 110065, India", "phone": "+91 11 4533 0000", "rating": "3.5", "review_count": "", "website": "https://netsoftit.com/contact-us/", "latitude": 28.5583678, "longitude": 77.24568579999999, "maps_url": "https://www.google.com/maps/search/?api=1&query=Netsoft%20Consulting%20Services&query_place_id=ChIJZRaY6bXjDDkRPL7VkG-R024"}, {"place_id": "ChIJqf6gXDX9DDkRz71t7_HgKx8", "name": "Vayam Technologies Ltd.", "street": "Thapar House, 124, Janpath Ln, Janpath, Connaught Place, New Delhi, Delhi 110001, India", "phone": "+91 11 4710 1200", "rating": "3.8", "review_count": "", "website": "https://www.vayamtech.com/", "latitude": 28.624508, "longitude": 77.21805499999999, "maps_url": "https://www.google.com/maps/search/?api=1&query=Vayam%20Technologies%20Ltd.&query_place_id=ChIJqf6gXDX9DDkRz71t7_HgKx8"}, {"place_id": "ChIJyy8sye3iDDkRCwprkgrGyC0", "name": "Alliance Française de Delhi", "street": "72, KK Birla Ln, Lodhi Gardens, Lodhi Estate, New Delhi, Delhi 110003, India", "phone": "+91 98735 15610", "rating": "4.2", "review_count": "", "website": "http://afdelhi.org/", "latitude": 28.591751, "longitude": 77.2225651, "maps_url": "https://www.google.com/maps/search/?api=1&query=Alliance%20Fran%C3%A7aise%20de%20Delhi&query_place_id=ChIJyy8sye3iDDkRCwprkgrGyC0"}, {"place_id": "ChIJGVzLMPrjDDkRVN2xjf7DucI", "name": "KIREN SMART SERVICES", "street": "D-196, New, G/F, Lajpat Nagar I, Lajpat Nagar, New Delhi, Delhi 110024, India", "phone": "+91 98739 07360", "rating": "4.1", "review_count": "", "website": "https://kirensmartservices.com/", "latitude": 28.5785903, "longitude": 77.2423422, "maps_url": "https://www.google.com/maps/search/?api=1&query=KIREN%20SMART%20SERVICES&query_place_id=ChIJGVzLMPrjDDkRVN2xjf7DucI"}, {"place_id": "ChIJIZW4JJrjDDkRqQX9KF5siG4", "name": "Cloude Data Delhi | Best Cloud Service Provider company in India", "street": "First Floor, A 212, Okhla Phase 3 Rd, near by hdfc bank, Okhla Phase III, Okhla Industrial Estate, New Delhi, Delhi 110020, India", "phone": "+91 88823 53612", "rating": "4.7", "review_count": "", "website": "https://cloudedata.com/", "latitude": 28.548515, "longitude": 77.2712834, "maps_url": "https://www.google.com/maps/search/?api=1&query=Cloude%20Data%20Delhi%20%7C%20Best%20Cloud%20Service%20Provider%20company%20in%20India&query_place_id=ChIJIZW4JJrjDDkRqQX9KF5siG4"}, {"place_id": "ChIJaeB_XpgEDTkRH6flgedI1U4", "name": "Dignitas Digital", "street": "C 323, Block C, Defence Colony, New Delhi, Delhi 110024, India", "phone": "+91 11 4550 1210", "rating": "3.9", "review_count": "", "website": "https://www.dignitasdigital.com/", "latitude": 28.5700126, "longitude": 77.2328721, "maps_url": "https://www.google.com/maps/search/?api=1&query=Dignitas%20Digital&query_place_id=ChIJaeB_XpgEDTkRH6flgedI1U4"}, {"place_id": "ChIJkS-jUO3iDDkRbYMYBwr2IpM", "name": "Sanchar Haat", "street": "Mahanagar Door sanchar Sadan, 9, Lodhi Rd, CGO Complex, Jor Bagh, New Delhi, Delhi 110003, India", "phone": "+91 11 2432 3131", "rating": "3.3", "review_count": "", "website": "", "latitude": 28.5895092, "longitude": 77.2183021, "maps_url": "https://www.google.com/maps/search/?api=1&query=Sanchar%20Haat&query_place_id=ChIJkS-jUO3iDDkRbYMYBwr2IpM"}, {"place_id": "ChIJV5b4yDX9DDkRdJwaZgRwvK0", "name": "Sterco Digitex Pvt Limited", "street": "2nd Floor, 72, Janpath Rd, Atul Grove Road, Janpath, Connaught Place, New Delhi, Delhi 110001, India", "phone": "+91 120 485 7333", "rating": "4.1", "review_count": "", "website": "https://www.stercodigitex.com/", "latitude": 28.628133, "longitude": 77.21985099999999, "maps_url": "https://www.google.com/maps/search/?api=1&query=Sterco%20Digitex%20Pvt%20Limited&query_place_id=ChIJV5b4yDX9DDkRdJwaZgRwvK0"}, {"place_id": "ChIJ3_XyNzL9DDkRAp2oT8Rg22w", "name": "Agriculture Insurance Company of India Limited", "street": "Office Block 1, Plate B & C, 5th Floor, NH 48, Opposite AIIMS gate 2, East Kidwai Nagar, Kidwai Nagar, New Delhi, Delhi 110023, India", "phone": "+91 11 2460 4444", "rating": "4.3", "review_count": "", "website": "https://www.aicofindia.com/", "latitude": 28.5697726, "longitude": 77.2126467, "maps_url": "https://www.google.com/maps/search/?api=1&query=Agriculture%20Insurance%20Company%20of%20India%20Limited&query_place_id=ChIJ3_XyNzL9DDkRAp2oT8Rg22w"}, {"place_id": "ChIJk7iRfy_jDDkRAvUpt36-wvc", "name": "Digital marketing Company, website Designing Company ( Logo Designing Company ) ( Online Marketplace )", "street": "120-G, Hari Nagar Ashram, New Delhi, Delhi 110065, India", "phone": "+91 89201 38925", "rating": "5", "review_count": "", "website": "https://royalcruiselimos.com/", "latitude": 28.5718902, "longitude": 77.2559809, "maps_url": "https://www.google.com/maps/search/?api=1&query=Digital%20marketing%20Company%2C%20website%20Designing%20Company%20%28%20Logo%20Designing%20Company%20%29%20%28%20Online%20Marketplace%20%29&query_place_id=ChIJk7iRfy_jDDkRAvUpt36-wvc"}, {"place_id": "ChIJVVVVlVfhDDkRc3UN0AGouJs", "name": "DreamSoft Infotech - Website Development Company in India", "street": "A-75 Third Floor, A Block, Sector 5, Noida, Uttar Pradesh 201301, India", "phone": "+91 120 438 0622", "rating": "3.2", "review_count": "", "website": "https://dreamsoftinfotech.com/", "latitude": 28.591018899999998, "longitude": 77.32201529999999, "maps_url": "https://www.google.com/maps/search/?api=1&query=DreamSoft%20Infotech%20-%20Website%20Development%20Company%20in%20India&query_place_id=ChIJVVVVlVfhDDkRc3UN0AGouJs"}, {"place_id": "ChIJbdBVKuziDDkRXxSMgHC3orc", "name": "BHARTIYA COOPERATIVE GENERAL INSURANCE LTD", "street": "55, Max Mueller Marg, Lodhi Gardens, Lodhi Estate, New Delhi, Delhi 110003, India", "phone": "+91 11 5568 8620", "rating": "1", "review_count": "", "website": "", "latitude": 28.592557099999997, "longitude": 77.2231113, "maps_url": "https://www.google.com/maps/search/?api=1&query=BHARTIYA%20COOPERATIVE%20GENERAL%20INSURANCE%20LTD&query_place_id=ChIJbdBVKuziDDkRXxSMgHC3orc"}, {"place_id": "ChIJVVVVJfLiDDkR17tA1fFOEbY", "name": "Indian Meteorological Department Housing Complex", "street": "H6PF+W27, Jor Bagh Rd, Old Prem Nagar, Block M, Lodi Colony, New Delhi, Delhi 110003, India", "phone": "", "rating": "4.7", "review_count": "", "website": "", "latitude": 28.5872972, "longitude": 77.2225524, "maps_url": "https://www.google.com/maps/search/?api=1&query=Indian%20Meteorological%20Department%20Housing%20Complex&query_place_id=ChIJVVVVJfLiDDkR17tA1fFOEbY"}, {"place_id": "ChIJyykPKFDkDDkRZq_KFF971rE", "name": "L.B. Bonafide Private Limited", "street": "1513, Fourth Floor Wazir Nagar, opp. B1 Defence Colony, Kotla Mubarakpur, New Delhi, Delhi 110003, India", "phone": "+91 92122 41110", "rating": "4.3", "review_count": "", "website": "https://www.lbbonafide.com/", "latitude": 28.568518599999997, "longitude": 77.2253946, "maps_url": "https://www.google.com/maps/search/?api=1&query=L.B.%20Bonafide%20Private%20Limited&query_place_id=ChIJyykPKFDkDDkRZq_KFF971rE"}, {"place_id": "ChIJUXDcFB3jDDkRYjzQDRKiN8M", "name": "NBCC Bhawan", "street": "H6RP+PMV, NBCC Bhawan, Lodhi Rd, New Delhi, Delhi 110003, India", "phone": "+91 11 2436 7314", "rating": "4.3", "review_count": "", "website": "http://www.nbccindia.com/", "latitude": 28.5918663, "longitude": 77.23666999999999, "maps_url": "https://www.google.com/maps/search/?api=1&query=NBCC%20Bhawan&query_place_id=ChIJUXDcFB3jDDkRYjzQDRKiN8M"}, {"place_id": "ChIJveCGIO7iDDkR4XPG15NBQ4I", "name": "Indian Council for Research on International Economic Relations", "street": "Core 6A, MAIN BUILDING, 4th, Lodhi Rd, Institutional Area, Lodi Colony, New Delhi, Delhi 110003, India", "phone": "+91 11 4311 2400", "rating": "4.8", "review_count": "", "website": "http://icrier.org/", "latitude": 28.590264899999998, "longitude": 77.2254865, "maps_url": "https://www.google.com/maps/search/?api=1&query=Indian%20Council%20for%20Research%20on%20International%20Economic%20Relations&query_place_id=ChIJveCGIO7iDDkR4XPG15NBQ4I"}, {"place_id": "ChIJqUQGrzbiDDkRbf2U1A-Sq7U", "name": "Tip and Toe The Nail, Lashes, Brows & Microblading - Delhi", "street": "Shop No. 31, Meharchand Market, Lodi Colony, New Delhi, Delhi 110003, India", "phone": "+91 74001 35555", "rating": "4.9", "review_count": "", "website": "http://www.tipandtoe.in/", "latitude": 28.585970999999997, "longitude": 77.2264816, "maps_url": "https://www.google.com/maps/search/?api=1&query=Tip%20and%20Toe%20The%20Nail%2C%20Lashes%2C%20Brows%20%26%20Microblading%20-%20Delhi&query_place_id=ChIJqUQGrzbiDDkRbf2U1A-Sq7U"}, {"place_id": "ChIJ75yY3LvjDDkRsTGzI0irp14", "name": "Shaurya capital", "street": "29, Lodhi Rd, Main Market, Block 13, Lodi Colony, New Delhi, Delhi 110003, India", "phone": "+91 98101 07933", "rating": "3.8", "review_count": "", "website": "https://shauryacapital.com/", "latitude": 28.5848019, "longitude": 77.2238888, "maps_url": "https://www.google.com/maps/search/?api=1&query=Shaurya%20capital&query_place_id=ChIJ75yY3LvjDDkRsTGzI0irp14"}, {"place_id": "ChIJe69FX63jDDkRNIxV8bibYQ8", "name": "RAG Scores", "street": "A-193, Block A, Defence Colony, New Delhi, Delhi 110003, India", "phone": "+91 98733 83242", "rating": "5", "review_count": "", "website": "https://ragscores.com/", "latitude": 28.5777158, "longitude": 77.23077339999999, "maps_url": "https://www.google.com/maps/search/?api=1&query=RAG%20Scores&query_place_id=ChIJe69FX63jDDkRNIxV8bibYQ8"}, {"place_id": "ChIJBTsNt5PiDDkRtSs2n8RrKaQ", "name": "Lutyens Bungalow", "street": "39, Prithviraj Rd, near Safdurjung Tomb, Prathviraj Road Area, Tughlak Road Area, New Delhi, Delhi 110003, India", "phone": "+91 11 2461 1341", "rating": "4.5", "review_count": "", "website": "http://www.lutyensbungalow.co.in/", "latitude": 28.591950599999997, "longitude": 77.21376649999999, "maps_url": "https://www.google.com/maps/search/?api=1&query=Lutyens%20Bungalow&query_place_id=ChIJBTsNt5PiDDkRtSs2n8RrKaQ"}, {"place_id": "ChIJNfgscvHiDDkRzNz7tbbsXpg", "name": "Bombay Shirt Company - Custom Shirts, T-Shirts & Clothing", "street": "42A, Khan Market, Rabindra Nagar, New Delhi, Delhi 110003, India", "phone": "+91 79977 15655", "rating": "4.1", "review_count": "", "website": "https://www.bombayshirts.com/?utm_source=google&utm_medium=google-my-business", "latitude": 28.6009073, "longitude": 77.2274046, "maps_url": "https://www.google.com/maps/search/?api=1&query=Bombay%20Shirt%20Company%20-%20Custom%20Shirts%2C%20T-Shirts%20%26%20Clothing&query_place_id=ChIJNfgscvHiDDkRzNz7tbbsXpg"}, {"place_id": "ChIJp49ihIXjDDkRzmwE8r6TA-Y", "name": "EMKAY TRADING CO.", "street": "A-46, South Extension I, Bapu Park, Kotla Mubarakpur, New Delhi, Delhi 110003, India", "phone": "", "rating": "4.3", "review_count": "", "website": "", "latitude": 28.5750176, "longitude": 77.2209108, "maps_url": "https://www.google.com/maps/search/?api=1&query=EMKAY%20TRADING%20CO.&query_place_id=ChIJp49ihIXjDDkRzmwE8r6TA-Y"}, {"place_id": "ChIJE-ekuFwdDTkRDBFO5I0RTkE", "name": "Embassy of Georgia", "street": "169, Jor Bagh Colony Rd, Jor Bagh, New Delhi, Delhi 110003, India", "phone": "+91 11 4949 6000", "rating": "2.3", "review_count": "", "website": "http://india.mfa.gov.ge/", "latitude": 28.5873027, "longitude": 77.2173385, "maps_url": "https://www.google.com/maps/search/?api=1&query=Embassy%20of%20Georgia&query_place_id=ChIJE-ekuFwdDTkRDBFO5I0RTkE"}, {"place_id": "ChIJ94iqcVDjDDkRKKxM3g9cHGs", "name": "CAAQ Consultancy - Company Registration & Compliance Consultant Delhi", "street": "S/F, Bhaskar Bhavan, 1882/A, South Extension I, Kotla Mubarakpur, New Delhi, Delhi 110003, India", "phone": "", "rating": "4.1", "review_count": "", "website": "https://caaq.in/", "latitude": 28.570666, "longitude": 77.2222604, "maps_url": "https://www.google.com/maps/search/?api=1&query=CAAQ%20Consultancy%20-%20Company%20Registration%20%26%20Compliance%20Consultant%20Delhi&query_place_id=ChIJ94iqcVDjDDkRKKxM3g9cHGs"}, {"place_id": "ChIJq11ZZh3jDDkRTFUwFLr5930", "name": "Balmer Lawrie & Co Ltd", "street": "Core 8, Ground Floor, SCOPE Complex, 7, Lodhi Rd, CGO Complex, Pragati Vihar, New Delhi, Delhi 110003, India", "phone": "+91 11 2436 0535", "rating": "3.6", "review_count": "", "website": "http://www.balmerlawrie.com/", "latitude": 28.586250999999997, "longitude": 77.237292, "maps_url": "https://www.google.com/maps/search/?api=1&query=Balmer%20Lawrie%20%26%20Co%20Ltd&query_place_id=ChIJq11ZZh3jDDkRTFUwFLr5930"}, {"place_id": "ChIJ2wIGzfLiDDkRm2xuvGPG4-E", "name": "Council Of Architecture", "street": "First Floor, Core-6A, Lodhi Rd, Institutional Area, Lodi Colony, New Delhi, Delhi 110003, India", "phone": "+91 11 4941 2100", "rating": "4.1", "review_count": "", "website": "http://www.coa.gov.in/", "latitude": 28.590213199999997, "longitude": 77.2255859, "maps_url": "https://www.google.com/maps/search/?api=1&query=Council%20Of%20Architecture&query_place_id=ChIJ2wIGzfLiDDkRm2xuvGPG4-E"}, {"place_id": "ChIJjcPrTQTjDDkR8HZMDXyx6y8", "name": "MAY & CO.", "street": "1899-B, South Extension I, G/F, Kotla Mubarakpur, New Delhi, Delhi 110049, India", "phone": "+91 72178 34405", "rating": "4.3", "review_count": "", "website": "https://mayandco.in/", "latitude": 28.5716008, "longitude": 77.2217416, "maps_url": "https://www.google.com/maps/search/?api=1&query=MAY%20%26%20CO.&query_place_id=ChIJjcPrTQTjDDkR8HZMDXyx6y8"}, {"place_id": "ChIJbUFoVqTjDDkRdLzwnU3OZHc", "name": "India Habitat Center Authorized Parking", "street": "Institutional Area, Lodi Colony, New Delhi, Delhi 110003, India", "phone": "", "rating": "4.5", "review_count": "", "website": "", "latitude": 28.589488, "longitude": 77.2251051, "maps_url": "https://www.google.com/maps/search/?api=1&query=India%20Habitat%20Center%20Authorized%20Parking&query_place_id=ChIJbUFoVqTjDDkRdLzwnU3OZHc"}, {"place_id": "ChIJoYfpBFPiDDkR0IxobFyQg5g", "name": "Mayank Chopra & Company, Chartered Accountants", "street": "ground floor, B-23, Lajpat Nagar I, New Delhi, Delhi 110024, India", "phone": "+91 97111 87962", "rating": "5", "review_count": "", "website": "https://youtube.com/channel/UCQQSRyllGpD3_ikSvGjfwRw", "latitude": 28.5744381, "longitude": 77.2399812, "maps_url": "https://www.google.com/maps/search/?api=1&query=Mayank%20Chopra%20%26%20Company%2C%20Chartered%20Accountants&query_place_id=ChIJoYfpBFPiDDkR0IxobFyQg5g"}, {"place_id": "ChIJ66Hh_FriDDkRDZUEiepmJhE", "name": "Jyoti Group", "street": "B-79, Block B, Defence Colony, New Delhi, Delhi 110024, India", "phone": "+91 11 2433 7662", "rating": "3.8", "review_count": "", "website": "http://www.jtcindia.com/", "latitude": 28.5692663, "longitude": 77.2263239, "maps_url": "https://www.google.com/maps/search/?api=1&query=Jyoti%20Group&query_place_id=ChIJ66Hh_FriDDkRDZUEiepmJhE"}, {"place_id": "ChIJt3elTq_jDDkRjJkukEDBWvs", "name": "AGARWAL ANIL & COMPANY (TaxDarzee)", "street": "L, 2, South Extension II, Block A, New Delhi, Delhi 110049, India", "phone": "+91 95600 04881", "rating": "5", "review_count": "", "website": "http://www.aacindia.in/", "latitude": 28.5671771, "longitude": 77.2222069, "maps_url": "https://www.google.com/maps/search/?api=1&query=AGARWAL%20ANIL%20%26%20COMPANY%20%28TaxDarzee%29&query_place_id=ChIJt3elTq_jDDkRjJkukEDBWvs"}, {"place_id": "ChIJ53Cv2g3jDDkRrsjtGC0_l3s", "name": "Masstige Solutions - Website Design Company, Digital Marketing, SEO, PPC", "street": "Block N, N-4, South Extension I, Block H, New Delhi, Delhi 110049, India", "phone": "", "rating": "5", "review_count": "", "website": "https://masstigesolutions.com/", "latitude": 28.571444699999997, "longitude": 77.22144159999999, "maps_url": "https://www.google.com/maps/search/?api=1&query=Masstige%20Solutions%20-%20Website%20Design%20Company%2C%20Digital%20Marketing%2C%20SEO%2C%20PPC&query_place_id=ChIJ53Cv2g3jDDkRrsjtGC0_l3s"}, {"place_id": "ChIJbT9k81viDDkRPZlxS_ycafE", "name": "Fireball Securitas | Security Guards Service | Top security services | Delhi India", "street": "1899, Uday Chand Marg, South Extension I, Kotla Mubarakpur, New Delhi, Delhi 110049, India", "phone": "+91 85869 77224", "rating": "4.6", "review_count": "", "website": "http://www.fireballindia.com/", "latitude": 28.5719329, "longitude": 77.221848, "maps_url": "https://www.google.com/maps/search/?api=1&query=Fireball%20Securitas%20%7C%20Security%20Guards%20Service%20%7C%20Top%20security%20services%20%7C%20Delhi%20India&query_place_id=ChIJbT9k81viDDkRPZlxS_ycafE"}, {"place_id": "ChIJib3q9vTiDDkRzecpjkFCupk", "name": "Ambey Goods Transport Company", "street": "39, Khanna Market Rd, BK Dutt Colony, New Delhi, Delhi 110003, India", "phone": "", "rating": "2", "review_count": "", "website": "", "latitude": 28.5815938, "longitude": 77.2201309, "maps_url": "https://www.google.com/maps/search/?api=1&query=Ambey%20Goods%20Transport%20Company&query_place_id=ChIJib3q9vTiDDkRzecpjkFCupk"}, {"place_id": "ChIJWyZXv1TiDDkRdTHgfIgOXlA", "name": "Brand Visage Communications Pvt. Ltd.", "street": "2nd & 3rd floor, A-120, Block A, Lajpat Nagar I, Lajpat Nagar, New Delhi, Delhi 110024, India", "phone": "+91 97175 80410", "rating": "4.5", "review_count": "", "website": "https://brandvisage.com/", "latitude": 28.5742624, "longitude": 77.23923049999999, "maps_url": "https://www.google.com/maps/search/?api=1&query=Brand%20Visage%20Communications%20Pvt.%20Ltd.&query_place_id=ChIJWyZXv1TiDDkRdTHgfIgOXlA"}, {"place_id": "ChIJlfxVP1HiDDkRoIde0nL1TYo", "name": "India Estates", "street": "169, Block C, Defence Colony, New Delhi, Delhi 110024, India", "phone": "+91 98991 78902", "rating": "4.8", "review_count": "", "website": "https://india-estates.com/best_estate_agent_defence_colony.php", "latitude": 28.572155199999997, "longitude": 77.23331999999999, "maps_url": "https://www.google.com/maps/search/?api=1&query=India%20Estates&query_place_id=ChIJlfxVP1HiDDkRoIde0nL1TYo"}, {"place_id": "ChIJp8bFql3iDDkRxH_07xofJWI", "name": "Nitin Mittal & Co.", "street": "C 21b, South Extension I, Block C, New Delhi, Delhi 110049, India", "phone": "+91 98101 47514", "rating": "4.7", "review_count": "", "website": "http://nmcindia.net/", "latitude": 28.572980899999997, "longitude": 77.2193036, "maps_url": "https://www.google.com/maps/search/?api=1&query=Nitin%20Mittal%20%26%20Co.&query_place_id=ChIJp8bFql3iDDkRxH_07xofJWI"}, {"place_id": "ChIJ_R_A8FniDDkRIEPThXof3uo", "name": "JBA Concrete Solution P.Ltd.", "street": "135, Bhishma Pitamah Marg, South Extension I, Arjun Nagar, Kotla Mubarakpur, New Delhi, Delhi 110003, India", "phone": "+91 11 4155 3830", "rating": "4", "review_count": "", "website": "http://www.jbaindia.com/", "latitude": 28.573305899999998, "longitude": 77.2281299, "maps_url": "https://www.google.com/maps/search/?api=1&query=JBA%20Concrete%20Solution%20P.Ltd.&query_place_id=ChIJ_R_A8FniDDkRIEPThXof3uo"}, {"place_id": "ChIJiSUC__DiDDkRnDoMDfY8uD0", "name": "Delhi Car Rent | Delhi Taxi Outstation | Delhi Shimla Manali Tour| Delhi Taj Mahal Tour| Delhi Himachal Holiday", "street": "C3 274, Lodhi Rd, Institutional Area, Lodi Colony, New Delhi, Delhi 110003, India", "phone": "+91 98101 52437", "rating": "4.9", "review_count": "", "website": "http://delhicarrent.in/", "latitude": 28.5867762, "longitude": 77.2264021, "maps_url": "https://www.google.com/maps/search/?api=1&query=Delhi%20Car%20Rent%20%7C%20Delhi%20Taxi%20Outstation%20%7C%20Delhi%20Shimla%20Manali%20Tour%7C%20Delhi%20Taj%20Mahal%20Tour%7C%20Delhi%20Himachal%20Holiday&query_place_id=ChIJiSUC__DiDDkRnDoMDfY8uD0"}, {"place_id": "ChIJX_VALmwdDTkRVsBlTUbRxcw", "name": "Dr. Jai Madaan", "street": "near jor baghmetro station, 10, opposite to Safdarjung madarsa tomb, Jor Bagh, New Delhi, Delhi 110003, India", "phone": "+91 98107 01006", "rating": "4", "review_count": "", "website": "https://www.drjaimadaan.com/", "latitude": 28.5890688, "longitude": 77.2136372, "maps_url": "https://www.google.com/maps/search/?api=1&query=Dr.%20Jai%20Madaan&query_place_id=ChIJX_VALmwdDTkRVsBlTUbRxcw"}, {"place_id": "ChIJD78JU6rjDDkRMdNJt9ZgHfY", "name": "Jupiter Administrative & Security Services", "street": "B-112, Block B, Lajpat Nagar I, Lajpat Nagar, New Delhi, Delhi 110024, India", "phone": "+91 99535 91638", "rating": "3.5", "review_count": "", "website": "https://www.jupitersecurity.in/", "latitude": 28.578349799999998, "longitude": 77.2406191, "maps_url": "https://www.google.com/maps/search/?api=1&query=Jupiter%20Administrative%20%26%20Security%20Services&query_place_id=ChIJD78JU6rjDDkRMdNJt9ZgHfY"}]