{"timestamp": 1773731092.728059, "keyword": "IT company", "location": "delhi", "cell_idx": 342, "results": [{"place_id": "0x390d1d841fefffff:0x93fcc50cf324f171", "name": "Netsure IT Solution Private Limited (NSIT GLOBAL)", "category": "Software company", "street": "Ansal Chamber-2", "city": "NSIT GLOBAL, 428", "phone": "1800313818283", "website": "", "rating": 4.3, "review_count": "", "latitude": 28.5677649, "longitude": 77.187382, "maps_url": "https://www.google.com/maps/place/?q=place_id:0x390d1d841fefffff:0x93fcc50cf324f171"}, {"place_id": "0x390d1d84709c66e7:0xb821a251a16fae09", "name": "IT Works @ Siyaram", "category": "Software company", "street": "404", "city": "BHIKAJI CAMA PLACE", "phone": "01143178782", "website": "http://www.garruda.co.in/", "rating": 4.8, "review_count": "", "latitude": 28.567508399999998, "longitude": 77.18817349999999, "maps_url": "https://www.google.com/maps/place/?q=place_id:0x390d1d84709c66e7:0xb821a251a16fae09"}, {"place_id": "0x390d1d86a4f12173:0x3a6b42ea6f4b8260", "name": "Softvanz Technologies Private Limited", "category": "Software company", "street": "Somdutt Chamber 1", "city": "BT-22/9", "phone": "", "website": "https://softvanz.com/", "rating": 5, "review_count": "", "latitude": 28.567948899999998, "longitude": 77.1889269, "maps_url": "https://www.google.com/maps/place/?q=place_id:0x390d1d86a4f12173:0x3a6b42ea6f4b8260"}, {"place_id": "0x390ce26dc4d4ba2d:0x9486a6d620e379f9", "name": "Akal Information Systems Ltd.", "category": "Software company", "street": "Tower J, World Trade Center", "city": "103", "phone": "01146503545", "website": "https://www.akalinfo.com/", "rating": 3.9, "review_count": "", "latitude": 28.567935499999997, "longitude": 77.1923202, "maps_url": "https://www.google.com/maps/place/?q=place_id:0x390ce26dc4d4ba2d:0x9486a6d620e379f9"}, {"place_id": "0x390d165555555555:0xf57c20f7d07d8fd1", "name": "Teckinfo Solutions Pvt Ltd", "category": "Software company", "street": "1/1 BA, 3rd Floor, Mohammadpur,", "city": "Bhikaji Cama Place", "phone": "01149605500", "website": "https://www.teckinfo.com/", "rating": 4.6, "review_count": "", "latitude": 28.566004099999997, "longitude": 77.187579, "maps_url": "https://www.google.com/maps/place/?q=place_id:0x390d165555555555:0xf57c20f7d07d8fd1"}, {"place_id": "0x390d1d006ea04e6f:0x964f4c5893f4eaf6", "name": "Tech58 Private Limited", "category": "Software company", "street": "UG-07", "city": "Ansal Chamber -1", "phone": "", "website": "", "rating": 5, "review_count": "", "latitude": 28.5684203, "longitude": 77.1890959, "maps_url": "https://www.google.com/maps/place/?q=place_id:0x390d1d006ea04e6f:0x964f4c5893f4eaf6"}, {"place_id": "0x390d1d841a0f4d5b:0x36604bdbf83612d3", "name": "Intek Micro Systems Pvt.Ltd", "category": "Software company", "street": "E-131, 3rd Floor, Ganpathi Bhawan, Mohammadpur", "city": "opp. Bhikaji Cama Place", "phone": "01146089696", "website": "", "rating": 3, "review_count": "", "latitude": 28.567966799999997, "longitude": 77.1881528, "maps_url": "https://www.google.com/maps/place/?q=place_id:0x390d1d841a0f4d5b:0x36604bdbf83612d3"}, {"place_id": "0x390d1d841aaaaaab:0x73b109a878a9bfe3", "name": "Aakash Systems Pvt Ltd", "category": "Computer Wholesaler", "street": "Ansal Chamber-2", "city": "Unit : A-501", "phone": "08383931110", "website": "http://akpl.com/", "rating": 4.8, "review_count": "", "latitude": 28.5692228, "longitude": 77.1877839, "maps_url": "https://www.google.com/maps/place/?q=place_id:0x390d1d841aaaaaab:0x73b109a878a9bfe3"}, {"place_id": "0x390d1d85daaaaaab:0x41ba390c2686dd89", "name": "Team Computers Pvt Ltd", "category": "Software company", "street": "1, Mohammadpur Main Rd", "city": "Bhikaji Cama Place, Rama Krishna Puram", "phone": "18001024200", "website": "https://www.teamcomputers.com/", "rating": 4.2, "review_count": "", "latitude": 28.5661684, "longitude": 77.1871848, "maps_url": "https://www.google.com/maps/place/?q=place_id:0x390d1d85daaaaaab:0x41ba390c2686dd89"}, {"place_id": "0x390ce458d0000001:0xf2123bd299ec4501", "name": "IT Company India", "category": "Software company", "street": "D56", "city": "D Block, Sector 10", "phone": "09999244854", "website": "https://www.itcompanyindia.in/", "rating": 4.7, "review_count": "", "latitude": 28.589917699999997, "longitude": 77.3351153, "maps_url": "https://www.google.com/maps/place/?q=place_id:0x390ce458d0000001:0xf2123bd299ec4501"}, {"place_id": "0x390ce3c153b89811:0xe7a279685777e9ca", "name": "IT Company", "category": "Automation company", "street": "A-14", "city": "near iskcon temple", "phone": "", "website": "http://www.opuswiz.com/", "rating": 3, "review_count": "", "latitude": 28.557167, "longitude": 77.25424819999999, "maps_url": "https://www.google.com/maps/place/?q=place_id:0x390ce3c153b89811:0xe7a279685777e9ca"}, {"place_id": "0x390d1d91b545fcbf:0xef1450e079444a8a", "name": "HNS SOLUTIONS", "category": "Computer repair service", "street": "On-site CCTV< Computer Hardware & Networking Support", "city": "Ansal Chamber-2", "phone": "09821781947", "website": "https://hnssolutions.in/", "rating": 4.9, "review_count": "", "latitude": 28.568983499999998, "longitude": 77.1887751, "maps_url": "https://www.google.com/maps/place/?q=place_id:0x390d1d91b545fcbf:0xef1450e079444a8a"}, {"place_id": "0x390d1d841e9aaaab:0xa5c3615aadd6db02", "name": "THIRDEYE INFRASERVICES PVT. LTD.", "category": "Security service", "street": "B-36, Ansal Chamber II", "city": "6, Africa Ave", "phone": "01141440018", "website": "http://www.tiplgroup.in/", "rating": 4.6, "review_count": "", "latitude": 28.567837299999997, "longitude": 77.1897709, "maps_url": "https://www.google.com/maps/place/?q=place_id:0x390d1d841e9aaaab:0xa5c3615aadd6db02"}, {"place_id": "0x390d1d86aa8e0f77:0x59d1a6f2084b6996", "name": "INTEGRATED ELECTRONICS", "category": "Electronics Company", "street": "618", "city": "Ansal Chamber-2", "phone": "09910495279", "website": "http://www.integratedelectronics.co.in/", "rating": 4.9, "review_count": "", "latitude": 28.5679189, "longitude": 77.1881483, "maps_url": "https://www.google.com/maps/place/?q=place_id:0x390d1d86aa8e0f77:0x59d1a6f2084b6996"}, {"place_id": "0x390ce2e52043e633:0x3ed44d79ea4bd91c", "name": "Wirecto", "category": "Software company", "street": "Triloki Colony", "city": "C-49", "phone": "09716670074", "website": "https://wirecto.app/", "rating": 5, "review_count": "", "latitude": 28.575404799999998, "longitude": 77.2250054, "maps_url": "https://www.google.com/maps/place/?q=place_id:0x390ce2e52043e633:0x3ed44d79ea4bd91c"}, {"place_id": "0x390ce1597b5509e5:0xfd8209b937b44d3c", "name": "IT Solutions India Private Limited", "category": "Software company", "street": "D-88/5", "city": "Pocket D, Okhla Phase I, Okhla Industrial Estate", "phone": "09810017429", "website": "https://www.itsipl.com/", "rating": 4.2, "review_count": "", "latitude": 28.520146, "longitude": 77.280431, "maps_url": "https://www.google.com/maps/place/?q=place_id:0x390ce1597b5509e5:0xfd8209b937b44d3c"}, {"place_id": "0x39f89c0fb3b411eb:0xbe473f977e9b7558", "name": "Kbeatech - Digital Solutions Company", "category": "Software company", "street": "1893, 1st Floor", "city": "Uday Chand Marg", "phone": "", "website": "https://kbeatech.in/", "rating": 4.9, "review_count": "", "latitude": 28.571338299999997, "longitude": 77.2228884, "maps_url": "https://www.google.com/maps/place/?q=place_id:0x39f89c0fb3b411eb:0xbe473f977e9b7558"}, {"place_id": "0x390d1da9a4df18b1:0x188ab22ce8926745", "name": "Alpha Corp Development Limited", "category": "Real Estate Builders & Construction Company", "street": "6th Floor", "city": "Tower-J, World Trade Centre", "phone": "", "website": "https://www.alphacorp.in/", "rating": 4.9, "review_count": "", "latitude": 28.5682798, "longitude": 77.1920129, "maps_url": "https://www.google.com/maps/place/?q=place_id:0x390d1da9a4df18b1:0x188ab22ce8926745"}, {"place_id": "0x390d04afaaaaaaab:0xa0a133d0075e6be5", "name": "Website Development company", "category": "Website designer", "street": "705/A/1", "city": "Bhikaji Cama Place", "phone": "01126100386", "website": "https://direct-i.com/", "rating": 4.8, "review_count": "", "latitude": 28.5681396, "longitude": 77.18618649999999, "maps_url": "https://www.google.com/maps/place/?q=place_id:0x390d04afaaaaaaab:0xa0a133d0075e6be5"}, {"place_id": "0x390d1d841aaaaaab:0xd674fbb57baadb77", "name": "Savitri Telecom Services", "category": "Corporate office", "street": "203", "city": "Ansal Chamber-2", "phone": "01126103358", "website": "http://savitritelecom.com/", "rating": 4.6, "review_count": "", "latitude": 28.5677649, "longitude": 77.187382, "maps_url": "https://www.google.com/maps/place/?q=place_id:0x390d1d841aaaaaab:0xd674fbb57baadb77"}, {"place_id": "0x390d04afaaaaaaab:0xa0a133d0075e6be5", "name": "Website Development company", "category": "Website designer", "street": "705/A/1", "city": "Bhikaji Cama Place", "phone": "01126100386", "website": "https://direct-i.com/", "rating": 4.8, "review_count": "", "latitude": 28.5681396, "longitude": 77.18618649999999, "maps_url": "https://www.google.com/maps/place/?q=place_id:0x390d04afaaaaaaab:0xa0a133d0075e6be5"}, {"place_id": "0x390d1d841aaaaaab:0xd674fbb57baadb77", "name": "Savitri Telecom Services", "category": "Corporate office", "street": "203", "city": "Ansal Chamber-2", "phone": "01126103358", "website": "http://savitritelecom.com/", "rating": 4.6, "review_count": "", "latitude": 28.5677649, "longitude": 77.187382, "maps_url": "https://www.google.com/maps/place/?q=place_id:0x390d1d841aaaaaab:0xd674fbb57baadb77"}, {"place_id": "0x390d1d85c3e17cfb:0x29c2af19ca477509", "name": "Panalink | Website, App, AI Design & Development Company", "category": "Website designer", "street": "K 128, Mohammadpur Main Rd", "city": "Bhikaji Cama Place, Rama Krishna Puram", "phone": "09899524524", "website": "https://panalinks.com/", "rating": 4.7, "review_count": "", "latitude": 28.564894199999998, "longitude": 77.1861411, "maps_url": "https://www.google.com/maps/place/?q=place_id:0x390d1d85c3e17cfb:0x29c2af19ca477509"}, {"place_id": "0x390ce3094f4a9af1:0xdc21c66946b829ad", "name": "BAUDHYANTRAM IT Solutions | Website Designing | Web Development | Software Company in Delhi", "category": "Software company", "street": "H82 2nd Floor", "city": "opposite Bengali Sweet Center", "phone": "07900899996", "website": "http://www.baudhyantram.in/", "rating": 4.8, "review_count": "", "latitude": 28.5695803, "longitude": 77.221047, "maps_url": "https://www.google.com/maps/place/?q=place_id:0x390ce3094f4a9af1:0xdc21c66946b829ad"}, {"place_id": "0x390d1ddf2a9d8e0d:0xa4ee4554abb703b9", "name": "Docsys Kalmin Solutions Pvt Ltd", "category": "Software company", "street": "Office Number 111-113, Ansal Chambers - 2 6", "city": "Bhikaji Cama Place", "phone": "09560108201", "website": "https://docsyskalmin.com/", "rating": 5, "review_count": "", "latitude": 28.5676629, "longitude": 77.18819069999999, "maps_url": "https://www.google.com/maps/place/?q=place_id:0x390d1ddf2a9d8e0d:0xa4ee4554abb703b9"}, {"place_id": "0x390ce1fb44618b65:0x8e06b2a6128352d1", "name": "Acropolis Infotech - Delhi Office", "category": "Software company", "street": "metro station gate", "city": "55, 2nd Floor, Lane 2", "phone": "09999876593", "website": "https://www.acropolisinfotech.com/", "rating": 4.6, "review_count": "", "latitude": 28.518907, "longitude": 77.2015435, "maps_url": "https://www.google.com/maps/place/?q=place_id:0x390ce1fb44618b65:0x8e06b2a6128352d1"}, {"place_id": "0x390d1d841aaaaaab:0xa32856a97de4096b", "name": "BI Biotech India Pvt. Ltd. (Corporate Office)", "category": "Biotechnology company", "street": "328", "city": "Ansal Chamber-2", "phone": "01126101271", "website": "http://www.biotechindia.com/", "rating": 3.9, "review_count": "", "latitude": 28.5677649, "longitude": 77.187382, "maps_url": "https://www.google.com/maps/place/?q=place_id:0x390d1d841aaaaaab:0xa32856a97de4096b"}, {"place_id": "0x390ce25e81555555:0xf93f773552127f47", "name": "SANEKT SOFTWARE SOLUTION", "category": "Software company", "street": "Top floor", "city": "H 11", "phone": "01141589565", "website": "http://sanekt.com/", "rating": 5, "review_count": "", "latitude": 28.571361, "longitude": 77.221733, "maps_url": "https://www.google.com/maps/place/?q=place_id:0x390ce25e81555555:0xf93f773552127f47"}, {"place_id": "0x390ce5fdcc79e755:0x309ce99251b84ef6", "name": "Optyminds IT Solutions - Top AI and IT company I Best Digital agency in Noida | Delhi NCR | India", "category": "Software company", "street": "1st Floor", "city": "B-70", "phone": "08929075975", "website": "https://optyminds.com/", "rating": 4.9, "review_count": "", "latitude": 28.584679599999998, "longitude": 77.3135042, "maps_url": "https://www.google.com/maps/place/?q=place_id:0x390ce5fdcc79e755:0x309ce99251b84ef6"}, {"place_id": "0x390d1d844c17c9b1:0x67ae1a2d9024b08d", "name": "Lecan Solutions Private Limited", "category": "Human resource consulting", "street": "Mohammadpur", "city": "B-138", "phone": "09958732119", "website": "http://www.lecansolutions.com/", "rating": 3.7, "review_count": "", "latitude": 28.566264999999998, "longitude": 77.18698719999999, "maps_url": "https://www.google.com/maps/place/?q=place_id:0x390d1d844c17c9b1:0x67ae1a2d9024b08d"}, {"place_id": "0x390d1d847f3b84c1:0x9da23f0dc281b80a", "name": "PTC India Limited", "category": "Electric utility company", "street": "2nd Floor, NBCC Tower 15 Bhikaji Cama Place", "city": "New Delhi, Delhi 110066", "phone": "01141659500", "website": "http://www.ptcindia.com/", "rating": 4.3, "review_count": "", "latitude": 28.568101199999997, "longitude": 77.1860351, "maps_url": "https://www.google.com/maps/place/?q=place_id:0x390d1d847f3b84c1:0x9da23f0dc281b80a"}, {"place_id": "0x2a72b8b69d7b6493:0x11251466d4d34cac", "name": "WebZonal IT Company", "category": "Website designer", "street": "Wz-258/2-3, D Block Rd", "city": "Khazan Basti, Nangal Raya, Janakpuri", "phone": "09811170903", "website": "http://webzonal.com/", "rating": 5, "review_count": "", "latitude": 28.6122102, "longitude": 77.11159549999999, "maps_url": "https://www.google.com/maps/place/?q=place_id:0x2a72b8b69d7b6493:0x11251466d4d34cac"}, {"place_id": "0x390d1d841fe55555:0x2445dbd59c01cb0", "name": "Pioneer E Solutions", "category": "Software company", "street": "B 23-25, Somdutt Chamber -1", "city": "Bhikaji Cama Place", "phone": "", "website": "https://www.pioneeresolutions.com/", "rating": 4.2, "review_count": "", "latitude": 28.5679196, "longitude": 77.1881392, "maps_url": "https://www.google.com/maps/place/?q=place_id:0x390d1d841fe55555:0x2445dbd59c01cb0"}, {"place_id": "0x4ebf586dbe4d7c09:0x968455c83bf5226c", "name": "Anchor IT Solutions- App Development | Website Development | Digital Marketing", "category": "Software company", "street": "4", "city": "Vinoba Puri, Lajpat Nagar II, Lajpat Nagar", "phone": "07678658584", "website": "", "rating": 4.8, "review_count": "", "latitude": 28.566371399999998, "longitude": 77.2486924, "maps_url": "https://www.google.com/maps/place/?q=place_id:0x4ebf586dbe4d7c09:0x968455c83bf5226c"}, {"place_id": "0x390d1dd687f35f6f:0xac3053b9c737a2da", "name": "Maxop Engineering - Head Office", "category": "Corporate office", "street": "Africa Ave", "city": "Block A 2, Nauroji Nagar, Safdarjung Enclave", "phone": "", "website": "https://www.maxop.com/", "rating": 3.6, "review_count": "", "latitude": 28.5682846, "longitude": 77.1898331, "maps_url": "https://www.google.com/maps/place/?q=place_id:0x390d1dd687f35f6f:0xac3053b9c737a2da"}, {"place_id": "0x390d1d838b9b70d5:0x4d2f40f4f0842c4d", "name": "Worldwide Achievers Pvt. Ltd.", "category": "Corporate office", "street": "3rd Floor, Ansal Chamber-2", "city": "324", "phone": "09990496789", "website": "https://www.worldwideachievers.in/", "rating": 4.7, "review_count": "", "latitude": 28.5677649, "longitude": 77.187382, "maps_url": "https://www.google.com/maps/place/?q=place_id:0x390d1d838b9b70d5:0x4d2f40f4f0842c4d"}, {"place_id": "0x390ce3c53f4cf309:0x964287885bdc5c67", "name": "Mangalam Automation - IT Infrastructure and Audio Video Company", "category": "Computer support and services", "street": "UG 8, Building No.39", "city": "Hauz Khas Village, Deer Park, Hauz Khas", "phone": "09810227333", "website": "https://www.mangalamautomation.com/", "rating": 5, "review_count": "", "latitude": 28.552976599999997, "longitude": 77.1947921, "maps_url": "https://www.google.com/maps/place/?q=place_id:0x390ce3c53f4cf309:0x964287885bdc5c67"}, {"place_id": "0x390d1d838b6adef3:0x9fe7d28408ca7ceb", "name": "Perfect Generator Technologies Pvt. Ltd.", "category": "Industrial consultant", "street": "5th Floor, Ansal Chamber-2", "city": "512", "phone": "08527500501", "website": "http://www.perfectgenerators.com/", "rating": 4.4, "review_count": "", "latitude": 28.5677649, "longitude": 77.187382, "maps_url": "https://www.google.com/maps/place/?q=place_id:0x390d1d838b6adef3:0x9fe7d28408ca7ceb"}, {"place_id": "0x390d1d841e293e2d:0x138def7f58f35c8c", "name": "Starc Energy", "category": "Solar Energy Company", "street": "C-139, Mohammadpur Near", "city": "Bhikaji Cama Place", "phone": "09999123038", "website": "http://starcenergy.com/", "rating": 4.6, "review_count": "", "latitude": 28.567453399999998, "longitude": 77.1873378, "maps_url": "https://www.google.com/maps/place/?q=place_id:0x390d1d841e293e2d:0x138def7f58f35c8c"}, {"place_id": "0x390ce3d606c913ef:0xd246bd5631eb2cad", "name": "Delvetech", "category": "Computer support and services", "street": "87A/1, 3rd Floor, Opp. Block N-115, G.K-1, Near Moolchand Merto", "city": "Block B, Zamrudpur, Greater Kailash", "phone": "09873895154", "website": "http://www.delvetech.co.in/", "rating": 4.1, "review_count": "", "latitude": 28.5570597, "longitude": 77.2356981, "maps_url": "https://www.google.com/maps/place/?q=place_id:0x390ce3d606c913ef:0xd246bd5631eb2cad"}, {"place_id": "0x390d1d841e2915ed:0xcfad4cb937f37055", "name": "Nexensus", "category": "Database Management Company", "street": "A223, Somdatt Chambers 1, Bhikaji Cama Place", "city": "New Delhi, Delhi 110066", "phone": "09205685050", "website": "http://www.nexensus.com/", "rating": 3.2, "review_count": "", "latitude": 28.567804, "longitude": 77.1886085, "maps_url": "https://www.google.com/maps/place/?q=place_id:0x390d1d841e2915ed:0xcfad4cb937f37055"}, {"place_id": "0x390d1d841fe076d9:0xe4b1229f10bd4569", "name": "A. Office Equipments", "category": "Printer ink refill store", "street": "UG-17, 5", "city": "Somdutt Chamber 1", "phone": "09810026325", "website": "", "rating": 4.5, "review_count": "", "latitude": 28.567611199999998, "longitude": 77.18897319999999, "maps_url": "https://www.google.com/maps/place/?q=place_id:0x390d1d841fe076d9:0xe4b1229f10bd4569"}, {"place_id": "0x390d046160cbfd05:0x61b16861a432d74c", "name": "Datar Security Service Group company", "category": "Security service", "street": "201, Second Floor", "city": "Bhikaji Cama Place, Bhawan II", "phone": "18001204131", "website": "http://www.dssg.in/", "rating": 3.9, "review_count": "", "latitude": 28.5690264, "longitude": 77.1872187, "maps_url": "https://www.google.com/maps/place/?q=place_id:0x390d046160cbfd05:0x61b16861a432d74c"}, {"place_id": "0x390d1d838b9b70d5:0x94f640a524d3cbb5", "name": "Miraz Facility Management Services Private Limited", "category": "Security service", "street": "38 Mohammadpur", "city": "Bhikaji Cama Place", "phone": "09810066817", "website": "http://www.mirazfacility.com/", "rating": 5, "review_count": "", "latitude": 28.5657154, "longitude": 77.1885203, "maps_url": "https://www.google.com/maps/place/?q=place_id:0x390d1d838b9b70d5:0x94f640a524d3cbb5"}, {"place_id": "0x390d1d1a682a403f:0x25280afad894983f", "name": "24 SKY SECURITY SERVICES PVT LTD", "category": "Security guard service", "street": "Office No 118/6", "city": "Ansal Chamber-2", "phone": "09311567897", "website": "https://24skysecurity.com/", "rating": 4.9, "review_count": "", "latitude": 28.568983499999998, "longitude": 77.1887751, "maps_url": "https://www.google.com/maps/place/?q=place_id:0x390d1d1a682a403f:0x25280afad894983f"}, {"place_id": "0x390ce33a2b250803:0x7142e204a821d1ee", "name": "AMITECH IT SOLUTIONS Authorized Dealer - Matrix Epabx System | IP-PBX | CCTV Camera In Delhi", "category": "Telecommunications service provider", "street": "B-4, Basement", "city": "Shivalik Colony", "phone": "09999663767", "website": "", "rating": 4.5, "review_count": "", "latitude": 28.561581699999998, "longitude": 77.19240769999999, "maps_url": "https://www.google.com/maps/place/?q=place_id:0x390ce33a2b250803:0x7142e204a821d1ee"}, {"place_id": "0x390d1d841e293e2d:0xfb24420e313c2319", "name": "THE COORDINATORS", "category": "Event management company", "street": "529-530, 5th Floor, Somdutt Chamber-ll Bhikaji Cama Place", "city": "New Delhi, Delhi 110066", "phone": "08510001851", "website": "https://www.instagram.com/theco_ordinators/?hl=en", "rating": 4.4, "review_count": "", "latitude": 28.5678035, "longitude": 77.1886085, "maps_url": "https://www.google.com/maps/place/?q=place_id:0x390d1d841e293e2d:0xfb24420e313c2319"}, {"place_id": "0x390cfd2533d0cf77:0x949490ebe381c231", "name": "AU Real Estate", "category": "Real Estate Builders & Construction Company", "street": "World Trade Centre", "city": "A001, Ring Rd", "phone": "01141437765", "website": "https://aurealestate.in/", "rating": 5, "review_count": "", "latitude": 28.5688727, "longitude": 77.1960976, "maps_url": "https://www.google.com/maps/place/?q=place_id:0x390cfd2533d0cf77:0x949490ebe381c231"}, {"place_id": "0x390d1d841aaaaaab:0x8d3118e810b3bd50", "name": "Udaan India - The Original Visa Company (Head Office)", "category": "Visa Agent", "street": "309-312, Somdutt Chamber-II, Road No. 9", "city": "Bhikaji Cama Place", "phone": "09540017356", "website": "https://udaanindia.com/", "rating": 4, "review_count": "", "latitude": 28.5680014, "longitude": 77.1874028, "maps_url": "https://www.google.com/maps/place/?q=place_id:0x390d1d841aaaaaab:0x8d3118e810b3bd50"}, {"place_id": "0x390d1d840d0b7db3:0x91639de588e71793", "name": "Website Promotion company in Delhi", "category": "Software company", "street": "705(b", "city": "Bhikaji Cama Place", "phone": "", "website": "https://direct-i.com/", "rating": "", "review_count": "", "latitude": 28.5674408, "longitude": 77.1877414, "maps_url": "https://www.google.com/maps/place/?q=place_id:0x390d1d840d0b7db3:0x91639de588e71793"}, {"place_id": "0x390d1d0043ce0b67:0xaafdaf07f98a75b2", "name": "AGGCON - New Delhi", "category": "Construction equipment supplier", "street": "Unit E 009", "city": "Block E", "phone": "01147050513", "website": "https://aggconequipments.com/%20company%20is%20the%20very%20good%20%ED%A0%BD%ED%B1%8D", "rating": 4.8, "review_count": "", "latitude": 28.568717799999998, "longitude": 77.19453399999999, "maps_url": "https://www.google.com/maps/place/?q=place_id:0x390d1d0043ce0b67:0xaafdaf07f98a75b2"}, {"place_id": "0x390d1de913938c2b:0xe26bf499129edc7a", "name": "KOLATH & CO", "category": "Business management consultant", "street": "FFS 4, ANSAL CHAMBERS I", "city": "3", "phone": "09497836863", "website": "http://www.kolath.in/", "rating": 5, "review_count": "", "latitude": 28.568639599999997, "longitude": 77.1886024, "maps_url": "https://www.google.com/maps/place/?q=place_id:0x390d1de913938c2b:0xe26bf499129edc7a"}, {"place_id": "0x390d04ec681aaac3:0x7d3ecfb37e99a884", "name": "AMX Detective Agency in Delhi | Private Detective In Delhi | Detective Agency in Delhi", "category": "Private investigator", "street": "Metro Gate", "city": "AMX Detectives, A 415 Block A, Ansal Chamber", "phone": "01141586701", "website": "http://www.amxdetectives.com/", "rating": 4.6, "review_count": "", "latitude": 28.568728999999998, "longitude": 77.189041, "maps_url": "https://www.google.com/maps/place/?q=place_id:0x390d04ec681aaac3:0x7d3ecfb37e99a884"}, {"place_id": "0x390d1d846268eabf:0xade939dea7de4bfa", "name": "NTPC-SAIL Power Company Limited", "category": "Electric utility company", "street": "15", "city": "Bhikaji Cama Place, Rama Krishna Puram", "phone": "01126717379", "website": "https://www.nspcl.co.in/", "rating": 4.5, "review_count": "", "latitude": 28.567905099999997, "longitude": 77.1860343, "maps_url": "https://www.google.com/maps/place/?q=place_id:0x390d1d846268eabf:0xade939dea7de4bfa"}, {"place_id": "0x390d1d350ded40f7:0x7cc070a41c693ebb", "name": "Learning Routes Private Limited", "category": "Educational consultant", "street": "Block B 2nd floor", "city": "Ansal Chamber -1", "phone": "01140074750", "website": "http://www.learningroutes.in/", "rating": 4.3, "review_count": "", "latitude": 28.569158299999998, "longitude": 77.18778429999999, "maps_url": "https://www.google.com/maps/place/?q=place_id:0x390d1d350ded40f7:0x7cc070a41c693ebb"}, {"place_id": "0x390d1ddb62613c1d:0x8397b83491c720fd", "name": "Optimus Enviropro Pvt. Ltd. (Delhi Office) Water & Wastewater Treatment | STP | ETP | ZLD | RO&UF | DM Plant Manufacturer", "category": "Sewage treatment plant", "street": "901", "city": "near EIL Pvt. Ltd", "phone": "01141551444", "website": "https://optimusenviro.pro/", "rating": 4, "review_count": "", "latitude": 28.5687656, "longitude": 77.18706759999999, "maps_url": "https://www.google.com/maps/place/?q=place_id:0x390d1ddb62613c1d:0x8397b83491c720fd"}, {"place_id": "0x390ce27911e3ffff:0x2fb2d3ee85321c77", "name": "Plumb Design", "category": "Corporate office", "street": "254", "city": "A1", "phone": "01141654015", "website": "http://plumbdesign.in/", "rating": 4.7, "review_count": "", "latitude": 28.5678095, "longitude": 77.1984104, "maps_url": "https://www.google.com/maps/place/?q=place_id:0x390ce27911e3ffff:0x2fb2d3ee85321c77"}, {"place_id": "0x390d1d841fefffff:0x60445c4d74e8817a", "name": "SupremeWork | Co-working Space Bhikaji", "category": "Coworking space", "street": "LG-5", "city": "Somdutt Chamber 1", "phone": "08699308453", "website": "https://www.supremework.work/", "rating": 3.1, "review_count": "", "latitude": 28.5679241, "longitude": 77.1890038, "maps_url": "https://www.google.com/maps/place/?q=place_id:0x390d1d841fefffff:0x60445c4d74e8817a"}, {"place_id": "0x390d1b1d006e1835:0x313c2b1b01db4e74", "name": "National High Speed Rail Corporation Limited", "category": "Corporate office", "street": "World Trade Center", "city": "Block D, Block F, Nauroji Nagar, Safdarjung Enclave", "phone": "01128070002", "website": "http://www.nhsrcl.in/", "rating": 4.4, "review_count": "", "latitude": 28.568427, "longitude": 77.1928171, "maps_url": "https://www.google.com/maps/place/?q=place_id:0x390d1b1d006e1835:0x313c2b1b01db4e74"}, {"place_id": "0x390ce3119c2a0d25:0xfe79510c629a0792", "name": "CorporatEdge World Trade Center", "category": "Coworking space", "street": "Level 2", "city": "World Trade Center", "phone": "08287566777", "website": "https://www.thecorporatedge.com/work-space/premium-office-space-newdelhi/corporatedge-world-trade-center/?utm_source=google+listing&utm_medium=google+search&utm_id=GMB", "rating": 5, "review_count": "", "latitude": 28.5677381, "longitude": 77.195498, "maps_url": "https://www.google.com/maps/place/?q=place_id:0x390ce3119c2a0d25:0xfe79510c629a0792"}, {"place_id": "0x987f79699cac0db:0xb67b9a94d015405e", "name": "Shiv Nath security and facility service Pvt Ltd", "category": "Security service", "street": "Somdutt Chamber 1", "city": "113A", "phone": "09717420033", "website": "https://www.shivnathsecurity.com/", "rating": 5, "review_count": "", "latitude": 28.567929699999997, "longitude": 77.1889073, "maps_url": "https://www.google.com/maps/place/?q=place_id:0x987f79699cac0db:0xb67b9a94d015405e"}, {"place_id": "0x390ce2118c26aaab:0xcf5c76ce9aaa3806", "name": "Wembrace Biopharma Pvt Ltd", "category": "Pharmaceutical company", "street": "Commercial Complex", "city": "B6/9", "phone": "18002029010", "website": "http://wembrace.in/", "rating": 4.9, "review_count": "", "latitude": 28.5590175, "longitude": 77.1966321, "maps_url": "https://www.google.com/maps/place/?q=place_id:0x390ce2118c26aaab:0xcf5c76ce9aaa3806"}, {"place_id": "0x390ce15aee161cf5:0x108784713c50d84d", "name": "Pharmacy Council of India (Head Office)", "category": "Central Government Office", "street": "Third Floor, I-Tower", "city": "World Trade Center", "phone": "07303110019", "website": "https://pci.gov.in/", "rating": 4, "review_count": "", "latitude": 28.568568499999998, "longitude": 77.1928207, "maps_url": "https://www.google.com/maps/place/?q=place_id:0x390ce15aee161cf5:0x108784713c50d84d"}, {"place_id": "0xd1516b679f60d2f:0x9458c47d907b59a8", "name": "MarkTech Company", "category": "Marketing agency", "street": "INA, Laxmi Bai Nagar", "city": "New Delhi, Delhi 110023", "phone": "08527880385", "website": "https://markteches.com/", "rating": 3.9, "review_count": "", "latitude": 28.5754463, "longitude": 77.2077127, "maps_url": "https://www.google.com/maps/place/?q=place_id:0xd1516b679f60d2f:0x9458c47d907b59a8"}, {"place_id": "0x390d1d841a0f4d5b:0x1ea67bfcce9a7e24", "name": "SL Entertainment & Events - best event management company in Delhi | corporate event Planners | Celebrity booking", "category": "Event management company", "street": "Ansal Complex", "city": "B-516", "phone": "", "website": "https://slentertainment.in/", "rating": 4.6, "review_count": "", "latitude": 28.568580899999997, "longitude": 77.1882607, "maps_url": "https://www.google.com/maps/place/?q=place_id:0x390d1d841a0f4d5b:0x1ea67bfcce9a7e24"}, {"place_id": "0x390ce276e5555555:0x8ecad25fd7650f95", "name": "Holistic Ecommerce - Website Design & Development Agency", "category": "Website designer", "street": "House No 26", "city": "Block B 7, Arjun Nagar, Green Park", "phone": "09319695241", "website": "http://holisticecommerce.com/", "rating": 4.7, "review_count": "", "latitude": 28.560747799999998, "longitude": 77.1983506, "maps_url": "https://www.google.com/maps/place/?q=place_id:0x390ce276e5555555:0x8ecad25fd7650f95"}, {"place_id": "0x390ce242f9855555:0xd68d50e65db956de", "name": "GVM Global Education Pvt. Ltd.", "category": "Educational consultant", "street": "Ansal Chamber -1", "city": "B-413", "phone": "09999771442", "website": "https://gvmglobal.org/", "rating": 5, "review_count": "", "latitude": 28.569217899999998, "longitude": 77.18890329999999, "maps_url": "https://www.google.com/maps/place/?q=place_id:0x390ce242f9855555:0xd68d50e65db956de"}, {"place_id": "0x390ce3e02b5bccbd:0x8b9b77bfa478eebc", "name": "Hexalifts - Lift Manufacturers Company", "category": "Elevator Manufacturer", "street": "K-62", "city": "Block K, Green Park", "phone": "09990878787", "website": "https://hexalifts.in/", "rating": 4.7, "review_count": "", "latitude": 28.5539223, "longitude": 77.2001981, "maps_url": "https://www.google.com/maps/place/?q=place_id:0x390ce3e02b5bccbd:0x8b9b77bfa478eebc"}, {"place_id": "0x390d1db8b05a304d:0x649d979446630a4", "name": "Vinay Spirits Private Limited", "category": "Alcohol Manufacturer", "street": "617, Somdatt Chamber -2, 9", "city": "Bhikaji Cama Place", "phone": "", "website": "https://www.vinayspirits.com/", "rating": 5, "review_count": "", "latitude": 28.5680312, "longitude": 77.1885276, "maps_url": "https://www.google.com/maps/place/?q=place_id:0x390d1db8b05a304d:0x649d979446630a4"}, {"place_id": "0x390ce24295555563:0x32291d601ba6799a", "name": "WorkSure MedPharma Consultancy India Pvt. Ltd.", "category": "Research foundation", "street": "Ist Floor", "city": "Commercial Complex", "phone": "01126162722", "website": "http://www.worksure.org/", "rating": 4.3, "review_count": "", "latitude": 28.5657043, "longitude": 77.1989983, "maps_url": "https://www.google.com/maps/place/?q=place_id:0x390ce24295555563:0x32291d601ba6799a"}, {"place_id": "0x390d1d1ecb1c9aa9:0x4acd2bc080896920", "name": "Cholamandalam MS General Insurance Company Ltd", "category": "Insurance company", "street": "4th Floor, J Tower", "city": "World Trade Centre", "phone": "18002085544", "website": "https://www.cholainsurance.com/", "rating": 4, "review_count": "", "latitude": 28.569320299999998, "longitude": 77.1969842, "maps_url": "https://www.google.com/maps/place/?q=place_id:0x390d1d1ecb1c9aa9:0x4acd2bc080896920"}, {"place_id": "0x390ce3b31aba64ef:0xe7b284399b8f2b40", "name": "Urbanclap company", "category": "Corporate office", "street": "161 B/4, Second Floor, Gulmohar House, Near Green Park Metro Gate- 2", "city": "New Delhi, Delhi 110016", "phone": "", "website": "https://www.urbancompany.com/delhi-ncr", "rating": 3, "review_count": "", "latitude": 28.5568733, "longitude": 77.2059249, "maps_url": "https://www.google.com/maps/place/?q=place_id:0x390ce3b31aba64ef:0xe7b284399b8f2b40"}, {"place_id": "0x390d1d86824246fd:0x5c8b62244a2ed256", "name": "GS1 India", "category": "Non-profit organization", "street": "Ground Floor, World Trade Center", "city": "BG00, Tower B", "phone": "01142890890", "website": "https://www.gs1india.org/", "rating": 4.7, "review_count": "", "latitude": 28.5687288, "longitude": 77.1928837, "maps_url": "https://www.google.com/maps/place/?q=place_id:0x390d1d86824246fd:0x5c8b62244a2ed256"}, {"place_id": "0x390ce278d1b1a855:0xa3369a173496d9d8", "name": "ARS Group Enterprises", "category": "Tour operator", "street": "SJ Enclave, New Delhi", "city": "near AIIMS Trauma Center & AIIMS Metro Station", "phone": "08076361938", "website": "", "rating": 4.5, "review_count": "", "latitude": 28.568564, "longitude": 77.1981038, "maps_url": "https://www.google.com/maps/place/?q=place_id:0x390ce278d1b1a855:0xa3369a173496d9d8"}, {"place_id": "0x390ce27bece60c1b:0xe67403695c52c82b", "name": "Karanjawala & Co", "category": "Law firm", "street": "7, Factory Road", "city": "near Safdarjung Hospital", "phone": "01143588888", "website": "http://karanjawala.in/", "rating": 4.5, "review_count": "", "latitude": 28.5688408, "longitude": 77.2018054, "maps_url": "https://www.google.com/maps/place/?q=place_id:0x390ce27bece60c1b:0xe67403695c52c82b"}, {"place_id": "0x390d1d8baaaaaaab:0x81e02841f207d0f0", "name": "S SONY & COMPANY PVT. LTD", "category": "Real Estate Builders & Construction Company", "street": "G-4, ANUPAMA BUILDING II FLOOR", "city": "Hauz Khas", "phone": "01135002651", "website": "http://ssony.in/", "rating": 4.9, "review_count": "", "latitude": 28.5510508, "longitude": 77.2048471, "maps_url": "https://www.google.com/maps/place/?q=place_id:0x390d1d8baaaaaaab:0x81e02841f207d0f0"}, {"place_id": "0x390ce215cfde0db7:0x72d12f7279088995", "name": "Corporate Gifting Company in Hauz Khas | Corporate Gifting Company | Purple Palette", "category": "Corporate gift supplier", "street": "39, Daryacha Building", "city": "Hauz Khas Village, Hauz Khas", "phone": "09873333348", "website": "http://purplepalette.in/", "rating": 4.9, "review_count": "", "latitude": 28.5529987, "longitude": 77.1946361, "maps_url": "https://www.google.com/maps/place/?q=place_id:0x390ce215cfde0db7:0x72d12f7279088995"}, {"place_id": "0x390d1d841e92eb67:0x1dcf9b11bdcb5d86", "name": "DTDC COURIER BHIKAJI CAMA PLACE A", "category": "Courier service", "street": "BHIKAJI CAMA PLACE 132A 1ST FLOOR, Somdutt Chamber 1, 132 A", "city": "above YES Bank", "phone": "09312948076", "website": "http://dtdc.com/", "rating": 4.6, "review_count": "", "latitude": 28.5676635, "longitude": 77.1889065, "maps_url": "https://www.google.com/maps/place/?q=place_id:0x390d1d841e92eb67:0x1dcf9b11bdcb5d86"}, {"place_id": "0x81ce972afa43341:0x3ae009f7c8c16eb0", "name": "Noblegate Consulting Private Limited", "category": "Consultant", "street": "", "city": "", "phone": "01147505646", "website": "https://www.noblegate.in/", "rating": 5, "review_count": "", "latitude": 21.0680074, "longitude": 82.7525294, "maps_url": "https://www.google.com/maps/place/?q=place_id:0x81ce972afa43341:0x3ae009f7c8c16eb0"}, {"place_id": "0x390d1d99aa0be97f:0x92f4c675cbcd1ca3", "name": "OneInsure", "category": "Insurance broker", "street": "B-306, Somdatta Chember", "city": "I, 5", "phone": "08655986559", "website": "https://www.oneinsure.com/", "rating": 3.5, "review_count": "", "latitude": 28.5677842, "longitude": 77.18860649999999, "maps_url": "https://www.google.com/maps/place/?q=place_id:0x390d1d99aa0be97f:0x92f4c675cbcd1ca3"}, {"place_id": "0x390d1d841aaaaaab:0x555379d40451439e", "name": "Kopier Services ( Photocopier/ Printer/Laptop Rental in Delhi NCR, Gurgaon, Noida)", "category": "Printing equipment supplier", "street": "R- 8, Ansal Chamber-II", "city": "6,bhikaji Cama Place", "phone": "09810003289", "website": "http://www.kopierservices.com/", "rating": 4.4, "review_count": "", "latitude": 28.568748, "longitude": 77.190908, "maps_url": "https://www.google.com/maps/place/?q=place_id:0x390d1d841aaaaaab:0x555379d40451439e"}, {"place_id": "0x390d1d844de7703f:0x453b935c5a823b1a", "name": "Technodent Exim India Pvt. Ltd.", "category": "Medical Equipment Manufacturer", "street": "B-138, GF, Navakar Building, Near August Kranti Bhawan", "city": "New Delhi, Delhi 110066", "phone": "01141550193", "website": "http://www.technodent.in/", "rating": 5, "review_count": "", "latitude": 28.566191, "longitude": 77.18709, "maps_url": "https://www.google.com/maps/place/?q=place_id:0x390d1d844de7703f:0x453b935c5a823b1a"}, {"place_id": "0x390d1d8430a47795:0xc2eddd651a9d34b9", "name": "Rail Vikas Nigam Limited", "category": "Government office", "street": "RAIL VIKAS NIGAM LIMITED Plot No. 25, First Floor, August Kranti Bhawan", "city": "Africa Ave", "phone": "01126738299", "website": "https://rvnl.org/", "rating": 4.7, "review_count": "", "latitude": 28.566583899999998, "longitude": 77.1879022, "maps_url": "https://www.google.com/maps/place/?q=place_id:0x390d1d8430a47795:0xc2eddd651a9d34b9"}, {"place_id": "0x390ce20c05555555:0x15fe85e8b5322da8", "name": "DCC SUPPLY CHAIN & DISTRIBUTION LLP formerly known as Dairy Chem Corporation", "category": "Cold storage facility", "street": "Community Center", "city": "AB -17", "phone": "09899972766", "website": "", "rating": 5, "review_count": "", "latitude": 28.5661591, "longitude": 77.19903819999999, "maps_url": "https://www.google.com/maps/place/?q=place_id:0x390ce20c05555555:0x15fe85e8b5322da8"}, {"place_id": "0x390d1d0019b1ff45:0x80f73cec66625745", "name": "IRCTC Corporate Office", "category": "Corporate office", "street": "77a", "city": "Block F, Sarojini Nagar", "phone": "", "website": "", "rating": 4.8, "review_count": "", "latitude": 28.568427, "longitude": 77.1928171, "maps_url": "https://www.google.com/maps/place/?q=place_id:0x390d1d0019b1ff45:0x80f73cec66625745"}, {"place_id": "0x390d1d86d3db98c3:0x323d809f7fbbeb52", "name": "World Trade Centre", "category": "Exhibition and trade center", "street": "Tower K", "city": "World Trade Centre", "phone": "08527136569", "website": "", "rating": 4.5, "review_count": "", "latitude": 28.568427, "longitude": 77.1928171, "maps_url": "https://www.google.com/maps/place/?q=place_id:0x390d1d86d3db98c3:0x323d809f7fbbeb52"}, {"place_id": "0x390d023486ac4e6d:0xc57794f2bc76e4f4", "name": "CNK RK & Co, Chartered Accountants", "category": "Certified public accountant", "street": "A1/20", "city": "Block A 1, Nauroji Nagar, Safdarjung Enclave", "phone": "01146577572", "website": "http://www.cnk-rk.co/", "rating": 4.4, "review_count": "", "latitude": 28.5658186, "longitude": 77.1956012, "maps_url": "https://www.google.com/maps/place/?q=place_id:0x390d023486ac4e6d:0xc57794f2bc76e4f4"}, {"place_id": "0x390d1d841aaaaaab:0xa047edc7794e4d52", "name": "Bajaj Capital", "category": "Investment service", "street": "Ansal Chamber-2", "city": "GF10,11,12", "phone": "1800313123123", "website": "https://www.bajajcapital.com/", "rating": 4.9, "review_count": "", "latitude": 28.568983499999998, "longitude": 77.1887751, "maps_url": "https://www.google.com/maps/place/?q=place_id:0x390d1d841aaaaaab:0xa047edc7794e4d52"}, {"place_id": "0x390ce300742016e7:0xfff31bf369202620", "name": "Block E, World Trade Center", "category": "Government office", "street": "H59V+7W3", "city": "Block F, Nauroji Nagar, Safdarjung Enclave", "phone": "", "website": "", "rating": 4, "review_count": "", "latitude": 28.568147999999997, "longitude": 77.1947845, "maps_url": "https://www.google.com/maps/place/?q=place_id:0x390ce300742016e7:0xfff31bf369202620"}, {"place_id": "0xa56ff83900c175e1:0x2d8c594785616fb", "name": "The Cleo Beauty Co", "category": "Beauty product supplier", "street": "124, Cleo Beauty, 1st floor, Somdatt Chamber 1, 5", "city": "Bhikaji Cama Place", "phone": "07409469194", "website": "https://cleouniverse.com/", "rating": 5, "review_count": "", "latitude": 28.567786899999998, "longitude": 77.18854999999999, "maps_url": "https://www.google.com/maps/place/?q=place_id:0xa56ff83900c175e1:0x2d8c594785616fb"}, {"place_id": "0x390cfd309eebed77:0xfd197464ed8f031b", "name": "A M Industrial Enterprises", "category": "Telescope store", "street": "UG -12 Ansal Chamber -II", "city": "6 Bhikaji Cama Place", "phone": "09999914071", "website": "http://www.am-ie.com/", "rating": 4, "review_count": "", "latitude": 28.567557599999997, "longitude": 77.188199, "maps_url": "https://www.google.com/maps/place/?q=place_id:0x390cfd309eebed77:0xfd197464ed8f031b"}, {"place_id": "0x2c52f926c2cb72e7:0xd2a88c04d097ab6d", "name": "Diverse Pathwais Pvt Ltd", "category": "Visa Agent", "street": "Ground floor", "city": "World Trade Centre", "phone": "", "website": "https://diversepathwais.com/", "rating": 5, "review_count": "", "latitude": 28.5686039, "longitude": 77.1928641, "maps_url": "https://www.google.com/maps/place/?q=place_id:0x2c52f926c2cb72e7:0xd2a88c04d097ab6d"}, {"place_id": "0x390d1d841a0f4d7f:0x5b5b568d9f658f0c", "name": "Cera Sanitaryware Limited", "category": "Back Office", "street": "801, 8th Floor", "city": "Bhikaji Cama Place, Rama Krishna Puram", "phone": "01146574105", "website": "http://www.cera-india.com/", "rating": 3.4, "review_count": "", "latitude": 28.5687656, "longitude": 77.18706759999999, "maps_url": "https://www.google.com/maps/place/?q=place_id:0x390d1d841a0f4d7f:0x5b5b568d9f658f0c"}, {"place_id": "0x390d1d841a0f4d5b:0x9ae44ba352980bd3", "name": "Requisite Development Services Private Limited", "category": "Research institute", "street": "Plot No.122, IIIrd Floor, Takshak Cyber Cafe Building", "city": "Mohammadpur", "phone": "01165577622", "website": "http://rdsindiaresearch.com/", "rating": 4.6, "review_count": "", "latitude": 28.5679196, "longitude": 77.1881392, "maps_url": "https://www.google.com/maps/place/?q=place_id:0x390d1d841a0f4d5b:0x9ae44ba352980bd3"}, {"place_id": "0x390ce25f6e3d2b9d:0x57f3a0fc9725f59b", "name": "YATRA POINT TOURISM COMPANY INDIA", "category": "Travel agency", "street": "OFFICE NO-7", "city": "BULDING NO N-1, LGF", "phone": "08860016982", "website": "", "rating": 4.9, "review_count": "", "latitude": 28.574078, "longitude": 77.219089, "maps_url": "https://www.google.com/maps/place/?q=place_id:0x390ce25f6e3d2b9d:0x57f3a0fc9725f59b"}, {"place_id": "0x390d1d7a9dc2f629:0x74d86edc270575a0", "name": "hotel corporate guest house", "category": "Hotel", "street": "A2, 5", "city": "Block A 2, Safdarjung Enclave", "phone": "", "website": "https://corporateguesthouse.in/", "rating": 4.8, "review_count": "", "latitude": 28.5679043, "longitude": 77.1897474, "maps_url": "https://www.google.com/maps/place/?q=place_id:0x390d1d7a9dc2f629:0x74d86edc270575a0"}, {"place_id": "0x390d1d86a6440001:0xccdd673ac8730aae", "name": "Mohta Building", "category": "Office space rental agency", "street": "Second floor F No. 203", "city": "Mohta Building", "phone": "", "website": "", "rating": 3.6, "review_count": "", "latitude": 28.568212499999998, "longitude": 77.18901559999999, "maps_url": "https://www.google.com/maps/place/?q=place_id:0x390d1d86a6440001:0xccdd673ac8730aae"}, {"place_id": "0x390d1d3e13a8d875:0x4178ba7f4546191c", "name": "Streaks Aviation Private Limited", "category": "Helicopter Charter Rental & Leasing", "street": "4th Floor, Ansal Chember", "city": "Office No - A-421", "phone": "01141253083", "website": "https://www.streaksaviation.com/", "rating": 4.9, "review_count": "", "latitude": 28.5687346, "longitude": 77.18908909999999, "maps_url": "https://www.google.com/maps/place/?q=place_id:0x390d1d3e13a8d875:0x4178ba7f4546191c"}, {"place_id": "0x390d1d841a0f4d5b:0x2abb39b10ec3bc6f", "name": "OVERSEAS LOGISTICS PVT. LTD.", "category": "Courier service", "street": "LG-9 & 10, Somdatt Chambers-1, 5", "city": "Bhikaji Cama Place", "phone": "01147244444", "website": "http://www.overseaslogistic.com/", "rating": 3, "review_count": "", "latitude": 28.5678061, "longitude": 77.1889164, "maps_url": "https://www.google.com/maps/place/?q=place_id:0x390d1d841a0f4d5b:0x2abb39b10ec3bc6f"}, {"place_id": "0x24a9b8d9cb48b82d:0xcd4236bafce72dd7", "name": "LivLite Industries Private Limited", "category": "FMCG Manufacturer", "street": "", "city": "", "phone": "", "website": "https://livlite.co.in/", "rating": 5, "review_count": "", "latitude": 25.7384822, "longitude": 77.0595484, "maps_url": "https://www.google.com/maps/place/?q=place_id:0x24a9b8d9cb48b82d:0xcd4236bafce72dd7"}]}