{"timestamp": 1773731476.6121988, "keyword": "IT company", "location": "delhi", "cell_idx": 447, "results": [{"place_id": "0x390ce2e52043e875:0x2c1bcaf4b5b0061", "name": "Fair Infotech", "category": "Software company", "street": "1529/4, Western Peripheral Expy", "city": "South Extension I, Wazir Nagar, Pragati Vihar", "phone": "08882376856", "website": "", "rating": 4.8, "review_count": "", "latitude": 28.5916468, "longitude": 77.23178639999999, "maps_url": "https://www.google.com/maps/place/?q=place_id:0x390ce2e52043e875:0x2c1bcaf4b5b0061"}, {"place_id": "0x390ce458d0000001:0xf2123bd299ec4501", "name": "IT Company India", "category": "Software company", "street": "D56", "city": "D Block, Sector 10", "phone": "09999244854", "website": "https://www.itcompanyindia.in/", "rating": 4.7, "review_count": "", "latitude": 28.589917699999997, "longitude": 77.3351153, "maps_url": "https://www.google.com/maps/place/?q=place_id:0x390ce458d0000001:0xf2123bd299ec4501"}, {"place_id": "0x390ce3c153b89811:0xe7a279685777e9ca", "name": "IT Company", "category": "Automation company", "street": "A-14", "city": "near iskcon temple", "phone": "", "website": "http://www.opuswiz.com/", "rating": 3, "review_count": "", "latitude": 28.557167, "longitude": 77.25424819999999, "maps_url": "https://www.google.com/maps/place/?q=place_id:0x390ce3c153b89811:0xe7a279685777e9ca"}, {"place_id": "0x46d12742e05e473:0x5264b13ac6fcef02", "name": "Info Tech India", "category": "Software company", "street": "KAILASH BUILDING", "city": "1212, KG Marg", "phone": "", "website": "https://infotechindia.in/", "rating": 5, "review_count": "", "latitude": 28.629473299999997, "longitude": 77.22220159999999, "maps_url": "https://www.google.com/maps/place/?q=place_id:0x46d12742e05e473:0x5264b13ac6fcef02"}, {"place_id": "0x390ce2e52043e633:0x3ed44d79ea4bd91c", "name": "Wirecto", "category": "Software company", "street": "Triloki Colony", "city": "C-49", "phone": "09716670074", "website": "https://wirecto.app/", "rating": 5, "review_count": "", "latitude": 28.575404799999998, "longitude": 77.2250054, "maps_url": "https://www.google.com/maps/place/?q=place_id:0x390ce2e52043e633:0x3ed44d79ea4bd91c"}, {"place_id": "0x390ce1597b5509e5:0xfd8209b937b44d3c", "name": "IT Solutions India Private Limited", "category": "Software company", "street": "D-88/5", "city": "Pocket D, Okhla Phase I, Okhla Industrial Estate", "phone": "09810017429", "website": "https://www.itsipl.com/", "rating": 4.2, "review_count": "", "latitude": 28.520146, "longitude": 77.280431, "maps_url": "https://www.google.com/maps/place/?q=place_id:0x390ce1597b5509e5:0xfd8209b937b44d3c"}, {"place_id": "0x390ce3cdb2e04b7f:0x43ae7ffa83f63a5f", "name": "GIBS (Global IT Business Solutions)", "category": "Computer support and services", "street": "15A Basement", "city": "Golf Apartments", "phone": "09811226600", "website": "https://gibsit.com/", "rating": 4.9, "review_count": "", "latitude": 28.5991413, "longitude": 77.2288398, "maps_url": "https://www.google.com/maps/place/?q=place_id:0x390ce3cdb2e04b7f:0x43ae7ffa83f63a5f"}, {"place_id": "0x390cfcac5aaaaaed:0xa20ab2e7b400180", "name": "\ud835\udc68\ud835\udc76 \ud835\udc7a\ud835\udc90\ud835\udc87\ud835\udc95\ud835\udc98\ud835\udc82\ud835\udc93\ud835\udc86 \ud835\udc7a\ud835\udc90\ud835\udc8d\ud835\udc96\ud835\udc95\ud835\udc8a\ud835\udc90\ud835\udc8f Website Designing company-website development company-product promotion and ERP development company", "category": "Software company", "street": "1B", "city": "S-505", "phone": "01142603444", "website": "https://aosoftwaresolution.com/", "rating": 4.8, "review_count": "", "latitude": 28.6287195, "longitude": 77.2766171, "maps_url": "https://www.google.com/maps/place/?q=place_id:0x390cfcac5aaaaaed:0xa20ab2e7b400180"}, {"place_id": "0x39f89c0fb3b411eb:0xbe473f977e9b7558", "name": "Kbeatech - Digital Solutions Company", "category": "Software company", "street": "1893, 1st Floor", "city": "Uday Chand Marg", "phone": "", "website": "https://kbeatech.in/", "rating": 4.9, "review_count": "", "latitude": 28.571338299999997, "longitude": 77.2228884, "maps_url": "https://www.google.com/maps/place/?q=place_id:0x39f89c0fb3b411eb:0xbe473f977e9b7558"}, {"place_id": "0x390ce3448a4652e7:0x19e65fcfb4a4f898", "name": "VISIBLE INDIA MEDIA PRIVATE LIMITED", "category": "Software company", "street": "616, Lodhi Rd", "city": "near ICICI Bank NewDelhi-NBCC", "phone": "", "website": "", "rating": 5, "review_count": "", "latitude": 28.5889354, "longitude": 77.2309035, "maps_url": "https://www.google.com/maps/place/?q=place_id:0x390ce3448a4652e7:0x19e65fcfb4a4f898"}, {"place_id": "0x390ce3c7b85554e5:0x34e439c15e247631", "name": "HAUT IT Solutions Pvt. Ltd", "category": "Software company", "street": "390", "city": "Sant Nagar, East of Kailash", "phone": "09934753003", "website": "http://www.hautitsolutions.com/", "rating": 4.3, "review_count": "", "latitude": 28.554910099999997, "longitude": 77.25111249999999, "maps_url": "https://www.google.com/maps/place/?q=place_id:0x390ce3c7b85554e5:0x34e439c15e247631"}, {"place_id": "0x390cefdcd70b1b4b:0xef72aa58bfc41075", "name": "Devkant Infotech Solutions | Software Company in Noida | Top IT Company In Noida", "category": "Software company", "street": "office No. A", "city": "1601 Nx One T3 Gaur Chowk", "phone": "07428685050", "website": "https://dkinfotech.in/", "rating": 4.9, "review_count": "", "latitude": 28.601201399999997, "longitude": 77.4323665, "maps_url": "https://www.google.com/maps/place/?q=place_id:0x390cefdcd70b1b4b:0xef72aa58bfc41075"}, {"place_id": "0x390ce5fdcc79e755:0x309ce99251b84ef6", "name": "Optyminds IT Solutions - Top AI and IT company I Best Digital agency in Noida | Delhi NCR | India", "category": "Software company", "street": "1st Floor", "city": "B-70", "phone": "08929075975", "website": "https://optyminds.com/", "rating": 4.9, "review_count": "", "latitude": 28.584679599999998, "longitude": 77.3135042, "maps_url": "https://www.google.com/maps/place/?q=place_id:0x390ce5fdcc79e755:0x309ce99251b84ef6"}, {"place_id": "0x390ce3512b42e945:0xe8ce9b06e1651251", "name": "Instant IT services - Best Hardware & Software Related Services", "category": "Software company", "street": "koli camp", "city": "69B", "phone": "09804836325", "website": "", "rating": 4.7, "review_count": "", "latitude": 28.5758728, "longitude": 77.2565554, "maps_url": "https://www.google.com/maps/place/?q=place_id:0x390ce3512b42e945:0xe8ce9b06e1651251"}, {"place_id": "0x390cf111a0e96b41:0xf3ccbe8f41a6d330", "name": "Webinfratech IT Company", "category": "Software company", "street": "H-196, Lohia Rd", "city": "H Block, Sector 63", "phone": "07827221229", "website": "https://www.webinfratech.com/", "rating": 4.8, "review_count": "", "latitude": 28.627754999999997, "longitude": 77.380695, "maps_url": "https://www.google.com/maps/place/?q=place_id:0x390cf111a0e96b41:0xf3ccbe8f41a6d330"}, {"place_id": "0x390ce3b67c49a6b5:0x1c9cb6eddc99e2c6", "name": "AdOne Network Pvt Ltd", "category": "Software company", "street": "Web SEO India 1", "city": "Sujan Sing Park North, Sujan Singh Park", "phone": "09717681813", "website": "http://www.ad1.in/", "rating": 4.7, "review_count": "", "latitude": 28.6021972, "longitude": 77.22852259999999, "maps_url": "https://www.google.com/maps/place/?q=place_id:0x390ce3b67c49a6b5:0x1c9cb6eddc99e2c6"}, {"place_id": "0x390ce38f903de9fd:0x60b75e3dc7d3fb1b", "name": "iTech Mission Private Limited (iTM)", "category": "Software company", "street": "4th Floor, Saira Tower", "city": "Gulmohar Commercial Complex", "phone": "", "website": "http://www.itechmission.org/", "rating": 5, "review_count": "", "latitude": 28.557895499999997, "longitude": 77.20812099999999, "maps_url": "https://www.google.com/maps/place/?q=place_id:0x390ce38f903de9fd:0x60b75e3dc7d3fb1b"}, {"place_id": "0x390ce3b48e27a563:0x4ec8ae3c524366b", "name": "iSOFT INDIA TECHNOLOGIES", "category": "Software company", "street": "E-168|169, Amar Colony, Lajpat Nagar", "city": "New Delhi, Delhi 110024", "phone": "09717978320", "website": "", "rating": 4.9, "review_count": "", "latitude": 28.5657368, "longitude": 77.23946029999999, "maps_url": "https://www.google.com/maps/place/?q=place_id:0x390ce3b48e27a563:0x4ec8ae3c524366b"}, {"place_id": "0x390d1d86a4f12173:0x3a6b42ea6f4b8260", "name": "Softvanz Technologies Private Limited", "category": "Software company", "street": "Somdutt Chamber 1", "city": "BT-22/9", "phone": "", "website": "https://softvanz.com/", "rating": 5, "review_count": "", "latitude": 28.567948899999998, "longitude": 77.1889269, "maps_url": "https://www.google.com/maps/place/?q=place_id:0x390d1d86a4f12173:0x3a6b42ea6f4b8260"}, {"place_id": "0x390ce3094f4a9af1:0xdc21c66946b829ad", "name": "BAUDHYANTRAM IT Solutions | Website Designing | Web Development | Software Company in Delhi", "category": "Software company", "street": "H82 2nd Floor", "city": "opposite Bengali Sweet Center", "phone": "07900899996", "website": "http://www.baudhyantram.in/", "rating": 4.8, "review_count": "", "latitude": 28.5695803, "longitude": 77.221047, "maps_url": "https://www.google.com/maps/place/?q=place_id:0x390ce3094f4a9af1:0xdc21c66946b829ad"}, {"place_id": "0x390ce3a1fa7275f1:0x2c792339bc369536", "name": "Ezeetech Solutions", "category": "Software company", "street": "149-A, 1st Floor", "city": "Baba House Complex", "phone": "01149901562", "website": "https://ezeetechonline.com/", "rating": 4.9, "review_count": "", "latitude": 28.576534199999998, "longitude": 77.26283029999999, "maps_url": "https://www.google.com/maps/place/?q=place_id:0x390ce3a1fa7275f1:0x2c792339bc369536"}, {"place_id": "0x390d02994de5e515:0xd908bc03409a0d37", "name": "Himalayan IT Solutions | Best Website Designing Company in Delhi | SEO/Digital Marketing Company in Delhi NCR, India", "category": "Software company", "street": "61/4255, Padam Singh Rd", "city": "Block 29, Block 1, Regar Pura, Karol Bagh", "phone": "09899098509", "website": "http://www.himalayanitsolutions.com/", "rating": 3.9, "review_count": "", "latitude": 28.649673999999997, "longitude": 77.186599, "maps_url": "https://www.google.com/maps/place/?q=place_id:0x390d02994de5e515:0xd908bc03409a0d37"}, {"place_id": "0x390ce38e774eb0bf:0x2f5ed7313a2111d2", "name": "INSTAGEEKS SOFTWARE PRIVATE LIMITED - Certified Tally Partner", "category": "Software company", "street": "H-187/4 1st Floor", "city": "Kilokri, Maharani Bagh, Sunlight Colony", "phone": "09582510996", "website": "https://instageeks.in/", "rating": 4.9, "review_count": "", "latitude": 28.5769919, "longitude": 77.26242169999999, "maps_url": "https://www.google.com/maps/place/?q=place_id:0x390ce38e774eb0bf:0x2f5ed7313a2111d2"}, {"place_id": "0x390ce25e81555555:0xf93f773552127f47", "name": "SANEKT SOFTWARE SOLUTION", "category": "Software company", "street": "Top floor", "city": "H 11", "phone": "01141589565", "website": "http://sanekt.com/", "rating": 5, "review_count": "", "latitude": 28.571361, "longitude": 77.221733, "maps_url": "https://www.google.com/maps/place/?q=place_id:0x390ce25e81555555:0xf93f773552127f47"}, {"place_id": "0x390cfd36df0d730b:0xd425c6f106d9cf8", "name": "I. T. Solutions", "category": "Software company", "street": "Gate No. 8", "city": "A-6, 1st Floor, Inner Circle, Above Post office", "phone": "01141523242", "website": "http://www.itsolutioncp.com/", "rating": 4.9, "review_count": "", "latitude": 28.6324367, "longitude": 77.2183441, "maps_url": "https://www.google.com/maps/place/?q=place_id:0x390cfd36df0d730b:0xd425c6f106d9cf8"}, {"place_id": "0x390ce44609d8fd9b:0x9c680f27679610f6", "name": "Crestech Software", "category": "Software company", "street": "Plot No. D, Vyapar Marg", "city": "D Block, Sector 2", "phone": "08826666755", "website": "https://www.crestechsoftware.com/", "rating": 3.6, "review_count": "", "latitude": 28.5836924, "longitude": 77.3166213, "maps_url": "https://www.google.com/maps/place/?q=place_id:0x390ce44609d8fd9b:0x9c680f27679610f6"}, {"place_id": "0x4ebf586dbe4d7c09:0x968455c83bf5226c", "name": "Anchor IT Solutions- App Development | Website Development | Digital Marketing", "category": "Software company", "street": "4", "city": "Vinoba Puri, Lajpat Nagar II, Lajpat Nagar", "phone": "07678658584", "website": "", "rating": 4.8, "review_count": "", "latitude": 28.566371399999998, "longitude": 77.2486924, "maps_url": "https://www.google.com/maps/place/?q=place_id:0x4ebf586dbe4d7c09:0x968455c83bf5226c"}, {"place_id": "0x390ce3a2021e9897:0x28bf52d36a7d0c19", "name": "It Softtech - Website Designing and Development Company in Delhi, India", "category": "Internet marketing service", "street": "149, Ring Rd", "city": "opp. Maharani Bagh", "phone": "09810056177", "website": "", "rating": 5, "review_count": "", "latitude": 28.5763395, "longitude": 77.2640869, "maps_url": "https://www.google.com/maps/place/?q=place_id:0x390ce3a2021e9897:0x28bf52d36a7d0c19"}, {"place_id": "0x390ce307bcb22a5d:0x9ccc7b5165fafc25", "name": "EDGISS IT SERVICES INC.", "category": "Software company", "street": "40, Jangpura Rd", "city": "Bhogal", "phone": "07982001184", "website": "https://www.edgiss.in/", "rating": 5, "review_count": "", "latitude": 28.582393699999997, "longitude": 77.24992309999999, "maps_url": "https://www.google.com/maps/place/?q=place_id:0x390ce307bcb22a5d:0x9ccc7b5165fafc25"}, {"place_id": "0x390ce3003fffffe3:0x1dd892a28603e769", "name": "Corporate Infotech Pvt Ltd.", "category": "Software company", "street": "E-81", "city": "E Block, Sector 6", "phone": "1800116474", "website": "https://cipl.org.in/", "rating": 4.4, "review_count": "", "latitude": 28.5937284, "longitude": 77.3206974, "maps_url": "https://www.google.com/maps/place/?q=place_id:0x390ce3003fffffe3:0x1dd892a28603e769"}, {"place_id": "0x390feda4c4f56aed:0x2277b287e38fc0ec", "name": "Dizivan IT Solutions Pvt Ltd- App Development & Digital Marketing Company", "category": "Software company", "street": "near Metro Station New Ashok Nagar", "city": "Block B, New Ashok Nagar", "phone": "09142092979", "website": "https://dizivan.com/", "rating": 5, "review_count": "", "latitude": 28.5891575, "longitude": 77.3020624, "maps_url": "https://www.google.com/maps/place/?q=place_id:0x390feda4c4f56aed:0x2277b287e38fc0ec"}, {"place_id": "0x2a72b8b69d7b6493:0x11251466d4d34cac", "name": "WebZonal IT Company", "category": "Website designer", "street": "Wz-258/2-3, D Block Rd", "city": "Khazan Basti, Nangal Raya, Janakpuri", "phone": "09811170903", "website": "http://webzonal.com/", "rating": 5, "review_count": "", "latitude": 28.6122102, "longitude": 77.11159549999999, "maps_url": "https://www.google.com/maps/place/?q=place_id:0x2a72b8b69d7b6493:0x11251466d4d34cac"}, {"place_id": "0x390cfcd5693382a9:0x7d163441e68be0fd", "name": "OCIO Technology", "category": "Software company", "street": "316, 3rd Floor", "city": "Pratap Bhawan", "phone": "09999220359", "website": "http://ociotechnology.com/", "rating": 4.9, "review_count": "", "latitude": 28.627443399999997, "longitude": 77.241478, "maps_url": "https://www.google.com/maps/place/?q=place_id:0x390cfcd5693382a9:0x7d163441e68be0fd"}, {"place_id": "0x390ce50c09caefe1:0x3a09394e1e92ef97", "name": "AVIERON TECH PRIVATE LIMITED", "category": "Software company", "street": "Building No 2/10 3rd Floor", "city": "Crown Plaza", "phone": "", "website": "https://www.avierontech.com/", "rating": 4.7, "review_count": "", "latitude": 28.560064999999998, "longitude": 77.27176399999999, "maps_url": "https://www.google.com/maps/place/?q=place_id:0x390ce50c09caefe1:0x3a09394e1e92ef97"}, {"place_id": "0x390cfcac65666323:0xa05d02cc23bee92a", "name": "Rexcel IT Services Pvt Ltd", "category": "Software company", "street": "D-15 1st Floor", "city": "D Block, Sector 6", "phone": "01204512529", "website": "http://www.rexcelitservices.com/", "rating": 3.2, "review_count": "", "latitude": 28.5938749, "longitude": 77.3188215, "maps_url": "https://www.google.com/maps/place/?q=place_id:0x390cfcac65666323:0xa05d02cc23bee92a"}, {"place_id": "0x390ce3860c81c723:0xc5f50e43c0a86a3e", "name": "Nextr Technology", "category": "Software company", "street": "2nd Floor", "city": "1483/A-1", "phone": "09911751575", "website": "http://www.nextr.in/", "rating": 4.9, "review_count": "", "latitude": 28.574374, "longitude": 77.224284, "maps_url": "https://www.google.com/maps/place/?q=place_id:0x390ce3860c81c723:0xc5f50e43c0a86a3e"}, {"place_id": "0x390cfcad2d191127:0x83c805201ec0a98e", "name": "IT Nucleus", "category": "Website designer", "street": "310, 3rd Floor, S-524, Aggarwal House Opp-Metro Pillar 27", "city": "School Block shakarpur, Laxmi Nagar", "phone": "01143001828", "website": "http://www.itnucleus.com/", "rating": 4.9, "review_count": "", "latitude": 28.629542599999997, "longitude": 77.2766257, "maps_url": "https://www.google.com/maps/place/?q=place_id:0x390cfcad2d191127:0x83c805201ec0a98e"}, {"place_id": "0x390d03adaef37299:0xd8b343093deaee7", "name": "Ruminate IT Solution | Best software company in Delhi NCR | IT Software company", "category": "Software company", "street": "C-64", "city": "Pocket B, Hari Nagar", "phone": "09625650376", "website": "https://www.ruminateitsolution.com/", "rating": 5, "review_count": "", "latitude": 28.628819, "longitude": 77.10428399999999, "maps_url": "https://www.google.com/maps/place/?q=place_id:0x390d03adaef37299:0xd8b343093deaee7"}, {"place_id": "0x390ce3932eaaaaab:0xb308d9aae0d93852", "name": "Al Hadaf Technologies\u2013 ERP, CRM, HRM, Hospital, School, Billing Software Development Company in Delhi NCR", "category": "Software company", "street": "96, Gate No-2", "city": "opp. Escort Hospital", "phone": "08586972994", "website": "https://www.alhadaftech.com/", "rating": 4.9, "review_count": "", "latitude": 28.5562397, "longitude": 77.2762099, "maps_url": "https://www.google.com/maps/place/?q=place_id:0x390ce3932eaaaaab:0xb308d9aae0d93852"}, {"place_id": "0x390ce3b7c0000001:0x46ddd80ee502d937", "name": "Amtrak Technologies Private Limited", "category": "Computer support and services", "street": "6, Community Centre", "city": "East of Kailash", "phone": "01126448000", "website": "https://amtrak.co.in/", "rating": 4.4, "review_count": "", "latitude": 28.558434899999998, "longitude": 77.2463302, "maps_url": "https://www.google.com/maps/place/?q=place_id:0x390ce3b7c0000001:0x46ddd80ee502d937"}, {"place_id": "0x390ce2e52043e875:0x736392690eb09668", "name": "Shri Karni Services", "category": "Packaging company", "street": "1479/30, top floor, netram complex", "city": "Kotla Mubarakpur, Wazir Nagar", "phone": "09599039434", "website": "https://shrikarniservices.co.in/", "rating": 4.3, "review_count": "", "latitude": 28.589152, "longitude": 77.2326203, "maps_url": "https://www.google.com/maps/place/?q=place_id:0x390ce2e52043e875:0x736392690eb09668"}, {"place_id": "0x390ce30f4c4ed777:0x3a7c5e032ce51ce5", "name": "Appextech Software Solutions", "category": "Software company", "street": "Second Floor", "city": "Mohan Cooperative Industrial Estate", "phone": "09911432451", "website": "https://www.appextech.com/", "rating": 4.9, "review_count": "", "latitude": 28.502260099999997, "longitude": 77.28519, "maps_url": "https://www.google.com/maps/place/?q=place_id:0x390ce30f4c4ed777:0x3a7c5e032ce51ce5"}, {"place_id": "0x390ce2e879a2eb31:0x9658bcd03851d926", "name": "INFOMERICS Valuation and Rating Limited", "category": "Credit counseling service", "street": "Flat 104-108 Floor", "city": "Golf Apartments", "phone": "01124654796", "website": "https://www.infomerics.com/", "rating": 4.7, "review_count": "", "latitude": 28.5991413, "longitude": 77.2288398, "maps_url": "https://www.google.com/maps/place/?q=place_id:0x390ce2e879a2eb31:0x9658bcd03851d926"}, {"place_id": "0x390cfdcc4be47a2d:0xbd6a23fa53037221", "name": "Web Players Technology- Website Designing Company in Central Delhi - Landing Page Designing Company in Delhi", "category": "Website designer", "street": "CP N-12 UPPER GROUND FLOOR MUNSI LAL BUILDING", "city": "Connaught Cir", "phone": "09717292583", "website": "https://www.web-players.co.in/", "rating": 5, "review_count": "", "latitude": 28.6315566, "longitude": 77.22262119999999, "maps_url": "https://www.google.com/maps/place/?q=place_id:0x390cfdcc4be47a2d:0xbd6a23fa53037221"}, {"place_id": "0x390ce3cfe91504eb:0x55346c5c499223d7", "name": "CCS Computers Private Limited", "category": "Computer support and services", "street": "2nd-3rd Floor Skipper House", "city": "Nehru Place", "phone": "01126463959", "website": "http://www.ccscomputers.co.in/", "rating": 4, "review_count": "", "latitude": 28.550090599999997, "longitude": 77.2537834, "maps_url": "https://www.google.com/maps/place/?q=place_id:0x390ce3cfe91504eb:0x55346c5c499223d7"}, {"place_id": "0x390ce26dc4d4ba2d:0x9486a6d620e379f9", "name": "Akal Information Systems Ltd.", "category": "Software company", "street": "Tower J, World Trade Center", "city": "103", "phone": "01146503545", "website": "https://www.akalinfo.com/", "rating": 3.9, "review_count": "", "latitude": 28.567935499999997, "longitude": 77.1923202, "maps_url": "https://www.google.com/maps/place/?q=place_id:0x390ce26dc4d4ba2d:0x9486a6d620e379f9"}, {"place_id": "0x390ce25e35e99b33:0xf443abe69b4e8fcc", "name": "Synapse Valuetech Private Limited", "category": "Software company", "street": "Lower Ground Floor", "city": "221", "phone": "01146628882", "website": "https://www.synapsevaluetech.com/", "rating": 4.3, "review_count": "", "latitude": 28.558165, "longitude": 77.2592385, "maps_url": "https://www.google.com/maps/place/?q=place_id:0x390ce25e35e99b33:0xf443abe69b4e8fcc"}, {"place_id": "0x390cfd4003b035d5:0x710fbda5c1a9b3dc", "name": "TechMaa AI Innovations Pvt. Ltd.", "category": "Software company", "street": "3, SF", "city": "Kundan Mansion", "phone": "09910947998", "website": "https://www.techmaa.org/", "rating": 4.8, "review_count": "", "latitude": 28.6410409, "longitude": 77.23569549999999, "maps_url": "https://www.google.com/maps/place/?q=place_id:0x390cfd4003b035d5:0x710fbda5c1a9b3dc"}, {"place_id": "0x390ce242f9a4a027:0xb1f2b4656ab9d166", "name": "Metasoft IT Systems Pvt Ltd", "category": "Software company", "street": "South Extension Plaza 2", "city": "401 402, Guneet Kashyap Marg Rd", "phone": "09910975699", "website": "http://www.metasoft.co.in/", "rating": "", "review_count": "", "latitude": 28.5636208, "longitude": 77.2198183, "maps_url": "https://www.google.com/maps/place/?q=place_id:0x390ce242f9a4a027:0xb1f2b4656ab9d166"}, {"place_id": "0x390ce3001bfd51c7:0x43ad1c18c320f5e6", "name": "APPSYFY IT SOLUTIONS PVT LTD", "category": "Software company", "street": "211, Okhla Phase 3 Rd", "city": "Okhla Phase III, Okhla Industrial Estate", "phone": "", "website": "https://appsyfy.com/", "rating": 5, "review_count": "", "latitude": 28.5484191, "longitude": 77.27131729999999, "maps_url": "https://www.google.com/maps/place/?q=place_id:0x390ce3001bfd51c7:0x43ad1c18c320f5e6"}, {"place_id": "0x390ce3ea3fb39ced:0x8b9f74c98dfbe23e", "name": "StudioKrew : Game development company and App Development Studio India", "category": "Software company", "street": "2, Shambhu Dayal Marg", "city": "opp. Okhla Phase 3", "phone": "08826617711", "website": "https://studiokrew.com/", "rating": 4.4, "review_count": "", "latitude": 28.554599999999997, "longitude": 77.265056, "maps_url": "https://www.google.com/maps/place/?q=place_id:0x390ce3ea3fb39ced:0x8b9f74c98dfbe23e"}, {"place_id": "0x390ce44efef427e7:0x4d0a10522519f65e", "name": "Omnie Solutions (I) Pvt Ltd", "category": "Software company", "street": "D-108", "city": "Sector 2, D Block, Sector 2", "phone": "09266754671", "website": "https://www.omniesolutions.com/", "rating": 3.4, "review_count": "", "latitude": 28.583485, "longitude": 77.316155, "maps_url": "https://www.google.com/maps/place/?q=place_id:0x390ce44efef427e7:0x4d0a10522519f65e"}, {"place_id": "0x390ce4f012c7fb8b:0xfa9d44af9c889d8d", "name": "ITDOSE INFOSYSTEMS", "category": "Software company", "street": "G-19", "city": "G Block, Sector 6", "phone": "09999916974", "website": "https://www.itdoseinfo.com/", "rating": 4, "review_count": "", "latitude": 28.595574, "longitude": 77.32037009999999, "maps_url": "https://www.google.com/maps/place/?q=place_id:0x390ce4f012c7fb8b:0xfa9d44af9c889d8d"}, {"place_id": "0x390ce3b4ef43469d:0xd3da1ec65f5511ec", "name": "Pointer Soft | Website Designing Company Delhi", "category": "Website designer", "street": "321", "city": "harinagar, ashram", "phone": "09958768130", "website": "http://www.pointersoft.in/", "rating": 4.6, "review_count": "", "latitude": 28.571133999999997, "longitude": 77.2796537, "maps_url": "https://www.google.com/maps/place/?q=place_id:0x390ce3b4ef43469d:0xd3da1ec65f5511ec"}, {"place_id": "0x390ce2e879a2eb31:0xa4ed7707878cd721", "name": "Rare Tech Projects Pvt. Ltd", "category": "Foreign Trade Consultant", "street": "Flat no. 7, 3rd Floor (307", "city": "Golf Apartments", "phone": "01141512265", "website": "http://raretech.org/", "rating": 4, "review_count": "", "latitude": 28.599222599999997, "longitude": 77.2288331, "maps_url": "https://www.google.com/maps/place/?q=place_id:0x390ce2e879a2eb31:0xa4ed7707878cd721"}, {"place_id": "0x390cfd355ca0fea9:0x1f2be0f1ef6dbdcf", "name": "Vayam Technologies Ltd.", "category": "Corporate office", "street": "Thapar House", "city": "124, Janpath Ln", "phone": "01147101200", "website": "https://www.vayamtech.com/", "rating": 3.8, "review_count": "", "latitude": 28.624508, "longitude": 77.21805499999999, "maps_url": "https://www.google.com/maps/place/?q=place_id:0x390cfd355ca0fea9:0x1f2be0f1ef6dbdcf"}, {"place_id": "0x390ce31d14dc7051:0xc337a2120dd03c62", "name": "NBCC Bhawan", "category": "Real Estate Builders & Construction Company", "street": "H6RP+PMV", "city": "NBCC Bhawan", "phone": "01124367314", "website": "http://www.nbccindia.com/", "rating": 4.3, "review_count": "", "latitude": 28.5918663, "longitude": 77.23666999999999, "maps_url": "https://www.google.com/maps/place/?q=place_id:0x390ce31d14dc7051:0xc337a2120dd03c62"}, {"place_id": "0x390ce395b9b5b411:0x9057c3ba07156393", "name": "IntelliSmart Infrastructure Pvt. Ltd.", "category": "Corporate office", "street": "First Floor", "city": "Lodhi Rd", "phone": "01244710330", "website": "https://intellismartinfra.in/", "rating": 4.2, "review_count": "", "latitude": 28.586567, "longitude": 77.2307502, "maps_url": "https://www.google.com/maps/place/?q=place_id:0x390ce395b9b5b411:0x9057c3ba07156393"}, {"place_id": "0x390ce2e8bb116f1d:0xb5caa6c4fc3b98a0", "name": "Unique Trip Maker", "category": "Tour agency", "street": "21", "city": "Lodhi Estate", "phone": "08860670640", "website": "http://uniquetripmaker.com/", "rating": 4.7, "review_count": "", "latitude": 28.59668, "longitude": 77.22818099999999, "maps_url": "https://www.google.com/maps/place/?q=place_id:0x390ce2e8bb116f1d:0xb5caa6c4fc3b98a0"}, {"place_id": "0x390ce5fe6ef869d7:0xa4fe2f6b97f33330", "name": "Fenebris India Pvt Ltd | Website Development And Digital Marketing Company In Noida", "category": "Software company", "street": "H-47", "city": "H Block, Sector 63", "phone": "07503638275", "website": "https://fenebrisindia.com/", "rating": 4.8, "review_count": "", "latitude": 28.6289606, "longitude": 77.376075, "maps_url": "https://www.google.com/maps/place/?q=place_id:0x390ce5fe6ef869d7:0xa4fe2f6b97f33330"}, {"place_id": "0x390ce3b4ef43469d:0xd3da1ec65f5511ec", "name": "Pointer Soft | Website Designing Company Delhi", "category": "Website designer", "street": "321", "city": "harinagar, ashram", "phone": "09958768130", "website": "http://www.pointersoft.in/", "rating": 4.6, "review_count": "", "latitude": 28.571133999999997, "longitude": 77.2796537, "maps_url": "https://www.google.com/maps/place/?q=place_id:0x390ce3b4ef43469d:0xd3da1ec65f5511ec"}, {"place_id": "0x390ce2e879a2eb31:0xa4ed7707878cd721", "name": "Rare Tech Projects Pvt. Ltd", "category": "Foreign Trade Consultant", "street": "Flat no. 7, 3rd Floor (307", "city": "Golf Apartments", "phone": "01141512265", "website": "http://raretech.org/", "rating": 4, "review_count": "", "latitude": 28.599222599999997, "longitude": 77.2288331, "maps_url": "https://www.google.com/maps/place/?q=place_id:0x390ce2e879a2eb31:0xa4ed7707878cd721"}, {"place_id": "0x390cfd355ca0fea9:0x1f2be0f1ef6dbdcf", "name": "Vayam Technologies Ltd.", "category": "Corporate office", "street": "Thapar House", "city": "124, Janpath Ln", "phone": "01147101200", "website": "https://www.vayamtech.com/", "rating": 3.8, "review_count": "", "latitude": 28.624508, "longitude": 77.21805499999999, "maps_url": "https://www.google.com/maps/place/?q=place_id:0x390cfd355ca0fea9:0x1f2be0f1ef6dbdcf"}, {"place_id": "0x390ce31d14dc7051:0xc337a2120dd03c62", "name": "NBCC Bhawan", "category": "Real Estate Builders & Construction Company", "street": "H6RP+PMV", "city": "NBCC Bhawan", "phone": "01124367314", "website": "http://www.nbccindia.com/", "rating": 4.3, "review_count": "", "latitude": 28.5918663, "longitude": 77.23666999999999, "maps_url": "https://www.google.com/maps/place/?q=place_id:0x390ce31d14dc7051:0xc337a2120dd03c62"}, {"place_id": "0x390ce395b9b5b411:0x9057c3ba07156393", "name": "IntelliSmart Infrastructure Pvt. Ltd.", "category": "Corporate office", "street": "First Floor", "city": "Lodhi Rd", "phone": "01244710330", "website": "https://intellismartinfra.in/", "rating": 4.2, "review_count": "", "latitude": 28.586567, "longitude": 77.2307502, "maps_url": "https://www.google.com/maps/place/?q=place_id:0x390ce395b9b5b411:0x9057c3ba07156393"}, {"place_id": "0x390ce2e8bb116f1d:0xb5caa6c4fc3b98a0", "name": "Unique Trip Maker", "category": "Tour agency", "street": "21", "city": "Lodhi Estate", "phone": "08860670640", "website": "http://uniquetripmaker.com/", "rating": 4.7, "review_count": "", "latitude": 28.59668, "longitude": 77.22818099999999, "maps_url": "https://www.google.com/maps/place/?q=place_id:0x390ce2e8bb116f1d:0xb5caa6c4fc3b98a0"}, {"place_id": "0x390ce5fe6ef869d7:0xa4fe2f6b97f33330", "name": "Fenebris India Pvt Ltd | Website Development And Digital Marketing Company In Noida", "category": "Software company", "street": "H-47", "city": "H Block, Sector 63", "phone": "07503638275", "website": "https://fenebrisindia.com/", "rating": 4.8, "review_count": "", "latitude": 28.6289606, "longitude": 77.376075, "maps_url": "https://www.google.com/maps/place/?q=place_id:0x390ce5fe6ef869d7:0xa4fe2f6b97f33330"}, {"place_id": "0x390cfcaeb83ea64b:0xe96c763de8b271ad", "name": "Premium Softwares", "category": "Software company", "street": "F-17, Office No. 102, Harsha Complex, Subhash Chowk, Laxmi Nagar", "city": "New Delhi, Delhi 110092", "phone": "08010835859", "website": "https://www.premiumsoftwares.com/", "rating": 4.5, "review_count": "", "latitude": 28.6343587, "longitude": 77.279979, "maps_url": "https://www.google.com/maps/place/?q=place_id:0x390cfcaeb83ea64b:0xe96c763de8b271ad"}, {"place_id": "0x390ce459e2a3a42f:0xdda2e042090c2c72", "name": "InfiCare Technologies Pvt. Ltd", "category": "Software company", "street": "D-92 Second/Third floor", "city": "Sector 2", "phone": "09711265591", "website": "http://www.inficaretech.com/", "rating": 3.9, "review_count": "", "latitude": 28.582936099999998, "longitude": 77.3175146, "maps_url": "https://www.google.com/maps/place/?q=place_id:0x390ce459e2a3a42f:0xdda2e042090c2c72"}, {"place_id": "0x390ce3c577996141:0x6f0e309d0c4c2de1", "name": "Eagle Information Systems Pvt. Ltd.", "category": "Computer support and services", "street": "Madhuban Building", "city": "705", "phone": "09818188012", "website": "http://www.eagle.in/", "rating": 4.5, "review_count": "", "latitude": 28.5486501, "longitude": 77.2520914, "maps_url": "https://www.google.com/maps/place/?q=place_id:0x390ce3c577996141:0x6f0e309d0c4c2de1"}, {"place_id": "0x390ce36a7e34fe59:0x1acced1d65a73707", "name": "i-softinc - Mobile App Development Company in Delhi", "category": "Software company", "street": "165 3rd Floor", "city": "Sarai Jullena, New Friends Colony", "phone": "08929570664", "website": "https://i-softinc.com/", "rating": 5, "review_count": "", "latitude": 28.5600456, "longitude": 77.2717803, "maps_url": "https://www.google.com/maps/place/?q=place_id:0x390ce36a7e34fe59:0x1acced1d65a73707"}, {"place_id": "0x390ce2f1722cf835:0x985eecb6b5fbdccc", "name": "Bombay Shirt Company - Custom Shirts, T-Shirts & Clothing", "category": "Clothing store", "street": "42A", "city": "Khan Market, Rabindra Nagar", "phone": "07997715655", "website": "https://www.bombayshirts.com/?utm_source=google&utm_medium=google-my-business", "rating": 4.1, "review_count": "", "latitude": 28.6009073, "longitude": 77.2274046, "maps_url": "https://www.google.com/maps/place/?q=place_id:0x390ce2f1722cf835:0x985eecb6b5fbdccc"}, {"place_id": "0x390ce3377c03150f:0x3186583a0e63d3f1", "name": "iServices- Apple Service Center, Khan Market", "category": "Computer service", "street": "206A, Old Palace", "city": "Near India Overseasebank DMC", "phone": "08800424736", "website": "https://sites.google.com/view/iservices-khan-market/home", "rating": 5, "review_count": "", "latitude": 28.598376799999997, "longitude": 77.2286733, "maps_url": "https://www.google.com/maps/place/?q=place_id:0x390ce3377c03150f:0x3186583a0e63d3f1"}, {"place_id": "0x390ce3a8ca99bf91:0xa1a618c130439ab8", "name": "National Company Law Tribunal", "category": "City courthouse", "street": "Ground, 6th, 7th Floor & 8th C", "city": "G.O. Complex", "phone": "01124363679", "website": "http://www.nclt.gov.in/", "rating": 4.1, "review_count": "", "latitude": 28.5909525, "longitude": 77.2355694, "maps_url": "https://www.google.com/maps/place/?q=place_id:0x390ce3a8ca99bf91:0xa1a618c130439ab8"}, {"place_id": "0x390ce45f5d8d2cc9:0xac5279d4e420a2c7", "name": "HCL Corporation Private Limited", "category": "Software company", "street": "A9", "city": "Block A, Noida Sector 3", "phone": "", "website": "https://www.hcltech.com/geo-presence/india", "rating": 4.3, "review_count": "", "latitude": 28.579234399999997, "longitude": 77.3172951, "maps_url": "https://www.google.com/maps/place/?q=place_id:0x390ce45f5d8d2cc9:0xac5279d4e420a2c7"}, {"place_id": "0x390ce39a3aaaaaef:0x1e5c9f03de5fa9fd", "name": "Bhive Technology Website Design Company in Delhi ! GAME DEVELOPMENT COMPANY IN DELHI", "category": "Website designer", "street": "Nsic Metro Grand Dream", "city": "Shambhu Dayal Bagh, Kalkaji", "phone": "09990034350", "website": "https://www.bhivetechnology.in/", "rating": 5, "review_count": "", "latitude": 28.555754699999998, "longitude": 77.2640089, "maps_url": "https://www.google.com/maps/place/?q=place_id:0x390ce39a3aaaaaef:0x1e5c9f03de5fa9fd"}, {"place_id": "0x390ce23eeab015ab:0x92d6a7e8dbc46e1a", "name": "Odyssey Website Development Company", "category": "Website designer", "street": "B-59", "city": "Block B, Soami Nagar South, Soami Nagar", "phone": "09654486464", "website": "http://odysseyin.com/?utm_source=GMB&utm_medium=Organic&utm_term=Odyssey&utm_content=Listing&utm_campaign=GMB1", "rating": 3.6, "review_count": "", "latitude": 28.541823599999997, "longitude": 77.2262008, "maps_url": "https://www.google.com/maps/place/?q=place_id:0x390ce23eeab015ab:0x92d6a7e8dbc46e1a"}, {"place_id": "0x390ce39a3aaaaaef:0xca57821ce7ee09b0", "name": "Smart IT Technologies", "category": "Website designer", "street": "Saroj Sadan", "city": "100", "phone": "08840274824", "website": "https://smartittechnologies.com/", "rating": 5, "review_count": "", "latitude": 28.5697218, "longitude": 77.2680354, "maps_url": "https://www.google.com/maps/place/?q=place_id:0x390ce39a3aaaaaef:0xca57821ce7ee09b0"}, {"place_id": "0x390ce45902502513:0x43a67b21af466d04", "name": "RV Solutions Private Limited", "category": "Software company", "street": "D-72", "city": "D Block, Sector 2", "phone": "01204744000", "website": "https://www.rvsolutions.in/", "rating": 3.9, "review_count": "", "latitude": 28.5837109, "longitude": 77.3177917, "maps_url": "https://www.google.com/maps/place/?q=place_id:0x390ce45902502513:0x43a67b21af466d04"}, {"place_id": "0x390cfd3396f99f65:0xd97f147f067ace15", "name": "Shilpi Computers Private Limited", "category": "Corporate office", "street": "501-502", "city": "7, Tolstoy Rd", "phone": "01143500600", "website": "https://shilpisoft.com/", "rating": 3.9, "review_count": "", "latitude": 28.627693899999997, "longitude": 77.2244393, "maps_url": "https://www.google.com/maps/place/?q=place_id:0x390cfd3396f99f65:0xd97f147f067ace15"}, {"place_id": "0x390ce39a24b89521:0x6e886c5e28fd05a9", "name": "Cloude Data Delhi | Best Cloud Service Provider company in India", "category": "Web hosting company", "street": "First Floor", "city": "A 212, Okhla Phase 3 Rd", "phone": "08882353612", "website": "https://cloudedata.com/", "rating": 4.4, "review_count": "", "latitude": 28.548515, "longitude": 77.2712834, "maps_url": "https://www.google.com/maps/place/?q=place_id:0x390ce39a24b89521:0x6e886c5e28fd05a9"}, {"place_id": "0xac577056c2b5ff3d:0xaf00253141553d04", "name": "Devnotam | IT Company", "category": "Internet marketing service", "street": "", "city": "", "phone": "", "website": "https://devnotam.com/", "rating": 5, "review_count": "", "latitude": 28.692404999999997, "longitude": 77.090042, "maps_url": "https://www.google.com/maps/place/?q=place_id:0xac577056c2b5ff3d:0xaf00253141553d04"}, {"place_id": "0x390cfda47ea481f5:0x49778f8bc2d0cfe7", "name": "Pro Innovative Software", "category": "Software company", "street": "104 Wadhwa complex Laxmi Nagy near metro station gate", "city": "Gali No. 1", "phone": "09717274866", "website": "http://proinnovativesoftware.com/", "rating": 5, "review_count": "", "latitude": 28.631063599999997, "longitude": 77.2774999, "maps_url": "https://www.google.com/maps/place/?q=place_id:0x390cfda47ea481f5:0x49778f8bc2d0cfe7"}, {"place_id": "0x390ce32f7f91b893:0xf7c2be7eb729f502", "name": "Digital marketing Company, website Designing Company ( Logo Designing Company ) ( Online Marketplace )", "category": "Website designer", "street": "120-G", "city": "Hari Nagar Ashram", "phone": "08920138925", "website": "https://royalcruiselimos.com/", "rating": 5, "review_count": "", "latitude": 28.5718902, "longitude": 77.2559809, "maps_url": "https://www.google.com/maps/place/?q=place_id:0x390ce32f7f91b893:0xf7c2be7eb729f502"}, {"place_id": "0x390ce15795555555:0x9bb8a801d00d7573", "name": "DreamSoft Infotech - Website Development Company in India", "category": "Software company", "street": "A-75 Third Floor", "city": "A Block, Sector 5", "phone": "01204380622", "website": "https://dreamsoftinfotech.com/", "rating": 3.4, "review_count": "", "latitude": 28.591018899999998, "longitude": 77.32201529999999, "maps_url": "https://www.google.com/maps/place/?q=place_id:0x390ce15795555555:0x9bb8a801d00d7573"}, {"place_id": "0x390ce3083df185df:0xcff0bc07ace98fca", "name": "Dwitty & Company", "category": "Website designer", "street": "B-109", "city": "Block D, Jangpura B", "phone": "07011273521", "website": "", "rating": 5, "review_count": "", "latitude": 28.581945599999997, "longitude": 77.2534653, "maps_url": "https://www.google.com/maps/place/?q=place_id:0x390ce3083df185df:0xcff0bc07ace98fca"}, {"place_id": "0x390cdda0937a36df:0x350a8716d5f40b92", "name": "VS Square Info Solutions", "category": "Computer support and services", "street": "Govardhan Building", "city": "Nehru Place", "phone": "09319173336", "website": "http://www.vssquareinfo.com/", "rating": 4.9, "review_count": "", "latitude": 28.5490526, "longitude": 77.251606, "maps_url": "https://www.google.com/maps/place/?q=place_id:0x390cdda0937a36df:0x350a8716d5f40b92"}, {"place_id": "0x390ce35326774495:0xf8373d50c1b13706", "name": "GCL Technologies", "category": "Website designer", "street": "S-557,3rd Floor, Office No.-304", "city": "New Delhi, Delhi 110092", "phone": "01147542527", "website": "http://gcltechnologies.co.in/", "rating": 4.9, "review_count": "", "latitude": 28.6271389, "longitude": 77.2790407, "maps_url": "https://www.google.com/maps/place/?q=place_id:0x390ce35326774495:0xf8373d50c1b13706"}, {"place_id": "0x6214be3fe9db91b7:0x47bdd3f3acc14b9", "name": "ABMiTRepairSolution/Delonghi & Nespresso Service Center", "category": "Coffee machine supplier", "street": "0ffice on 30", "city": "Golf Apartments", "phone": "09810845542", "website": "https://abmitdelonghisolution.in/", "rating": 4.9, "review_count": "", "latitude": 28.599222599999997, "longitude": 77.2288331, "maps_url": "https://www.google.com/maps/place/?q=place_id:0x6214be3fe9db91b7:0x47bdd3f3acc14b9"}, {"place_id": "0x390d02913a73d7d3:0x4e29b34ca5ba65e9", "name": "Institute of Company Secretaries of India", "category": "Educational institution", "street": "ICSI HOUSE", "city": "22, Lodhi Rd", "phone": "01204522000", "website": "http://www.icsi.edu/", "rating": 4.4, "review_count": "", "latitude": 28.5888489, "longitude": 77.2282889, "maps_url": "https://www.google.com/maps/place/?q=place_id:0x390d02913a73d7d3:0x4e29b34ca5ba65e9"}, {"place_id": "0x390ce2e32431cd6d:0xf9aaeda1cd6ccd1f", "name": "BHEL Industry Sector", "category": "Electrical equipment supplier", "street": "157, Lodhi Rd", "city": "CGO Complex, Pragati Vihar", "phone": "01141793243", "website": "", "rating": 4.7, "review_count": "", "latitude": 28.5916017, "longitude": 77.2371, "maps_url": "https://www.google.com/maps/place/?q=place_id:0x390ce2e32431cd6d:0xf9aaeda1cd6ccd1f"}, {"place_id": "0x390ce300bfffffff:0xe1356f6e89808ee9", "name": "Skylark Elevator Company", "category": "Elevator Manufacturer", "street": "208, Defence Colony Flyover", "city": "Block M, Jungpura Extension, Market", "phone": "09953667500", "website": "https://www.skylarkelevator.com/", "rating": 2.6, "review_count": "", "latitude": 28.5801894, "longitude": 77.238514, "maps_url": "https://www.google.com/maps/place/?q=place_id:0x390ce300bfffffff:0xe1356f6e89808ee9"}, {"place_id": "0x390ce31d66595dab:0x7df7f9ba1430554c", "name": "Balmer Lawrie & Co Ltd", "category": "Travel agency", "street": "Core 8, Ground Floor", "city": "SCOPE Complex", "phone": "01124360535", "website": "http://www.balmerlawrie.com/", "rating": 3.6, "review_count": "", "latitude": 28.586250999999997, "longitude": 77.237292, "maps_url": "https://www.google.com/maps/place/?q=place_id:0x390ce31d66595dab:0x7df7f9ba1430554c"}, {"place_id": "0x390cef9294456c77:0x9e68ea6133148b9", "name": "iPraxa - Mobile App & Web Development Company", "category": "Software company", "street": "Ground Floor", "city": "G-273", "phone": "09718199560", "website": "https://www.ipraxa.com/", "rating": 4.4, "review_count": "", "latitude": 28.6152318, "longitude": 77.3910794, "maps_url": "https://www.google.com/maps/place/?q=place_id:0x390cef9294456c77:0x9e68ea6133148b9"}, {"place_id": "0x390ce34089bc9fe1:0x6346cab64993c3a0", "name": "M World Delonghi & Nespresso Service Center", "category": "Electrical repair shop", "street": "LGF 30", "city": "Golf Apartments", "phone": "", "website": "https://abmitrepairsolution.com/", "rating": 4.7, "review_count": "", "latitude": 28.5991413, "longitude": 77.2288398, "maps_url": "https://www.google.com/maps/place/?q=place_id:0x390ce34089bc9fe1:0x6346cab64993c3a0"}, {"place_id": "0x390ce3fa30cb5c19:0xc2b9c3fe8db1dd54", "name": "KIREN SMART SERVICES", "category": "Software company", "street": "D-196, New", "city": "G/F, Lajpat Nagar I, Lajpat Nagar", "phone": "09873907360", "website": "https://kirensmartservices.com/", "rating": 4.1, "review_count": "", "latitude": 28.5785903, "longitude": 77.2423422, "maps_url": "https://www.google.com/maps/place/?q=place_id:0x390ce3fa30cb5c19:0xc2b9c3fe8db1dd54"}, {"place_id": "0x390ce3b5e9981665:0x6ed3916f90d5be3c", "name": "Netsoft Consulting Services", "category": "Information services", "street": "24, IInd Floor, Community Center, East Of Kailash", "city": "behind Sapna Cinema", "phone": "01145330000", "website": "https://netsoftit.com/contact-us/", "rating": 3.5, "review_count": "", "latitude": 28.5583678, "longitude": 77.24568579999999, "maps_url": "https://www.google.com/maps/place/?q=place_id:0x390ce3b5e9981665:0x6ed3916f90d5be3c"}, {"place_id": "0x390cfd35c8f89657:0xadbc7004661a9c74", "name": "Sterco Digitex Pvt Limited", "category": "Software company", "street": "2nd Floor", "city": "72, Janpath Rd", "phone": "01204857333", "website": "https://www.stercodigitex.com/", "rating": 4.1, "review_count": "", "latitude": 28.628133, "longitude": 77.21985099999999, "maps_url": "https://www.google.com/maps/place/?q=place_id:0x390cfd35c8f89657:0xadbc7004661a9c74"}, {"place_id": "0xd1516b679f60d2f:0x9458c47d907b59a8", "name": "MarkTech Company", "category": "Marketing agency", "street": "INA, Laxmi Bai Nagar", "city": "New Delhi, Delhi 110023", "phone": "08527880385", "website": "https://markteches.com/", "rating": 3.9, "review_count": "", "latitude": 28.5754463, "longitude": 77.2077127, "maps_url": "https://www.google.com/maps/place/?q=place_id:0xd1516b679f60d2f:0x9458c47d907b59a8"}, {"place_id": "0x390ce307c858845f:0x502848c25123ea85", "name": "Al Hassan Group | Global Leaders in Exports and Imports", "category": "Import export company", "street": "14/746", "city": "14/746, NH-19", "phone": "09555510115", "website": "http://www.alhassangroup.in/", "rating": 4.7, "review_count": "", "latitude": 28.582683099999997, "longitude": 77.2510777, "maps_url": "https://www.google.com/maps/place/?q=place_id:0x390ce307c858845f:0x502848c25123ea85"}, {"place_id": "0x390ce307c858845f:0x502848c25123ea85", "name": "Al Hassan Group | Global Leaders in Exports and Imports", "category": "Import export company", "street": "14/746", "city": "14/746, NH-19", "phone": "09555510115", "website": "http://www.alhassangroup.in/", "rating": 4.7, "review_count": "", "latitude": 28.582683099999997, "longitude": 77.2510777, "maps_url": "https://www.google.com/maps/place/?q=place_id:0x390ce307c858845f:0x502848c25123ea85"}, {"place_id": "0x390ce370b849e701:0xf64d1240698480f2", "name": "Business Innovation Magazine | Best Global Business Magazine.", "category": "Media company", "street": "C-3/213", "city": "Lodi Colony", "phone": "", "website": "https://businessinnovationmagazine.com/", "rating": 4.8, "review_count": "", "latitude": 28.584767, "longitude": 77.218617, "maps_url": "https://www.google.com/maps/place/?q=place_id:0x390ce370b849e701:0xf64d1240698480f2"}, {"place_id": "0x390ce25f6e3d2b9d:0x57f3a0fc9725f59b", "name": "YATRA POINT TOURISM COMPANY INDIA", "category": "Travel agency", "street": "OFFICE NO-7", "city": "BULDING NO N-1, LGF", "phone": "08860016982", "website": "", "rating": 4.9, "review_count": "", "latitude": 28.574078, "longitude": 77.219089, "maps_url": "https://www.google.com/maps/place/?q=place_id:0x390ce25f6e3d2b9d:0x57f3a0fc9725f59b"}, {"place_id": "0x390ce550ac43f535:0x7efd3596bc8722ed", "name": "DataMetricks Consulting Private Limited- Best Digital Marketing & Web Development Company in Noida", "category": "Software company", "street": "12th Floor, TOWER-C", "city": "ITHUM TOWER", "phone": "07303946657", "website": "http://www.datametricks.com/", "rating": 5, "review_count": "", "latitude": 28.626568, "longitude": 77.37237549999999, "maps_url": "https://www.google.com/maps/place/?q=place_id:0x390ce550ac43f535:0x7efd3596bc8722ed"}, {"place_id": "0x390ce37065ad78ed:0xe32b577c1094713c", "name": "Ahuja Sons Khan Market", "category": "Electronics store", "street": "10a", "city": "Khan Market, Rabindra Nagar", "phone": "09810953110", "website": "https://ahujasonskhanmarket.com/?srsltid=AfmBOorHO1QoyrIgp-75GWhj_d6ano8zwdoC4t42mFuCtJdUm8_w7Nr8", "rating": 4.9, "review_count": "", "latitude": 28.599584999999998, "longitude": 77.2264699, "maps_url": "https://www.google.com/maps/place/?q=place_id:0x390ce37065ad78ed:0xe32b577c1094713c"}, {"place_id": "0x390ce393335b0317:0xd6f26887ac202ae7", "name": "DRM and COMPANY", "category": "Medical equipment supplier", "street": "O-30", "city": "ODS, Lajpat Nagar 4, Lajpat Nagar", "phone": "08851267277", "website": "http://www.drmcompany.co.in/", "rating": 4.6, "review_count": "", "latitude": 28.5644229, "longitude": 77.2485993, "maps_url": "https://www.google.com/maps/place/?q=place_id:0x390ce393335b0317:0xd6f26887ac202ae7"}, {"place_id": "0x390ce30403b64187:0x8726709a519a194c", "name": "Digital Marketing Company", "category": "Advertising agency", "street": "Unit Number 109, 1St Floor, Mercantile House", "city": "KG Marg", "phone": "09599575057", "website": "https://www.linkedin.com/in/arvindnirala/", "rating": 4.9, "review_count": "", "latitude": 28.622821799999997, "longitude": 77.2253394, "maps_url": "https://www.google.com/maps/place/?q=place_id:0x390ce30403b64187:0x8726709a519a194c"}, {"place_id": "0x3be7c21b5901e181:0x7fe794585addc1f6", "name": "Smartinfologiks - Software Development Company in India | IT Solutions", "category": "Software company", "street": "Hilton Center", "city": "514", "phone": "07400064691", "website": "https://www.smartinfologiks.com/", "rating": 4.6, "review_count": "", "latitude": 19.0139592, "longitude": 73.0382705, "maps_url": "https://www.google.com/maps/place/?q=place_id:0x3be7c21b5901e181:0x7fe794585addc1f6"}, {"place_id": "0x390ce2e1f627bc0d:0x40c25df4a92d1404", "name": "The Oberoi, New Delhi", "category": "Hotel", "street": "Dr Zakir Hussain Marg", "city": "Delhi Golf Club, Golf Links", "phone": "", "website": "https://www.oberoihotels.com/hotels-in-delhi/?utm_source=GMBlisting&utm_medium=organic", "rating": 4.6, "review_count": "", "latitude": 28.596300099999997, "longitude": 77.2396602, "maps_url": "https://www.google.com/maps/place/?q=place_id:0x390ce2e1f627bc0d:0x40c25df4a92d1404"}, {"place_id": "0x3bc2becdc35b6937:0x515ac559c349eee3", "name": "Thinkitive Technologies Private Limited", "category": "Software company", "street": "4th Floor", "city": "ABIL IMPERIAL COMMERCIAL SPACES", "phone": "08956467327", "website": "https://www.thinkitive.com/", "rating": 3.9, "review_count": "", "latitude": 18.5563888, "longitude": 73.7729748, "maps_url": "https://www.google.com/maps/place/?q=place_id:0x3bc2becdc35b6937:0x515ac559c349eee3"}, {"place_id": "0x390d1b0010fc2321:0x12e9154c815cf007", "name": "Prashant Dwivedi IT company", "category": "Warehouse", "street": "G3P5+GVC", "city": "Nayak Pura, Bijwasan", "phone": "", "website": "", "rating": "", "review_count": "", "latitude": 28.536316, "longitude": 77.059649, "maps_url": "https://www.google.com/maps/place/?q=place_id:0x390d1b0010fc2321:0x12e9154c815cf007"}, {"place_id": "0x390ce3d3a462c7cb:0xede15b6242367fdd", "name": "RO Care India", "category": "Water Filter Supplier", "street": "Kent Aquaguard Service Center", "city": "13, Lodhi Rd", "phone": "09311498998", "website": "https://www.rocareindia.com/", "rating": 4.4, "review_count": "", "latitude": 28.597542699999998, "longitude": 77.2281488, "maps_url": "https://www.google.com/maps/place/?q=place_id:0x390ce3d3a462c7cb:0xede15b6242367fdd"}, {"place_id": "0x390ce5a33cd2518d:0x3244b9b13b227b75", "name": "Value Innovation Labs", "category": "Corporate office", "street": "A-51", "city": "A Block, Sector 16", "phone": "08826028999", "website": "https://www.valueinnovationlabs.com/", "rating": 4.6, "review_count": "", "latitude": 28.579780099999997, "longitude": 77.31397539999999, "maps_url": "https://www.google.com/maps/place/?q=place_id:0x390ce5a33cd2518d:0x3244b9b13b227b75"}, {"place_id": "0x390cfdbcacb5b663:0x61b9acad7c2761b7", "name": "Digital Duniya Online Solution (DDOS)", "category": "Computer support and services", "street": "12/351, CR Rd", "city": "Veer Savarkar Block, Block D, Laxmi Nagar", "phone": "09625164950", "website": "", "rating": 5, "review_count": "", "latitude": 28.630969099999998, "longitude": 77.2757322, "maps_url": "https://www.google.com/maps/place/?q=place_id:0x390cfdbcacb5b663:0x61b9acad7c2761b7"}, {"place_id": "0x390ce34df8a267c1:0xaed05c944f488c8", "name": "Ostello India", "category": "Coaching Center", "street": "Jangpura Extension, Block A, Jungpura Extension, Jal Vihar", "city": "New Delhi, Delhi 110024", "phone": "08595262946", "website": "https://www.ostello.co.in/", "rating": 4.5, "review_count": "", "latitude": 28.5766097, "longitude": 77.24786809999999, "maps_url": "https://www.google.com/maps/place/?q=place_id:0x390ce34df8a267c1:0xaed05c944f488c8"}, {"place_id": "0x390ce3d8d7f146ed:0xf59ac2e95f486cb", "name": "Vishal Thapa Studio Wedding photography and videography.", "category": "Photography service", "street": "141, Lodhi Rd", "city": "Golf Links", "phone": "09990580995", "website": "", "rating": 4.9, "review_count": "", "latitude": 28.5929537, "longitude": 77.23151039999999, "maps_url": "https://www.google.com/maps/place/?q=place_id:0x390ce3d8d7f146ed:0xf59ac2e95f486cb"}, {"place_id": "0x44410b48618716b:0x7d0c5e38d0253ca9", "name": "WENGS SOLUTIONS LLP", "category": "Website designer", "street": "", "city": "", "phone": "09999537998", "website": "https://www.wengs.co.in/", "rating": 4.9, "review_count": "", "latitude": 13.4222866, "longitude": 142.1078416, "maps_url": "https://www.google.com/maps/place/?q=place_id:0x44410b48618716b:0x7d0c5e38d0253ca9"}, {"place_id": "0x390cfd94ec7e1e97:0x1ec26c99087e1186", "name": "SHIVANSH ENTERPRISES", "category": "Software company", "street": "C-5, Street No.3", "city": "near HANSRAJ MARKET", "phone": "08826549483", "website": "", "rating": 5, "review_count": "", "latitude": 28.6781546, "longitude": 77.264049, "maps_url": "https://www.google.com/maps/place/?q=place_id:0x390cfd94ec7e1e97:0x1ec26c99087e1186"}, {"place_id": "0x390cfd8f95555555:0xa571830bfe67b754", "name": "Alwar Tourist Transport Service", "category": "Car rental agency", "street": "12-13, CSC Market", "city": "Kaka Nagar", "phone": "01123380258", "website": "http://www.alwartourist.com/", "rating": 4.9, "review_count": "", "latitude": 28.602189199999998, "longitude": 77.2378978, "maps_url": "https://www.google.com/maps/place/?q=place_id:0x390cfd8f95555555:0xa571830bfe67b754"}, {"place_id": "0x390cfd3515adae13:0x1bb352627e7e90e6", "name": "The Shipping Corporation Of India Limited", "category": "Shipping company", "street": "1st floor, Chandralok Buillding, 36 Janpath", "city": "Janpath Rd", "phone": "01123322446", "website": "http://www.shipindia.com/", "rating": 3.9, "review_count": "", "latitude": 28.6243965, "longitude": 77.2196376, "maps_url": "https://www.google.com/maps/place/?q=place_id:0x390cfd3515adae13:0x1bb352627e7e90e6"}, {"place_id": "0x390ce3d18a05223d:0x2dde599774fb3be6", "name": "JMRK Legal Associates", "category": "Law firm", "street": "Golf Apartments", "city": "105, Maharshi Raman Marg", "phone": "", "website": "", "rating": 4.7, "review_count": "", "latitude": 28.599222599999997, "longitude": 77.2288331, "maps_url": "https://www.google.com/maps/place/?q=place_id:0x390ce3d18a05223d:0x2dde599774fb3be6"}, {"place_id": "0x390ce2e849a6929b:0x395aacd490791e97", "name": "DTDC courier service-Khan Market", "category": "Courier service", "street": "13 mini market Khan Market Near Khan Market Metro Station Gate no.4", "city": "New Delhi, Delhi 110003", "phone": "09811265168", "website": "http://dtdc.in/", "rating": 4.5, "review_count": "", "latitude": 28.5999828, "longitude": 77.2268278, "maps_url": "https://www.google.com/maps/place/?q=place_id:0x390ce2e849a6929b:0x395aacd490791e97"}, {"place_id": "0x390ce25bf3643f6d:0xf1699cfc4b71993d", "name": "Fireball Securitas | Security Guards Service | Top security services | Delhi India", "category": "Security guard service", "street": "1899, Uday Chand Marg", "city": "South Extension I, Kotla Mubarakpur", "phone": "08586977224", "website": "http://www.fireballindia.com/", "rating": 4.6, "review_count": "", "latitude": 28.5719329, "longitude": 77.221848, "maps_url": "https://www.google.com/maps/place/?q=place_id:0x390ce25bf3643f6d:0xf1699cfc4b71993d"}, {"place_id": "0x390ce363f1a38537:0x1323196e318840f6", "name": "Courier Medicines International Services", "category": "Courier service", "street": "Shop No.7, 1st Floor", "city": "Market", "phone": "08882691919", "website": "https://www.couriermedicines.com/", "rating": 4.9, "review_count": "", "latitude": 28.5894537, "longitude": 77.2452916, "maps_url": "https://www.google.com/maps/place/?q=place_id:0x390ce363f1a38537:0x1323196e318840f6"}, {"place_id": "0x390ce3b9190dbb81:0xeb137d57529ade82", "name": "VR Telemarketers - Telemarketing Company in India", "category": "Telephone Marketing Agency", "street": "251, E Of Kailas Rd", "city": "B Block, East of Kailash", "phone": "09891057170", "website": "https://www.vrtelemarketers.com/", "rating": 4.8, "review_count": "", "latitude": 28.5615953, "longitude": 77.2562493, "maps_url": "https://www.google.com/maps/place/?q=place_id:0x390ce3b9190dbb81:0xeb137d57529ade82"}, {"place_id": "0x390cfcad0bffffdf:0x18fc9fdf576ddd1b", "name": "Syntax World", "category": "Website designer", "street": "Metro Exit Gate No. 5 Laxmi Nagar Metro Station D-354, 2nd Floor, Gali No. 8", "city": "Vikas Marg", "phone": "08700273711", "website": "http://graphicdesigninstitutedelhi.com/", "rating": 4.8, "review_count": "", "latitude": 28.6306151, "longitude": 77.2776023, "maps_url": "https://www.google.com/maps/place/?q=place_id:0x390cfcad0bffffdf:0x18fc9fdf576ddd1b"}, {"place_id": "0x390ce3ad1110066f:0x6b379fb5729821ac", "name": "Tssg-Tech", "category": "Website designer", "street": "Block B, Kalkaji", "city": "New Delhi, Delhi, 110019", "phone": "09599669486", "website": "https://tssgtech.info/", "rating": 5, "review_count": "", "latitude": 28.541919399999998, "longitude": 77.2523604, "maps_url": "https://www.google.com/maps/place/?q=place_id:0x390ce3ad1110066f:0x6b379fb5729821ac"}, {"place_id": "0x390cfcdf40000001:0x4c12a97db05da004", "name": "Kapur & Company", "category": "Cell phone store", "street": "3574", "city": "near Sablock Clinic", "phone": "01123275265", "website": "https://www.kapurncompany.com/?utm_source=google&utm_medium=wix_google_business_profile&utm_campaign=11484373263752398986", "rating": 4.9, "review_count": "", "latitude": 28.6425785, "longitude": 77.2402833, "maps_url": "https://www.google.com/maps/place/?q=place_id:0x390cfcdf40000001:0x4c12a97db05da004"}, {"place_id": "0x390ce2e9dccf4513:0xa9ace382254fb0cc", "name": "Co- Optex", "category": "Clothing store", "street": "Shop.no:22-b", "city": "Khan Market, Rabindra Nagar", "phone": "01124611861", "website": "http://www.cooptex.com/", "rating": 4.5, "review_count": "", "latitude": 28.600017299999998, "longitude": 77.2271796, "maps_url": "https://www.google.com/maps/place/?q=place_id:0x390ce2e9dccf4513:0xa9ace382254fb0cc"}, {"place_id": "0x390cfd309eebed77:0xb2110528ce83f639", "name": "Car Care Centre Repairing Services & BPCL Petrol Pump", "category": "Petrol Pump", "street": "Lodhi Rd", "city": "CGO Complex, Pragati Vihar", "phone": "08826222714", "website": "https://locator.bharatpetroleum.com/", "rating": 4, "review_count": "", "latitude": 28.592146699999997, "longitude": 77.23741489999999, "maps_url": "https://www.google.com/maps/place/?q=place_id:0x390cfd309eebed77:0xb2110528ce83f639"}, {"place_id": "0x390ce1fb6c608877:0x254b4f46d3d3a13d", "name": "adivaha\u00ae -Travel Technology Company", "category": "Software company", "street": "E 252 1st Floor Sant Nagar, East Of Kailsh", "city": "New Delhi, Delhi 110065", "phone": "", "website": "https://www.adivaha.com/", "rating": 3, "review_count": "", "latitude": 28.555513899999998, "longitude": 77.2502335, "maps_url": "https://www.google.com/maps/place/?q=place_id:0x390ce1fb6c608877:0x254b4f46d3d3a13d"}, {"place_id": "0x390ce31fefc81087:0xf07257761b38b457", "name": "ISG Car & Bus Co.", "category": "Car rental agency", "street": "16, Market", "city": "Sundar Nagar", "phone": "09810133933", "website": "http://www.carbusrentalindia.com/", "rating": 4.4, "review_count": "", "latitude": 28.6019251, "longitude": 77.2414086, "maps_url": "https://www.google.com/maps/place/?q=place_id:0x390ce31fefc81087:0xf07257761b38b457"}, {"place_id": "0x390ce31f8414d201:0xd94fa7c34d7873a2", "name": "Bhardwaj And Company (Steel Shuttering and Scaffolding Material Supplier)", "category": "Construction equipment supplier", "street": "85-A , Ground Floor", "city": "Bhardwaj Plaza", "phone": "09811109106", "website": "http://bhardwajandcompany.com/", "rating": 4.9, "review_count": "", "latitude": 28.557116399999998, "longitude": 77.23596979999999, "maps_url": "https://www.google.com/maps/place/?q=place_id:0x390ce31f8414d201:0xd94fa7c34d7873a2"}, {"place_id": "0x390ce34e49b627ab:0xf91f8f0ac3105233", "name": "Sunder Watch Company", "category": "Watch store", "street": "Shop No. J-35B, Pushpa", "city": "Central Market, Lajpat Nagar II", "phone": "", "website": "", "rating": 4.9, "review_count": "", "latitude": 28.5690226, "longitude": 77.2436111, "maps_url": "https://www.google.com/maps/place/?q=place_id:0x390ce34e49b627ab:0xf91f8f0ac3105233"}, {"place_id": "0x390ce57639c8172b:0xe4a7b4b7666f989e", "name": "Sane it pvt ltd", "category": "Data Entry Service Provider", "street": "", "city": "", "phone": "09289114987", "website": "", "rating": 2, "review_count": "", "latitude": 21.0680074, "longitude": 82.7525294, "maps_url": "https://www.google.com/maps/place/?q=place_id:0x390ce57639c8172b:0xe4a7b4b7666f989e"}, {"place_id": "0x390ce3d5ee90c35d:0xf7c3aa15159883b3", "name": "Weekend Yatra | Best Adventure Trekking Company | Adventure Travel", "category": "Tour operator", "street": "4th Floor", "city": "B 165", "phone": "08527508490", "website": "https://weekendyatra.in/", "rating": 5, "review_count": "", "latitude": 28.5595821, "longitude": 77.2562805, "maps_url": "https://www.google.com/maps/place/?q=place_id:0x390ce3d5ee90c35d:0xf7c3aa15159883b3"}, {"place_id": "0x390ce35071aa88f7:0x6b1c5c0fde4cac28", "name": "CAAQ Consultancy - Company Registration & Compliance Consultant Delhi", "category": "Accounting firm", "street": "S/F", "city": "Bhaskar Bhavan", "phone": "", "website": "https://caaq.in/", "rating": 4.1, "review_count": "", "latitude": 28.570666, "longitude": 77.2222604, "maps_url": "https://www.google.com/maps/place/?q=place_id:0x390ce35071aa88f7:0x6b1c5c0fde4cac28"}, {"place_id": "0x390ce383cbe684f9:0x6df322cd06395a6c", "name": "Level Up The Photo Video Company | Corporate & Healthcare Video Production | Photography & Live Streaming Services", "category": "Video production service", "street": "C - 546", "city": "Block C, Defence Colony", "phone": "09718979770", "website": "http://www.leveluppvc.com/", "rating": 5, "review_count": "", "latitude": 28.5670589, "longitude": 77.23005069999999, "maps_url": "https://www.google.com/maps/place/?q=place_id:0x390ce383cbe684f9:0x6df322cd06395a6c"}, {"place_id": "0x390ce5d24b7fefdb:0x9ea90202ad717ba6", "name": "CODEBRIGHT TECHNOLOGIES PVT LTD", "category": "Software company", "street": "Gali No. 8", "city": "Phase 1, Shashi Garden, Mayur Vihar", "phone": "07217766185", "website": "http://codebright.in/", "rating": 5, "review_count": "", "latitude": 28.6101389, "longitude": 77.2946752, "maps_url": "https://www.google.com/maps/place/?q=place_id:0x390ce5d24b7fefdb:0x9ea90202ad717ba6"}, {"place_id": "0x390cdc6f70fb5be5:0xa34888feda73528d", "name": "Pepper Designs", "category": "Website designer", "street": "House No 1, Ground Floor", "city": "Hauz Khas Village", "phone": "09811767560", "website": "https://www.pepper-designs.com/", "rating": 4.6, "review_count": "", "latitude": 28.555021999999997, "longitude": 77.19471399999999, "maps_url": "https://www.google.com/maps/place/?q=place_id:0x390cdc6f70fb5be5:0xa34888feda73528d"}]}