{"timestamp": 1773730424.457517, "keyword": "IT company", "location": "delhi", "cell_idx": 237, "results": [{"place_id": "0x390d1c32a16c2629:0xa37e7b027558a29e", "name": "Avalon Information Systems Pvt. Ltd.", "category": "Software company", "street": "Plot No. 7, Institutional Area Phase II, 3rd Floor", "city": "Vasant Kunj", "phone": "09319391086", "website": "https://www.avaloninfosys.com/", "rating": 3.7, "review_count": "", "latitude": 28.5431746, "longitude": 77.146245, "maps_url": "https://www.google.com/maps/place/?q=place_id:0x390d1c32a16c2629:0xa37e7b027558a29e"}, {"place_id": "0x390ce458d0000001:0xf2123bd299ec4501", "name": "IT Company India", "category": "Software company", "street": "D56", "city": "D Block, Sector 10", "phone": "09999244854", "website": "https://www.itcompanyindia.in/", "rating": 4.7, "review_count": "", "latitude": 28.589917699999997, "longitude": 77.3351153, "maps_url": "https://www.google.com/maps/place/?q=place_id:0x390ce458d0000001:0xf2123bd299ec4501"}, {"place_id": "0x390d1d9ce0eaada3:0xc5a1a0a2458099e3", "name": "CODENCREATIVE TECH PVT LTD", "category": "Software company", "street": "DDA Flat", "city": "RBI Officers Colony, Vasant Vihar", "phone": "09717047610", "website": "https://codencreative.com/", "rating": 4.9, "review_count": "", "latitude": 28.563302099999998, "longitude": 77.1519732, "maps_url": "https://www.google.com/maps/place/?q=place_id:0x390d1d9ce0eaada3:0xc5a1a0a2458099e3"}, {"place_id": "0x390ce1fb44618b65:0x8e06b2a6128352d1", "name": "Acropolis Infotech - Delhi Office", "category": "Software company", "street": "metro station gate", "city": "55, 2nd Floor, Lane 2", "phone": "09999876593", "website": "https://www.acropolisinfotech.com/", "rating": 4.6, "review_count": "", "latitude": 28.518907, "longitude": 77.2015435, "maps_url": "https://www.google.com/maps/place/?q=place_id:0x390ce1fb44618b65:0x8e06b2a6128352d1"}, {"place_id": "0x390ce3ad10000061:0xeff7e6017a22cce7", "name": "Alpinesoft IT Solutions Authorized Google Workspace Reseller", "category": "Software company", "street": "162/9 Ist Floor, KIshangarh - Gaushala Marg", "city": "Lakhi Nath Kuti, Mehrauli, Vasant Kunj", "phone": "09999011157", "website": "https://www.alpinesoftit.com/", "rating": 4.3, "review_count": "", "latitude": 28.515394399999998, "longitude": 77.16460359999999, "maps_url": "https://www.google.com/maps/place/?q=place_id:0x390ce3ad10000061:0xeff7e6017a22cce7"}, {"place_id": "0x390ce3c153b89811:0xe7a279685777e9ca", "name": "IT Company", "category": "Automation company", "street": "A-14", "city": "near iskcon temple", "phone": "", "website": "http://www.opuswiz.com/", "rating": 3, "review_count": "", "latitude": 28.557167, "longitude": 77.25424819999999, "maps_url": "https://www.google.com/maps/place/?q=place_id:0x390ce3c153b89811:0xe7a279685777e9ca"}, {"place_id": "0x390d1daf5bbb6d71:0xd493e8d457a28388", "name": "DPM IT SOLUTIONS", "category": "Software company", "street": "2nd floor, madangiri", "city": "111, E-2", "phone": "09650413450", "website": "https://dpmitsolutions.com/", "rating": 5, "review_count": "", "latitude": 28.565620799999998, "longitude": 77.16005679999999, "maps_url": "https://www.google.com/maps/place/?q=place_id:0x390d1daf5bbb6d71:0xd493e8d457a28388"}, {"place_id": "0x390d1d86a4f12173:0x3a6b42ea6f4b8260", "name": "Softvanz Technologies Private Limited", "category": "Software company", "street": "Somdutt Chamber 1", "city": "BT-22/9", "phone": "", "website": "https://softvanz.com/", "rating": 5, "review_count": "", "latitude": 28.567948899999998, "longitude": 77.1889269, "maps_url": "https://www.google.com/maps/place/?q=place_id:0x390d1d86a4f12173:0x3a6b42ea6f4b8260"}, {"place_id": "0x390d1df079759d1f:0x8bfa70033f6c672a", "name": "NR Technoserve Pvt. Ltd.", "category": "Software company", "street": "133, Katwaria Sarai", "city": "Phase-2, Qutab Institutional Area", "phone": "07289096762", "website": "http://www.nrtechnoserve.co.in/", "rating": 4.4, "review_count": "", "latitude": 28.5413306, "longitude": 77.18495519999999, "maps_url": "https://www.google.com/maps/place/?q=place_id:0x390d1df079759d1f:0x8bfa70033f6c672a"}, {"place_id": "0x390d1f5abfb25fe1:0x7d9c4d5e159f2955", "name": "Jaimru Technology Pvt Ltd", "category": "Software company", "street": "WARD NO. 2", "city": "Plot No. 178 M 33 A/1", "phone": "07838153420", "website": "https://www.jaimru.com/", "rating": 4.9, "review_count": "", "latitude": 28.524347499999998, "longitude": 77.1731889, "maps_url": "https://www.google.com/maps/place/?q=place_id:0x390d1f5abfb25fe1:0x7d9c4d5e159f2955"}, {"place_id": "0x390d1dcea2d8797d:0x9bddde19324f976", "name": "Reliance Digital", "category": "Electronics store", "street": "No S231/232/233, 2nd Flr", "city": "Ambience Mall", "phone": "08071889926", "website": "https://www.reliancedigitalstores.in/reliance-digital-ambience-vasantkunj-del-electronics-retail-and-repair-shop-vasant-kunj-new-delhi-240511/Home", "rating": 4.7, "review_count": "", "latitude": 28.5412681, "longitude": 77.1548251, "maps_url": "https://www.google.com/maps/place/?q=place_id:0x390d1dcea2d8797d:0x9bddde19324f976"}, {"place_id": "0x390d1d74a743c637:0x9eac2f968d6c5a73", "name": "NISHKAJAY INFOTECH SOLUTION", "category": "Software company", "street": "D-48", "city": "Block -D, Harijan Basti, Masoodpur, Vasant Kunj", "phone": "09380495499", "website": "", "rating": 4.5, "review_count": "", "latitude": 28.527437199999998, "longitude": 77.1578986, "maps_url": "https://www.google.com/maps/place/?q=place_id:0x390d1d74a743c637:0x9eac2f968d6c5a73"}, {"place_id": "0x390d1be7f1a44f95:0x84524a5425f8930d", "name": "InfraDost Technologies Pvt Ltd.- Microsoft Adobe Corel Draw & Security Solution Provider", "category": "Software company", "street": "Gurgaon - Delhi Expy", "city": "Block B, Mahipalpur Village, Mahipalpur", "phone": "08287792542", "website": "http://www.infradost.com/", "rating": 4.6, "review_count": "", "latitude": 28.5485743, "longitude": 77.1264697, "maps_url": "https://www.google.com/maps/place/?q=place_id:0x390d1be7f1a44f95:0x84524a5425f8930d"}, {"place_id": "0x390ce5fdcc79e755:0x309ce99251b84ef6", "name": "Optyminds IT Solutions - Top AI and IT company I Best Digital agency in Noida | Delhi NCR | India", "category": "Software company", "street": "1st Floor", "city": "B-70", "phone": "08929075975", "website": "https://optyminds.com/", "rating": 4.9, "review_count": "", "latitude": 28.584679599999998, "longitude": 77.3135042, "maps_url": "https://www.google.com/maps/place/?q=place_id:0x390ce5fdcc79e755:0x309ce99251b84ef6"}, {"place_id": "0x2a72b8b69d7b6493:0x11251466d4d34cac", "name": "WebZonal IT Company", "category": "Website designer", "street": "Wz-258/2-3, D Block Rd", "city": "Khazan Basti, Nangal Raya, Janakpuri", "phone": "09811170903", "website": "http://webzonal.com/", "rating": 5, "review_count": "", "latitude": 28.6122102, "longitude": 77.11159549999999, "maps_url": "https://www.google.com/maps/place/?q=place_id:0x2a72b8b69d7b6493:0x11251466d4d34cac"}, {"place_id": "0x390d1dc8e1c70ee3:0x3d8673eb9d295b8e", "name": "Oil and Natural Gas Corporation Limited (ONGC)", "category": "Oil & natural gas company", "street": "5, Nelson Mandela Marg", "city": "Vasant Kunj II, Vasant Kunj", "phone": "01126750111", "website": "https://www.ongcindia.com/wps/wcm/connect/en/home/", "rating": 4.7, "review_count": "", "latitude": 28.5444951, "longitude": 77.1572075, "maps_url": "https://www.google.com/maps/place/?q=place_id:0x390d1dc8e1c70ee3:0x3d8673eb9d295b8e"}, {"place_id": "0x41ddcb5488aa4703:0x5290c64921de1a5b", "name": "Bloatware IT Software Development Company | Game Development | Software Company in delhi", "category": "Software company", "street": "SILVER OAK FARMS", "city": "660, Mehrauli-Gurgaon Rd", "phone": "", "website": "https://bloatwareitsolutions.com/", "rating": 5, "review_count": "", "latitude": 28.4911034, "longitude": 77.1432663, "maps_url": "https://www.google.com/maps/place/?q=place_id:0x41ddcb5488aa4703:0x5290c64921de1a5b"}, {"place_id": "0x390d1dcc2af98305:0x3a2256908388d2bd", "name": "Indus Towers Ltd", "category": "Back Office", "street": "1, Aravali Crescent", "city": "Nelson Mandela Marg", "phone": "01244296766", "website": "https://www.industowers.com/", "rating": 3.8, "review_count": "", "latitude": 28.5399893, "longitude": 77.154032, "maps_url": "https://www.google.com/maps/place/?q=place_id:0x390d1dcc2af98305:0x3a2256908388d2bd"}, {"place_id": "0x390d1dceb5f9fe69:0xb92c6285081737f7", "name": "Apple Authorised Reseller - Aptronix - Promenade Mall - Vasant Kunj, Delhi", "category": "Cell phone store", "street": "238, 1st Floor DLF Promenade Mall", "city": "Nelson Mandela Marg", "phone": "08044953839", "website": "https://www.aptronixindia.com/", "rating": 4.5, "review_count": "", "latitude": 28.5425659, "longitude": 77.1556389, "maps_url": "https://www.google.com/maps/place/?q=place_id:0x390d1dceb5f9fe69:0xb92c6285081737f7"}, {"place_id": "0x390d1de4927b2a03:0x2533739c7b861d05", "name": "ONGC Videsh Ltd.", "category": "Corporate campus", "street": "Tower B", "city": "5, Nelson Mandela Marg", "phone": "01126129344", "website": "https://ongcvidesh.com/", "rating": 4.8, "review_count": "", "latitude": 28.544493199999998, "longitude": 77.15786229999999, "maps_url": "https://www.google.com/maps/place/?q=place_id:0x390d1de4927b2a03:0x2533739c7b861d05"}, {"place_id": "0x390d1dcec630c751:0x989ae7383d7c3859", "name": "Dyson Store, DLF Promenade, Vasant Kunj, New Delhi", "category": "Electronics Company", "street": "Shop Number 212", "city": "3, Nelson Mandela Marg", "phone": "09599110942", "website": "https://www.dyson.in/?utm_source=GMB&utm_medium=Organic&utm_campaign=DLF_Promenade_Delhi_Direct_Demo", "rating": 4.6, "review_count": "", "latitude": 28.5427158, "longitude": 77.1555266, "maps_url": "https://www.google.com/maps/place/?q=place_id:0x390d1dcec630c751:0x989ae7383d7c3859"}, {"place_id": "0x390d1c34eaaaaaab:0xed515f1cd7a3ee31", "name": "Sonalika CSR", "category": "Corporate office", "street": "Plot No. 10", "city": "TERI UNIVERSITY", "phone": "988449259", "website": "http://sonalikacsr.com/", "rating": 4.9, "review_count": "", "latitude": 28.544661599999998, "longitude": 77.1479568, "maps_url": "https://www.google.com/maps/place/?q=place_id:0x390d1c34eaaaaaab:0xed515f1cd7a3ee31"}, {"place_id": "0x390d1d75739a3c07:0xae6dfa05588e14e3", "name": "C S Construction Company Pvt. Ltd", "category": "Real Estate Builders & Construction Company", "street": "Plot No. 2, near HDFC bank, Local Shopping Complex", "city": "9", "phone": "01147169900", "website": "", "rating": 4.6, "review_count": "", "latitude": 28.5380695, "longitude": 77.1431051, "maps_url": "https://www.google.com/maps/place/?q=place_id:0x390d1d75739a3c07:0xae6dfa05588e14e3"}, {"place_id": "0x390d1ed3c6e9f579:0x322eccdb00f350d2", "name": "Techjockey", "category": "Software company", "street": "Ground floor, Habitat India", "city": "C-3", "phone": "01142213003", "website": "https://www.techjockey.com/", "rating": 4, "review_count": "", "latitude": 28.536615299999998, "longitude": 77.1902978, "maps_url": "https://www.google.com/maps/place/?q=place_id:0x390d1ed3c6e9f579:0x322eccdb00f350d2"}, {"place_id": "0x390d1d6dbfae8c8b:0xaa6084cc038718c1", "name": "Timezone Ambience Mall - Vasant Kunj", "category": "Amusement center", "street": "Lower ground floor", "city": "Nelson Mandela Marg", "phone": "09549308309", "website": "https://www.timezonegames.com/en-in/locations/timezone-ambience-mall-vasant-kunj?utm_source=google&utm_medium=organic&utm_campaign=intz_20230301_googlemybusiness&utm_term=plcid_13169961191055082659", "rating": 4.9, "review_count": "", "latitude": 28.5413118, "longitude": 77.1551489, "maps_url": "https://www.google.com/maps/place/?q=place_id:0x390d1d6dbfae8c8b:0xaa6084cc038718c1"}, {"place_id": "0x390d1dc94af6d97b:0x12267c0a0a317edf", "name": "Fabindia, DLF Promenade Mall, Vasant Kunj", "category": "Clothing store", "street": "Second Floor, Shop No 317", "city": "DLF Promenade Mall", "phone": "09289981345", "website": "http://www.fabindia.com/", "rating": 4, "review_count": "", "latitude": 28.542730199999998, "longitude": 77.156358, "maps_url": "https://www.google.com/maps/place/?q=place_id:0x390d1dc94af6d97b:0x12267c0a0a317edf"}, {"place_id": "0x390d195c26bfa369:0x69bd8efd2e3a31fe", "name": "Radical Minds Technologies Pvt. Ltd.", "category": "BPO Company", "street": "368", "city": "Phase II, Udyog Vihar, Sector 20", "phone": "01244338366", "website": "http://www.radicalminds.in/", "rating": 4.2, "review_count": "", "latitude": 28.506335099999998, "longitude": 77.0877546, "maps_url": "https://www.google.com/maps/place/?q=place_id:0x390d195c26bfa369:0x69bd8efd2e3a31fe"}, {"place_id": "0x390d1e186527b451:0x3d552630d3703e21", "name": "Inca Infotech Technologies Pvt Ltd", "category": "Computer support and services", "street": "D-23/405, UGF", "city": "100 Feet Rd", "phone": "18008891907", "website": "https://www.incainfotech.com/", "rating": 3.6, "review_count": "", "latitude": 28.506226899999998, "longitude": 77.1850521, "maps_url": "https://www.google.com/maps/place/?q=place_id:0x390d1e186527b451:0x3d552630d3703e21"}, {"place_id": "0x390d1db0aef40171:0xb748a2e6079dd53d", "name": "YB INFORMATICS", "category": "Computer support and services", "street": "43, Poorvi Marg", "city": "Block A, Vasant Vihar", "phone": "09650920040", "website": "http://www.ybinformatics.com/", "rating": 5, "review_count": "", "latitude": 28.560817399999998, "longitude": 77.1666408, "maps_url": "https://www.google.com/maps/place/?q=place_id:0x390d1db0aef40171:0xb748a2e6079dd53d"}, {"place_id": "0x390d1dce96eb3acd:0xd39b01d0a6ebd44f", "name": "DLF Promenade", "category": "Shopping mall", "street": "3 Nelson Mandela Road", "city": "Vasant Kunj Mall Road", "phone": "01146104466", "website": "https://www.dlfpromenade.com/", "rating": 4.6, "review_count": "", "latitude": 28.541898099999997, "longitude": 77.15563569999999, "maps_url": "https://www.google.com/maps/place/?q=place_id:0x390d1dce96eb3acd:0xd39b01d0a6ebd44f"}, {"place_id": "0x390d1dce62f3a397:0x347357ccf44b3e89", "name": "Maruti Suzuki Insurance Broking Private Limited", "category": "Insurance broker", "street": "Plot No", "city": "1, Nelson Mandela Marg", "phone": "01133774477", "website": "https://www.marutisuzukiinsurance.com/", "rating": 4.6, "review_count": "", "latitude": 28.5399283, "longitude": 77.154096, "maps_url": "https://www.google.com/maps/place/?q=place_id:0x390d1dce62f3a397:0x347357ccf44b3e89"}, {"place_id": "0x390cfb6f5f355171:0x293ef389560eaf8a", "name": "Solis Tractors", "category": "Corporate office", "street": "TERI UNIVERSITY", "city": "Plot No. 10", "phone": "01166455200", "website": "https://www.solisworld.com/", "rating": 4.5, "review_count": "", "latitude": 28.5447602, "longitude": 77.14801829999999, "maps_url": "https://www.google.com/maps/place/?q=place_id:0x390cfb6f5f355171:0x293ef389560eaf8a"}, {"place_id": "0x390d1db98fbbe5b7:0xabdb488c915e4ba4", "name": "NEW IT VENTURE INDIA PVT. LTD. (NITV INDIA)", "category": "Software company", "street": "C-9", "city": "9401", "phone": "01141755580", "website": "https://www.newitventure.com/", "rating": "", "review_count": "", "latitude": 28.5400377, "longitude": 77.1432359, "maps_url": "https://www.google.com/maps/place/?q=place_id:0x390d1db98fbbe5b7:0xabdb488c915e4ba4"}, {"place_id": "0x390d05677ee3aecd:0xa51743b53fa39187", "name": "Weblife Infotech Pvt Ltd (Destech Media)", "category": "Software company", "street": "", "city": "", "phone": "07042569776", "website": "http://www.weblifeindia.in/", "rating": 2.9, "review_count": "", "latitude": 28.5273522, "longitude": 77.20898509999999, "maps_url": "https://www.google.com/maps/place/?q=place_id:0x390d05677ee3aecd:0xa51743b53fa39187"}, {"place_id": "0x390ce2f02fffffff:0x7ff954611317a4f2", "name": "TERI School Of Advanced Studies", "category": "University", "street": "Plot No. 10", "city": "Sankar Rd", "phone": "01171800222", "website": "https://www.terisas.ac.in/", "rating": 4.6, "review_count": "", "latitude": 28.5444075, "longitude": 77.1483942, "maps_url": "https://www.google.com/maps/place/?q=place_id:0x390ce2f02fffffff:0x7ff954611317a4f2"}, {"place_id": "0x390d1c34b5f1a413:0xb2ef100bb8748bd0", "name": "ISID", "category": "Research institute", "street": "4", "city": "Vasant Kunj Institutional Area, Vasant Kunj II, Vasant Kunj", "phone": "01126891111", "website": "http://isid.org.in/", "rating": 4.4, "review_count": "", "latitude": 28.5439737, "longitude": 77.1480521, "maps_url": "https://www.google.com/maps/place/?q=place_id:0x390d1c34b5f1a413:0xb2ef100bb8748bd0"}, {"place_id": "0x390d1d369351dde1:0x8c9d84f6186fb99a", "name": "All India Pest Control", "category": "Pest control service", "street": "No. 37, First Floor", "city": "near Ambience Mall", "phone": "09911897828", "website": "http://allindiapestcontrol.org/", "rating": 4.9, "review_count": "", "latitude": 28.5425243, "longitude": 77.1552001, "maps_url": "https://www.google.com/maps/place/?q=place_id:0x390d1d369351dde1:0x8c9d84f6186fb99a"}, {"place_id": "0x390d1e748ef61961:0x754ceb660996cfdb", "name": "ACS System Solutions", "category": "Software company", "street": "Kishangarh, Kishangarh Village, Vasant Kunj", "city": "New Delhi, Delhi 110070", "phone": "01149858620", "website": "http://acssystem.in/", "rating": 3.4, "review_count": "", "latitude": 28.522178699999998, "longitude": 77.1692609, "maps_url": "https://www.google.com/maps/place/?q=place_id:0x390d1e748ef61961:0x754ceb660996cfdb"}, {"place_id": "0x390d1d46f8570673:0x879ee5964251fac8", "name": "UNIQLO Ambience Mall, Vasant Kunj", "category": "Clothing store", "street": "Retail Space No G-01, F-101 and S-201 Plot No. 2, Nelson Mandela Marg Vasant Kunj, Ambience Mall", "city": "New Delhi, Delhi 110070", "phone": "09220708246", "website": "https://www.uniqlo.com/in/en/", "rating": 4.4, "review_count": "", "latitude": 28.541426299999998, "longitude": 77.1552212, "maps_url": "https://www.google.com/maps/place/?q=place_id:0x390d1d46f8570673:0x879ee5964251fac8"}, {"place_id": "0x390d1dce7e5e769f:0x8e0cab7c9821a6cf", "name": "Maruti Suzuki India Head Office", "category": "Corporate office", "street": "Corporate Communications, Maruti Suzuki India Limited", "city": "1, Nelson Mandela Marg", "phone": "18001026392", "website": "https://www.marutisuzuki.com/", "rating": 4, "review_count": "", "latitude": 28.539903199999998, "longitude": 77.1541331, "maps_url": "https://www.google.com/maps/place/?q=place_id:0x390d1dce7e5e769f:0x8e0cab7c9821a6cf"}, {"place_id": "0x390d1dcec8e291bb:0x755b57170b9b297e", "name": "Kapoor Watch Co.", "category": "Watch store", "street": "Shop Number 140", "city": "140, Promenade Mall", "phone": "01146767760", "website": "https://www.kapoorwatch.com/store-locator/dlf-promenade-vasant-kunj", "rating": 4.1, "review_count": "", "latitude": 28.5425598, "longitude": 77.1561237, "maps_url": "https://www.google.com/maps/place/?q=place_id:0x390d1dcec8e291bb:0x755b57170b9b297e"}, {"place_id": "0x390d1dc92e5060b3:0x4df17a60d9978c77", "name": "Michael Kors", "category": "Fashion designer", "street": "4, Nelson Mandela Marg", "city": "Vasant Kunj II, Vasant Kunj", "phone": "01140563704", "website": "http://www.michaelkors.com/", "rating": 4.2, "review_count": "", "latitude": 28.5435049, "longitude": 77.15654049999999, "maps_url": "https://www.google.com/maps/place/?q=place_id:0x390d1dc92e5060b3:0x4df17a60d9978c77"}, {"place_id": "0x390d1f0df92e353d:0x54e79553d987073c", "name": "Zombie Marketers | Performance Marketing | Digital Marketing | Website development company in Delhi | SEO company in Delhi", "category": "Marketing agency", "street": "89/9 Mamman House B Block 4th Floor", "city": "Kishangarh Village, Vasant Kunj", "phone": "08527273938", "website": "", "rating": 4.4, "review_count": "", "latitude": 28.5189249, "longitude": 77.1646754, "maps_url": "https://www.google.com/maps/place/?q=place_id:0x390d1f0df92e353d:0x54e79553d987073c"}, {"place_id": "0x390d1d265ef19a63:0x66262128aabca13", "name": "SUCG Infrastructure India Pvt. Ltd", "category": "Real Estate Builders & Construction Company", "street": "Pawa Presidential Business Park", "city": "Pawa Presidential Business Park, Tower No.4,5 & 6", "phone": "01146001203", "website": "", "rating": 3.6, "review_count": "", "latitude": 28.5382569, "longitude": 77.1427532, "maps_url": "https://www.google.com/maps/place/?q=place_id:0x390d1d265ef19a63:0x66262128aabca13"}, {"place_id": "0x390d1dc92e3c3dbf:0x4b4acd2dae35e5fb", "name": "Entertainment Design Company EDC", "category": "Invitation printing service", "street": "426, Third Floor, DLF Emporio", "city": "Nelson Mandela Marg", "phone": "01141349001", "website": "http://www.edc.co.in/", "rating": 3.3, "review_count": "", "latitude": 28.543563, "longitude": 77.156797, "maps_url": "https://www.google.com/maps/place/?q=place_id:0x390d1dc92e3c3dbf:0x4b4acd2dae35e5fb"}, {"place_id": "0x390d1dc92e9bb447:0x17f8ffbe09d150d7", "name": "Louis Vuitton New Delhi 2 Emporio", "category": "Leather goods store", "street": "DLF Emporio", "city": "No. 101 & 102, Nelson Mandela Marg", "phone": "18001039988", "website": "https://in.louisvuitton.com/eng-in/point-of-sale/india/louis-vuitton-new-delhi-2-emporio", "rating": 4.2, "review_count": "", "latitude": 28.5431706, "longitude": 77.15700319999999, "maps_url": "https://www.google.com/maps/place/?q=place_id:0x390d1dc92e9bb447:0x17f8ffbe09d150d7"}, {"place_id": "0x390d1f8bfd976459:0x3dc6342d42b80edb", "name": "BIRKENSTOCK Brand Store, Promenade Mall, Delhi", "category": "Shoe store", "street": "Shop No 116, Ground Floor DLF Promenade", "city": "Vasant Kunj", "phone": "09810566692", "website": "http://www.birkenstock.in/", "rating": 5, "review_count": "", "latitude": 28.542589399999997, "longitude": 77.1564369, "maps_url": "https://www.google.com/maps/place/?q=place_id:0x390d1f8bfd976459:0x3dc6342d42b80edb"}, {"place_id": "0x390d1dc92c0c9f93:0x192dd9dbe2ccd2e1", "name": "Cartier", "category": "Jewelry store", "street": "Nelson Mandela Marg", "city": "Vasant Kunj II, Vasant Kunj", "phone": "01146788888", "website": "http://www.cartier.com/en-in/home", "rating": 4.1, "review_count": "", "latitude": 28.543371399999998, "longitude": 77.15675379999999, "maps_url": "https://www.google.com/maps/place/?q=place_id:0x390d1dc92c0c9f93:0x192dd9dbe2ccd2e1"}, {"place_id": "0x390d1dc92c722091:0x740730722a3bba63", "name": "Kapoor Watch Co.", "category": "Watch store", "street": "244 Emporio Mall", "city": "Vasant Kunj II, Vasant Kunj", "phone": "01146767777", "website": "https://www.kapoorwatch.com/store-locator/emporio-mall-vasant-kunj", "rating": 4.4, "review_count": "", "latitude": 28.5431477, "longitude": 77.1572448, "maps_url": "https://www.google.com/maps/place/?q=place_id:0x390d1dc92c722091:0x740730722a3bba63"}, {"place_id": "0x390d1dc92badd0f3:0x8c2a409b6eea64f2", "name": "Emporio Armani", "category": "Clothing store", "street": "Shop #126", "city": "Nelson Mandela Marg", "phone": "01145060107", "website": "https://www.armani.com/", "rating": 4.4, "review_count": "", "latitude": 28.543786599999997, "longitude": 77.156707, "maps_url": "https://www.google.com/maps/place/?q=place_id:0x390d1dc92badd0f3:0x8c2a409b6eea64f2"}, {"place_id": "0x390d1dcece1129b9:0x52ab00ef98dbfb87", "name": "Fossil Exclusive Store", "category": "Watch store", "street": "Shop No. 240-240A, I Floor, DLF Promenade Mall, 3 Nelson Mandela Road", "city": "Vasant Kunj Mall Road", "phone": "01141882041", "website": "https://www.fossil.com/en-in/", "rating": 4.8, "review_count": "", "latitude": 28.5433168, "longitude": 77.1559506, "maps_url": "https://www.google.com/maps/place/?q=place_id:0x390d1dcece1129b9:0x52ab00ef98dbfb87"}, {"place_id": "0x390d1d9525e8e5bb:0x2325d87013854667", "name": "Minizmo DLF Promenade", "category": "Clothing store", "street": "First Floor", "city": "Unit 235", "phone": "01140109162", "website": "http://www.minizmo.com/", "rating": 4.4, "review_count": "", "latitude": 28.5427158, "longitude": 77.1555266, "maps_url": "https://www.google.com/maps/place/?q=place_id:0x390d1d9525e8e5bb:0x2325d87013854667"}, {"place_id": "0xa3f7b500ba6bee9b:0xbf6f44de92b28de", "name": "Yuvocreations Private Limited ( \u092f\u0941\u0935\u094b\u0915\u094d\u0930\u093f\u090f\u0936\u0928\u094d\u0938 \u092a\u094d\u0930\u093e\u0907\u0935\u0947\u091f \u0932\u093f\u092e\u093f\u091f\u0947\u0921 ) - Website Designing & Digital Marketing Agency", "category": "Software company", "street": "Lane no.4", "city": "Khasra no. 258, Westend Marg", "phone": "07042123166", "website": "https://yuvocreations.com/", "rating": 5, "review_count": "", "latitude": 28.5169774, "longitude": 77.19925789999999, "maps_url": "https://www.google.com/maps/place/?q=place_id:0xa3f7b500ba6bee9b:0xbf6f44de92b28de"}, {"place_id": "0x390d1dad77cb43d3:0xa2435a93bfb345c", "name": "Benefit Cosmetics Brow Bar", "category": "Eyebrow bar", "street": "Unit No. 184 - 187", "city": "Sephora DLF Promenade", "phone": "01141007348", "website": "https://www.benefitcosmetics.com/en-in/services.html?open-booking=1&k=7906fll80i8OA9Q1GIo0lGn3sO6HJ39n&merchantId=9044&utm_source=google&utm_medium=listing&utm_campaign=rwg-yext&y_source=1_MjAxNTI1NDk0Ni03MTUtbG9jYXRpb24ud2Vic2l0ZQ%3D%3D", "rating": 4.8, "review_count": "", "latitude": 28.5430127, "longitude": 77.15572999999999, "maps_url": "https://www.google.com/maps/place/?q=place_id:0x390d1dad77cb43d3:0xa2435a93bfb345c"}, {"place_id": "0x390d1dceb446aaa9:0x83653e533988935c", "name": "COVER STORY", "category": "Designer Clothing Store", "street": "162-163, GROUND FLOOR", "city": "DLF PROMENADE MALL", "phone": "09315905689", "website": "https://coverstory.co.in/", "rating": 4.2, "review_count": "", "latitude": 28.5425689, "longitude": 77.1561205, "maps_url": "https://www.google.com/maps/place/?q=place_id:0x390d1dceb446aaa9:0x83653e533988935c"}, {"place_id": "0x390d1dd308839f23:0x10ffc1ca9faa61a1", "name": "Zara", "category": "Clothing store", "street": "2, Nelson Mandela Marg", "city": "Vasant Kunj II, Vasant Kunj", "phone": "18003157808", "website": "https://www.zara.com/in/en/stores-locator/zara-new-delhi-dfl-promenade-s9093", "rating": 4.2, "review_count": "", "latitude": 28.542748, "longitude": 77.15561, "maps_url": "https://www.google.com/maps/place/?q=place_id:0x390d1dd308839f23:0x10ffc1ca9faa61a1"}, {"place_id": "0x390d1dc92e9676cd:0xd36f3792f4355be1", "name": "Gucci - New Delhi Emporio", "category": "Clothing store", "street": "GF, 105 & 106", "city": "DLF Emporio", "phone": "02250323242", "website": "https://www.gucci.com/global/store/vasant-kunj-phase-ii?utm_source=yext_int&utm_medium=storemarketing&utm_campaign=gbp_28502&y_source=1_ODk3Njg3Ny03MTUtbG9jYXRpb24ud2Vic2l0ZQ%3D%3D", "rating": 4.3, "review_count": "", "latitude": 28.5432192, "longitude": 77.1566708, "maps_url": "https://www.google.com/maps/place/?q=place_id:0x390d1dc92e9676cd:0xd36f3792f4355be1"}, {"place_id": "0x390cfb4bf15a6733:0xaf50e6f3c5fb7641", "name": "Digitals Daddy: Web & App Development Company", "category": "Software company", "street": "Metro Gate No. 2", "city": "Nearest Sikandarpur", "phone": "09818286609", "website": "https://www.digitalsdaddy.com/", "rating": 4.9, "review_count": "", "latitude": 28.4847884, "longitude": 77.0922192, "maps_url": "https://www.google.com/maps/place/?q=place_id:0x390cfb4bf15a6733:0xaf50e6f3c5fb7641"}, {"place_id": "0x390d1dcef96401dd:0x6d83b1d4e57018db", "name": "M.A.C Cosmetics", "category": "Cosmetics store", "street": "Shop No 114B, GF", "city": "DLF Promenade Mall", "phone": "01146696060", "website": "https://stores.maccosmetics.in/m-a-c-cosmetics-dlf-promenade-cosmetics-store-vasant-kunj-new-delhi-294692/Home", "rating": 4.3, "review_count": "", "latitude": 28.5425926, "longitude": 77.1562639, "maps_url": "https://www.google.com/maps/place/?q=place_id:0x390d1dcef96401dd:0x6d83b1d4e57018db"}, {"place_id": "0x390d1dcec40d7653:0x33abb9050e3ec12d", "name": "Samsung Experience Store DLF Promenade Mall", "category": "Cell phone store", "street": "No 231, UGF, DLF Promenade Mall", "city": "Vasant Kunj", "phone": "09650848484", "website": "https://www.samsungexclusivestores.in/samsung-experience-store-dlf-promenade-mall-mobile-phone-shop-vasant-kunj-new-delhi-78927/Home", "rating": 4.4, "review_count": "", "latitude": 28.542416199999998, "longitude": 77.1558294, "maps_url": "https://www.google.com/maps/place/?q=place_id:0x390d1dcec40d7653:0x33abb9050e3ec12d"}, {"place_id": "0x390d1dc92efcb4b9:0xe4c9c069d299e689", "name": "BALLY DLF EMPORIO", "category": "Clothing Accessories Store", "street": "115, Ground Floor, DLF Emporio", "city": "Nelson Mandela Marg", "phone": "01149865747", "website": "http://www.bally.com/", "rating": 4.3, "review_count": "", "latitude": 28.5436758, "longitude": 77.1566405, "maps_url": "https://www.google.com/maps/place/?q=place_id:0x390d1dc92efcb4b9:0xe4c9c069d299e689"}, {"place_id": "0x390d1dce9c6167ff:0xf1ea24aac57cc5b9", "name": "Diamondtree - Rings, Earrings, Sets, Bracelets, Polki | Natural Diamond Jewellery Store", "category": "Jeweler", "street": "G-7,8,9, Ground Floor", "city": "Ambience Mall", "phone": "09999307570", "website": "http://www.diamondtree.co.in/", "rating": 4.6, "review_count": "", "latitude": 28.541008899999998, "longitude": 77.1551984, "maps_url": "https://www.google.com/maps/place/?q=place_id:0x390d1dce9c6167ff:0xf1ea24aac57cc5b9"}, {"place_id": "0x390d1d4283774123:0xb20d17d9f6ec68cf", "name": "Kapoor Watch Co.", "category": "Watch store", "street": "UG20 - Ground Floor", "city": "Ambience Mall", "phone": "01140870005", "website": "https://www.kapoorwatch.com/store-locator/ambience-mall-vasant-kunj", "rating": 4.6, "review_count": "", "latitude": 28.5414098, "longitude": 77.155136, "maps_url": "https://www.google.com/maps/place/?q=place_id:0x390d1d4283774123:0xb20d17d9f6ec68cf"}, {"place_id": "0x390d1d053acc1da9:0xb90c022a3345bac6", "name": "The Loom", "category": "Clothing store", "street": "1st Floor", "city": "DLF Promenade", "phone": "09289457822", "website": "https://theloom.in/", "rating": 4.9, "review_count": "", "latitude": 28.5425231, "longitude": 77.1561796, "maps_url": "https://www.google.com/maps/place/?q=place_id:0x390d1d053acc1da9:0xb90c022a3345bac6"}, {"place_id": "0x390d1dce84fefcd7:0x2c07ce605a48a47f", "name": "NIKE", "category": "Sportswear store", "street": "Phase 2", "city": "SN 212, DLF Promenade Mall PN 3", "phone": "01146124757", "website": "https://www.nike.com/retail/directory/india/delhi", "rating": 4.9, "review_count": "", "latitude": 28.5423017, "longitude": 77.1561478, "maps_url": "https://www.google.com/maps/place/?q=place_id:0x390d1dce84fefcd7:0x2c07ce605a48a47f"}, {"place_id": "0x390d1dbca997176d:0x57e66bed722428a", "name": "Earthz Urban Spaces Pvt. Ltd.", "category": "Real Estate Builders & Construction Company", "street": "gate no 4", "city": "metro station", "phone": "09810313009", "website": "http://earthzurbanspaces.com/", "rating": 3.9, "review_count": "", "latitude": 28.5580338, "longitude": 77.1619972, "maps_url": "https://www.google.com/maps/place/?q=place_id:0x390d1dbca997176d:0x57e66bed722428a"}, {"place_id": "0x390d1d2125c54d01:0x37e4e5e3ab0bbf9d", "name": "The Burger Company", "category": "Hamburger restaurant", "street": "Food Court, Ambience Mall", "city": "3rd Floor", "phone": "09650840600", "website": "https://theburgercompany.co/", "rating": 4.7, "review_count": "", "latitude": 28.5416493, "longitude": 77.1552008, "maps_url": "https://www.google.com/maps/place/?q=place_id:0x390d1d2125c54d01:0x37e4e5e3ab0bbf9d"}, {"place_id": "0x390d1dc92a5a1fa5:0xa685aeebe0fa3189", "name": "ENSEMBLE, DLF Emporio, New Delhi", "category": "Designer Clothing Store", "street": "Plot No. 4, Shop No. 433-437, Third Floor, Emporio Mall", "city": "Mall Area", "phone": "09999803713", "website": "https://www.ensembleindia.com/", "rating": 4.1, "review_count": "", "latitude": 28.5434068, "longitude": 77.1568561, "maps_url": "https://www.google.com/maps/place/?q=place_id:0x390d1dc92a5a1fa5:0xa685aeebe0fa3189"}, {"place_id": "0x390d1963c9ff230b:0x2615b36cd359acfa", "name": "Culture Circle - The Home of Culture", "category": "E-commerce service", "street": "Lower Ground floor", "city": "Broadway, Ambience Mall", "phone": "02269199835", "website": "https://www.culture-circle.com/", "rating": 4.2, "review_count": "", "latitude": 28.5414191, "longitude": 77.1551281, "maps_url": "https://www.google.com/maps/place/?q=place_id:0x390d1963c9ff230b:0x2615b36cd359acfa"}, {"place_id": "0x390d1d985d1b91f5:0x12d3d2ebc9828b04", "name": "Onitsuka Tiger DLF Promenade", "category": "Shoe store", "street": "147/148, DLF Promenade", "city": "Vasant Kunj Mall Road", "phone": "07718897302", "website": "https://www.bbcollective.co/", "rating": 4.1, "review_count": "", "latitude": 28.542726899999998, "longitude": 77.1558197, "maps_url": "https://www.google.com/maps/place/?q=place_id:0x390d1d985d1b91f5:0x12d3d2ebc9828b04"}, {"place_id": "0x390d1dbd7ae8bab3:0x7c4edee2fdbbbfc2", "name": "Rolex", "category": "Watch store", "street": "DLF Emporio Mall", "city": "243 - A", "phone": "01149879501", "website": "https://www.kapoorwatch.com/store-locator/rolex-boutique-dlf-emporio-mall", "rating": 4.9, "review_count": "", "latitude": 28.543450999999997, "longitude": 77.1566749, "maps_url": "https://www.google.com/maps/place/?q=place_id:0x390d1dbd7ae8bab3:0x7c4edee2fdbbbfc2"}, {"place_id": "0x390d1b0010fc2321:0x12e9154c815cf007", "name": "Prashant Dwivedi IT company", "category": "Warehouse", "street": "G3P5+GVC", "city": "Nayak Pura, Bijwasan", "phone": "", "website": "", "rating": "", "review_count": "", "latitude": 28.536316, "longitude": 77.059649, "maps_url": "https://www.google.com/maps/place/?q=place_id:0x390d1b0010fc2321:0x12e9154c815cf007"}, {"place_id": "0x390d1d8c3bc9c68d:0xf71204a70007ed24", "name": "Hitachi India Pvt. Ltd. & Hitachi Lift India Pvt Ltd", "category": "Manufacturer", "street": "H42C+6GH, Indira Gandhi International Airport", "city": "Tower B", "phone": "01140605252", "website": "http://www.hitachi.co.in/", "rating": 1.4, "review_count": "", "latitude": 28.550555499999998, "longitude": 77.1213703, "maps_url": "https://www.google.com/maps/place/?q=place_id:0x390d1d8c3bc9c68d:0xf71204a70007ed24"}, {"place_id": "0x390d1dcec9b09929:0xac654adc54ce0043", "name": "United Colours Of Benetton", "category": "Clothing store", "street": "215, Nelson Mandela Marg Promenade mall", "city": "Vasant Kunj", "phone": "", "website": "http://www.benetton.com/", "rating": 4.3, "review_count": "", "latitude": 28.542405799999997, "longitude": 77.156268, "maps_url": "https://www.google.com/maps/place/?q=place_id:0x390d1dcec9b09929:0xac654adc54ce0043"}, {"place_id": "0x390d1dcebe4c0fb9:0x6477f3a6ce46cd76", "name": "P.F. Chang's Vasant Kunj", "category": "Pan-Asian restaurant", "street": "Third Floor", "city": "Ambience Mall", "phone": "08097095244", "website": "https://pfchangs.gourmetinvestments.com/store-pages/p-f-changs-vasant-kunj-new-delhi/", "rating": 4.7, "review_count": "", "latitude": 28.5415736, "longitude": 77.15550739999999, "maps_url": "https://www.google.com/maps/place/?q=place_id:0x390d1dcebe4c0fb9:0x6477f3a6ce46cd76"}, {"place_id": "0x390d1dc92fe3ff31:0x1bccfc5b7f1c0eba", "name": "VERSACE", "category": "Clothing store", "street": "141 Ground Floor", "city": "DLF Emporio Mall", "phone": "01146064186", "website": "https://www.versace.com/?utm_source=google&utm_medium=yext&utm_campaign=yext.Google.map.861962.VERSACE-New-Delhi-Emporio-Mall&utm_content=nd&utm_term=nd", "rating": 3.9, "review_count": "", "latitude": 28.543599999999998, "longitude": 77.15679999999999, "maps_url": "https://www.google.com/maps/place/?q=place_id:0x390d1dc92fe3ff31:0x1bccfc5b7f1c0eba"}, {"place_id": "0x390d1937d09e1231:0xf61423f219ef1d41", "name": "IntellyLabs Technologies", "category": "Software company", "street": "3rd Floor, Building Number: 9", "city": "DLF Cyber City, DLF Phase 2, Sector 24", "phone": "01244081571", "website": "http://intellylabs.com/", "rating": 5, "review_count": "", "latitude": 28.496289299999997, "longitude": 77.0931434, "maps_url": "https://www.google.com/maps/place/?q=place_id:0x390d1937d09e1231:0xf61423f219ef1d41"}]}