{"timestamp": 1773733414.1160133, "keyword": "IT company", "location": "Indore", "cell_idx": 32, "results": [{"place_id": "0x3962fd71266aaa83:0x82398caa17930a40", "name": "Octavian InfoTech LLP", "category": "Software company", "street": "A 41 Ayodhya Puri", "city": "Kodriya", "phone": "09977741168", "website": "https://www.octavianinfotech.com/", "rating": 5, "review_count": "", "latitude": 22.537258599999998, "longitude": 75.7726136, "maps_url": "https://www.google.com/maps/place/?q=place_id:0x3962fd71266aaa83:0x82398caa17930a40"}, {"place_id": "0x3962f9d55308990b:0xb6ebe2e177c52632", "name": "Prodigitaly Technologies", "category": "Software company", "street": "L-31 Supercity , Opposite Shanti Nagar ,Mhowgaon", "city": "Dr. Ambedkar Nagar, Madhya Pradesh 453441", "phone": "09877530727", "website": "https://prodigitaly.com/", "rating": 5, "review_count": "", "latitude": 22.5524372, "longitude": 75.7565273, "maps_url": "https://www.google.com/maps/place/?q=place_id:0x3962f9d55308990b:0xb6ebe2e177c52632"}, {"place_id": "0x3962f90d10bd7993:0xe34f9616e2e32c5e", "name": "Welloft IT Solutions", "category": "Website designer", "street": "301 Love App", "city": "SIMROL ROAD Sai Shardha colony Love apartment", "phone": "08819832755", "website": "https://wellsoft.in/", "rating": 5, "review_count": "", "latitude": 22.556339599999998, "longitude": 75.7805716, "maps_url": "https://www.google.com/maps/place/?q=place_id:0x3962f90d10bd7993:0xe34f9616e2e32c5e"}, {"place_id": "0x3962f90050be525f:0xa62fbb831ddecfb7", "name": "Nevaloss Technologies Pvt. Ltd.", "category": "Software company", "street": "Mhow, Madhya Pradesh 453331", "city": "", "phone": "09479591781", "website": "https://www.nevalosstechnologies.com/", "rating": 5, "review_count": "", "latitude": 22.62643, "longitude": 75.796882, "maps_url": "https://www.google.com/maps/place/?q=place_id:0x3962f90050be525f:0xa62fbb831ddecfb7"}, {"place_id": "0x39625774032b2dd1:0x101c44ef5a877752", "name": "Varcas Nexgen | Digital Marketing & IT Services Company", "category": "Software company", "street": "AL163", "city": "H.B Colony", "phone": "08602758854", "website": "https://www.varcasnexgen.com/", "rating": 5, "review_count": "", "latitude": 22.599356999999998, "longitude": 75.68772539999999, "maps_url": "https://www.google.com/maps/place/?q=place_id:0x39625774032b2dd1:0x101c44ef5a877752"}, {"place_id": "0x390ce458d0000001:0xf2123bd299ec4501", "name": "IT Company India", "category": "Software company", "street": "D56", "city": "D Block, Sector 10", "phone": "09999244854", "website": "https://www.itcompanyindia.in/", "rating": 4.7, "review_count": "", "latitude": 28.589917699999997, "longitude": 77.3351153, "maps_url": "https://www.google.com/maps/place/?q=place_id:0x390ce458d0000001:0xf2123bd299ec4501"}, {"place_id": "0x396256a28661ad75:0xa315a629fe76f6be", "name": "Cummins Turbo Technologies Ltd.", "category": "Manufacturer", "street": "Indore Special Economic Zone Phase II", "city": "Division of Cummins Technologies India ltd, Plot No. M5, Sector 3", "phone": "07292301300", "website": "http://www.cummins.com/turbos", "rating": 4.5, "review_count": "", "latitude": 22.625135699999998, "longitude": 75.6430572, "maps_url": "https://www.google.com/maps/place/?q=place_id:0x396256a28661ad75:0xa315a629fe76f6be"}, {"place_id": "0x396255efadca2437:0xfed5742d979c4770", "name": "PRATAP DIGITAL COMMUNICATIONS PVT. LTD.", "category": "Manufacturer", "street": "Smart Industrial Park Natrip", "city": "Plot no. 40", "phone": "", "website": "https://www.corsis.in/", "rating": 4.7, "review_count": "", "latitude": 22.5818367, "longitude": 75.593475, "maps_url": "https://www.google.com/maps/place/?q=place_id:0x396255efadca2437:0xfed5742d979c4770"}, {"place_id": "0x3962fd5eec2cf6a9:0xe1b5f67b53e20d06", "name": "Technoecorp Service Private Limited", "category": "Software company", "street": "C 180 chhatra Chhaya sector 01 Pithampur", "city": "Distt", "phone": "", "website": "http://www.technoecorp.com/", "rating": 4.9, "review_count": "", "latitude": 22.6052993, "longitude": 75.6858365, "maps_url": "https://www.google.com/maps/place/?q=place_id:0x3962fd5eec2cf6a9:0xe1b5f67b53e20d06"}, {"place_id": "0x3962f9236d105caf:0xbbc3c9013b8d48dc", "name": "Compli-Tech - Startup Consultant | Company Registration | Website Designing | Ecommerce Website Development", "category": "Business management consultant", "street": "Malwa Complex", "city": "88", "phone": "09302151441", "website": "https://compli-tech.odoo.com/", "rating": "", "review_count": "", "latitude": 22.5676845, "longitude": 75.7600538, "maps_url": "https://www.google.com/maps/place/?q=place_id:0x3962f9236d105caf:0xbbc3c9013b8d48dc"}, {"place_id": "0x39625f766fcb4239:0x805879318352fff3", "name": "Shree Sawariya Computer And Mobile Repairing", "category": "Computer support and services", "street": "1, Ab Road", "city": "near by Tejaji Mandir", "phone": "09575153691", "website": "", "rating": 5, "review_count": "", "latitude": 22.4331791, "longitude": 75.62092729999999, "maps_url": "https://www.google.com/maps/place/?q=place_id:0x39625f766fcb4239:0x805879318352fff3"}, {"place_id": "0x3be7c21b5901e181:0x7fe794585addc1f6", "name": "Smartinfologiks - Software Development Company in India | IT Solutions", "category": "Software company", "street": "Hilton Center", "city": "514", "phone": "07400064691", "website": "https://www.smartinfologiks.com/", "rating": 4.6, "review_count": "", "latitude": 19.0139592, "longitude": 73.0382705, "maps_url": "https://www.google.com/maps/place/?q=place_id:0x3be7c21b5901e181:0x7fe794585addc1f6"}, {"place_id": "0x3bc2becdc35b6937:0x515ac559c349eee3", "name": "Thinkitive Technologies Private Limited", "category": "Software company", "street": "4th Floor", "city": "ABIL IMPERIAL COMMERCIAL SPACES", "phone": "08956467327", "website": "https://www.thinkitive.com/", "rating": 3.9, "review_count": "", "latitude": 18.5563888, "longitude": 73.7729748, "maps_url": "https://www.google.com/maps/place/?q=place_id:0x3bc2becdc35b6937:0x515ac559c349eee3"}, {"place_id": "0x3962f91a9a1deadb:0xf9192245761ff2c", "name": "SmartTech-Developers", "category": "Software company", "street": "Suman Colony", "city": "Mhow Gaon, Madhya Pradesh 453441", "phone": "09691985153", "website": "http://smarttech-developers.com/", "rating": "", "review_count": "", "latitude": 22.5753395, "longitude": 75.74259119999999, "maps_url": "https://www.google.com/maps/place/?q=place_id:0x3962f91a9a1deadb:0xf9192245761ff2c"}, {"place_id": "0x3962571f328ba1d1:0x7052e3a0dc6e3536", "name": "Altis Industries Pvt. Ltd.", "category": "Corporate office", "street": "BR 04, Industrial Growth Center Pithampur - V, De-Notified Area", "city": "Madhya Pradesh 454774", "phone": "07314780800", "website": "http://www.altis.in/", "rating": 4.1, "review_count": "", "latitude": 22.6199776, "longitude": 75.6465839, "maps_url": "https://www.google.com/maps/place/?q=place_id:0x3962571f328ba1d1:0x7052e3a0dc6e3536"}, {"place_id": "0x396256464da4be57:0x81feca1ea650d13a", "name": "Kores India Engineering", "category": "Manufacturer", "street": "Plot no.6", "city": "Sector 1, Industrial Area, Sagour Kuti", "phone": "09223286731", "website": "https://engineering.kores.in/", "rating": 4.2, "review_count": "", "latitude": 22.6052629, "longitude": 75.68751019999999, "maps_url": "https://www.google.com/maps/place/?q=place_id:0x396256464da4be57:0x81feca1ea650d13a"}, {"place_id": "0x3962517f515688ed:0xde8f4000edf9aa47", "name": "Jalpa Devi Engineering Pvt. Ltd., Dilip Buildcon Limited", "category": "Corporate office", "street": "Plot no. 831 to 836", "city": "near Indorama Mandir", "phone": "", "website": "", "rating": 4.4, "review_count": "", "latitude": 22.6217869, "longitude": 75.5746976, "maps_url": "https://www.google.com/maps/place/?q=place_id:0x3962517f515688ed:0xde8f4000edf9aa47"}, {"place_id": "0x39625665383e0ec3:0xe07ade2d739f8b42", "name": "Acoem India", "category": "Manufacturer", "street": "Plot No 57 Pithampur", "city": "Sector 2", "phone": "07292426409", "website": "https://www.acoem.com/india", "rating": 4.5, "review_count": "", "latitude": 22.6248209, "longitude": 75.6773436, "maps_url": "https://www.google.com/maps/place/?q=place_id:0x39625665383e0ec3:0xe07ade2d739f8b42"}, {"place_id": "0x39625f6c69a29271:0x9bb96846636398b1", "name": "Shree Saawariya Online Services", "category": "Computer support and services", "street": "Gram Mend Mhow Indore Mend", "city": "Mhow - Indore Hwy", "phone": "08319913142", "website": "", "rating": 5, "review_count": "", "latitude": 22.4171071, "longitude": 75.7101895, "maps_url": "https://www.google.com/maps/place/?q=place_id:0x39625f6c69a29271:0x9bb96846636398b1"}, {"place_id": "0x39625710d533ab11:0xfa00527d942051ef", "name": "Praveer Industries", "category": "3D printing service", "street": "Sunrise town", "city": "74/75", "phone": "09770205594", "website": "https://thepraveerstore.com/", "rating": 5, "review_count": "", "latitude": 22.589725299999998, "longitude": 75.6874455, "maps_url": "https://www.google.com/maps/place/?q=place_id:0x39625710d533ab11:0xfa00527d942051ef"}, {"place_id": "0x3962517f515688ed:0xde8f4000edf9aa47", "name": "Jalpa Devi Engineering Pvt. Ltd., Dilip Buildcon Limited", "category": "Corporate office", "street": "Plot no. 831 to 836", "city": "near Indorama Mandir", "phone": "", "website": "", "rating": 4.4, "review_count": "", "latitude": 22.6217869, "longitude": 75.5746976, "maps_url": "https://www.google.com/maps/place/?q=place_id:0x3962517f515688ed:0xde8f4000edf9aa47"}, {"place_id": "0x39625614deab87c9:0xac1a988eafd5ac01", "name": "Aeon Medical Private Limited", "category": "Manufacturer", "street": "Sector No.-1", "city": "62, 63 & 64A", "phone": "08989978403", "website": "http://www.aeonmedical.co.in/", "rating": 4.9, "review_count": "", "latitude": 22.6169555, "longitude": 75.6897161, "maps_url": "https://www.google.com/maps/place/?q=place_id:0x39625614deab87c9:0xac1a988eafd5ac01"}, {"place_id": "0x3962fce330e1541b:0x125ef4cec09bea4e", "name": "Twarak Infotech Pvt Ltd", "category": "Software company", "street": "201 Sankalp 1", "city": "Chinar Residency, Kishanganj", "phone": "08770604745", "website": "https://www.twarakinfotech.com/", "rating": 4.5, "review_count": "", "latitude": 22.5789062, "longitude": 75.77662269999999, "maps_url": "https://www.google.com/maps/place/?q=place_id:0x3962fce330e1541b:0x125ef4cec09bea4e"}, {"place_id": "0x396256a4c71572d3:0x347474341f5c85e3", "name": "Lupin Limited", "category": "Pharmaceutical company", "street": "Plot No. 2, SEZ Phase-II, Misc Zone, Apparel Park", "city": "District Dhar", "phone": "07292417300", "website": "https://www.lupin.com/", "rating": 4.1, "review_count": "", "latitude": 22.622044499999998, "longitude": 75.637076, "maps_url": "https://www.google.com/maps/place/?q=place_id:0x396256a4c71572d3:0x347474341f5c85e3"}, {"place_id": "0x3962561639dcf60f:0x73f3c8893e81980b", "name": "Cipla Limited (Unit 1)", "category": "Pharmaceutical company", "street": "Plot no. 9, SEZ", "city": "Pithampur Industrial Area", "phone": "02224826000", "website": "http://www.cipla.com/", "rating": 4.2, "review_count": "", "latitude": 22.629214899999997, "longitude": 75.6227652, "maps_url": "https://www.google.com/maps/place/?q=place_id:0x3962561639dcf60f:0x73f3c8893e81980b"}, {"place_id": "0x3962522c60474e65:0x7c886eb4fd5691be", "name": "SIMRAN AGRITECH PVT. LTD.", "category": "Food manufacturer", "street": "Plot no. 63", "city": "Pithampur Industrial Area, Industrial Area, Sector-3", "phone": "", "website": "", "rating": 4, "review_count": "", "latitude": 22.635094799999997, "longitude": 75.5705401, "maps_url": "https://www.google.com/maps/place/?q=place_id:0x3962522c60474e65:0x7c886eb4fd5691be"}, {"place_id": "0x396257edbb3a0893:0xe7479b53ae320e14", "name": "Universe Capsules Biotech Pvt. Ltd", "category": "Pharmaceutical company", "street": "Plot No. 83, Smart Industrial Park", "city": "Pithampur", "phone": "09589872422", "website": "https://universecapsules.com/", "rating": 5, "review_count": "", "latitude": 22.5730923, "longitude": 75.5957118, "maps_url": "https://www.google.com/maps/place/?q=place_id:0x396257edbb3a0893:0xe7479b53ae320e14"}, {"place_id": "0x396257edbe90eae9:0xccff87a9d6813219", "name": "Hi tech computer", "category": "Computer accessories store", "street": "Manwani Road", "city": "Pithampur Industrial Area, Sagour Kuti", "phone": "07049506966", "website": "", "rating": 4.4, "review_count": "", "latitude": 22.6081611, "longitude": 75.68183499999999, "maps_url": "https://www.google.com/maps/place/?q=place_id:0x396257edbe90eae9:0xccff87a9d6813219"}, {"place_id": "0x3962f7edf6bc261b:0xe8e3745b8ea5cada", "name": "Beyond Horizon Consulting", "category": "Internet marketing service", "street": "Dr. Ambedkar Nagar, Indore, Madhya Pradesh 453441", "city": "", "phone": "07400520710", "website": "https://www.instagram.com/beyondhorizon_consulting?utm_source=ig_web_button_share_sheet&igsh=ZDNlZDc0MzIxNw==", "rating": 5, "review_count": "", "latitude": 22.5581832, "longitude": 75.7700539, "maps_url": "https://www.google.com/maps/place/?q=place_id:0x3962f7edf6bc261b:0xe8e3745b8ea5cada"}, {"place_id": "0x3962fb25e310c02f:0xc3b411c572aa8f40", "name": "Growtech Agri Science and Research Pvt Ltd", "category": "Corporate office", "street": "GMG7+7HW", "city": "Unnamed Road", "phone": "07312856994", "website": "http://www.growtechagriscience.com/", "rating": 4.7, "review_count": "", "latitude": 22.525745999999998, "longitude": 75.6639651, "maps_url": "https://www.google.com/maps/place/?q=place_id:0x3962fb25e310c02f:0xc3b411c572aa8f40"}, {"place_id": "0x3962518119320775:0x7fdc9b44dfe0d9e5", "name": "Torrent Pharmaceuticals Ltd", "category": "Pharmaceutical company", "street": "Plot. No. 810, Sector III, Industrial Area Pithampur", "city": "Kalibillod, Madhya Pradesh 454774", "phone": "07292256224", "website": "http://www.torrentpharma.com/", "rating": 4.3, "review_count": "", "latitude": 22.6242345, "longitude": 75.56933529999999, "maps_url": "https://www.google.com/maps/place/?q=place_id:0x3962518119320775:0x7fdc9b44dfe0d9e5"}, {"place_id": "0x396257738d472b69:0xac0ef39ab243dda7", "name": "ZF Steering Gear (India) Limited", "category": "Manufacturer", "street": "Pithampur Industrial Area", "city": "Pithampur, Madhya Pradesh 454774", "phone": "02137305100", "website": "http://www.zfindia.com/", "rating": 4.4, "review_count": "", "latitude": 22.6219598, "longitude": 75.6457784, "maps_url": "https://www.google.com/maps/place/?q=place_id:0x396257738d472b69:0xac0ef39ab243dda7"}, {"place_id": "0x3962f9cd2014b943:0xe2f161cf7fdf846", "name": "PATH India Ltd.", "category": "Corporate office", "street": "76, Mall Rd", "city": "Dr. Ambedkar Nagar, Madhya Pradesh 453441", "phone": "07324350100", "website": "https://www.pathltd.com/", "rating": 4.2, "review_count": "", "latitude": 22.5663315, "longitude": 75.7613377, "maps_url": "https://www.google.com/maps/place/?q=place_id:0x3962f9cd2014b943:0xe2f161cf7fdf846"}, {"place_id": "0x396256ac375b75eb:0x2401e406b4ae6cf9", "name": "Bridgestone India Private Limited", "category": "Corporate office", "street": "Kheda Growth Centre", "city": "Plot No. 12, Post", "phone": "07292423333", "website": "http://www.bridgestone.co.in/", "rating": 4.3, "review_count": "", "latitude": 22.6240867, "longitude": 75.6249787, "maps_url": "https://www.google.com/maps/place/?q=place_id:0x396256ac375b75eb:0x2401e406b4ae6cf9"}, {"place_id": "0x3962565de2c263eb:0x3f95f7eb8a7214c5", "name": "VE Commercial Vehicles Limited", "category": "Corporate office", "street": "Pithampur Industrial Area", "city": "Pithampur, Madhya Pradesh 454775", "phone": "01244415600", "website": "http://www.vecv.in/", "rating": 4.3, "review_count": "", "latitude": 22.611927299999998, "longitude": 75.6744796, "maps_url": "https://www.google.com/maps/place/?q=place_id:0x3962565de2c263eb:0x3f95f7eb8a7214c5"}, {"place_id": "0x396256a9a6a6b611:0xd257ef1a76381913", "name": "Glenmark Pharmaceuticals Ltd.", "category": "Pharmaceutical company", "street": "Plot No.2, Phase II, Pharma Zone, ISEZ", "city": "Pithampur, Madhya Pradesh 454774", "phone": "07292667900", "website": "http://glenmarkpharma.com/", "rating": 4.5, "review_count": "", "latitude": 22.6303257, "longitude": 75.6284524, "maps_url": "https://www.google.com/maps/place/?q=place_id:0x396256a9a6a6b611:0xd257ef1a76381913"}, {"place_id": "0x396253e0f2611e75:0xe217224899890f7a", "name": "Larsen & Toubro Limited", "category": "Corporate office", "street": "158-B, 454774", "city": "Pithampur Industrial Area, Sector-3", "phone": "07292400740", "website": "http://www.larsentoubro.com/", "rating": 4.1, "review_count": "", "latitude": 22.6347052, "longitude": 75.59804799999999, "maps_url": "https://www.google.com/maps/place/?q=place_id:0x396253e0f2611e75:0xe217224899890f7a"}, {"place_id": "0x396257adf5285e4f:0x47f23c9e72775fa", "name": "Eicher Company Pithampur", "category": "Manufacturer", "street": "Pithampur Industrial Area", "city": "Pithampur, Madhya Pradesh 454775", "phone": "", "website": "", "rating": 4.4, "review_count": "", "latitude": 22.6113166, "longitude": 75.6747529, "maps_url": "https://www.google.com/maps/place/?q=place_id:0x396257adf5285e4f:0x47f23c9e72775fa"}, {"place_id": "0x396256403e4814d1:0x3ac3418031db49ba", "name": "Prashanti Engineering Works Pvt. Ltd.", "category": "Auto parts manufacturer", "street": "Pithampur Industrial Area", "city": "Pithampur, Madhya Pradesh 454775", "phone": "", "website": "https://prashantiengg.com/", "rating": 4.2, "review_count": "", "latitude": 22.613792099999998, "longitude": 75.68907349999999, "maps_url": "https://www.google.com/maps/place/?q=place_id:0x396256403e4814d1:0x3ac3418031db49ba"}, {"place_id": "0x396256877c6df571:0xd046f0f12a79401f", "name": "Piramal Pharma Limited", "category": "Pharmaceutical company", "street": "plot 67", "city": "70", "phone": "07292428383", "website": "https://www.piramalpharmasolutions.com/", "rating": 4.3, "review_count": "", "latitude": 22.6280648, "longitude": 75.6670381, "maps_url": "https://www.google.com/maps/place/?q=place_id:0x396256877c6df571:0xd046f0f12a79401f"}]}