[{"place_id": "ChIJA6KtL5kCDTkR7wFe_OSD2bE", "name": "Omniscient IT Solutions Pvt. Ltd", "street": "4, 28, Saraswati Marg, Block 15A, WEA, Karol Bagh, New Delhi, Delhi, 110005, India", "phone": "+91 98110 27310", "rating": "4.6", "review_count": "", "website": "https://www.omniscientitsolutions.com/", "latitude": 28.646959, "longitude": 77.1882229, "maps_url": "https://www.google.com/maps/search/?api=1&query=Omniscient%20IT%20Solutions%20Pvt.%20Ltd&query_place_id=ChIJA6KtL5kCDTkR7wFe_OSD2bE"}, {"place_id": "ChIJPR796sD9DDkRLo5M9V9l1nA", "name": "Binarysoft Technologies (We bring IT)", "street": "1st Floor, 1626/33, Block 27F, Naiwala, Karol Bagh, Delhi, 110005, India", "phone": "+91 92054 71661", "rating": "5", "review_count": "", "website": "http://www.binarysoft.com/", "latitude": 28.647633, "longitude": 77.19496199999999, "maps_url": "https://www.google.com/maps/search/?api=1&query=Binarysoft%20Technologies%20%28We%20bring%20IT%29&query_place_id=ChIJPR796sD9DDkRLo5M9V9l1nA"}, {"place_id": "ChIJFeXlTZkCDTkRNw2aQAO8CNk", "name": "Himalayan IT Solutions | Best Website Designing Company in Delhi | SEO/Digital Marketing Company in Delhi NCR, India", "street": "61/4255, Padam Singh Rd, Block 29, Block 1, Regar Pura, Karol Bagh, Delhi, 110005, India", "phone": "+91 98990 98509", "rating": "3.9", "review_count": "", "website": "http://www.himalayanitsolutions.com/", "latitude": 28.649673999999997, "longitude": 77.186599, "maps_url": "https://www.google.com/maps/search/?api=1&query=Himalayan%20IT%20Solutions%20%7C%20Best%20Website%20Designing%20Company%20in%20Delhi%20%7C%20SEO/Digital%20Marketing%20Company%20in%20Delhi%20NCR%2C%20India&query_place_id=ChIJFeXlTZkCDTkRNw2aQAO8CNk"}, {"place_id": "ChIJXUaNbIEDDTkRGeQ542Caims", "name": "Paper Code Technologies", "street": "T-1871 D, Ashok Nagar Uppar Ridge Road Jhandewalan, Karol Bagh, New Delhi, Delhi 110055, India", "phone": "+91 85958 85110", "rating": "4.9", "review_count": "", "website": "https://papercodetech.com/", "latitude": 28.647361, "longitude": 77.2016883, "maps_url": "https://www.google.com/maps/search/?api=1&query=Paper%20Code%20Technologies&query_place_id=ChIJXUaNbIEDDTkRGeQ542Caims"}, {"place_id": "ChIJJS2nYJoCDTkR8ZKgzjgdREU", "name": "Payroll Software Companies", "street": "4/28, Ground Floor, Saraswati Marg, W.E.A, Karol Bagh, New Delhi, Delhi 110005, India", "phone": "+91 97111 95490", "rating": "4.3", "review_count": "", "website": "", "latitude": 28.6484551, "longitude": 77.1875826, "maps_url": "https://www.google.com/maps/search/?api=1&query=Payroll%20Software%20Companies&query_place_id=ChIJJS2nYJoCDTkR8ZKgzjgdREU"}, {"place_id": "ChIJL-nKSx0DDTkRYRIgQ0ZkHSo", "name": "OCPL Tech", "street": "Block 16, 16/17, Block 8, WEA, Karol Bagh, New Delhi, Delhi, 110005, India", "phone": "", "rating": "5", "review_count": "", "website": "https://ocpl.tech/", "latitude": 28.645553099999997, "longitude": 77.1931304, "maps_url": "https://www.google.com/maps/search/?api=1&query=OCPL%20Tech&query_place_id=ChIJL-nKSx0DDTkRYRIgQ0ZkHSo"}, {"place_id": "ChIJfZN93cADDTkR6jWSv-f1ECs", "name": "AYD AI Software", "street": "409, 4th Floor, Metro, 17A/10, Ajmal Khan Rd, near Karol Bagh, Block 7, Ghaffar Market, Block 24N, WEA, Karol Bagh, New Delhi, Delhi, 110005, India", "phone": "+91 62020 18140", "rating": "5", "review_count": "", "website": "https://www.aydpm.in/", "latitude": 28.6454983, "longitude": 77.18892629999999, "maps_url": "https://www.google.com/maps/search/?api=1&query=AYD%20AI%20Software&query_place_id=ChIJfZN93cADDTkR6jWSv-f1ECs"}, {"place_id": "ChIJUX61TOUCDTkRPmeqyd2Pcps", "name": "IT Solutions & Services (ITSS)", "street": "T–2425 Street Number 21, Baljeet Nagar, West Patel Nagar, New Delhi, Delhi 110008, India", "phone": "+91 88004 19462", "rating": "4.7", "review_count": "", "website": "https://www.itssin.com/", "latitude": 28.6576111, "longitude": 77.160708, "maps_url": "https://www.google.com/maps/search/?api=1&query=IT%20Solutions%20%26%20Services%20%28ITSS%29&query_place_id=ChIJUX61TOUCDTkRPmeqyd2Pcps"}, {"place_id": "ChIJB6AZSUD9DDkRuApv-5TZXZg", "name": "MMI Softwares Pvt. Ltd.", "street": "B-A4, 9/54, Namdhari Chamber, Desh Bandhu Gupta Rd, Block 53, Karol Bagh, New Delhi, Delhi 110005, India", "phone": "+91 99714 76501", "rating": "4.6", "review_count": "", "website": "http://www.mmsoftwares.com/", "latitude": 28.6536804, "longitude": 77.1916753, "maps_url": "https://www.google.com/maps/search/?api=1&query=MMI%20Softwares%20Pvt.%20Ltd.&query_place_id=ChIJB6AZSUD9DDkRuApv-5TZXZg"}, {"place_id": "ChIJL4BtX1wdDTkRIiNTpELCuuM", "name": "Nobilitas Infotech Pvt. Ltd. - IT Solutions Company", "street": "Padma Tower II, 210, Rajendra Place, New Delhi, Delhi 110005, India", "phone": "+91 84483 84926", "rating": "5", "review_count": "", "website": "https://www.nobilitasinfotech.com/", "latitude": 28.6451836, "longitude": 77.1780375, "maps_url": "https://www.google.com/maps/search/?api=1&query=Nobilitas%20Infotech%20Pvt.%20Ltd.%20-%20IT%20Solutions%20Company&query_place_id=ChIJL4BtX1wdDTkRIiNTpELCuuM"}, {"place_id": "ChIJSy2Jhp4CDTkR_0QSNabY9kM", "name": "Digital Marketing Agency, Software Development Company, SEO Services Company in Delhi", "street": "3rd Floor, 16/448, Block - I, Building Number, Military Rd, Karol Bagh, New Delhi, Delhi 110005, India", "phone": "+91 98183 53030", "rating": "5", "review_count": "", "website": "https://www.micromind.in/", "latitude": 28.655144999999997, "longitude": 77.18114899999999, "maps_url": "https://www.google.com/maps/search/?api=1&query=Digital%20Marketing%20Agency%2C%20Software%20Development%20Company%2C%20SEO%20Services%20Company%20in%20Delhi&query_place_id=ChIJSy2Jhp4CDTkR_0QSNabY9kM"}, {"place_id": "ChIJjUffFp8CDTkREotplOaqlJk", "name": "Elevate Bpo Services Pvt Ltd", "street": "17A/41 4th Floor, Block 10, WEA, Karol Bagh, New Delhi, Delhi 110005, India", "phone": "", "rating": "3.9", "review_count": "", "website": "", "latitude": 28.645699099999998, "longitude": 77.190501, "maps_url": "https://www.google.com/maps/search/?api=1&query=Elevate%20Bpo%20Services%20Pvt%20Ltd&query_place_id=ChIJjUffFp8CDTkREotplOaqlJk"}, {"place_id": "ChIJL_8v6Ff9DDkRPU1CYhmlTfw", "name": "CONCAT - Business Consulting Firms In India | vCXO | Digital Marketing & Lead Generation", "street": "1E/2, Block E 4, Jhandewalan Extension, Karol Bagh, New Delhi, Delhi 110055, India", "phone": "", "rating": "5", "review_count": "", "website": "https://concators.com/", "latitude": 28.6444406, "longitude": 77.2002596, "maps_url": "https://www.google.com/maps/search/?api=1&query=CONCAT%20-%20Business%20Consulting%20Firms%20In%20India%20%7C%20vCXO%20%7C%20Digital%20Marketing%20%26%20Lead%20Generation&query_place_id=ChIJL_8v6Ff9DDkRPU1CYhmlTfw"}, {"place_id": "ChIJyfb1OOIR2KoR8nFNkmeTt3U", "name": "One India Tax Solution", "street": "14A/62 Ground Flour, near Saar Inn Hotel, Block 14A, WEA, Karol Bagh, Delhi, 110005, India", "phone": "+91 88518 03660", "rating": "5", "review_count": "", "website": "", "latitude": 28.6450584, "longitude": 77.1860743, "maps_url": "https://www.google.com/maps/search/?api=1&query=One%20India%20Tax%20Solution&query_place_id=ChIJyfb1OOIR2KoR8nFNkmeTt3U"}, {"place_id": "ChIJDRRzVb0CDTkRlP5PKcQhYFM", "name": "Rishab Global Industries Pvt Ltd", "street": "11/2A, Pusa Rd, Block B, Karol Bagh, New Delhi, Delhi, 110005, India", "phone": "", "rating": "4.6", "review_count": "", "website": "", "latitude": 28.6438502, "longitude": 77.1880321, "maps_url": "https://www.google.com/maps/search/?api=1&query=Rishab%20Global%20Industries%20Pvt%20Ltd&query_place_id=ChIJDRRzVb0CDTkRlP5PKcQhYFM"}, {"place_id": "ChIJq6qqqvECDTkRKvc10Lm5XKw", "name": "Door Automations Pvt Ltd", "street": "1st Floor, W.E.A, Abdul Aziz Rd, Block 8, WEA, Karol Bagh, New Delhi, Delhi, 110005, India", "phone": "+91 98102 09770", "rating": "4.8", "review_count": "", "website": "http://www.doorautomations.com/", "latitude": 28.645454599999997, "longitude": 77.1919008, "maps_url": "https://www.google.com/maps/search/?api=1&query=Door%20Automations%20Pvt%20Ltd&query_place_id=ChIJq6qqqvECDTkRKvc10Lm5XKw"}, {"place_id": "ChIJn1yfM58CDTkRf47v2X5V6CQ", "name": "Vision BPO PVT Ltd", "street": "17A/9,2nd Floor,Ajmal Khan Road,Karol Bahg, Delhi, 110005, India", "phone": "", "rating": "3", "review_count": "", "website": "", "latitude": 28.6454545, "longitude": 77.1888944, "maps_url": "https://www.google.com/maps/search/?api=1&query=Vision%20BPO%20PVT%20Ltd&query_place_id=ChIJn1yfM58CDTkRf47v2X5V6CQ"}, {"place_id": "ChIJ4_QbqvQDDTkRUV17EnOsFkk", "name": "QSpiders Delhi", "street": "No. 8/3, Part, Fourth Floor, Western Extn Karol Bagh Colony, Rajender Nagar Ward, Zone, Karol Bagh, New Delhi, Delhi 110005, India", "phone": "+91 89519 38997", "rating": "4.7", "review_count": "", "website": "https://qspiders.com/", "latitude": 28.645386499999997, "longitude": 77.1922999, "maps_url": "https://www.google.com/maps/search/?api=1&query=QSpiders%20Delhi&query_place_id=ChIJ4_QbqvQDDTkRUV17EnOsFkk"}, {"place_id": "ChIJm4VQC0wDDTkRcXsrBXsHCQI", "name": "Winzid Technologies", "street": "4/62, 4, Old Rajinder Nagar, Rajinder Nagar, New Delhi, Delhi, 110060, India", "phone": "+91 98999 96839", "rating": "4", "review_count": "", "website": "http://www.winzid.com/", "latitude": 28.6410335, "longitude": 77.1879099, "maps_url": "https://www.google.com/maps/search/?api=1&query=Winzid%20Technologies&query_place_id=ChIJm4VQC0wDDTkRcXsrBXsHCQI"}, {"place_id": "ChIJdXCN3EEDDTkRoJINk8_fM1A", "name": "Ennod - IT Solutions", "street": "12-a/14, Saraswati Marg, Block 12A, WEA, Karol Bagh, New Delhi, Delhi, 110005, India", "phone": "+91 93105 55260", "rating": "", "review_count": "", "website": "https://ennod.com/", "latitude": 28.646982899999998, "longitude": 77.18712169999999, "maps_url": "https://www.google.com/maps/search/?api=1&query=Ennod%20-%20IT%20Solutions&query_place_id=ChIJdXCN3EEDDTkRoJINk8_fM1A"}, {"place_id": "ChIJEapBtmr9DDkRN0Fx2a9YFlU", "name": "The Berry Coworks - Jhandewalan", "street": "1-E/3, First Floor, Block E 1, Jhandewalan Extension, Jhandewalan, New Delhi, Delhi 110055, India", "phone": "+91 72908 11818", "rating": "4.8", "review_count": "", "website": "http://www.theberrycoworks.com/", "latitude": 28.644441699999998, "longitude": 77.2003972, "maps_url": "https://www.google.com/maps/search/?api=1&query=The%20Berry%20Coworks%20-%20Jhandewalan&query_place_id=ChIJEapBtmr9DDkRN0Fx2a9YFlU"}, {"place_id": "ChIJ2YGWfQIDDTkRe1c_iIHOFSg", "name": "Taxgoal", "street": "17A/56 2nd floor, Triveni Plaza, 204, WEA, Karol Bagh, New Delhi, Delhi 110005, India", "phone": "+91 91385 31153", "rating": "4.9", "review_count": "", "website": "https://taxgoal.in/", "latitude": 28.6461527, "longitude": 77.1902662, "maps_url": "https://www.google.com/maps/search/?api=1&query=Taxgoal&query_place_id=ChIJ2YGWfQIDDTkRe1c_iIHOFSg"}, {"place_id": "ChIJR8UMrJgCDTkRptHi-pY9gfU", "name": "Mapping Minds", "street": "Office No 109-110, 1st Floor, 4-B, Pusa Road, Near Karol Bagh Metro Station, Delhi, 110005, India", "phone": "+91 83739 94242", "rating": "4.4", "review_count": "", "website": "", "latitude": 28.643931, "longitude": 77.188502, "maps_url": "https://www.google.com/maps/search/?api=1&query=Mapping%20Minds&query_place_id=ChIJR8UMrJgCDTkRptHi-pY9gfU"}, {"place_id": "ChIJO5YpcJ8CDTkRmZQr_5gy77Q", "name": "MAAC KAROLBAGH", "street": "LOWER GROUND FLOOR, METRO STATION, 17, Pusa Rd, near KAROL BAGH, opp. PILLAR NO-94, Block 8, WEA, Karol Bagh, New Delhi, Delhi, 110005, India", "phone": "+91 95999 10801", "rating": "4.8", "review_count": "", "website": "https://maackarolbagh.com/", "latitude": 28.64474, "longitude": 77.191228, "maps_url": "https://www.google.com/maps/search/?api=1&query=MAAC%20KAROLBAGH&query_place_id=ChIJO5YpcJ8CDTkRmZQr_5gy77Q"}, {"place_id": "ChIJreMIla8DDTkR_1nRQfAIYfg", "name": "Hitage", "street": "15A/36, Office No. 209 2nd Floor, Saraswati Marg, Karol Bagh, Delhi, 110005, India", "phone": "+91 95825 53738", "rating": "3.7", "review_count": "", "website": "http://hitageindia.com/", "latitude": 28.6467368, "longitude": 77.1880505, "maps_url": "https://www.google.com/maps/search/?api=1&query=Hitage&query_place_id=ChIJreMIla8DDTkR_1nRQfAIYfg"}, {"place_id": "ChIJFzkmDJ4CDTkRej6TJKpG2e8", "name": "Dynamic Host", "street": "B-1, 15a/1, Prestige Chamber, Central, Block 15A, WEA, Karol Bagh, New Delhi, Delhi, 110005, India", "phone": "+91 99991 51984", "rating": "", "review_count": "", "website": "http://www.dynamichost.biz/", "latitude": 28.6456566, "longitude": 77.1880381, "maps_url": "https://www.google.com/maps/search/?api=1&query=Dynamic%20Host&query_place_id=ChIJFzkmDJ4CDTkRej6TJKpG2e8"}, {"place_id": "ChIJq6oaVZ8CDTkR2v2fzzCw5Zc", "name": "Avcs Systems India Pvt Ltd", "street": "Gate no 5, B1/8, Apsara Arcade, GF, Adjoining Karol Bagh Metro Station, Main, Pusa Rd, Delhi, 110005, India", "phone": "+91 98101 80410", "rating": "3.8", "review_count": "", "website": "http://www.zhiyunindia.com/", "latitude": 28.6437159, "longitude": 77.1889094, "maps_url": "https://www.google.com/maps/search/?api=1&query=Avcs%20Systems%20India%20Pvt%20Ltd&query_place_id=ChIJq6oaVZ8CDTkR2v2fzzCw5Zc"}, {"place_id": "ChIJ_f1Otz0FDTkRaULdKs4F6Dk", "name": "KARACT FILINGS", "street": "208, 2nd Floor, 2066/38-39, Gali Number 16, Pocket 29, Naiwala, Karol Bagh, New Delhi, Delhi, 110005, India", "phone": "+91 78629 92992", "rating": "5", "review_count": "", "website": "", "latitude": 28.6461729, "longitude": 77.19656859999999, "maps_url": "https://www.google.com/maps/search/?api=1&query=KARACT%20FILINGS&query_place_id=ChIJ_f1Otz0FDTkRaULdKs4F6Dk"}, {"place_id": "ChIJA_JAOmD9DDkRUTuRjOuh7BY", "name": "Click Mecha", "street": "Office no, 3, Arya Samaj Rd, near big biknervala, Block 18, WEA, Karol Bagh, New Delhi, Delhi, 110005, India", "phone": "+91 99990 08998", "rating": "4.9", "review_count": "", "website": "https://clickmecha.com/", "latitude": 28.646258999999997, "longitude": 77.195506, "maps_url": "https://www.google.com/maps/search/?api=1&query=Click%20Mecha&query_place_id=ChIJA_JAOmD9DDkRUTuRjOuh7BY"}]