{"timestamp": 1773730190.8830109, "keyword": "IT company", "location": "delhi", "cell_idx": 200, "results": [{"place_id": "0x390d1a34dce10001:0x81ee938136b1aabf", "name": "GANGATIKA TECHNOLOGIES PRIVATE LIMITED", "category": "Software company", "street": "Plot No. 551", "city": "Near, Holi Chowk Rd", "phone": "07838189178", "website": "", "rating": 4.4, "review_count": "", "latitude": 28.5355068, "longitude": 77.0551984, "maps_url": "https://www.google.com/maps/place/?q=place_id:0x390d1a34dce10001:0x81ee938136b1aabf"}, {"place_id": "0x390d1b8e5b6999a1:0x522ffbc2c7c23362", "name": "Techthastu Private Limited (Techthaastu)", "category": "Software company", "street": "Techthaastu Office, Pt. Mehru Marg, Outer Bharthal Firni road Bharthal Village", "city": "near Govt. Girls senior secondary School", "phone": "08383889042", "website": "https://www.techthaastu.com/", "rating": 5, "review_count": "", "latitude": 28.5403192, "longitude": 77.0524594, "maps_url": "https://www.google.com/maps/place/?q=place_id:0x390d1b8e5b6999a1:0x522ffbc2c7c23362"}, {"place_id": "0x390d1a5532eb800f:0xf2e1540348673db7", "name": "bitGain Technology Private Limited", "category": "Software company", "street": "Plot No 497", "city": "Bharthal, Sector 26 Dwarka, Bharthal", "phone": "09560002243", "website": "https://www.bitgaintech.com/", "rating": 4.7, "review_count": "", "latitude": 28.5467209, "longitude": 77.0473114, "maps_url": "https://www.google.com/maps/place/?q=place_id:0x390d1a5532eb800f:0xf2e1540348673db7"}, {"place_id": "0x390d1bf64609aa2d:0x4e317fa864029b55", "name": "IT Digitals We are providing all IT Services", "category": "Computer support and services", "street": "IT Digitals GHP", "city": "Rezang La Marg", "phone": "09821848522", "website": "http://www.itdigitals.in/", "rating": 5, "review_count": "", "latitude": 28.53125, "longitude": 77.0511162, "maps_url": "https://www.google.com/maps/place/?q=place_id:0x390d1bf64609aa2d:0x4e317fa864029b55"}, {"place_id": "0x390d1b0baba5d5ef:0x8e97bd9f00f59f69", "name": "AR IT Solutions", "category": "Computer repair service", "street": "opposite Axis Bank Branch", "city": "Bijwasan", "phone": "09015936236", "website": "", "rating": 5, "review_count": "", "latitude": 28.532836099999997, "longitude": 77.0544587, "maps_url": "https://www.google.com/maps/place/?q=place_id:0x390d1b0baba5d5ef:0x8e97bd9f00f59f69"}, {"place_id": "0x390d1b0010fc2321:0x12e9154c815cf007", "name": "Prashant Dwivedi IT company", "category": "Warehouse", "street": "G3P5+GVC", "city": "Nayak Pura, Bijwasan", "phone": "", "website": "", "rating": "", "review_count": "", "latitude": 28.536316, "longitude": 77.059649, "maps_url": "https://www.google.com/maps/place/?q=place_id:0x390d1b0010fc2321:0x12e9154c815cf007"}, {"place_id": "0x390d1a349bc7bb3d:0xd64477e2678d7633", "name": "PC Panda Technologies", "category": "Computer support and services", "street": "Plot No- 689, Ground Floor, Left Portion", "city": "Bijwasan", "phone": "09999969926", "website": "https://pcpanda.co.in/", "rating": 5, "review_count": "", "latitude": 28.5335944, "longitude": 77.0544709, "maps_url": "https://www.google.com/maps/place/?q=place_id:0x390d1a349bc7bb3d:0xd64477e2678d7633"}, {"place_id": "0x390d191100000001:0x424476192b3b5b5b", "name": "Binary Semantics Limited", "category": "Software company", "street": "PLot no", "city": "38", "phone": "08929156505", "website": "https://www.binarysemantics.com/", "rating": 3.7, "review_count": "", "latitude": 28.5018823, "longitude": 77.0701466, "maps_url": "https://www.google.com/maps/place/?q=place_id:0x390d191100000001:0x424476192b3b5b5b"}, {"place_id": "0x390ce458d0000001:0xf2123bd299ec4501", "name": "IT Company India", "category": "Software company", "street": "D56", "city": "D Block, Sector 10", "phone": "09999244854", "website": "https://www.itcompanyindia.in/", "rating": 4.7, "review_count": "", "latitude": 28.589917699999997, "longitude": 77.3351153, "maps_url": "https://www.google.com/maps/place/?q=place_id:0x390ce458d0000001:0xf2123bd299ec4501"}, {"place_id": "0x390d181b03ac9f6f:0x3ec5a92a519f94ad", "name": "Daffodil Software", "category": "Software company", "street": "9th Floor, Tower B1, DLF", "city": "World Tech Park", "phone": "01246817000", "website": "https://www.daffodilsw.com/", "rating": 4.1, "review_count": "", "latitude": 28.465191599999997, "longitude": 77.0564785, "maps_url": "https://www.google.com/maps/place/?q=place_id:0x390d181b03ac9f6f:0x3ec5a92a519f94ad"}, {"place_id": "0x390d013ca8ac1387:0x8a0db85b518267d5", "name": "NexGen Innovators", "category": "Software company", "street": "114B, 3rd floor, Dwarka Mor", "city": "New Delhi, Delhi 110059", "phone": "", "website": "https://www.nexgi.com/", "rating": 4.9, "review_count": "", "latitude": 28.618961, "longitude": 77.0322202, "maps_url": "https://www.google.com/maps/place/?q=place_id:0x390d013ca8ac1387:0x8a0db85b518267d5"}, {"place_id": "0x390d1b0c3aa46697:0xeefa918c7536c424", "name": "Corporate Solutions", "category": "Contractor", "street": "Najafgarh Kapashera Rd", "city": "Dalmia Vihar, Bijwasan", "phone": "08800387101", "website": "", "rating": 4.9, "review_count": "", "latitude": 28.533554199999998, "longitude": 77.058829, "maps_url": "https://www.google.com/maps/place/?q=place_id:0x390d1b0c3aa46697:0xeefa918c7536c424"}, {"place_id": "0x390d19440bc59efb:0xda6549686148f7b4", "name": "PerfectionGeeks Technologies", "category": "Software company", "street": "Plot 378-379, Udyog Vihar Phase 4 Rd", "city": "near nokia building", "phone": "08920947884", "website": "http://www.perfectiongeeks.com/", "rating": 4.9, "review_count": "", "latitude": 28.5002221, "longitude": 77.0730516, "maps_url": "https://www.google.com/maps/place/?q=place_id:0x390d19440bc59efb:0xda6549686148f7b4"}, {"place_id": "0x390d195e4483ae05:0xec67b2579bb38803", "name": "eXtendCode - Software Development Company", "category": "Software company", "street": "Plot 63, Second Floor, Udyog Vihar Phase -1,", "city": "Gurugram, Haryana 122016", "phone": "01244261219", "website": "http://www.extendcode.com/", "rating": 4.1, "review_count": "", "latitude": 28.514535199999997, "longitude": 77.0815075, "maps_url": "https://www.google.com/maps/place/?q=place_id:0x390d195e4483ae05:0xec67b2579bb38803"}, {"place_id": "0x390d1bcb2d006f1d:0x83ded1552f902fa4", "name": "Emiza Supply Chain Services Pvt. Ltd", "category": "Warehouse", "street": "715", "city": "Nayak Pura, Bijwasan", "phone": "08097448884", "website": "http://www.emizainc.com/", "rating": 4.1, "review_count": "", "latitude": 28.535572, "longitude": 77.0568334, "maps_url": "https://www.google.com/maps/place/?q=place_id:0x390d1bcb2d006f1d:0x83ded1552f902fa4"}, {"place_id": "0x390d1c3fadaf436b:0x7da80df34b6cc628", "name": "Acelema It Solutions Pvt. Ltd", "category": "Software company", "street": "L 357, 1st Floor", "city": "Gurgaon - Delhi Expy", "phone": "09015904466", "website": "https://www.acelema.com/", "rating": 5, "review_count": "", "latitude": 28.5456917, "longitude": 77.1231365, "maps_url": "https://www.google.com/maps/place/?q=place_id:0x390d1c3fadaf436b:0x7da80df34b6cc628"}, {"place_id": "0x390d1b0ad6565c37:0x9ee772d45ffed70d", "name": "IOTtech Softwares", "category": "Software company", "street": "First & Second Floor", "city": "Lucky Plaza", "phone": "08034798583", "website": "", "rating": 4.9, "review_count": "", "latitude": 28.5847981, "longitude": 77.07323199999999, "maps_url": "https://www.google.com/maps/place/?q=place_id:0x390d1b0ad6565c37:0x9ee772d45ffed70d"}, {"place_id": "0x390d1b86b6b5582d:0x36c722e124b57be8", "name": "kdrsoft Technologies - website designing company in delhi", "category": "Website designer", "street": "2nd Floor", "city": "Manish Global Mall", "phone": "09910258463", "website": "https://www.kdrsoft.com/", "rating": 4.9, "review_count": "", "latitude": 28.559937299999998, "longitude": 77.0596687, "maps_url": "https://www.google.com/maps/place/?q=place_id:0x390d1b86b6b5582d:0x36c722e124b57be8"}, {"place_id": "0x390cfd00fd453a1b:0x9b04afa48c2538ec", "name": "Inwoin Technologies Pvt. Ltd.", "category": "Software company", "street": "Building No. 309", "city": "310", "phone": "", "website": "http://www.inwoin.com/", "rating": 4.5, "review_count": "", "latitude": 28.4999559, "longitude": 77.07965879999999, "maps_url": "https://www.google.com/maps/place/?q=place_id:0x390cfd00fd453a1b:0x9b04afa48c2538ec"}, {"place_id": "0x390d1923af5d91ed:0xbe103b16161f5631", "name": "Condeco Software Private Limited", "category": "Software company", "street": "Tower C", "city": "4th floor building 10", "phone": "01244760150", "website": "http://www.condecosoftware.com/apac", "rating": 4.3, "review_count": "", "latitude": 28.4940696, "longitude": 77.0885457, "maps_url": "https://www.google.com/maps/place/?q=place_id:0x390d1923af5d91ed:0xbe103b16161f5631"}, {"place_id": "0x390d19298db2fb35:0xcaa0d46737c4561c", "name": "MLM Software Developer | Sunny citrix", "category": "Software company", "street": "office no 427C, 4th floor, vashisht complex", "city": "Sikanderpur", "phone": "07906059336", "website": "http://sunnycitrix.com/", "rating": 4.8, "review_count": "", "latitude": 28.4816798, "longitude": 77.09770569999999, "maps_url": "https://www.google.com/maps/place/?q=place_id:0x390d19298db2fb35:0xcaa0d46737c4561c"}, {"place_id": "0x390d192f80e784d3:0x2c271ddf93d663b4", "name": "Tranciscolabs | Mobile App Development Company | Web Development Company", "category": "Software company", "street": "Park", "city": "RGREP", "phone": "09580174570", "website": "https://tranciscolabs.com/", "rating": 4.4, "review_count": "", "latitude": 28.4695091, "longitude": 77.06860209999999, "maps_url": "https://www.google.com/maps/place/?q=place_id:0x390d192f80e784d3:0x2c271ddf93d663b4"}, {"place_id": "0x390d1b03afd847d1:0x3f8589776214e47b", "name": "Techbizz - IT Solutions", "category": "Software company", "street": "1st floor", "city": "Najafgarh Kapashera Rd", "phone": "08130622472", "website": "", "rating": 5, "review_count": "", "latitude": 28.5325596, "longitude": 77.0540195, "maps_url": "https://www.google.com/maps/place/?q=place_id:0x390d1b03afd847d1:0x3f8589776214e47b"}, {"place_id": "0x390d1b1fb85c71ed:0x1aa4ba2a08b02c1d", "name": "Tecmicra Solutions - Software, Website Development & Digital Marketing Company", "category": "Software company", "street": "Floor, D410", "city": "3rd", "phone": "07042387253", "website": "https://tecmicra.co.in/", "rating": 5, "review_count": "", "latitude": 28.5849324, "longitude": 77.071085, "maps_url": "https://www.google.com/maps/place/?q=place_id:0x390d1b1fb85c71ed:0x1aa4ba2a08b02c1d"}, {"place_id": "0x390d1b8802c225d9:0x4ccc6fe7477bb7c7", "name": "ABZ Healthcare", "category": "Medical Equipment Manufacturer", "street": "519/2/1", "city": "Sector 26 Dwarka, Industrial Area", "phone": "02912745788", "website": "https://abzhealthcare.com/", "rating": 5, "review_count": "", "latitude": 28.5391461, "longitude": 77.05133289999999, "maps_url": "https://www.google.com/maps/place/?q=place_id:0x390d1b8802c225d9:0x4ccc6fe7477bb7c7"}, {"place_id": "0x390d19174792f4db:0xcb5f589caa71b6e7", "name": "Knocial India Limited", "category": "Software company", "street": "60B", "city": "Udyog Vihar, Sector 22", "phone": "09354120847", "website": "https://www.knocialindia.com/", "rating": 4.7, "review_count": "", "latitude": 28.504239499999997, "longitude": 77.0651981, "maps_url": "https://www.google.com/maps/place/?q=place_id:0x390d19174792f4db:0xcb5f589caa71b6e7"}, {"place_id": "0x390d1b9635783119:0xa0c311b3d48bd0c5", "name": "Paradise Logistics Delhi NCR - E Waste And Recycling Transport | Exhibition Goods Transport | Logistics Service In Delhi NCR", "category": "Transportation service", "street": "Khasra No: 49/4", "city": "Paradise House", "phone": "09610002064", "website": "https://www.paradiselogistics.co.in/logistics-company-delhi/", "rating": 5, "review_count": "", "latitude": 28.535973199999997, "longitude": 77.0577575, "maps_url": "https://www.google.com/maps/place/?q=place_id:0x390d1b9635783119:0xa0c311b3d48bd0c5"}, {"place_id": "0x390d1b552b2a3765:0x2061ae697a1af902", "name": "Frontinweb - Digital Marketing Agency", "category": "Website designer", "street": "near Flyover Bridge", "city": "Harijan Basti, Bijwasan", "phone": "08178091059", "website": "https://frontinweb.com/", "rating": 4.9, "review_count": "", "latitude": 28.532526899999997, "longitude": 77.0530587, "maps_url": "https://www.google.com/maps/place/?q=place_id:0x390d1b552b2a3765:0x2061ae697a1af902"}, {"place_id": "0x390d1b9fb7e91a73:0xe53091104de76396", "name": "DLF Safe Packers & Movers", "category": "Packaging company", "street": "Plot No 484, Bijwasan Railway Station Rd", "city": "Sector 27 Dwarka, Dwarka", "phone": "09891510051", "website": "http://www.dlfsafepackers.in/", "rating": 4.8, "review_count": "", "latitude": 28.5361923, "longitude": 77.0488991, "maps_url": "https://www.google.com/maps/place/?q=place_id:0x390d1b9fb7e91a73:0xe53091104de76396"}, {"place_id": "0x390d1bbd14a92329:0x69ccddf6d89ff", "name": "PMPA SOFTTECH PVT. LTD.", "category": "Software company", "street": "6/A6", "city": "Pocket-8, Sector 23b, Dwarka", "phone": "07073003833", "website": "", "rating": 4.5, "review_count": "", "latitude": 28.563591799999998, "longitude": 77.0417138, "maps_url": "https://www.google.com/maps/place/?q=place_id:0x390d1bbd14a92329:0x69ccddf6d89ff"}, {"place_id": "0x2a72b8b69d7b6493:0x11251466d4d34cac", "name": "WebZonal IT Company", "category": "Website designer", "street": "Wz-258/2-3, D Block Rd", "city": "Khazan Basti, Nangal Raya, Janakpuri", "phone": "09811170903", "website": "http://webzonal.com/", "rating": 5, "review_count": "", "latitude": 28.6122102, "longitude": 77.11159549999999, "maps_url": "https://www.google.com/maps/place/?q=place_id:0x2a72b8b69d7b6493:0x11251466d4d34cac"}, {"place_id": "0x390ce3c153b89811:0xe7a279685777e9ca", "name": "IT Company", "category": "Automation company", "street": "A-14", "city": "near iskcon temple", "phone": "", "website": "http://www.opuswiz.com/", "rating": 3, "review_count": "", "latitude": 28.557167, "longitude": 77.25424819999999, "maps_url": "https://www.google.com/maps/place/?q=place_id:0x390ce3c153b89811:0xe7a279685777e9ca"}, {"place_id": "0x390fef4fa25e93a1:0xe15860d4b546f938", "name": "Raju Bros Softech Private Limited", "category": "Software company", "street": "A BLOCK", "city": "A-4B, Bajghera Rd", "phone": "08826273552", "website": "https://www.rajubros.com/", "rating": 5, "review_count": "", "latitude": 28.512082099999997, "longitude": 77.0251842, "maps_url": "https://www.google.com/maps/place/?q=place_id:0x390fef4fa25e93a1:0xe15860d4b546f938"}, {"place_id": "0x390d198f62c557d7:0x4b037444663d7f50", "name": "Triyuga Soft Tech Pvt Ltd | IT Company in Gurgaon | Digital Marketing Company in Gurgaon", "category": "Software company", "street": "Shop No : 4", "city": "Main, Bajghera Rd", "phone": "09999699936", "website": "https://www.triyugasofttech.com/", "rating": "", "review_count": "", "latitude": 28.495755199999998, "longitude": 77.011887, "maps_url": "https://www.google.com/maps/place/?q=place_id:0x390d198f62c557d7:0x4b037444663d7f50"}, {"place_id": "0x390d1a357de29047:0x395c016b991bf689", "name": "AMIT CYBER CAFE BIJWASAN", "category": "Internet cafe", "street": "G3Q3+GHF", "city": "Bijwasan Flyover", "phone": "08800997917", "website": "http://behappyamit.blogspot.com/2011/04/blog-post.html", "rating": 4.4, "review_count": "", "latitude": 28.5388152, "longitude": 77.0539311, "maps_url": "https://www.google.com/maps/place/?q=place_id:0x390d1a357de29047:0x395c016b991bf689"}, {"place_id": "0x390d1981bffb1f6b:0xf891b0df53e98e19", "name": "Ketaki Technologies", "category": "Software company", "street": "Pocket F, Sector 2, Palam Vihar", "city": "Gurugram, Haryana 122017", "phone": "09667435592", "website": "https://sites.google.com/view/ketaki-and-rohit-technologies", "rating": 5, "review_count": "", "latitude": 28.5127843, "longitude": 77.0369834, "maps_url": "https://www.google.com/maps/place/?q=place_id:0x390d1981bffb1f6b:0xf891b0df53e98e19"}, {"place_id": "0x390d19437cb628b3:0x12e71803eb09ac16", "name": "Clavax Technologies", "category": "Software company", "street": "727", "city": "Udyog Vihar, Phase 5", "phone": "+18444252829", "website": "http://www.clavax.com/", "rating": 4.1, "review_count": "", "latitude": 28.5052123, "longitude": 77.0850025, "maps_url": "https://www.google.com/maps/place/?q=place_id:0x390d19437cb628b3:0x12e71803eb09ac16"}, {"place_id": "0x390d1b07258b26f1:0x8226854068152e3e", "name": "Softcom Technologies - Web Designing Company in Delhi", "category": "Website designer", "street": "S-89, Manish Global Mall", "city": "Sector 22 Dwarka, Dwarka", "phone": "09910258463", "website": "https://www.softcomtechnologies.com/", "rating": 5, "review_count": "", "latitude": 28.559992299999998, "longitude": 77.0596212, "maps_url": "https://www.google.com/maps/place/?q=place_id:0x390d1b07258b26f1:0x8226854068152e3e"}, {"place_id": "0x390d1a493fffffff:0xccc30f6109e38c6", "name": "Spencer India Technologies Private Limited", "category": "Medical equipment supplier", "street": "Ground Floor", "city": "Plot No. 291", "phone": "09999775664", "website": "http://spencer-india.com/", "rating": 5, "review_count": "", "latitude": 28.540011699999997, "longitude": 77.0525572, "maps_url": "https://www.google.com/maps/place/?q=place_id:0x390d1a493fffffff:0xccc30f6109e38c6"}, {"place_id": "0x390d192409eb1411:0xbf1f68f4b2dd1d69", "name": "Appicia Technologies", "category": "Software company", "street": "Third floor", "city": "Ashirwad", "phone": "08076917265", "website": "https://appicia.com/", "rating": 5, "review_count": "", "latitude": 28.4885505, "longitude": 77.01963889999999, "maps_url": "https://www.google.com/maps/place/?q=place_id:0x390d192409eb1411:0xbf1f68f4b2dd1d69"}, {"place_id": "0x390d195c26bfa369:0x69bd8efd2e3a31fe", "name": "Radical Minds Technologies Pvt. Ltd.", "category": "BPO Company", "street": "368", "city": "Phase II, Udyog Vihar, Sector 20", "phone": "01244338366", "website": "http://www.radicalminds.in/", "rating": 4.2, "review_count": "", "latitude": 28.506335099999998, "longitude": 77.0877546, "maps_url": "https://www.google.com/maps/place/?q=place_id:0x390d195c26bfa369:0x69bd8efd2e3a31fe"}, {"place_id": "0x390d1ba1967bef81:0x926b8c4f43f6ba12", "name": "Simply Logistics Private Limited", "category": "Logistics service", "street": "KH. No. 566/1", "city": "Arun Plaza", "phone": "", "website": "https://simplylogistics.in/", "rating": 4.8, "review_count": "", "latitude": 28.5330253, "longitude": 77.0595728, "maps_url": "https://www.google.com/maps/place/?q=place_id:0x390d1ba1967bef81:0x926b8c4f43f6ba12"}, {"place_id": "0x390d195b233aaaab:0x416cb7b74c179f86", "name": "Trantor Software Pvt Ltd.", "category": "Corporate office", "street": "2nd floor, 91 Springboard, Business Hub Private Limited", "city": "Cabin 2", "phone": "06506467818", "website": "http://trantorinc.com/", "rating": 4.1, "review_count": "", "latitude": 28.486732399999998, "longitude": 77.0745902, "maps_url": "https://www.google.com/maps/place/?q=place_id:0x390d195b233aaaab:0x416cb7b74c179f86"}, {"place_id": "0x390d191598f48ef3:0x70991b4ff870f05d", "name": "Shree Partners LLC", "category": "Software company", "street": "1, Tower A, Building, Cyber City", "city": "Corporate Edge Level", "phone": "01246728815", "website": "https://www.shreepartners.com/", "rating": 4.3, "review_count": "", "latitude": 28.4936018, "longitude": 77.088325, "maps_url": "https://www.google.com/maps/place/?q=place_id:0x390d191598f48ef3:0x70991b4ff870f05d"}, {"place_id": "0x390d02e520aee25b:0x322870f3355c7f4b", "name": "Delphi Infotech (Cybersecurity & Cloud Solutions)", "category": "Software company", "street": "225A, D-21", "city": "Corporate Park", "phone": "01145075151", "website": "https://www.delphiinfo.com/", "rating": 4.2, "review_count": "", "latitude": 28.5618181, "longitude": 77.0670596, "maps_url": "https://www.google.com/maps/place/?q=place_id:0x390d02e520aee25b:0x322870f3355c7f4b"}, {"place_id": "0x390d191d0bb8a9db:0xf6295047e107a843", "name": "Robust Infotech - IT Services | Digital Transformation | Best Website/Software Development Company", "category": "Software company", "street": "90B, Delhi - Jaipur Expy", "city": "Nitin Vihar, Udyog Vihar, Sector 18", "phone": "07982914476", "website": "", "rating": 5, "review_count": "", "latitude": 28.441292299999997, "longitude": 77.0148859, "maps_url": "https://www.google.com/maps/place/?q=place_id:0x390d191d0bb8a9db:0xf6295047e107a843"}, {"place_id": "0x390d1905cf9418ab:0x68c73ef2c55c6a92", "name": "Dixinfotech | Best Web Development Company in Gurgaon", "category": "Software company", "street": "Plot No. 96, 1st Floor", "city": "Udyog Vihar Phase 1, Sector 20", "phone": "09717106162", "website": "https://www.dixinfotech.com/website-designing-company-in-gurgaon", "rating": 5, "review_count": "", "latitude": 28.5169219, "longitude": 77.0803425, "maps_url": "https://www.google.com/maps/place/?q=place_id:0x390d1905cf9418ab:0x68c73ef2c55c6a92"}, {"place_id": "0x390d1946a4b0d01f:0xab23cbaa408b3b9c", "name": "Tagbin Services Pvt. Ltd. \u2013 Best AI & Experiential Tech Company in Gurgaon", "category": "Software company", "street": "3rd Floor, Wing A, Enkay Centre", "city": "Vaniya Kunj", "phone": "08178112682", "website": "https://tagbin.in/", "rating": 4.2, "review_count": "", "latitude": 28.4974691, "longitude": 77.08654609999999, "maps_url": "https://www.google.com/maps/place/?q=place_id:0x390d1946a4b0d01f:0xab23cbaa408b3b9c"}, {"place_id": "0x390d1b8d94bfebb9:0xdbd74207ae3d35e7", "name": "SysTools Software Pvt Ltd", "category": "Software company", "street": "City Centre", "city": "528", "phone": "06230830862", "website": "https://www.systoolsgroup.com/", "rating": 4.5, "review_count": "", "latitude": 28.5921344, "longitude": 77.0417265, "maps_url": "https://www.google.com/maps/place/?q=place_id:0x390d1b8d94bfebb9:0xdbd74207ae3d35e7"}, {"place_id": "0x390ce1877a5ef8eb:0xd5abb94a30425144", "name": "Plusone Technologies Private Limited", "category": "Software company", "street": "Phase IV, Udyog Vihar, Sector 18", "city": "Gurugram, Haryana 122015", "phone": "09891387094", "website": "https://www.plusonetech.co/", "rating": 4.7, "review_count": "", "latitude": 28.4941475, "longitude": 77.0808448, "maps_url": "https://www.google.com/maps/place/?q=place_id:0x390ce1877a5ef8eb:0xd5abb94a30425144"}, {"place_id": "0x390d1a3542ee9f93:0x3dac91a6321e328", "name": "SG ENTERPRISES", "category": "Computer networking service", "street": "Plot No. 61A", "city": "near Century Public School", "phone": "09560945175", "website": "", "rating": 4.5, "review_count": "", "latitude": 28.533788899999998, "longitude": 77.0581515, "maps_url": "https://www.google.com/maps/place/?q=place_id:0x390d1a3542ee9f93:0x3dac91a6321e328"}, {"place_id": "0x390d1960c2b8367f:0xd2d30e45ac71acea", "name": "Vorombetech Solutions - Top IT & Digitalization Service Company in Gurugram", "category": "Software company", "street": "249", "city": "Phase IV, Udyog Vihar, Sector 19", "phone": "", "website": "https://vorombetech.com/", "rating": 4.8, "review_count": "", "latitude": 28.4941475, "longitude": 77.0808448, "maps_url": "https://www.google.com/maps/place/?q=place_id:0x390d1960c2b8367f:0xd2d30e45ac71acea"}, {"place_id": "0x448aa981f5f4e8af:0x24d0bd0e978530df", "name": "Tech Rajendra", "category": "Software company", "street": "3rd Floor", "city": "Plot no. 190, Golf Course Rd", "phone": "09540020546", "website": "https://www.techrajendra.com/", "rating": 4.5, "review_count": "", "latitude": 28.586822299999998, "longitude": 77.0276827, "maps_url": "https://www.google.com/maps/place/?q=place_id:0x448aa981f5f4e8af:0x24d0bd0e978530df"}, {"place_id": "0x390d192fc20b97e7:0x3048b25634f6d955", "name": "Nagarro", "category": "Software company", "street": "Plot 6B, Sub. Major Laxmi Chand Rd", "city": "Maruti Udyog, Sector 18", "phone": "", "website": "https://www.nagarro.com/en", "rating": 4.5, "review_count": "", "latitude": 28.491098599999997, "longitude": 77.0673492, "maps_url": "https://www.google.com/maps/place/?q=place_id:0x390d192fc20b97e7:0x3048b25634f6d955"}, {"place_id": "0x390ce3b5c2a11543:0xc4df0cd95534bf85", "name": "LimeTray", "category": "Software company", "street": "2nd Floor", "city": "815", "phone": "", "website": "https://limetray.com/", "rating": 3.6, "review_count": "", "latitude": 28.5015508, "longitude": 77.08626919999999, "maps_url": "https://www.google.com/maps/place/?q=place_id:0x390ce3b5c2a11543:0xc4df0cd95534bf85"}, {"place_id": "0x390d1bbce0c510a9:0x35adc335e65a9136", "name": "ITL Movers Private Limited", "category": "Transportation service", "street": "Plot no. 341C", "city": "Bharthal, Sector 26 Dwarka, Dwarka", "phone": "", "website": "https://itlmovers.com/", "rating": 4.2, "review_count": "", "latitude": 28.542717399999997, "longitude": 77.04925039999999, "maps_url": "https://www.google.com/maps/place/?q=place_id:0x390d1bbce0c510a9:0x35adc335e65a9136"}, {"place_id": "0x390d19361c56cecd:0x50517af3dc928d70", "name": "Mycom", "category": "Software company", "street": "7th Floor", "city": "Building 8b", "phone": "01244508000", "website": "http://www.mycom-osi.com/", "rating": 4.3, "review_count": "", "latitude": 28.4982059, "longitude": 77.0900367, "maps_url": "https://www.google.com/maps/place/?q=place_id:0x390d19361c56cecd:0x50517af3dc928d70"}, {"place_id": "0x390d1ba500f7b459:0x92961acb7c5c5893", "name": "QUCCIBERRY", "category": "E-commerce service", "street": "183, Delh", "city": "Dalan Mohalla, Nayak Pura, Bijwasan", "phone": "", "website": "http://qucciberry.com/", "rating": 4.8, "review_count": "", "latitude": 28.5342652, "longitude": 77.051087, "maps_url": "https://www.google.com/maps/place/?q=place_id:0x390d1ba500f7b459:0x92961acb7c5c5893"}, {"place_id": "0x390d1b8a15474bc3:0xb4a1281eb8af2e29", "name": "Virat electronics", "category": "Wire and cable supplier", "street": "old water tank", "city": "Harijan Basti, Bijwasan", "phone": "07840842648", "website": "", "rating": 5, "review_count": "", "latitude": 28.532526899999997, "longitude": 77.0530586, "maps_url": "https://www.google.com/maps/place/?q=place_id:0x390d1b8a15474bc3:0xb4a1281eb8af2e29"}, {"place_id": "0x390d1b693cf14539:0xab0df4d03ea6b05d", "name": "A-one Cargo Movers", "category": "Packaging company", "street": "Plot No. 439, Near Railway Crossing, Bijwasan, New Delhi", "city": "Sector 26 Dwarka, Dwarka", "phone": "09910925991", "website": "https://aonecargomovers.com/", "rating": 4.5, "review_count": "", "latitude": 28.535521, "longitude": 77.0480269, "maps_url": "https://www.google.com/maps/place/?q=place_id:0x390d1b693cf14539:0xab0df4d03ea6b05d"}, {"place_id": "0x390d1b62e503a6b7:0x295aef12c711a9de", "name": "Agarwal logistic Packers And Movers", "category": "Packaging company", "street": "Bijwasan Railway Station Rd", "city": "Sector 27 Dwarka, Dwarka", "phone": "07303625426", "website": "https://www.alpmpackers.in/", "rating": 4.9, "review_count": "", "latitude": 28.5360648, "longitude": 77.0485928, "maps_url": "https://www.google.com/maps/place/?q=place_id:0x390d1b62e503a6b7:0x295aef12c711a9de"}, {"place_id": "0x390d05c8987801e5:0x128e04dce6c4cbc4", "name": "Matrix Infotech Solution | Software Development Company", "category": "Software company", "street": "j j", "city": "Dwarka Mor, Block WE, Mohan Garden, Razapur Khurd", "phone": "08920817059", "website": "http://www.matrixinfotechsolution.com/", "rating": 3.9, "review_count": "", "latitude": 28.637037, "longitude": 77.0291258, "maps_url": "https://www.google.com/maps/place/?q=place_id:0x390d05c8987801e5:0x128e04dce6c4cbc4"}, {"place_id": "0x390d190b8996b54d:0xa4d9ad7263547701", "name": "Company", "category": "Corporate office", "street": "The Coworking Space", "city": "A-14/15 DLF Phase 1, Sector 26 A Truworx", "phone": "01140844560", "website": "https://www.quickcompany.in/", "rating": 4.1, "review_count": "", "latitude": 28.474366699999997, "longitude": 77.0943154, "maps_url": "https://www.google.com/maps/place/?q=place_id:0x390d190b8996b54d:0xa4d9ad7263547701"}, {"place_id": "0x390d19404f4f65d5:0xc7a5e785eb2e8ef6", "name": "Infodart Technologies Ltd", "category": "Software company", "street": "2nd floor", "city": "plot no 254", "phone": "", "website": "https://www.infodartglobal.com/", "rating": 4, "review_count": "", "latitude": 28.4979135, "longitude": 77.0815518, "maps_url": "https://www.google.com/maps/place/?q=place_id:0x390d19404f4f65d5:0xc7a5e785eb2e8ef6"}, {"place_id": "0x390d1b9e6bd3aa6d:0xa0d1d1b35f47fc8", "name": "Atri Packaging", "category": "Packaging company", "street": "G2RW+FHX", "city": "Bharthal, Bharthal Village, Dwarka", "phone": "", "website": "", "rating": 5, "review_count": "", "latitude": 28.541234799999998, "longitude": 77.0464925, "maps_url": "https://www.google.com/maps/place/?q=place_id:0x390d1b9e6bd3aa6d:0xa0d1d1b35f47fc8"}, {"place_id": "0x390d1a35596479d1:0x1ff326670d726b1", "name": "Satish Electronics", "category": "Electronics repair shop", "street": "22, Ambedkar Colony", "city": "Dr. Ambedker Colony, Nayak Pura, Bijwasan", "phone": "09210823968", "website": "", "rating": 4.3, "review_count": "", "latitude": 28.538694699999997, "longitude": 77.055421, "maps_url": "https://www.google.com/maps/place/?q=place_id:0x390d1a35596479d1:0x1ff326670d726b1"}, {"place_id": "0x390d1bf08bbb9481:0xbcac1be9efc4ba72", "name": "B.R.L Packers & Movers", "category": "Packaging company", "street": "H.NO", "city": "129", "phone": "09310067726", "website": "https://brlpackersmovers.in/", "rating": 4.5, "review_count": "", "latitude": 28.5342566, "longitude": 77.04817919999999, "maps_url": "https://www.google.com/maps/place/?q=place_id:0x390d1bf08bbb9481:0xbcac1be9efc4ba72"}, {"place_id": "0x29182cd90b477205:0xafbdc18388b8d100", "name": "Ananta Technology - IT Company", "category": "Web hosting company", "street": "RZB-214, Old Mehrauli Rd", "city": "Palam Colony, Part - I, Raj Nagar", "phone": "", "website": "https://anantatechnology.com/", "rating": 5, "review_count": "", "latitude": 28.584313899999998, "longitude": 77.0862543, "maps_url": "https://www.google.com/maps/place/?q=place_id:0x29182cd90b477205:0xafbdc18388b8d100"}, {"place_id": "0x390d1bf55c77b3b7:0x6b09851491e8960b", "name": "Paradise Packers & Movers Delhi | Best Movers and Packers | Packers and Movers | In Delhi", "category": "Packaging company", "street": "Khasra No. 49/1", "city": "Plot No. 552, Holi Chowk Rd", "phone": "09610009061", "website": "https://paradisepackers.in/packers-and-movers-in-delhi/", "rating": 4.9, "review_count": "", "latitude": 28.5359567, "longitude": 77.0576634, "maps_url": "https://www.google.com/maps/place/?q=place_id:0x390d1bf55c77b3b7:0x6b09851491e8960b"}, {"place_id": "0x390d1bcb616a6605:0xdaef9674760130b4", "name": "Home Shift Packers & Movers", "category": "Corporate office", "street": "Khasra No-236/1, 1st Floor , Pillor no-15", "city": "Main Rd", "phone": "09355655113", "website": "http://homeshiftpackers.com/", "rating": 4.3, "review_count": "", "latitude": 28.533746299999997, "longitude": 77.0581684, "maps_url": "https://www.google.com/maps/place/?q=place_id:0x390d1bcb616a6605:0xdaef9674760130b4"}, {"place_id": "0x390d193c3a36e523:0xe68f8d2568faeaad", "name": "Espire Infolabs Pvt. Ltd.", "category": "Software company", "street": "486 & 487", "city": "Phase III, Udyog Vihar III, Sector 20", "phone": "01247173000", "website": "http://www.espire.com/", "rating": 4.1, "review_count": "", "latitude": 28.5119516, "longitude": 77.0899661, "maps_url": "https://www.google.com/maps/place/?q=place_id:0x390d193c3a36e523:0xe68f8d2568faeaad"}, {"place_id": "0x390d193ff211b3fb:0xd964ffb67296e058", "name": "IStrat Software Pvt. Ltd.", "category": "Software company", "street": "90D,", "city": "Udyog Vihar Phase IV, Sector 18", "phone": "01244121000", "website": "", "rating": 3.8, "review_count": "", "latitude": 28.485205399999998, "longitude": 77.0740924, "maps_url": "https://www.google.com/maps/place/?q=place_id:0x390d193ff211b3fb:0xd964ffb67296e058"}, {"place_id": "0x390d197810cfea33:0xe321cb37dcd3c67f", "name": "Back2stores Technologies Pvt Ltd", "category": "Software company", "street": "D 602, border", "city": "near kapashera", "phone": "", "website": "http://back2stores.com/", "rating": 4.3, "review_count": "", "latitude": 28.5181795, "longitude": 77.0772691, "maps_url": "https://www.google.com/maps/place/?q=place_id:0x390d197810cfea33:0xe321cb37dcd3c67f"}, {"place_id": "0x390d193854a9b805:0xeb675c7a6d5768f7", "name": "Cvent India", "category": "Software company", "street": "19th Floor Building", "city": "No.14C", "phone": "0008001008934", "website": "https://careers.cvent.com/", "rating": 4.3, "review_count": "", "latitude": 28.4968638, "longitude": 77.0941567, "maps_url": "https://www.google.com/maps/place/?q=place_id:0x390d193854a9b805:0xeb675c7a6d5768f7"}, {"place_id": "0x20616dbf813c03ef:0xc8fd1ca47f902e9e", "name": "Bloatware IT Software Company | website Designing Company | Software Company | MLM |CRM | Android Apps", "category": "Software company", "street": "C1", "city": "Rama Park", "phone": "08920750797", "website": "https://bloatwareitsolutions.com/", "rating": 4.5, "review_count": "", "latitude": 28.621265599999997, "longitude": 77.0324943, "maps_url": "https://www.google.com/maps/place/?q=place_id:0x20616dbf813c03ef:0xc8fd1ca47f902e9e"}, {"place_id": "0x390d1b393726eafd:0x413d78fb74d43b4d", "name": "Delhi Cargo Packers and Logistics", "category": "Packaging company", "street": "Plot & Khasra No. 432", "city": "near Railway Crossing", "phone": "09992526019", "website": "https://delhicargopackersandlogistics.in/", "rating": 4.9, "review_count": "", "latitude": 28.533868199999997, "longitude": 77.0474595, "maps_url": "https://www.google.com/maps/place/?q=place_id:0x390d1b393726eafd:0x413d78fb74d43b4d"}, {"place_id": "0x390d1a493fffffff:0x9ef00bf32614e22c", "name": "Latway Packers And Movers", "category": "Storage facility", "street": "Address :- PLOE NO-18, H.NO-493, PLOT NO.318, NEAR PANCHAYAT GHAR, BHARTHAL", "city": "VILLAGE", "phone": "09311950119", "website": "http://www.latwaypackers.com/", "rating": 4.8, "review_count": "", "latitude": 28.5408832, "longitude": 77.0483639, "maps_url": "https://www.google.com/maps/place/?q=place_id:0x390d1a493fffffff:0x9ef00bf32614e22c"}, {"place_id": "0x390d195e96bb4105:0xfba8615a67d65660", "name": "Onkar Infotech", "category": "BPO Company", "street": "117", "city": "Udyog Vihar Phase 1, Udyog Vihar, Sector 20", "phone": "01244004742", "website": "http://www.onkarinfotech.com/", "rating": 3.9, "review_count": "", "latitude": 28.5137038, "longitude": 77.0832096, "maps_url": "https://www.google.com/maps/place/?q=place_id:0x390d195e96bb4105:0xfba8615a67d65660"}, {"place_id": "0x390d1959e54e0cdb:0x7120a86a0b29095e", "name": "Gurgaon SEO Company", "category": "Website designer", "street": "First Floor Plot", "city": "270, Udyog Vihar II Rd", "phone": "", "website": "", "rating": 2, "review_count": "", "latitude": 28.5074082, "longitude": 77.08512379999999, "maps_url": "https://www.google.com/maps/place/?q=place_id:0x390d1959e54e0cdb:0x7120a86a0b29095e"}, {"place_id": "0x390d1b869e5cc0ff:0x63acbcdb7416a834", "name": "IT HelpDesk", "category": "Computer security service", "street": "573, Palam Vihar Rd", "city": "Harijan Basti, Bijwasan", "phone": "09716336778", "website": "", "rating": 5, "review_count": "", "latitude": 28.5318845, "longitude": 77.0524652, "maps_url": "https://www.google.com/maps/place/?q=place_id:0x390d1b869e5cc0ff:0x63acbcdb7416a834"}, {"place_id": "0x390cddaa1531b279:0x46372208767a5dca", "name": "Woxa Technologies (P) Ltd.", "category": "Computer support and services", "street": "Plot number 568", "city": "Phase V, Udyog Vihar, Sector 19", "phone": "09310164954", "website": "", "rating": 3.4, "review_count": "", "latitude": 28.4972729, "longitude": 77.085078, "maps_url": "https://www.google.com/maps/place/?q=place_id:0x390cddaa1531b279:0x46372208767a5dca"}, {"place_id": "0x390d19ad585bba37:0xc7a1380f3c30571a", "name": "Wroffy Technologies Pvt Ltd", "category": "Software company", "street": "304", "city": "Vipul Business Park", "phone": "01244349014", "website": "https://www.wroffy.com/", "rating": 4.3, "review_count": "", "latitude": 28.4226457, "longitude": 77.0376039, "maps_url": "https://www.google.com/maps/place/?q=place_id:0x390d19ad585bba37:0xc7a1380f3c30571a"}, {"place_id": "0x390d1bcb3494c941:0x713d72734652aa88", "name": "Sunshine Relocation", "category": "Moving service", "street": "House No. 265", "city": "Bijwasan, palam Vihar Road", "phone": "08010194994", "website": "", "rating": 1.8, "review_count": "", "latitude": 28.5350902, "longitude": 77.05655209999999, "maps_url": "https://www.google.com/maps/place/?q=place_id:0x390d1bcb3494c941:0x713d72734652aa88"}, {"place_id": "0x4e275664ed715ed3:0x9e5f761f92588715", "name": "successachive it company", "category": "Computer support and services", "street": "", "city": "", "phone": "07347374706", "website": "https://successachive.com/", "rating": "", "review_count": "", "latitude": 21.0680074, "longitude": 82.7525294, "maps_url": "https://www.google.com/maps/place/?q=place_id:0x4e275664ed715ed3:0x9e5f761f92588715"}, {"place_id": "0x390d1946a4b0d01f:0xab23cbaa408b3b9c", "name": "Tagbin Services Pvt. Ltd. \u2013 Best AI & Experiential Tech Company in Gurgaon", "category": "Software company", "street": "3rd Floor, Wing A, Enkay Centre", "city": "Vaniya Kunj", "phone": "08178112682", "website": "https://tagbin.in/", "rating": 4.2, "review_count": "", "latitude": 28.4974691, "longitude": 77.08654609999999, "maps_url": "https://www.google.com/maps/place/?q=place_id:0x390d1946a4b0d01f:0xab23cbaa408b3b9c"}, {"place_id": "0x390d1b393726eafd:0x413d78fb74d43b4d", "name": "Delhi Cargo Packers and Logistics", "category": "Packaging company", "street": "Plot & Khasra No. 432", "city": "near Railway Crossing", "phone": "09992526019", "website": "https://delhicargopackersandlogistics.in/", "rating": 4.9, "review_count": "", "latitude": 28.533868199999997, "longitude": 77.0474595, "maps_url": "https://www.google.com/maps/place/?q=place_id:0x390d1b393726eafd:0x413d78fb74d43b4d"}, {"place_id": "0x390d1c3fadaf436b:0x7da80df34b6cc628", "name": "Acelema It Solutions Pvt. Ltd", "category": "Software company", "street": "L 357, 1st Floor", "city": "Gurgaon - Delhi Expy", "phone": "09015904466", "website": "https://www.acelema.com/", "rating": 5, "review_count": "", "latitude": 28.5456917, "longitude": 77.1231365, "maps_url": "https://www.google.com/maps/place/?q=place_id:0x390d1c3fadaf436b:0x7da80df34b6cc628"}, {"place_id": "0x390d1a338456e8db:0x24460b581f5b57b2", "name": "SP Logistics Packers And Movers", "category": "Corporate office", "street": "Warehouses Plot No. 632", "city": "CISF Camp Road", "phone": "09810341766", "website": "http://splogisticspackers.com/", "rating": 4.5, "review_count": "", "latitude": 28.532526899999997, "longitude": 77.0530587, "maps_url": "https://www.google.com/maps/place/?q=place_id:0x390d1a338456e8db:0x24460b581f5b57b2"}, {"place_id": "0x390d1a493fffffff:0x4258ea815d6f857c", "name": "MG Packers and Movers", "category": "Packaging company", "street": "Plot. No. 14", "city": "near dada mota mandir", "phone": "08222085244", "website": "", "rating": 2.6, "review_count": "", "latitude": 28.542727799999998, "longitude": 77.04920589999999, "maps_url": "https://www.google.com/maps/place/?q=place_id:0x390d1a493fffffff:0x4258ea815d6f857c"}, {"place_id": "0x390d1910da46a7db:0x18c0a10a69f503f8", "name": "Coforge", "category": "Corporate office", "street": "5th & 6th Floor", "city": "Plot No-13", "phone": "02240103100", "website": "https://www.coforge.com/", "rating": 3.9, "review_count": "", "latitude": 28.4915973, "longitude": 77.07432709999999, "maps_url": "https://www.google.com/maps/place/?q=place_id:0x390d1910da46a7db:0x18c0a10a69f503f8"}, {"place_id": "0x390d19437e719739:0x14737a286b425c55", "name": "Mediology Software", "category": "Software company", "street": "Tower B, 4th Floor", "city": "ASF Towers", "phone": "01244747500", "website": "https://www.mediologysoftware.com/", "rating": 4.1, "review_count": "", "latitude": 28.4966176, "longitude": 77.0842566, "maps_url": "https://www.google.com/maps/place/?q=place_id:0x390d19437e719739:0x14737a286b425c55"}, {"place_id": "0x390d1906b561eafd:0x895f1e5be2e0f882", "name": "OneMetric (formerly Growtomation) - A Revenue Enablement Company", "category": "Marketing agency", "street": "1st Floor", "city": "Nimai Tower", "phone": "", "website": "https://onemetric.io/", "rating": 4.5, "review_count": "", "latitude": 28.499856899999997, "longitude": 77.0760152, "maps_url": "https://www.google.com/maps/place/?q=place_id:0x390d1906b561eafd:0x895f1e5be2e0f882"}, {"place_id": "0x390d1b1fb85c71ed:0x1aa4ba2a08b02c1d", "name": "Tecmicra Solutions - Software, Website Development & Digital Marketing Company", "category": "Software company", "street": "Floor, D410", "city": "3rd", "phone": "07042387253", "website": "https://tecmicra.co.in/", "rating": 5, "review_count": "", "latitude": 28.5849324, "longitude": 77.071085, "maps_url": "https://www.google.com/maps/place/?q=place_id:0x390d1b1fb85c71ed:0x1aa4ba2a08b02c1d"}, {"place_id": "0x390d1b62e503a6b7:0x295aef12c711a9de", "name": "Agarwal logistic Packers And Movers", "category": "Packaging company", "street": "Bijwasan Railway Station Rd", "city": "Sector 27 Dwarka, Dwarka", "phone": "07303625426", "website": "https://www.alpmpackers.in/", "rating": 4.9, "review_count": "", "latitude": 28.5360648, "longitude": 77.0485928, "maps_url": "https://www.google.com/maps/place/?q=place_id:0x390d1b62e503a6b7:0x295aef12c711a9de"}, {"place_id": "0x390d1bc2aeb6d29d:0xc0c3fe80e1f297b7", "name": "The Anant Raj Corporation.", "category": "Real estate agency", "street": "Main, Main Rd", "city": "Kapas Hera Extension, Kapas Hera", "phone": "07838213540", "website": "http://myhousingadvisor.com/", "rating": 3.4, "review_count": "", "latitude": 28.528802499999998, "longitude": 77.0779732, "maps_url": "https://www.google.com/maps/place/?q=place_id:0x390d1bc2aeb6d29d:0xc0c3fe80e1f297b7"}, {"place_id": "0x390d1b9fb7e91a73:0xe53091104de76396", "name": "DLF Safe Packers & Movers", "category": "Packaging company", "street": "Plot No 484, Bijwasan Railway Station Rd", "city": "Sector 27 Dwarka, Dwarka", "phone": "09891510051", "website": "http://www.dlfsafepackers.in/", "rating": 4.8, "review_count": "", "latitude": 28.5361923, "longitude": 77.0488991, "maps_url": "https://www.google.com/maps/place/?q=place_id:0x390d1b9fb7e91a73:0xe53091104de76396"}, {"place_id": "0x390d1a36bcf43877:0xf4983312d388c4d4", "name": "Skyway Relocation Services", "category": "Moving service", "street": "Plot No.: 489, Najafgarh Road", "city": "Near Railway Crossing. Bijwasan", "phone": "09910925991", "website": "", "rating": 4.8, "review_count": "", "latitude": 28.5339167, "longitude": 77.0498047, "maps_url": "https://www.google.com/maps/place/?q=place_id:0x390d1a36bcf43877:0xf4983312d388c4d4"}, {"place_id": "0x390d19454748b5f1:0x930fdb13eea6af9b", "name": "Auquall BPO - Best BPO and BPM company in gurgaon", "category": "BPO Company", "street": "698, Udyog Vihar Phase V Rd", "city": "Phase V, Udyog Vihar, Sector 19", "phone": "09899005897", "website": "", "rating": 4.4, "review_count": "", "latitude": 28.505634099999998, "longitude": 77.0837823, "maps_url": "https://www.google.com/maps/place/?q=place_id:0x390d19454748b5f1:0x930fdb13eea6af9b"}, {"place_id": "0x390d1f4effffffff:0xcfc715ac63417946", "name": "Bechtel India Private Limited", "category": "Corporate office", "street": "244-245", "city": "Phase IV, Udyog Vihar, Knowledge Park", "phone": "01244098000", "website": "http://www.bechtel.com/", "rating": 4.4, "review_count": "", "latitude": 28.4956277, "longitude": 77.0839426, "maps_url": "https://www.google.com/maps/place/?q=place_id:0x390d1f4effffffff:0xcfc715ac63417946"}, {"place_id": "0x390d191598f48ef3:0x70991b4ff870f05d", "name": "Shree Partners LLC", "category": "Software company", "street": "1, Tower A, Building, Cyber City", "city": "Corporate Edge Level", "phone": "01246728815", "website": "https://www.shreepartners.com/", "rating": 4.3, "review_count": "", "latitude": 28.4936018, "longitude": 77.088325, "maps_url": "https://www.google.com/maps/place/?q=place_id:0x390d191598f48ef3:0x70991b4ff870f05d"}]}