[{"place_id": "ChIJdehDIOXiDDkRYQBbS6-8wQI", "name": "Fair Infotech", "street": "1529/4, Western Peripheral Expy, South Extension I, Wazir Nagar, Pragati Vihar, New Delhi, Delhi 110003, India", "phone": "+91 88823 76856", "rating": "4.8", "review_count": "", "website": "", "latitude": 28.5916468, "longitude": 77.23178639999999, "maps_url": "https://www.google.com/maps/search/?api=1&query=Fair%20Infotech&query_place_id=ChIJdehDIOXiDDkRYQBbS6-8wQI"}, {"place_id": "ChIJEZi4U8HjDDkRyul3V2h5ouc", "name": "IT Company", "street": "A-14, near iskcon temple, Block A, APB Garhi, Vasant Vihar, New Delhi, Delhi 110065, India", "phone": "", "rating": "3", "review_count": "", "website": "http://www.opuswiz.com/", "latitude": 28.557167, "longitude": 77.25424819999999, "maps_url": "https://www.google.com/maps/search/?api=1&query=IT%20Company&query_place_id=ChIJEZi4U8HjDDkRyul3V2h5ouc"}, {"place_id": "ChIJf0vgss3jDDkRXzr2g_p_rkM", "name": "GIBS (Global IT Business Solutions)", "street": "15A Basement, Golf Apartments, near Sujan Singh Park, Khan Market, Sujan Singh Park, New Delhi, Delhi 110003, India", "phone": "+91 98112 26600", "rating": "4.9", "review_count": "", "website": "https://gibsit.com/", "latitude": 28.5991413, "longitude": 77.2288398, "maps_url": "https://www.google.com/maps/search/?api=1&query=GIBS%20%28Global%20IT%20Business%20Solutions%29&query_place_id=ChIJf0vgss3jDDkRXzr2g_p_rkM"}, {"place_id": "ChIJM-ZDIOXiDDkRHNlL6nlN1D4", "name": "Wirecto", "street": "Triloki Colony, C-49, South Extension I, Mahaveer Nagar, Kotla Mubarakpur, New Delhi, Delhi 110003, India", "phone": "+91 97166 70074", "rating": "5", "review_count": "", "website": "https://wirecto.app/", "latitude": 28.575404799999998, "longitude": 77.2250054, "maps_url": "https://www.google.com/maps/search/?api=1&query=Wirecto&query_place_id=ChIJM-ZDIOXiDDkRHNlL6nlN1D4"}, {"place_id": "ChIJ5QlVe1nhDDkRPE20N7kJgv0", "name": "IT Solutions India Private Limited", "street": "D-88/5, Pocket D, Okhla Phase I, Okhla Industrial Estate, New Delhi, Delhi 110020, India", "phone": "+91 98100 17429", "rating": "4.2", "review_count": "", "website": "https://www.itsipl.com/", "latitude": 28.520146, "longitude": 77.280431, "maps_url": "https://www.google.com/maps/search/?api=1&query=IT%20Solutions%20India%20Private%20Limited&query_place_id=ChIJ5QlVe1nhDDkRPE20N7kJgv0"}, {"place_id": "ChIJ5VRVuMfjDDkRMXYkXsE55DQ", "name": "HAUT IT Solutions Pvt. Ltd", "street": "390, Sant Nagar, East of Kailash, New Delhi, Delhi 110065, India", "phone": "+91 99347 53003", "rating": "4.3", "review_count": "", "website": "http://www.hautitsolutions.com/", "latitude": 28.554910099999997, "longitude": 77.25111249999999, "maps_url": "https://www.google.com/maps/search/?api=1&query=HAUT%20IT%20Solutions%20Pvt.%20Ltd&query_place_id=ChIJ5VRVuMfjDDkRMXYkXsE55DQ"}, {"place_id": "ChIJVed5zP3lDDkR9k64UZLpnDA", "name": "Optyminds IT Solutions - Top AI and IT company I Best Digital agency in Noida | Delhi NCR | India", "street": "1st Floor, B-70, B Block, Sector 2, Noida, Uttar Pradesh 201301, India", "phone": "+91 89290 75975", "rating": "4.9", "review_count": "", "website": "https://optyminds.com/", "latitude": 28.584679599999998, "longitude": 77.3135042, "maps_url": "https://www.google.com/maps/search/?api=1&query=Optyminds%20IT%20Solutions%20-%20Top%20AI%20and%20IT%20company%20I%20Best%20Digital%20agency%20in%20Noida%20%7C%20Delhi%20NCR%20%7C%20India&query_place_id=ChIJVed5zP3lDDkR9k64UZLpnDA"}, {"place_id": "ChIJXSqyvAfjDDkRJfz6ZVF7zJw", "name": "EDGISS IT SERVICES INC.", "street": "40, Jangpura Rd, Bhogal, New Delhi, Delhi 110014, India", "phone": "+91 79820 01184", "rating": "5", "review_count": "", "website": "https://www.edgiss.in/", "latitude": 28.582393699999997, "longitude": 77.24992309999999, "maps_url": "https://www.google.com/maps/search/?api=1&query=EDGISS%20IT%20SERVICES%20INC.&query_place_id=ChIJXSqyvAfjDDkRJfz6ZVF7zJw"}, {"place_id": "ChIJSxsL19zvDDkRdRDEv1iqcu8", "name": "Devkant Infotech Solutions | Software Company in Noida | Top IT Company In Noida", "street": "office No. A, 1601 Nx One T3 Gaur Chowk, Plot No. 17, Tech Zone IV, Amrapali Dream Valley, Greater Noida, Uttar Pradesh 201318, India", "phone": "+91 74286 85050", "rating": "4.9", "review_count": "", "website": "https://dkinfotech.in/", "latitude": 28.601201399999997, "longitude": 77.4323665, "maps_url": "https://www.google.com/maps/search/?api=1&query=Devkant%20Infotech%20Solutions%20%7C%20Software%20Company%20in%20Noida%20%7C%20Top%20IT%20Company%20In%20Noida&query_place_id=ChIJSxsL19zvDDkRdRDEv1iqcu8"}, {"place_id": "ChIJRelCK1HjDDkRURJl4Qabzug", "name": "Instant IT services - Best Hardware & Software Related Services", "street": "koli camp, 69B, Phase 2, Hari Nagar Ashram, New Delhi, Delhi 110014, India", "phone": "+91 98048 36325", "rating": "4.7", "review_count": "", "website": "", "latitude": 28.5758728, "longitude": 77.2565554, "maps_url": "https://www.google.com/maps/search/?api=1&query=Instant%20IT%20services%20-%20Best%20Hardware%20%26%20Software%20Related%20Services&query_place_id=ChIJRelCK1HjDDkRURJl4Qabzug"}, {"place_id": "ChIJtaZJfLbjDDkRxuKZ3O22nBw", "name": "AdOne Network Pvt Ltd", "street": "Web SEO India 1, Sujan Sing Park North, Sujan Singh Park, New Delhi, Delhi 110003, India", "phone": "+91 97176 81813", "rating": "4.7", "review_count": "", "website": "http://www.ad1.in/", "latitude": 28.6021972, "longitude": 77.22852259999999, "maps_url": "https://www.google.com/maps/search/?api=1&query=AdOne%20Network%20Pvt%20Ltd&query_place_id=ChIJtaZJfLbjDDkRxuKZ3O22nBw"}, {"place_id": "ChIJC3MN3zb9DDkR-JxtEG9cQg0", "name": "I. T. Solutions", "street": "Gate No. 8, A-6, 1st Floor, Inner Circle, Above Post office, near ICICI Bank, Bon Ton and Metro, Connaught Place, New Delhi, Delhi 110001, India", "phone": "+91 11 4152 3242", "rating": "4.9", "review_count": "", "website": "http://www.itsolutioncp.com/", "latitude": 28.6324367, "longitude": 77.2183441, "maps_url": "https://www.google.com/maps/search/?api=1&query=I.%20T.%20Solutions&query_place_id=ChIJC3MN3zb9DDkR-JxtEG9cQg0"}, {"place_id": "ChIJ_ek9kI_jDDkRG_vTxz1et2A", "name": "iTech Mission Private Limited (iTM)", "street": "4th Floor, Saira Tower, Gulmohar Commercial Complex, Yusuf Sarai, New Delhi, Delhi 110049, India", "phone": "", "rating": "5", "review_count": "", "website": "http://www.itechmission.org/", "latitude": 28.557895499999997, "longitude": 77.20812099999999, "maps_url": "https://www.google.com/maps/search/?api=1&query=iTech%20Mission%20Private%20Limited%20%28iTM%29&query_place_id=ChIJ_ek9kI_jDDkRG_vTxz1et2A"}, {"place_id": "ChIJl5geAqLjDDkRGQx9atNSvyg", "name": "It Softtech - Website Designing and Development Company in Delhi, India", "street": "149, Ring Rd, opp. Maharani Bagh, Kilokri, Phase 1, Hari Nagar Ashram, New Delhi, Delhi 110014, India", "phone": "+91 98100 56177", "rating": "5", "review_count": "", "website": "", "latitude": 28.5763395, "longitude": 77.2640869, "maps_url": "https://www.google.com/maps/search/?api=1&query=It%20Softtech%20-%20Website%20Designing%20and%20Development%20Company%20in%20Delhi%2C%20India&query_place_id=ChIJl5geAqLjDDkRGQx9atNSvyg"}, {"place_id": "ChIJ7Wr1xKTtDzkR7MCP44eydyI", "name": "Dizivan IT Solutions Pvt Ltd- App Development & Digital Marketing Company", "street": "near Metro Station New Ashok Nagar, Block B, New Ashok Nagar, New Delhi, Delhi, 110096, India", "phone": "+91 91420 92979", "rating": "5", "review_count": "", "website": "https://dizivan.com/", "latitude": 28.5891575, "longitude": 77.3020624, "maps_url": "https://www.google.com/maps/search/?api=1&query=Dizivan%20IT%20Solutions%20Pvt%20Ltd-%20App%20Development%20%26%20Digital%20Marketing%20Company&query_place_id=ChIJ7Wr1xKTtDzkR7MCP44eydyI"}, {"place_id": "ChIJ6xG0sw-c-DkRWHWbfpc_R74", "name": "Kbeatech - Digital Solutions Company", "street": "1893, 1st Floor, Uday Chand Marg, South Extension I, Kotla Mubarakpur, New Delhi, Delhi 110049, India", "phone": "", "rating": "4.9", "review_count": "", "website": "https://kbeatech.in/", "latitude": 28.571338299999997, "longitude": 77.2228884, "maps_url": "https://www.google.com/maps/search/?api=1&query=Kbeatech%20-%20Digital%20Solutions%20Company&query_place_id=ChIJ6xG0sw-c-DkRWHWbfpc_R74"}, {"place_id": "ChIJ8XVy-qHjDDkRNpU2vDkjeSw", "name": "Ezeetech Solutions", "street": "149-A, 1st Floor, Baba House Complex, Mahatma Gandhi Rd, Kilokri, Phase 1, Sunlight Colony, New Delhi, Delhi 110014, India", "phone": "+91 11 4990 1562", "rating": "4.9", "review_count": "", "website": "https://ezeetechonline.com/", "latitude": 28.576534199999998, "longitude": 77.26283029999999, "maps_url": "https://www.google.com/maps/search/?api=1&query=Ezeetech%20Solutions&query_place_id=ChIJ8XVy-qHjDDkRNpU2vDkjeSw"}, {"place_id": "ChIJ8ZpKTwnjDDkRrSm4RmnGIdw", "name": "BAUDHYANTRAM IT Solutions | Website Designing | Web Development | Software Company in Delhi", "street": "H82 2nd Floor, opposite Bengali Sweet Center, South Extension I, Block H, New Delhi, Delhi 110049, India", "phone": "+91 79008 99996", "rating": "4.8", "review_count": "", "website": "http://www.baudhyantram.in/", "latitude": 28.5695803, "longitude": 77.221047, "maps_url": "https://www.google.com/maps/search/?api=1&query=BAUDHYANTRAM%20IT%20Solutions%20%7C%20Website%20Designing%20%7C%20Web%20Development%20%7C%20Software%20Company%20in%20Delhi&query_place_id=ChIJ8ZpKTwnjDDkRrSm4RmnGIdw"}, {"place_id": "ChIJcyHxpIYdDTkRYIJLb-pCazo", "name": "Softvanz Technologies Private Limited", "street": "Somdutt Chamber 1, BT-22/9, Bhikaji Cama Place, Rama Krishna Puram, New Delhi, Delhi 110066, India", "phone": "", "rating": "5", "review_count": "", "website": "https://softvanz.com/", "latitude": 28.567948899999998, "longitude": 77.1889269, "maps_url": "https://www.google.com/maps/search/?api=1&query=Softvanz%20Technologies%20Private%20Limited&query_place_id=ChIJcyHxpIYdDTkRYIJLb-pCazo"}, {"place_id": "ChIJPwAAsCfiDDkRC4G_PEpojAY", "name": "IT Solution INDIA", "street": "Triveni Commercial Complex, Sheikh Sarai Phase 1, Sheikh Sarai, New Delhi, Delhi 110017, India", "phone": "+91 93122 09167", "rating": "4.8", "review_count": "", "website": "https://itsolutionindia.in/", "latitude": 28.5364054, "longitude": 77.22372, "maps_url": "https://www.google.com/maps/search/?api=1&query=IT%20Solution%20INDIA&query_place_id=ChIJPwAAsCfiDDkRC4G_PEpojAY"}, {"place_id": "ChIJFeXlTZkCDTkRNw2aQAO8CNk", "name": "Himalayan IT Solutions | Best Website Designing Company in Delhi | SEO/Digital Marketing Company in Delhi NCR, India", "street": "61/4255, Padam Singh Rd, Block 29, Block 1, Regar Pura, Karol Bagh, Delhi, 110005, India", "phone": "+91 98990 98509", "rating": "3.9", "review_count": "", "website": "http://www.himalayanitsolutions.com/", "latitude": 28.649673999999997, "longitude": 77.186599, "maps_url": "https://www.google.com/maps/search/?api=1&query=Himalayan%20IT%20Solutions%20%7C%20Best%20Website%20Designing%20Company%20in%20Delhi%20%7C%20SEO/Digital%20Marketing%20Company%20in%20Delhi%20NCR%2C%20India&query_place_id=ChIJFeXlTZkCDTkRNw2aQAO8CNk"}, {"place_id": "ChIJm_3YCUbkDDkR9hCWZycPaJw", "name": "Crestech Software", "street": "Plot No. D, Vyapar Marg, D Block, Sector 2, Noida, Uttar Pradesh 201301, India", "phone": "+91 88266 66755", "rating": "3.6", "review_count": "", "website": "https://www.crestechsoftware.com/", "latitude": 28.5836924, "longitude": 77.3166213, "maps_url": "https://www.google.com/maps/search/?api=1&query=Crestech%20Software&query_place_id=ChIJm_3YCUbkDDkR9hCWZycPaJw"}, {"place_id": "ChIJCXxNvm1Yv04RbCL1O8hVhJY", "name": "Anchor IT Solutions- App Development | Website Development | Digital Marketing", "street": "4, Vinoba Puri, Lajpat Nagar II, Lajpat Nagar, New Delhi, Delhi 110024, India", "phone": "+91 76786 58584", "rating": "4.8", "review_count": "", "website": "", "latitude": 28.566371399999998, "longitude": 77.2486924, "maps_url": "https://www.google.com/maps/search/?api=1&query=Anchor%20IT%20Solutions-%20App%20Development%20%7C%20Website%20Development%20%7C%20Digital%20Marketing&query_place_id=ChIJCXxNvm1Yv04RbCL1O8hVhJY"}, {"place_id": "ChIJv2UC3_vlDDkRqTh6WKGv7bo", "name": "Weblieu Technologies Pvt. Ltd.", "street": "Block-C, C-75, near NIrula's Hotel, C Block, Sector 2, Noida, Uttar Pradesh 201301, India", "phone": "+91 99992 49353", "rating": "4.1", "review_count": "", "website": "http://www.weblieu.com/", "latitude": 28.583271099999997, "longitude": 77.3150256, "maps_url": "https://www.google.com/maps/search/?api=1&query=Weblieu%20Technologies%20Pvt.%20Ltd.&query_place_id=ChIJv2UC3_vlDDkRqTh6WKGv7bo"}, {"place_id": "ChIJVVVVgV7iDDkRR38SUjV3P_k", "name": "SANEKT SOFTWARE SOLUTION", "street": "Top floor, H 11, South Extension, Block H, New Delhi, Delhi 110049, India", "phone": "+91 11 4158 9565", "rating": "5", "review_count": "", "website": "http://sanekt.com/", "latitude": 28.571361, "longitude": 77.221733, "maps_url": "https://www.google.com/maps/search/?api=1&query=SANEKT%20SOFTWARE%20SOLUTION&query_place_id=ChIJVVVVgV7iDDkRR38SUjV3P_k"}, {"place_id": "ChIJ2dRGgsXjDDkRIMZX-XjZ1dM", "name": "I-Tek Logics Pvt Ltd", "street": "Building No. 56, 508, Eros Apartment, Nehru Place, New Delhi, Delhi 110019, India", "phone": "+91 98116 65955", "rating": "5", "review_count": "", "website": "http://itek.in/", "latitude": 28.548686, "longitude": 77.251842, "maps_url": "https://www.google.com/maps/search/?api=1&query=I-Tek%20Logics%20Pvt%20Ltd&query_place_id=ChIJ2dRGgsXjDDkRIMZX-XjZ1dM"}, {"place_id": "ChIJC6QlM_pQ0WwRK0SPLoqUOlo", "name": "Oracle Digital", "street": "64/1, Nizamuddin, Nangli Razapur, Sundar Nagar, New Delhi, Delhi 110013, India", "phone": "", "rating": "", "review_count": "", "website": "https://www.oracledigital.online/", "latitude": 28.5955685, "longitude": 77.2430596, "maps_url": "https://www.google.com/maps/search/?api=1&query=Oracle%20Digital&query_place_id=ChIJC6QlM_pQ0WwRK0SPLoqUOlo"}, {"place_id": "ChIJ5bFMU87hDDkRFibFK8R3_jk", "name": "ITeSolution- Odoo ERP , Mobile/Web Application Development Software Company in Noida, Delhi NCR India.", "street": "RZ60/9, T/F, Tughlakabad Extension, Tughlakabad, New Delhi, Delhi 110019, India", "phone": "+91 98892 94124", "rating": "4.9", "review_count": "", "website": "https://www.itesolution.co.in/", "latitude": 28.520523899999997, "longitude": 77.2570535, "maps_url": "https://www.google.com/maps/search/?api=1&query=ITeSolution-%20Odoo%20ERP%20%2C%20Mobile/Web%20Application%20Development%20Software%20Company%20in%20Noida%2C%20Delhi%20NCR%20India.&query_place_id=ChIJ5bFMU87hDDkRFibFK8R3_jk"}, {"place_id": "ChIJq6qqLpPjDDkRUjjZ4KrZCLM", "name": "Al Hadaf Technologies– ERP, CRM, HRM, Hospital, School, Billing Software Development Company in Delhi NCR", "street": "96, Gate No-2, opp. Escort Hospital, Sarai Jullena, Okhla, New Delhi, Delhi 110025, India", "phone": "+91 85869 72994", "rating": "4.9", "review_count": "", "website": "https://www.alhadaftech.com/", "latitude": 28.5562397, "longitude": 77.2762099, "maps_url": "https://www.google.com/maps/search/?api=1&query=Al%20Hadaf%20Technologies%E2%80%93%20ERP%2C%20CRM%2C%20HRM%2C%20Hospital%2C%20School%2C%20Billing%20Software%20Development%20Company%20in%20Delhi%20NCR&query_place_id=ChIJq6qqLpPjDDkRUjjZ4KrZCLM"}, {"place_id": "ChIJJxEZLa38DDkRjqnAHiAFyIM", "name": "IT Nucleus", "street": "310, 3rd Floor, S-524, Aggarwal House Opp-Metro Pillar 27, School Block shakarpur, Laxmi Nagar, Delhi, 110092, India", "phone": "+91 11 4300 1828", "rating": "4.9", "review_count": "", "website": "http://www.itnucleus.com/", "latitude": 28.629542599999997, "longitude": 77.2766257, "maps_url": "https://www.google.com/maps/search/?api=1&query=IT%20Nucleus&query_place_id=ChIJJxEZLa38DDkRjqnAHiAFyIM"}, {"place_id": "ChIJ7xABECbiDDkRA7-NRZnTKeU", "name": "First IT", "street": "S/F 776-A, Chirag Dilli, New Delhi, Delhi 110017, India", "phone": "+91 70117 09416", "rating": "5", "review_count": "", "website": "https://www.firstit.in/", "latitude": 28.5376318, "longitude": 77.2282863, "maps_url": "https://www.google.com/maps/search/?api=1&query=First%20IT&query_place_id=ChIJ7xABECbiDDkRA7-NRZnTKeU"}, {"place_id": "ChIJAQAAwLfjDDkRN9kC5Q7Y3UY", "name": "Amtrak Technologies Private Limited", "street": "6, Community Centre, East of Kailash, New Delhi, Delhi 110065, India", "phone": "+91 11 2644 8000", "rating": "4.4", "review_count": "", "website": "https://amtrak.co.in/", "latitude": 28.558434899999998, "longitude": 77.2463302, "maps_url": "https://www.google.com/maps/search/?api=1&query=Amtrak%20Technologies%20Private%20Limited&query_place_id=ChIJAQAAwLfjDDkRN9kC5Q7Y3UY"}, {"place_id": "ChIJ_yxQ7QfjDDkRmcUOAUiHyA4", "name": "Netens Technologies", "street": "A-11, Block C, Jangpura B, New Delhi, Delhi 110014, India", "phone": "+91 98687 00010", "rating": "4.6", "review_count": "", "website": "https://www.netens.com/", "latitude": 28.581017, "longitude": 77.2526029, "maps_url": "https://www.google.com/maps/search/?api=1&query=Netens%20Technologies&query_place_id=ChIJ_yxQ7QfjDDkRmcUOAUiHyA4"}, {"place_id": "ChIJI2NmZaz8DDkRKum-I8wCXaA", "name": "Rexcel IT Services Pvt Ltd", "street": "D-15 1st Floor, D Block, Sector 6, Noida, Uttar Pradesh 201301, India", "phone": "+91 120 451 2529", "rating": "3.2", "review_count": "", "website": "http://www.rexcelitservices.com/", "latitude": 28.5938749, "longitude": 77.3188215, "maps_url": "https://www.google.com/maps/search/?api=1&query=Rexcel%20IT%20Services%20Pvt%20Ltd&query_place_id=ChIJI2NmZaz8DDkRKum-I8wCXaA"}, {"place_id": "ChIJZe_Q-8_jDDkRsrIYLR1FIqo", "name": "SAI BUSINESS SOFTWARE SOLUTIONS", "street": "823 , 808 A 823 , 808 A, 6, Devika Tower, Six, Nehru Place, New Delhi, Delhi 110019, India", "phone": "+91 98712 71562", "rating": "4.6", "review_count": "", "website": "http://www.tallyerpserver.com/", "latitude": 28.5473195, "longitude": 77.2503488, "maps_url": "https://www.google.com/maps/search/?api=1&query=SAI%20BUSINESS%20SOFTWARE%20SOLUTIONS&query_place_id=ChIJZe_Q-8_jDDkRsrIYLR1FIqo"}, {"place_id": "ChIJJ6Ck-ULiDDkRZtG5amW08rE", "name": "Metasoft IT Systems Pvt Ltd", "street": "South Extension Plaza 2, 401 402, Guneet Kashyap Marg Rd, South Extension II, Masjid Moth Village, New Delhi, Delhi 110049, India", "phone": "+91 99109 75699", "rating": "", "review_count": "", "website": "http://www.metasoft.co.in/", "latitude": 28.5636208, "longitude": 77.2198183, "maps_url": "https://www.google.com/maps/search/?api=1&query=Metasoft%20IT%20Systems%20Pvt%20Ltd&query_place_id=ChIJJ6Ck-ULiDDkRZtG5amW08rE"}, {"place_id": "ChIJjwRhzVvkDDkR910V9AJWal8", "name": "JK Technosoft Limited", "street": "F, 3, Block F, Noida Sector 3, Noida, Uttar Pradesh 201301, India", "phone": "+91 120 460 6300", "rating": "4.2", "review_count": "", "website": "https://jktech.com/", "latitude": 28.5802509, "longitude": 77.31793329999999, "maps_url": "https://www.google.com/maps/search/?api=1&query=JK%20Technosoft%20Limited&query_place_id=ChIJjwRhzVvkDDkR910V9AJWal8"}, {"place_id": "ChIJ4___PwDjDDkRaecDhqKS2B0", "name": "Corporate Infotech Pvt Ltd.", "street": "E-81, E Block, Sector 6, Noida, Uttar Pradesh 201301, India", "phone": "+91 1800 11 6474", "rating": "4.4", "review_count": "", "website": "https://cipl.org.in/", "latitude": 28.5937284, "longitude": 77.3206974, "maps_url": "https://www.google.com/maps/search/?api=1&query=Corporate%20Infotech%20Pvt%20Ltd.&query_place_id=ChIJ4___PwDjDDkRaecDhqKS2B0"}, {"place_id": "ChIJ7xPJBtbjDDkRrSzrMVa9RtI", "name": "Delvetech", "street": "87A/1, 3rd Floor, Opp. Block N-115, G.K-1, Near Moolchand Merto, Block B, Zamrudpur, Greater Kailash, New Delhi, Delhi 110048, India", "phone": "+91 98738 95154", "rating": "4.1", "review_count": "", "website": "http://www.delvetech.co.in/", "latitude": 28.5570597, "longitude": 77.2356981, "maps_url": "https://www.google.com/maps/search/?api=1&query=Delvetech&query_place_id=ChIJ7xPJBtbjDDkRrSzrMVa9RtI"}, {"place_id": "ChIJf9TtOvjvDDkRXcEBkYBrcok", "name": "InfoAxon Technologies", "street": "08th Floor Plot No 15, Tradex Tower, Sector 125, Noida, Uttar Pradesh 201313, India", "phone": "+91 120 479 8900", "rating": "3.8", "review_count": "", "website": "http://www.infoaxon.com/", "latitude": 28.544279699999997, "longitude": 77.3310236, "maps_url": "https://www.google.com/maps/search/?api=1&query=InfoAxon%20Technologies&query_place_id=ChIJf9TtOvjvDDkRXcEBkYBrcok"}, {"place_id": "ChIJM5vpNV7iDDkRzI9Om-arQ_Q", "name": "Synapse Valuetech Private Limited", "street": "Lower Ground Floor, 221, Kailash Hills, East of Kailash, New Delhi, Delhi 110065, India", "phone": "+91 11 4662 8882", "rating": "4.3", "review_count": "", "website": "https://www.synapsevaluetech.com/", "latitude": 28.558165, "longitude": 77.2592385, "maps_url": "https://www.google.com/maps/search/?api=1&query=Synapse%20Valuetech%20Private%20Limited&query_place_id=ChIJM5vpNV7iDDkRzI9Om-arQ_Q"}, {"place_id": "ChIJDQQIVFzkDDkR0QhWZKOucvc", "name": "KritiKal Solutions", "street": "4th floor, Smartworks Corporate Park Maple Towers, Plot no 1&2, Sector 125, Noida, Uttar Pradesh 201313, India", "phone": "+91 120 692 6600", "rating": "4.2", "review_count": "", "website": "https://kritikalsolutions.com/", "latitude": 28.548471, "longitude": 77.332223, "maps_url": "https://www.google.com/maps/search/?api=1&query=KritiKal%20Solutions&query_place_id=ChIJDQQIVFzkDDkR0QhWZKOucvc"}, {"place_id": "ChIJdehDIOXiDDkRaJawDmmSY3M", "name": "Shri Karni Services", "street": "1479/30, top floor, netram complex, Kotla Mubarakpur, Wazir Nagar, Delhi, 110003, India", "phone": "+91 95990 39434", "rating": "4.3", "review_count": "", "website": "https://shrikarniservices.co.in/", "latitude": 28.589152, "longitude": 77.2326203, "maps_url": "https://www.google.com/maps/search/?api=1&query=Shri%20Karni%20Services&query_place_id=ChIJdehDIOXiDDkRaJawDmmSY3M"}, {"place_id": "ChIJB32bLWnlDDkR3uYXbQ1bkq8", "name": "Webcity Technologies LLP", "street": "41, C Block, Sector 58, Noida, Uttar Pradesh 201309, India", "phone": "+91 90150 88555", "rating": "4.7", "review_count": "", "website": "http://www.wtllp.co.in/", "latitude": 28.610451899999997, "longitude": 77.36030079999999, "maps_url": "https://www.google.com/maps/search/?api=1&query=Webcity%20Technologies%20LLP&query_place_id=ChIJB32bLWnlDDkR3uYXbQ1bkq8"}, {"place_id": "ChIJSclvODL9DDkRW1MVpe--hSQ", "name": "VUENOW GROUP", "street": "Office No. 504 Akashdeep Building, Barakhamba Rd, New Delhi, Delhi 110001, India", "phone": "+91 11 4002 0044", "rating": "4.7", "review_count": "", "website": "", "latitude": 28.628632099999997, "longitude": 77.2269889, "maps_url": "https://www.google.com/maps/search/?api=1&query=VUENOW%20GROUP&query_place_id=ChIJSclvODL9DDkRW1MVpe--hSQ"}, {"place_id": "ChIJL7i0Y9rGFUIRZKmtphSoS3k", "name": "Asha Tech | Website Designing | App Development | IT Company in Delhi", "street": "no 2, 195, Lane No. 1, Westend Marg, near Saket Metro Gate, Saidulajab, Saket, Delhi 110030, India", "phone": "+91 75310 80874", "rating": "4.7", "review_count": "", "website": "https://ashatech.co.in/", "latitude": 28.519994099999998, "longitude": 77.2008791, "maps_url": "https://www.google.com/maps/search/?api=1&query=Asha%20Tech%20%7C%20Website%20Designing%20%7C%20App%20Development%20%7C%20IT%20Company%20in%20Delhi&query_place_id=ChIJL7i0Y9rGFUIRZKmtphSoS3k"}, {"place_id": "ChIJd9dOTA_jDDkR5RzlLANefDo", "name": "Appextech Software Solutions", "street": "Second Floor, Mohan Cooperative Industrial Estate, B1/A19, Block A, Vishwakarma Colony, Pul Pehladpur, New Delhi, Delhi 110044, India", "phone": "+91 99114 32451", "rating": "4.9", "review_count": "", "website": "https://www.appextech.com/", "latitude": 28.502260099999997, "longitude": 77.28519, "maps_url": "https://www.google.com/maps/search/?api=1&query=Appextech%20Software%20Solutions&query_place_id=ChIJd9dOTA_jDDkR5RzlLANefDo"}, {"place_id": "ChIJ8RCk2n3jDDkRXdUwh27dz98", "name": "Geoloide Private Limited", "street": "Level 10, Plot No. 18-20, HT House, KG Marg, New Delhi, Delhi 110001, India", "phone": "+91 94532 51501", "rating": "5", "review_count": "", "website": "http://geoloide.com/", "latitude": 28.6229867, "longitude": 77.22526669999999, "maps_url": "https://www.google.com/maps/search/?api=1&query=Geoloide%20Private%20Limited&query_place_id=ChIJ8RCk2n3jDDkRXdUwh27dz98"}, {"place_id": "ChIJa710uZIFDTkRv-aFnYJLvUo", "name": "ARM IT Services", "street": "", "phone": "+91 99717 27755", "rating": "5", "review_count": "", "website": "https://itwebsoluation.yolasite.com/contact-us.php", "latitude": 28.5273522, "longitude": 77.19232219999999, "maps_url": "https://www.google.com/maps/search/?api=1&query=ARM%20IT%20Services&query_place_id=ChIJa710uZIFDTkRv-aFnYJLvUo"}, {"place_id": "ChIJnUZD77TjDDkR7BFVX8Ye2tM", "name": "Pointer Soft | Website Designing Company Delhi", "street": "321, harinagar, ashram, NH-19, Zakir Nagar, New Friends Colony, New Delhi, Delhi 110025, India", "phone": "+91 99587 68130", "rating": "4.6", "review_count": "", "website": "http://www.pointersoft.in/", "latitude": 28.571133999999997, "longitude": 77.2796537, "maps_url": "https://www.google.com/maps/search/?api=1&query=Pointer%20Soft%20%7C%20Website%20Designing%20Company%20Delhi&query_place_id=ChIJnUZD77TjDDkR7BFVX8Ye2tM"}, {"place_id": "ChIJcesdOTX9DDkRtlHcx4gT3ds", "name": "Jak Software Pvt Ltd", "street": "52 Janpath, New Delhi, Delhi 110001, India", "phone": "+91 78272 49056", "rating": "4.4", "review_count": "", "website": "http://www.jaksoftware.co.in/", "latitude": 28.627537999999998, "longitude": 77.21878989999999, "maps_url": "https://www.google.com/maps/search/?api=1&query=Jak%20Software%20Pvt%20Ltd&query_place_id=ChIJcesdOTX9DDkRtlHcx4gT3ds"}, {"place_id": "ChIJi_vHEvDkDDkRjZ2InK9Enfo", "name": "ITDOSE INFOSYSTEMS", "street": "G-19, G Block, Sector 6, Noida, Uttar Pradesh 201301, India", "phone": "+91 99999 16974", "rating": "4", "review_count": "", "website": "https://www.itdoseinfo.com/", "latitude": 28.595574, "longitude": 77.32037009999999, "maps_url": "https://www.google.com/maps/search/?api=1&query=ITDOSE%20INFOSYSTEMS&query_place_id=ChIJi_vHEvDkDDkRjZ2InK9Enfo"}, {"place_id": "ChIJ5-NldWnlDDkRNpqoQB87nzA", "name": "Heureux Software Solutions | Software Development Company", "street": "Ground floor, C-56/35, Viraat 1, Sector 62 Rd, C Block, Phase 2, Industrial Area, Sector 62, Noida, Uttar Pradesh 201309, India", "phone": "", "rating": "4.6", "review_count": "", "website": "https://www.heureuxsoftware.com/", "latitude": 28.611984, "longitude": 77.3623257, "maps_url": "https://www.google.com/maps/search/?api=1&query=Heureux%20Software%20Solutions%20%7C%20Software%20Development%20Company&query_place_id=ChIJ5-NldWnlDDkRNpqoQB87nzA"}, {"place_id": "ChIJX-4MRtvjDDkRD6RWqtTopkc", "name": "Injoria Technologies: Website, Custome Software, Mobile Apps Development company", "street": "Second Floor, Pandav Nagar Complex, C - 40, Block C, Ganesh Nagar, Delhi, 110092, India", "phone": "+91 99111 77045", "rating": "4.5", "review_count": "", "website": "", "latitude": 28.6215884, "longitude": 77.2842872, "maps_url": "https://www.google.com/maps/search/?api=1&query=Injoria%20Technologies%3A%20Website%2C%20Custome%20Software%2C%20Mobile%20Apps%20Development%20company&query_place_id=ChIJX-4MRtvjDDkRD6RWqtTopkc"}, {"place_id": "ChIJ34XxPQjjDDkRyo_prAe88M8", "name": "Dwitty & Company", "street": "B-109, Block D, Jangpura B, New Delhi, Delhi 110014, India", "phone": "+91 70112 73521", "rating": "5", "review_count": "", "website": "", "latitude": 28.581945599999997, "longitude": 77.2534653, "maps_url": "https://www.google.com/maps/search/?api=1&query=Dwitty%20%26%20Company&query_place_id=ChIJ34XxPQjjDDkRyo_prAe88M8"}, {"place_id": "ChIJ5TlwUR4BDTkRTJpgkqgah9c", "name": "Top #1 Website Company in delhi", "street": "P56H+9CP, Commercial Complex, Gopal Nagar, Model Town, near Akash Cinema, Azadpur, Delhi, 110033, India", "phone": "", "rating": "4.6", "review_count": "", "website": "", "latitude": 28.7109375, "longitude": 77.1785625, "maps_url": "https://www.google.com/maps/search/?api=1&query=Top%20%231%20Website%20Company%20in%20delhi&query_place_id=ChIJ5TlwUR4BDTkRTJpgkqgah9c"}, {"place_id": "ChIJg89IqozvDDkRz0Axd2ktzCM", "name": "Infiniticube", "street": "D-9, D Block, Noida Sector 3, Noida, Uttar Pradesh 201301, India", "phone": "+91 98992 42016", "rating": "4.5", "review_count": "", "website": "https://infiniticube.com/", "latitude": 28.580903, "longitude": 77.3174083, "maps_url": "https://www.google.com/maps/search/?api=1&query=Infiniticube&query_place_id=ChIJg89IqozvDDkRz0Axd2ktzCM"}, {"place_id": "ChIJleobg1vkDDkRyWUNRfvc9qQ", "name": "RMSI Private Limited", "street": "A-7/8, A Block, Sector 16, Noida, Uttar Pradesh 201301, India", "phone": "+91 120 251 1102", "rating": "4", "review_count": "", "website": "https://www.rmsi.com/", "latitude": 28.5784906, "longitude": 77.3159013, "maps_url": "https://www.google.com/maps/search/?api=1&query=RMSI%20Private%20Limited&query_place_id=ChIJleobg1vkDDkRyWUNRfvc9qQ"}, {"place_id": "ChIJG2Y2P6j-DDkR7uRmh78VN4k", "name": "IT Solution", "street": "P7CG+RPF, Mahalaxmi Vihar, Phase 7, Block A, Shiv Vihar, Karawal Nagar, Delhi, 110090, India", "phone": "+91 98182 31784", "rating": "5", "review_count": "", "website": "", "latitude": 28.722054399999998, "longitude": 77.2768011, "maps_url": "https://www.google.com/maps/search/?api=1&query=IT%20Solution&query_place_id=ChIJG2Y2P6j-DDkR7uRmh78VN4k"}, {"place_id": "ChIJL6Sj4lnkDDkRciwMCULgot0", "name": "InfiCare Technologies Pvt. Ltd", "street": "D-92 Second/Third floor, Sector 2, Noida, Uttar Pradesh 201301, India", "phone": "+91 97112 65591", "rating": "3.8", "review_count": "", "website": "http://www.inficaretech.com/", "latitude": 28.582936099999998, "longitude": 77.3175146, "maps_url": "https://www.google.com/maps/search/?api=1&query=InfiCare%20Technologies%20Pvt.%20Ltd&query_place_id=ChIJL6Sj4lnkDDkRciwMCULgot0"}, {"place_id": "ChIJ6wQV6c_jDDkR1yOSSVxsNFU", "name": "CCS Computers Private Limited", "street": "2nd-3rd Floor Skipper House, Nehru Place, New Delhi, Delhi 110019, India", "phone": "+91 11 2646 3959", "rating": "4", "review_count": "", "website": "http://www.ccscomputers.co.in/", "latitude": 28.550090599999997, "longitude": 77.2537834, "maps_url": "https://www.google.com/maps/search/?api=1&query=CCS%20Computers%20Private%20Limited&query_place_id=ChIJ6wQV6c_jDDkR1yOSSVxsNFU"}, {"place_id": "ChIJI8eBDIbjDDkRPmqowEMO9cU", "name": "Nextr Technology", "street": "2nd Floor, 1483/A-1, South Extension I, Wazir Nagar, New Delhi, Delhi 110003, India", "phone": "+91 99117 51575", "rating": "4.9", "review_count": "", "website": "http://www.nextr.in/", "latitude": 28.574374, "longitude": 77.224284, "maps_url": "https://www.google.com/maps/search/?api=1&query=Nextr%20Technology&query_place_id=ChIJI8eBDIbjDDkRPmqowEMO9cU"}, {"place_id": "ChIJ_9CC6_rkDDkRYERKHeCkIx8", "name": "Aryson Technologies", "street": "2nd Floor, A Block, A-58, Block A, Sector 57, Noida, Uttar Pradesh 201309, India", "phone": "+91 120 454 1163", "rating": "3.8", "review_count": "", "website": "https://www.arysontechnologies.com/", "latitude": 28.6010292, "longitude": 77.3542231, "maps_url": "https://www.google.com/maps/search/?api=1&query=Aryson%20Technologies&query_place_id=ChIJ_9CC6_rkDDkRYERKHeCkIx8"}, {"place_id": "ChIJMeuieejiDDkRJtlRONC8WJY", "name": "INFOMERICS Valuation and Rating Limited", "street": "Flat 104-108 Floor, Golf Apartments, Maharshi Raman Marg, Sujan Singh Park, New Delhi, Delhi 110003, India", "phone": "+91 11 2465 4796", "rating": "4.7", "review_count": "", "website": "https://www.infomerics.com/", "latitude": 28.5991413, "longitude": 77.2288398, "maps_url": "https://www.google.com/maps/search/?api=1&query=INFOMERICS%20Valuation%20and%20Rating%20Limited&query_place_id=ChIJMeuieejiDDkRJtlRONC8WJY"}, {"place_id": "ChIJ5yf0_k7kDDkRXvYZJVIQCk0", "name": "Omnie Solutions (I) Pvt Ltd", "street": "D-108, Sector 2, D Block, Sector 2, Noida, Uttar Pradesh 201301, India", "phone": "+91 92667 54671", "rating": "3.4", "review_count": "", "website": "https://www.omniesolutions.com/", "latitude": 28.583485, "longitude": 77.316155, "maps_url": "https://www.google.com/maps/search/?api=1&query=Omnie%20Solutions%20%28I%29%20Pvt%20Ltd&query_place_id=ChIJ5yf0_k7kDDkRXvYZJVIQCk0"}, {"place_id": "ChIJ76qqOprjDDkRsAnu5xyCV8o", "name": "Smart IT Technologies", "street": "Saroj Sadan, 100, Block C, New Friends Colony, New Delhi, Delhi 110025, India", "phone": "+91 88402 74824", "rating": "5", "review_count": "", "website": "https://smartittechnologies.com/", "latitude": 28.5697218, "longitude": 77.2680354, "maps_url": "https://www.google.com/maps/search/?api=1&query=Smart%20IT%20Technologies&query_place_id=ChIJ76qqOprjDDkRsAnu5xyCV8o"}, {"place_id": "ChIJUf96gkzlDDkR_Va7iBg5yqo", "name": "Ambeytech", "street": "New No-B, Ground Floor, B-352, Sangam Gali, Block B, Ashok Nagar Extension, New Ashok Nagar, Delhi, 110096, India", "phone": "+91 80090 04488", "rating": "5", "review_count": "", "website": "https://www.ambeytech.com/", "latitude": 28.5897623, "longitude": 77.303602, "maps_url": "https://www.google.com/maps/search/?api=1&query=Ambeytech&query_place_id=ChIJUf96gkzlDDkR_Va7iBg5yqo"}, {"place_id": "ChIJXWgwMlf7DDkReA3tbrdnyUg", "name": "Namasys Private Limited", "street": "89, Gujrat Vihar Rd, Gujarat Vihar, Swasthya Vihar, New Delhi, Delhi, 110092, India", "phone": "", "rating": "4.1", "review_count": "", "website": "", "latitude": 28.639916, "longitude": 77.291927, "maps_url": "https://www.google.com/maps/search/?api=1&query=Namasys%20Private%20Limited&query_place_id=ChIJXWgwMlf7DDkReA3tbrdnyUg"}, {"place_id": "ChIJA-OJQs_7DDkR8uTuXHr_Puk", "name": "Cloudprisma", "street": "A-44,1st Floor, Sector 10, Noida, Uttar Pradesh 201301, India", "phone": "+91 88269 14880", "rating": "4.7", "review_count": "", "website": "http://www.cloudprisma.io/#/", "latitude": 28.5875788, "longitude": 77.330338, "maps_url": "https://www.google.com/maps/search/?api=1&query=Cloudprisma&query_place_id=ChIJA-OJQs_7DDkR8uTuXHr_Puk"}, {"place_id": "ChIJEyVQAlnkDDkRBG1GryF7pkM", "name": "RV Solutions Private Limited", "street": "D-72, D Block, Sector 2, Noida, Uttar Pradesh 201301, India", "phone": "+91 120 474 4000", "rating": "3.9", "review_count": "", "website": "https://www.rvsolutions.in/", "latitude": 28.5837109, "longitude": 77.3177917, "maps_url": "https://www.google.com/maps/search/?api=1&query=RV%20Solutions%20Private%20Limited&query_place_id=ChIJEyVQAlnkDDkRBG1GryF7pkM"}, {"place_id": "ChIJZZ_5ljP9DDkRFc56Bn8Uf9k", "name": "Shilpi Computers Private Limited", "street": "501-502, 7, Tolstoy Rd, New Delhi, Delhi 110001, India", "phone": "+91 11 4350 0600", "rating": "3.9", "review_count": "", "website": "https://shilpisoft.com/", "latitude": 28.627693899999997, "longitude": 77.2244393, "maps_url": "https://www.google.com/maps/search/?api=1&query=Shilpi%20Computers%20Private%20Limited&query_place_id=ChIJZZ_5ljP9DDkRFc56Bn8Uf9k"}, {"place_id": "ChIJqf6gXDX9DDkRz71t7_HgKx8", "name": "Vayam Technologies Ltd.", "street": "Thapar House, 124, Janpath Ln, Janpath, Connaught Place, New Delhi, Delhi 110001, India", "phone": "+91 11 4710 1200", "rating": "3.8", "review_count": "", "website": "https://www.vayamtech.com/", "latitude": 28.624508, "longitude": 77.21805499999999, "maps_url": "https://www.google.com/maps/search/?api=1&query=Vayam%20Technologies%20Ltd.&query_place_id=ChIJqf6gXDX9DDkRz71t7_HgKx8"}, {"place_id": "ChIJUXDcFB3jDDkRYjzQDRKiN8M", "name": "NBCC Bhawan", "street": "H6RP+PMV, NBCC Bhawan, Lodhi Rd, New Delhi, Delhi 110003, India", "phone": "+91 11 2436 7314", "rating": "4.3", "review_count": "", "website": "http://www.nbccindia.com/", "latitude": 28.5918663, "longitude": 77.23666999999999, "maps_url": "https://www.google.com/maps/search/?api=1&query=NBCC%20Bhawan&query_place_id=ChIJUXDcFB3jDDkRYjzQDRKiN8M"}, {"place_id": "ChIJ9YGkfqT9DDkR58_QwouPd0k", "name": "Pro Innovative Software", "street": "104 Wadhwa complex Laxmi Nagy near metro station gate, Gali No. 1, Delhi, 110092, India", "phone": "+91 97172 74866", "rating": "5", "review_count": "", "website": "http://proinnovativesoftware.com/", "latitude": 28.631063599999997, "longitude": 77.2774999, "maps_url": "https://www.google.com/maps/search/?api=1&query=Pro%20Innovative%20Software&query_place_id=ChIJ9YGkfqT9DDkR58_QwouPd0k"}, {"place_id": "ChIJEbS1uZXjDDkRk2MVB7rDV5A", "name": "IntelliSmart Infrastructure Pvt. Ltd.", "street": "First Floor, Lodhi Rd, Pragati Vihar, New Delhi, Delhi 110003, India", "phone": "+91 124 471 0330", "rating": "4.2", "review_count": "", "website": "https://intellismartinfra.in/", "latitude": 28.586567, "longitude": 77.2307502, "maps_url": "https://www.google.com/maps/search/?api=1&query=IntelliSmart%20Infrastructure%20Pvt.%20Ltd.&query_place_id=ChIJEbS1uZXjDDkRk2MVB7rDV5A"}, {"place_id": "ChIJxQG7qo0GDTkR8PgoXnyMRZ8", "name": "Tekniko Global - Top Mobile App Development Company in Delhi | Android & iOS", "street": "", "phone": "+91 93116 20027", "rating": "4.5", "review_count": "", "website": "https://www.teknikoglobal.com/", "latitude": 28.5870636, "longitude": 77.1721882, "maps_url": "https://www.google.com/maps/search/?api=1&query=Tekniko%20Global%20-%20Top%20Mobile%20App%20Development%20Company%20in%20Delhi%20%7C%20Android%20%26%20iOS&query_place_id=ChIJxQG7qo0GDTkR8PgoXnyMRZ8"}, {"place_id": "ChIJ12n4bv7lDDkRMDPzl2sv_qQ", "name": "Fenebris India Pvt Ltd | Website Development And Digital Marketing Company In Noida", "street": "H-47, H Block, Sector 63, Noida, Uttar Pradesh 201301, India", "phone": "+91 75036 38275", "rating": "4.8", "review_count": "", "website": "https://fenebrisindia.com/", "latitude": 28.6289606, "longitude": 77.376075, "maps_url": "https://www.google.com/maps/search/?api=1&query=Fenebris%20India%20Pvt%20Ltd%20%7C%20Website%20Development%20And%20Digital%20Marketing%20Company%20In%20Noida&query_place_id=ChIJ12n4bv7lDDkRMDPzl2sv_qQ"}, {"place_id": "ChIJVVVVJVrkDDkRpzSlu5B0ooM", "name": "Parangat Technologies", "street": "", "phone": "+91 87002 13345", "rating": "4.1", "review_count": "", "website": "https://www.parangat.com/", "latitude": 9.374110199999999, "longitude": -74.9524576, "maps_url": "https://www.google.com/maps/search/?api=1&query=Parangat%20Technologies&query_place_id=ChIJVVVVJVrkDDkRpzSlu5B0ooM"}, {"place_id": "ChIJ2d2-esjjDDkRdIRlm-QAhaY", "name": "IT Magnum Opus", "street": "P-31, Sriniwaspuri Extn, Block Q, Private Colony, Sri Niwaspuri, New Delhi, Delhi 110065, India", "phone": "", "rating": "4.8", "review_count": "", "website": "https://www.itmo.in/", "latitude": 28.5626805, "longitude": 77.2597913, "maps_url": "https://www.google.com/maps/search/?api=1&query=IT%20Magnum%20Opus&query_place_id=ChIJ2d2-esjjDDkRdIRlm-QAhaY"}, {"place_id": "ChIJVVVVlSbnDDkRA0rPyXKGXdc", "name": "SNeT Labs Pvt Ltd", "street": "IHDP Business Park, Noida-Greater Noida Expy, Sector 127, Noida, Uttar Pradesh 201313, India", "phone": "", "rating": "5", "review_count": "", "website": "http://snetlabs.com/", "latitude": 28.5344402, "longitude": 77.3474012, "maps_url": "https://www.google.com/maps/search/?api=1&query=SNeT%20Labs%20Pvt%20Ltd&query_place_id=ChIJVVVVlSbnDDkRA0rPyXKGXdc"}, {"place_id": "ChIJNfgscvHiDDkRzNz7tbbsXpg", "name": "Bombay Shirt Company - Custom Shirts, T-Shirts & Clothing", "street": "42A, Khan Market, Rabindra Nagar, New Delhi, Delhi 110003, India", "phone": "+91 79977 15655", "rating": "4.1", "review_count": "", "website": "https://www.bombayshirts.com/?utm_source=google&utm_medium=google-my-business", "latitude": 28.6009073, "longitude": 77.2274046, "maps_url": "https://www.google.com/maps/search/?api=1&query=Bombay%20Shirt%20Company%20-%20Custom%20Shirts%2C%20T-Shirts%20%26%20Clothing&query_place_id=ChIJNfgscvHiDDkRzNz7tbbsXpg"}, {"place_id": "ChIJIZW4JJrjDDkRqQX9KF5siG4", "name": "Cloude Data Delhi | Best Cloud Service Provider company in India", "street": "First Floor, A 212, Okhla Phase 3 Rd, near by hdfc bank, Okhla Phase III, Okhla Industrial Estate, New Delhi, Delhi 110020, India", "phone": "+91 88823 53612", "rating": "4.7", "review_count": "", "website": "https://cloudedata.com/", "latitude": 28.548515, "longitude": 77.2712834, "maps_url": "https://www.google.com/maps/search/?api=1&query=Cloude%20Data%20Delhi%20%7C%20Best%20Cloud%20Service%20Provider%20company%20in%20India&query_place_id=ChIJIZW4JJrjDDkRqQX9KF5siG4"}, {"place_id": "ChIJY7a1rLz9DDkRt2EnfK2suWE", "name": "Digital Duniya Online Solution (DDOS)", "street": "12/351, CR Rd, Veer Savarkar Block, Block D, Laxmi Nagar, New Delhi, Delhi, 110092, India", "phone": "+91 96251 64950", "rating": "5", "review_count": "", "website": "", "latitude": 28.630969099999998, "longitude": 77.2757322, "maps_url": "https://www.google.com/maps/search/?api=1&query=Digital%20Duniya%20Online%20Solution%20%28DDOS%29&query_place_id=ChIJY7a1rLz9DDkRt2EnfK2suWE"}, {"place_id": "ChIJISP8EAAbDTkRB_BcgUwV6RI", "name": "Prashant Dwivedi IT company", "street": "G3P5+GVC, Nayak Pura, Bijwasan, Delhi, 110061, India", "phone": "", "rating": "", "review_count": "", "website": "", "latitude": 28.536316, "longitude": 77.059649, "maps_url": "https://www.google.com/maps/search/?api=1&query=Prashant%20Dwivedi%20IT%20company&query_place_id=ChIJISP8EAAbDTkRB_BcgUwV6RI"}, {"place_id": "ChIJZRaY6bXjDDkRPL7VkG-R024", "name": "Netsoft Consulting Services", "street": "24, IInd Floor, Community Center, East Of Kailash, behind Sapna Cinema, New Delhi, Delhi 110065, India", "phone": "+91 11 4533 0000", "rating": "3.5", "review_count": "", "website": "https://netsoftit.com/contact-us/", "latitude": 28.5583678, "longitude": 77.24568579999999, "maps_url": "https://www.google.com/maps/search/?api=1&query=Netsoft%20Consulting%20Services&query_place_id=ChIJZRaY6bXjDDkRPL7VkG-R024"}, {"place_id": "ChIJwWei-E3jDDkRyIj0RMkF7Qo", "name": "Ostello India", "street": "Jangpura Extension, Block A, Jungpura Extension, Jal Vihar, New Delhi, Delhi 110024, India", "phone": "+91 85952 62946", "rating": "4.5", "review_count": "", "website": "https://www.ostello.co.in/", "latitude": 28.5766097, "longitude": 77.24786809999999, "maps_url": "https://www.google.com/maps/search/?api=1&query=Ostello%20India&query_place_id=ChIJwWei-E3jDDkRyIj0RMkF7Qo"}, {"place_id": "ChIJnSs9bl_iDDkRm_Ull_yg81c", "name": "YATRA POINT TOURISM COMPANY INDIA", "street": "OFFICE NO-7, BULDING NO N-1, LGF, 4, near BANSALI JEWLLERS L, South Extension I, New Delhi, Delhi 110003, India", "phone": "+91 88600 16982", "rating": "4.9", "review_count": "", "website": "", "latitude": 28.574078, "longitude": 77.219089, "maps_url": "https://www.google.com/maps/search/?api=1&query=YATRA%20POINT%20TOURISM%20COMPANY%20INDIA&query_place_id=ChIJnSs9bl_iDDkRm_Ull_yg81c"}, {"place_id": "ChIJa7qbUsnjDDkRPwDDUOauMM0", "name": "SmartValue Limited New Delhi", "street": "M-17, Second Floor, Lajpat Nagar II, New Delhi, Delhi 110024, India", "phone": "+91 11 4101 5963", "rating": "4.9", "review_count": "", "website": "https://smartvalue.biz/", "latitude": 28.5685988, "longitude": 77.2476595, "maps_url": "https://www.google.com/maps/search/?api=1&query=SmartValue%20Limited%20New%20Delhi&query_place_id=ChIJa7qbUsnjDDkRPwDDUOauMM0"}, {"place_id": "ChIJGVzLMPrjDDkRVN2xjf7DucI", "name": "KIREN SMART SERVICES", "street": "D-196, New, G/F, Lajpat Nagar I, Lajpat Nagar, New Delhi, Delhi 110024, India", "phone": "+91 98739 07360", "rating": "4.1", "review_count": "", "website": "https://kirensmartservices.com/", "latitude": 28.5785903, "longitude": 77.2423422, "maps_url": "https://www.google.com/maps/search/?api=1&query=KIREN%20SMART%20SERVICES&query_place_id=ChIJGVzLMPrjDDkRVN2xjf7DucI"}, {"place_id": "ChIJVVVVlVfhDDkRc3UN0AGouJs", "name": "DreamSoft Infotech - Website Development Company in India", "street": "A-75 Third Floor, A Block, Sector 5, Noida, Uttar Pradesh 201301, India", "phone": "+91 120 438 0622", "rating": "3.2", "review_count": "", "website": "https://dreamsoftinfotech.com/", "latitude": 28.591018899999998, "longitude": 77.32201529999999, "maps_url": "https://www.google.com/maps/search/?api=1&query=DreamSoft%20Infotech%20-%20Website%20Development%20Company%20in%20India&query_place_id=ChIJVVVVlVfhDDkRc3UN0AGouJs"}, {"place_id": "ChIJN4Wj8WPjDDkR9kCIMW4ZIxM", "name": "Courier Medicines International Services", "street": "Shop No.7, 1st Floor, Market, Block C, Nizamuddin West, New Delhi, Delhi 110013, India", "phone": "+91 88826 91919", "rating": "4.9", "review_count": "", "website": "https://www.couriermedicines.com/", "latitude": 28.5894537, "longitude": 77.2452916, "maps_url": "https://www.google.com/maps/search/?api=1&query=Courier%20Medicines%20International%20Services&query_place_id=ChIJN4Wj8WPjDDkR9kCIMW4ZIxM"}, {"place_id": "ChIJV5b4yDX9DDkRdJwaZgRwvK0", "name": "Sterco Digitex Pvt Limited", "street": "2nd Floor, 72, Janpath Rd, Atul Grove Road, Janpath, Connaught Place, New Delhi, Delhi 110001, India", "phone": "+91 120 485 7333", "rating": "4.1", "review_count": "", "website": "https://www.stercodigitex.com/", "latitude": 28.628133, "longitude": 77.21985099999999, "maps_url": "https://www.google.com/maps/search/?api=1&query=Sterco%20Digitex%20Pvt%20Limited&query_place_id=ChIJV5b4yDX9DDkRdJwaZgRwvK0"}, {"place_id": "ChIJk7iRfy_jDDkRAvUpt36-wvc", "name": "Digital marketing Company, website Designing Company ( Logo Designing Company ) ( Online Marketplace )", "street": "120-G, Hari Nagar Ashram, New Delhi, Delhi 110065, India", "phone": "+91 89201 38925", "rating": "5", "review_count": "", "website": "https://royalcruiselimos.com/", "latitude": 28.5718902, "longitude": 77.2559809, "maps_url": "https://www.google.com/maps/search/?api=1&query=Digital%20marketing%20Company%2C%20website%20Designing%20Company%20%28%20Logo%20Designing%20Company%20%29%20%28%20Online%20Marketplace%20%29&query_place_id=ChIJk7iRfy_jDDkRAvUpt36-wvc"}, {"place_id": "ChIJDbwn9uHiDDkRBBQtqfRdwkA", "name": "The Oberoi, New Delhi", "street": "Dr Zakir Hussain Marg, Delhi Golf Club, Golf Links, New Delhi, Delhi 110003, India", "phone": "+91 11 2436 3030", "rating": "4.6", "review_count": "", "website": "https://www.oberoihotels.com/hotels-in-delhi/?utm_source=GMBlisting&utm_medium=organic", "latitude": 28.596300099999997, "longitude": 77.2396602, "maps_url": "https://www.google.com/maps/search/?api=1&query=The%20Oberoi%2C%20New%20Delhi&query_place_id=ChIJDbwn9uHiDDkRBBQtqfRdwkA"}, {"place_id": "ChIJX4RYyAfjDDkRheojUcJIKFA", "name": "Al Hassan Group | Global Leaders in Exports and Imports", "street": "14/746, 14/746, NH-19, Opposite-Rajdoot Hotel, Bhogal, New Delhi, Delhi 110014, India", "phone": "+91 95555 10115", "rating": "4.7", "review_count": "", "website": "http://www.alhassangroup.in/", "latitude": 28.582683099999997, "longitude": 77.2510777, "maps_url": "https://www.google.com/maps/search/?api=1&query=Al%20Hassan%20Group%20%7C%20Global%20Leaders%20in%20Exports%20and%20Imports&query_place_id=ChIJX4RYyAfjDDkRheojUcJIKFA"}, {"place_id": "ChIJpWa_fFviDDkRq3qmI_sKcf4", "name": "Jetking South Ext. Learning Center", "street": "F-38 , Second Floor, Infront of McDonald Part 1, South Extension I, Block F, New Delhi, Delhi 110049, India", "phone": "+91 11 4106 8989", "rating": "4.7", "review_count": "", "website": "https://www.jetking.com/centres/south-extension", "latitude": 28.569656, "longitude": 77.2196429, "maps_url": "https://www.google.com/maps/search/?api=1&query=Jetking%20South%20Ext.%20Learning%20Center&query_place_id=ChIJpWa_fFviDDkRq3qmI_sKcf4"}, {"place_id": "ChIJuYpQtiwbDTkRKs4WsdsjzB4", "name": "India Data Entry Services", "street": "", "phone": "+91 90156 66732", "rating": "4.6", "review_count": "", "website": "http://www.india-data-entry-services.com/", "latitude": 28.5273522, "longitude": 77.20898509999999, "maps_url": "https://www.google.com/maps/search/?api=1&query=India%20Data%20Entry%20Services&query_place_id=ChIJuYpQtiwbDTkRKs4WsdsjzB4"}, {"place_id": "ChIJk-scg6DkDDkR6V3KZ9zkhCI", "name": "Facts 'n' Data (India's top AI, ML, Advanced Data Analytics, Text Mining & Market Research company)", "street": "Suite 101, C-240, Pandav Nagar (Off NH-24), Just behind Pandav Nagar bus stop on NH24, AH2, Pandav Nagar, Delhi, 110092, India", "phone": "+91 11 4102 0300", "rating": "4.4", "review_count": "", "website": "http://www.factsndata.com/", "latitude": 28.615473299999998, "longitude": 77.2842809, "maps_url": "https://www.google.com/maps/search/?api=1&query=Facts%20%27n%27%20Data%20%28India%27s%20top%20AI%2C%20ML%2C%20Advanced%20Data%20Analytics%2C%20Text%20Mining%20%26%20Market%20Research%20company%29&query_place_id=ChIJk-scg6DkDDkR6V3KZ9zkhCI"}, {"place_id": "ChIJux__hs3jDDkRxoobTG-_uyU", "name": "National Company Law Appellate Tribunal", "street": "2nd & 3rd Floor of Mahanagar Doorsanchar Sadan (M.T.N.L. Building), 9, Lodhi Rd, CGO Complex, Pragati Vihar, New Delhi, Delhi 110003, India", "phone": "+91 11 2430 6834", "rating": "4.4", "review_count": "", "website": "http://www.nclat.nic.in/", "latitude": 28.5845354, "longitude": 77.23733519999999, "maps_url": "https://www.google.com/maps/search/?api=1&query=National%20Company%20Law%20Appellate%20Tribunal&query_place_id=ChIJux__hs3jDDkRxoobTG-_uyU"}, {"place_id": "ChIJf9eSL93jDDkRGMay-Uid90Q", "name": "Adv. Ravi S Gupta", "street": "5/27B, Jangpura B, Jangpura, New Delhi, Delhi 110014, India", "phone": "+91 83184 03562", "rating": "4.9", "review_count": "", "website": "https://www.youtube.com/channel/UCRC9NVeX6iIJVCR9pEYJYGA/featured", "latitude": 28.601489299999997, "longitude": 77.2319512, "maps_url": "https://www.google.com/maps/search/?api=1&query=Adv.%20Ravi%20S%20Gupta&query_place_id=ChIJf9eSL93jDDkRGMay-Uid90Q"}]