{"timestamp": 1773730339.7899082, "keyword": "IT company", "location": "delhi", "cell_idx": 223, "results": [{"place_id": "0x390ce3ecb114ad9b:0x831bb62ea721e15", "name": "\ud835\udc06\ud835\udc22\ud835\udc2d\ud835\udc32\ud835\udc2c\ud835\udc28\ud835\udc1f\ud835\udc2d\u00ae \ud835\udc13\ud835\udc1e\ud835\udc1c\ud835\udc21\ud835\udc27\ud835\udc28\ud835\udc25\ud835\udc28\ud835\udc20\ud835\udc22\ud835\udc1e\ud835\udc2c", "category": "Software company", "street": "Pocket-M, Chitranjan Park", "city": "Police Station", "phone": "09821150988", "website": "https://gitysoft.com/", "rating": 5, "review_count": "", "latitude": 28.5396921, "longitude": 77.24901009999999, "maps_url": "https://www.google.com/maps/place/?q=place_id:0x390ce3ecb114ad9b:0x831bb62ea721e15"}, {"place_id": "0x390ce22b1e3df285:0xc37f9f117b75ba56", "name": "Ubitech Solutions Pvt Ltd", "category": "Software company", "street": "S-553, Inder Mohan Bhardwaj Marg", "city": "Block E, Greater Kailash II, Greater Kailash", "phone": "", "website": "http://www.ubitechsolutions.com/", "rating": 4.7, "review_count": "", "latitude": 28.5364878, "longitude": 77.2388501, "maps_url": "https://www.google.com/maps/place/?q=place_id:0x390ce22b1e3df285:0xc37f9f117b75ba56"}, {"place_id": "0x390ce17fe586541d:0x425e234a344ee8b2", "name": "Trident Information Systems Pvt Ltd", "category": "Software company", "street": "M-31A, M Block Market", "city": "Block M, Greater Kailash II, Greater Kailash", "phone": "01129219927", "website": "https://www.tridentinfo.com/", "rating": 3.6, "review_count": "", "latitude": 28.5333558, "longitude": 77.2412192, "maps_url": "https://www.google.com/maps/place/?q=place_id:0x390ce17fe586541d:0x425e234a344ee8b2"}, {"place_id": "0x390ce36d0e7ba9bb:0x3b9c152eb438eda9", "name": "Anu International (Tally Certified Partner)", "category": "Software company", "street": "LGF M, block market", "city": "M/168", "phone": "", "website": "https://www.anuinternational.co.in/?utm_source=GMB&utm_medium=GMB&utm_campaign=GMB&utm_id=GMB", "rating": 4.5, "review_count": "", "latitude": 28.535374299999997, "longitude": 77.24458849999999, "maps_url": "https://www.google.com/maps/place/?q=place_id:0x390ce36d0e7ba9bb:0x3b9c152eb438eda9"}, {"place_id": "0x390ce3c153b89811:0xe7a279685777e9ca", "name": "IT Company", "category": "Automation company", "street": "A-14", "city": "near iskcon temple", "phone": "", "website": "http://www.opuswiz.com/", "rating": 3, "review_count": "", "latitude": 28.557167, "longitude": 77.25424819999999, "maps_url": "https://www.google.com/maps/place/?q=place_id:0x390ce3c153b89811:0xe7a279685777e9ca"}, {"place_id": "0x390ce1597b5509e5:0xfd8209b937b44d3c", "name": "IT Solutions India Private Limited", "category": "Software company", "street": "D-88/5", "city": "Pocket D, Okhla Phase I, Okhla Industrial Estate", "phone": "09810017429", "website": "https://www.itsipl.com/", "rating": 4.2, "review_count": "", "latitude": 28.520146, "longitude": 77.280431, "maps_url": "https://www.google.com/maps/place/?q=place_id:0x390ce1597b5509e5:0xfd8209b937b44d3c"}, {"place_id": "0x390ce3de4687a317:0x587eff2ec36e0933", "name": "SNJ Solutions Pvt Ltd", "category": "Software company", "street": "", "city": "", "phone": "09958110050", "website": "http://www.snjsolutions.co.in/", "rating": 4.9, "review_count": "", "latitude": 21.0680074, "longitude": 82.7525294, "maps_url": "https://www.google.com/maps/place/?q=place_id:0x390ce3de4687a317:0x587eff2ec36e0933"}, {"place_id": "0x390ce14964a76d17:0x7e93eacb961b15be", "name": "Edge N Roots Solutions Pvt Ltd", "category": "Software company", "street": "Basement", "city": "E - 497", "phone": "09920898167", "website": "https://www.edgenroots.com/", "rating": 5, "review_count": "", "latitude": 28.5357824, "longitude": 77.2396983, "maps_url": "https://www.google.com/maps/place/?q=place_id:0x390ce14964a76d17:0x7e93eacb961b15be"}, {"place_id": "0x390ce458d0000001:0xf2123bd299ec4501", "name": "IT Company India", "category": "Software company", "street": "D56", "city": "D Block, Sector 10", "phone": "09999244854", "website": "https://www.itcompanyindia.in/", "rating": 4.7, "review_count": "", "latitude": 28.589917699999997, "longitude": 77.3351153, "maps_url": "https://www.google.com/maps/place/?q=place_id:0x390ce458d0000001:0xf2123bd299ec4501"}, {"place_id": "0x390ce161ceec9d85:0x952e8b11295dfe85", "name": "HYBEC IT SOLUTION", "category": "Software company", "street": "National Small Industries Corporation", "city": "Block F, Okhla Phase III, Okhla Industrial Estate", "phone": "01149128591", "website": "http://www.hybecitsolutions.com/", "rating": 4.8, "review_count": "", "latitude": 28.5490569, "longitude": 77.2674236, "maps_url": "https://www.google.com/maps/place/?q=place_id:0x390ce161ceec9d85:0x952e8b11295dfe85"}, {"place_id": "0x390ce3c7b85554e5:0x34e439c15e247631", "name": "HAUT IT Solutions Pvt. Ltd", "category": "Software company", "street": "390", "city": "Sant Nagar, East of Kailash", "phone": "09934753003", "website": "http://www.hautitsolutions.com/", "rating": 4.3, "review_count": "", "latitude": 28.554910099999997, "longitude": 77.25111249999999, "maps_url": "https://www.google.com/maps/place/?q=place_id:0x390ce3c7b85554e5:0x34e439c15e247631"}, {"place_id": "0x390ce456aaaaaaab:0x6e4e087895622564", "name": "Klasiinn", "category": "Software company", "street": "E-506, Inder Mohan Bhardwaj Marg", "city": "Block E, Greater Kailash II, Greater Kailash", "phone": "07827882870", "website": "http://klasiinn.in/", "rating": 5, "review_count": "", "latitude": 28.5358657, "longitude": 77.2384798, "maps_url": "https://www.google.com/maps/place/?q=place_id:0x390ce456aaaaaaab:0x6e4e087895622564"}, {"place_id": "0x390ce3cfe91504eb:0x3c8b7fe3aa9e515d", "name": "Intec Infonet Pvt. Ltd", "category": "Software company", "street": "701, Manjusha Building, 57, Nehru Place, New Delhi 110019", "city": "New Delhi, Delhi 110019", "phone": "01146522400", "website": "https://intecinfonet.com/", "rating": 4.2, "review_count": "", "latitude": 28.543701, "longitude": 77.2524057, "maps_url": "https://www.google.com/maps/place/?q=place_id:0x390ce3cfe91504eb:0x3c8b7fe3aa9e515d"}, {"place_id": "0x390ce24a87ca31a7:0x90833076be8cc23d", "name": "Zindagi Technologies Private Limited", "category": "Software company", "street": "301-302, 3rd Floor 40-41 Bakshi House", "city": "Nehru Place", "phone": "09773973971", "website": "http://www.zindagitech.com/", "rating": 4.4, "review_count": "", "latitude": 28.5490276, "longitude": 77.25120179999999, "maps_url": "https://www.google.com/maps/place/?q=place_id:0x390ce24a87ca31a7:0x90833076be8cc23d"}, {"place_id": "0x390cfd309eebed77:0xf47bee595f075e26", "name": "Asfera Technologies Private Limited | Dialer Software Company", "category": "Software company", "street": "59/1", "city": "Saroj Tower, Office No:- 15", "phone": "09066677770", "website": "https://www.asfera.in/", "rating": 4.6, "review_count": "", "latitude": 28.540130599999998, "longitude": 77.2619868, "maps_url": "https://www.google.com/maps/place/?q=place_id:0x390cfd309eebed77:0xf47bee595f075e26"}, {"place_id": "0x390ce22b4feb8665:0x5fd99f38dcc6d5d", "name": "Excellanto", "category": "Software company", "street": "E block", "city": "Greater Kailash II, Greater Kailash", "phone": "", "website": "http://excellanto.com/", "rating": 4.4, "review_count": "", "latitude": 28.538671599999997, "longitude": 77.2398654, "maps_url": "https://www.google.com/maps/place/?q=place_id:0x390ce22b4feb8665:0x5fd99f38dcc6d5d"}, {"place_id": "0x390ce22c021eaa3f:0x8fff197cd24f0daf", "name": "Art Attackk-Website Designing Company In Delhi", "category": "Software company", "street": "E-92, Block E Greater Kailash Rd Number 3", "city": "Greater Kailash Part 3, Masjid Moth, Greater Kailash", "phone": "09499399914", "website": "https://www.artattackk.com/", "rating": 4.2, "review_count": "", "latitude": 28.5394227, "longitude": 77.2349143, "maps_url": "https://www.google.com/maps/place/?q=place_id:0x390ce22c021eaa3f:0x8fff197cd24f0daf"}, {"place_id": "0x390ce3da790a3cab:0xfd8f182a6e5d2b18", "name": "Image Infosystems Pvt. Ltd.", "category": "Software company", "street": "B-38, Hansraj Sethi Marg", "city": "Block B, Kalkaji", "phone": "01140536653", "website": "http://www.imageinfosystems.com/", "rating": 2.8, "review_count": "", "latitude": 28.5429967, "longitude": 77.2523138, "maps_url": "https://www.google.com/maps/place/?q=place_id:0x390ce3da790a3cab:0xfd8f182a6e5d2b18"}, {"place_id": "0x390ce1ce534cb1e5:0x39fe77c42bc52616", "name": "ITeSolution- Odoo ERP , Mobile/Web Application Development Software Company in Noida, Delhi NCR India.", "category": "Software company", "street": "RZ60/9", "city": "T/F, Tughlakabad Extension, Tughlakabad", "phone": "09889294124", "website": "https://www.itesolution.co.in/", "rating": 4.9, "review_count": "", "latitude": 28.520523899999997, "longitude": 77.2570535, "maps_url": "https://www.google.com/maps/place/?q=place_id:0x390ce1ce534cb1e5:0x39fe77c42bc52616"}, {"place_id": "0x390ce3d563aaaf27:0x5bfd874f70ab239e", "name": "Servolts Private Limited", "category": "Electronics manufacturer", "street": "E block", "city": "Block E, Greater Kailash II, Greater Kailash", "phone": "08700359635", "website": "http://servolts.com/", "rating": 4.7, "review_count": "", "latitude": 28.536655699999997, "longitude": 77.240179, "maps_url": "https://www.google.com/maps/place/?q=place_id:0x390ce3d563aaaf27:0x5bfd874f70ab239e"}, {"place_id": "0x390ce3cfe91504eb:0x55346c5c499223d7", "name": "CCS Computers Private Limited", "category": "Computer support and services", "street": "2nd-3rd Floor Skipper House", "city": "Nehru Place", "phone": "01126463959", "website": "http://www.ccscomputers.co.in/", "rating": 4, "review_count": "", "latitude": 28.550090599999997, "longitude": 77.2537834, "maps_url": "https://www.google.com/maps/place/?q=place_id:0x390ce3cfe91504eb:0x55346c5c499223d7"}, {"place_id": "0x390ce17fb4c77baf:0x2e51118d1d34389d", "name": "White Shrub Pvt. Ltd.", "category": "Corporate office", "street": "1st & 3rd Floor", "city": "M Block", "phone": "01141704861", "website": "https://cherrycrumble.com/", "rating": 3.9, "review_count": "", "latitude": 28.536027999999998, "longitude": 77.2448969, "maps_url": "https://www.google.com/maps/place/?q=place_id:0x390ce17fb4c77baf:0x2e51118d1d34389d"}, {"place_id": "0x390ce3b68b67bf77:0x230736611437ecc2", "name": "SIGN INFOTECH PVT. LTD.", "category": "Software company", "street": "Tarachand Complex", "city": "Ramesh Market", "phone": "09990968968", "website": "https://www.signinfotech.com/", "rating": 4.7, "review_count": "", "latitude": 28.560171699999998, "longitude": 77.2470374, "maps_url": "https://www.google.com/maps/place/?q=place_id:0x390ce3b68b67bf77:0x230736611437ecc2"}, {"place_id": "0x4ebf586dbe4d7c09:0x968455c83bf5226c", "name": "Anchor IT Solutions- App Development | Website Development | Digital Marketing", "category": "Software company", "street": "4", "city": "Vinoba Puri, Lajpat Nagar II, Lajpat Nagar", "phone": "07678658584", "website": "", "rating": 4.8, "review_count": "", "latitude": 28.566371399999998, "longitude": 77.2486924, "maps_url": "https://www.google.com/maps/place/?q=place_id:0x4ebf586dbe4d7c09:0x968455c83bf5226c"}, {"place_id": "0x390ce25760ae61cf:0x2c2e6858f3630d53", "name": "LiberatedIT LLP", "category": "Software company", "street": "B 68 - A", "city": "Block B, Kalkaji", "phone": "01140073228", "website": "https://www.liberatedit.com/", "rating": 5, "review_count": "", "latitude": 28.5445571, "longitude": 77.2508533, "maps_url": "https://www.google.com/maps/place/?q=place_id:0x390ce25760ae61cf:0x2c2e6858f3630d53"}, {"place_id": "0x390ce3d7e429ecff:0x58bc68b5c1891388", "name": "APRG ADVANCED SYSTEMS PVT. LTD.", "category": "Computer service", "street": "K1/123, basement block K1.Chittaranjan Park", "city": "near k1/block", "phone": "09871385513", "website": "", "rating": 4.5, "review_count": "", "latitude": 28.537053, "longitude": 77.2457032, "maps_url": "https://www.google.com/maps/place/?q=place_id:0x390ce3d7e429ecff:0x58bc68b5c1891388"}, {"place_id": "0x390ce22ae5104c51:0x2323d373ce668ed3", "name": "IT-TAAS Pvt Ltd", "category": "Software company", "street": "E-506, Inder Mohan Bhardwaj Marg", "city": "Block E, Greater Kailash II, Greater Kailash", "phone": "09810134631", "website": "http://it-taas.com/", "rating": "", "review_count": "", "latitude": 28.535871999999998, "longitude": 77.23848699999999, "maps_url": "https://www.google.com/maps/place/?q=place_id:0x390ce22ae5104c51:0x2323d373ce668ed3"}, {"place_id": "0x390ce25e35e99b33:0xf443abe69b4e8fcc", "name": "Synapse Valuetech Private Limited", "category": "Software company", "street": "Lower Ground Floor", "city": "221", "phone": "01146628882", "website": "https://www.synapsevaluetech.com/", "rating": 4.3, "review_count": "", "latitude": 28.558165, "longitude": 77.2592385, "maps_url": "https://www.google.com/maps/place/?q=place_id:0x390ce25e35e99b33:0xf443abe69b4e8fcc"}, {"place_id": "0x390ce371c6d3e1b3:0xbdeb4934e1e5c194", "name": "Genrise Global Staffing Pvt. Ltd.", "category": "Employment consultant", "street": "11, LSC, 3rd Floor Masjid Moth", "city": "Greater Kailash II", "phone": "08383938534", "website": "http://www.genrise.in/", "rating": 4.8, "review_count": "", "latitude": 28.5377527, "longitude": 77.2387964, "maps_url": "https://www.google.com/maps/place/?q=place_id:0x390ce371c6d3e1b3:0xbdeb4934e1e5c194"}, {"place_id": "0x390ce3c598407061:0xa2f861b330a8229c", "name": "Nexgen Techtronics Pvt Ltd", "category": "Computer service", "street": "109 A", "city": "49-50", "phone": "08588814701", "website": "http://www.ntpl.co.in/", "rating": 4.7, "review_count": "", "latitude": 28.549304499999998, "longitude": 77.2514264, "maps_url": "https://www.google.com/maps/place/?q=place_id:0x390ce3c598407061:0xa2f861b330a8229c"}, {"place_id": "0x390ce3db95d863cf:0x123d54c64dea3a57", "name": "The IT house warehouse", "category": "Warehouse", "street": "N27", "city": "Block N, Chittaranjan Park", "phone": "", "website": "", "rating": 4.5, "review_count": "", "latitude": 28.5351476, "longitude": 77.24650419999999, "maps_url": "https://www.google.com/maps/place/?q=place_id:0x390ce3db95d863cf:0x123d54c64dea3a57"}, {"place_id": "0x390ce22ae3684337:0xc2ecf67dc6b6f6d", "name": "Socially India | Best Social Media, SEO & Web Development Company \u2013 Delhi", "category": "Internet marketing service", "street": "D-52", "city": "Greater Kailash Enclave II, Greater Kailash", "phone": "06364220927", "website": "https://www.socially.co.in/", "rating": 4.4, "review_count": "", "latitude": 28.539206, "longitude": 77.238461, "maps_url": "https://www.google.com/maps/place/?q=place_id:0x390ce22ae3684337:0xc2ecf67dc6b6f6d"}, {"place_id": "0x390ce26a10000001:0x1cb0bf1e5671be40", "name": "S. Shalu Construction Pvt. Ltd.", "category": "Real Estate Builders & Construction Company", "street": "91, CR Park Main Rd", "city": "Block E, Block A, Chittaranjan Park", "phone": "08130660019", "website": "", "rating": 4.5, "review_count": "", "latitude": 28.5375572, "longitude": 77.24154949999999, "maps_url": "https://www.google.com/maps/place/?q=place_id:0x390ce26a10000001:0x1cb0bf1e5671be40"}, {"place_id": "0x390ceff4374e0e67:0x7a3e15b641b77c8d", "name": "FindiBANKIT", "category": "Corporate office", "street": "7th Floor", "city": "708 - 711", "phone": "08142600000", "website": "http://www.bankit.in/", "rating": 4, "review_count": "", "latitude": 28.548461, "longitude": 77.2513416, "maps_url": "https://www.google.com/maps/place/?q=place_id:0x390ceff4374e0e67:0x7a3e15b641b77c8d"}, {"place_id": "0x390ce3ca2a26c269:0x5abe1b30660c1627", "name": "Film Production House | Getintofilm\u00ae Film Production Company", "category": "Film Production Company", "street": "Gate 3, Magenta) Metro Station", "city": "1st Floor, Above Fish Zone, B1", "phone": "09910239660", "website": "https://getintofilm.com/", "rating": 4.8, "review_count": "", "latitude": 28.5414848, "longitude": 77.2395519, "maps_url": "https://www.google.com/maps/place/?q=place_id:0x390ce3ca2a26c269:0x5abe1b30660c1627"}, {"place_id": "0x390ce22b4fec8605:0xcd8c647ea2dd61ff", "name": "Nesta Events & MICE", "category": "Event management company", "street": "M 155", "city": "2", "phone": "09810518665", "website": "http://nestaevents.in/", "rating": 5, "review_count": "", "latitude": 28.5359454, "longitude": 77.2434269, "maps_url": "https://www.google.com/maps/place/?q=place_id:0x390ce22b4fec8605:0xcd8c647ea2dd61ff"}, {"place_id": "0x390ce3e5a44aa587:0x4016a917c7cf5e88", "name": "Microsoft Dynamics 365 Partner in India", "category": "Software company", "street": "2nd Floor", "city": "M31-A, Market", "phone": "", "website": "http://www.tridentinfo.com/", "rating": 5, "review_count": "", "latitude": 28.5367692, "longitude": 77.2423065, "maps_url": "https://www.google.com/maps/place/?q=place_id:0x390ce3e5a44aa587:0x4016a917c7cf5e88"}, {"place_id": "0x390ce37424493093:0x41f8ff8e20a5afc7", "name": "Digital TopGuns", "category": "Website designer", "street": "F - 57 LGF", "city": "Block F, Kalkaji", "phone": "09354421095", "website": "https://digitaltopguns.in/", "rating": 4.6, "review_count": "", "latitude": 28.5412243, "longitude": 77.253332, "maps_url": "https://www.google.com/maps/place/?q=place_id:0x390ce37424493093:0x41f8ff8e20a5afc7"}, {"place_id": "0x390ce3d53fffffff:0x829d31491cb85b41", "name": "COEUS LEARNING SOLUTIONS", "category": "Learning center", "street": "S- 66, 3rd floor", "city": "Block E, Greater Kailash II, Greater Kailash", "phone": "09873182232", "website": "https://www.coeuslearningsolutions.com/", "rating": 5, "review_count": "", "latitude": 28.535359999999997, "longitude": 77.2419522, "maps_url": "https://www.google.com/maps/place/?q=place_id:0x390ce3d53fffffff:0x829d31491cb85b41"}, {"place_id": "0x390ce3ad1110066f:0x6b379fb5729821ac", "name": "Tssg-Tech", "category": "Website designer", "street": "Block B, Kalkaji", "city": "New Delhi, Delhi, 110019", "phone": "09599669486", "website": "https://tssgtech.info/", "rating": 5, "review_count": "", "latitude": 28.541919399999998, "longitude": 77.2523604, "maps_url": "https://www.google.com/maps/place/?q=place_id:0x390ce3ad1110066f:0x6b379fb5729821ac"}, {"place_id": "0x390ce22afb522983:0xbbb38c6f18431e5d", "name": "SAI IT Solutions Pvt. Ltd", "category": "Software company", "street": "S 273, Inder Mohan Bhardwaj Marg", "city": "Block E, Greater Kailash II, Greater Kailash", "phone": "", "website": "http://sis-solutions.co.in/", "rating": "", "review_count": "", "latitude": 28.535971399999998, "longitude": 77.2383672, "maps_url": "https://www.google.com/maps/place/?q=place_id:0x390ce22afb522983:0xbbb38c6f18431e5d"}, {"place_id": "0x390ce3d5245b4a17:0xc1203003f351dd52", "name": "Mentorpreneur Advisors", "category": "Corporate office", "street": "16, Sahgal Market 2", "city": "Block E, Greater Kailash II, Greater Kailash", "phone": "", "website": "http://www.mentorpreneur.com/", "rating": 4.9, "review_count": "", "latitude": 28.536270799999997, "longitude": 77.2414932, "maps_url": "https://www.google.com/maps/place/?q=place_id:0x390ce3d5245b4a17:0xc1203003f351dd52"}, {"place_id": "0x390ce360351fd741:0xc3ea6d0eaa0dcf2", "name": "SS IT SOLUTIONS", "category": "Business networking company", "street": "House no-231, Gali no-10 ,Garhi village, Amrita puri-B, East of Kailash New Delhi-210065", "city": "nr. iskon temple", "phone": "", "website": "", "rating": 5, "review_count": "", "latitude": 28.5571506, "longitude": 77.2518224, "maps_url": "https://www.google.com/maps/place/?q=place_id:0x390ce360351fd741:0xc3ea6d0eaa0dcf2"}, {"place_id": "0x390ce3f598db003b:0xa5b2d003b6875cd1", "name": "Cubix Tech Integeration Pvt Ltd", "category": "Computer support and services", "street": "S-75, LGF", "city": "near K.R. Mangalam School", "phone": "09350811163", "website": "https://www.cubixtech.in/", "rating": "", "review_count": "", "latitude": 28.535359999999997, "longitude": 77.2419522, "maps_url": "https://www.google.com/maps/place/?q=place_id:0x390ce3f598db003b:0xa5b2d003b6875cd1"}]}