[{"place_id": "ChIJO4sr49IDDTkRALZaeWsr-oI", "name": "Iraitech | Software Development Company", "street": "Central Square Complex 3, Unit No-1051, 1st Floor, Near Filmistan, DCM chowk, Bara Hindu Rao, Kishan Ganj, Delhi, 110006, India", "phone": "+91 81301 04108", "rating": "4.1", "review_count": "", "website": "https://www.iraitech.com/", "latitude": 28.6631951, "longitude": 77.20308639999999, "maps_url": "https://www.google.com/maps/search/?api=1&query=Iraitech%20%7C%20Software%20Development%20Company&query_place_id=ChIJO4sr49IDDTkRALZaeWsr-oI"}, {"place_id": "ChIJEZi4U8HjDDkRyul3V2h5ouc", "name": "IT Company", "street": "A-14, near iskcon temple, Block A, APB Garhi, Vasant Vihar, New Delhi, Delhi 110065, India", "phone": "", "rating": "3", "review_count": "", "website": "http://www.opuswiz.com/", "latitude": 28.557167, "longitude": 77.25424819999999, "maps_url": "https://www.google.com/maps/search/?api=1&query=IT%20Company&query_place_id=ChIJEZi4U8HjDDkRyul3V2h5ouc"}, {"place_id": "ChIJzV9vXeUCDTkRbml51dcf9C4", "name": "Lanyard Company India", "street": "619, Main Bazaar Road, near Bara Tooti Chowk, Narain Market, Sadar Bazaar, New Delhi, Delhi, 110006, India", "phone": "+91 98119 37519", "rating": "4.9", "review_count": "", "website": "http://www.lanyard.co.in/", "latitude": 28.658199, "longitude": 77.2135385, "maps_url": "https://www.google.com/maps/search/?api=1&query=Lanyard%20Company%20India&query_place_id=ChIJzV9vXeUCDTkRbml51dcf9C4"}, {"place_id": "ChIJ8bD3oe-1bTkRhQOwVrfg-vw", "name": "One Aim IT Solutions", "street": "2/41/2 , 1st Floor, Sadar Bazar , Moradabad Pahari ,TO.Delhi Cantt, Distt:, South West, New Delhi, Delhi 110006, India", "phone": "+91 89552 49714", "rating": "5", "review_count": "", "website": "https://theoneaim.in/", "latitude": 28.6580968, "longitude": 77.2124735, "maps_url": "https://www.google.com/maps/search/?api=1&query=One%20Aim%20IT%20Solutions&query_place_id=ChIJ8bD3oe-1bTkRhQOwVrfg-vw"}, {"place_id": "ChIJf0vgss3jDDkRXzr2g_p_rkM", "name": "GIBS (Global IT Business Solutions)", "street": "15A Basement, Golf Apartments, near Sujan Singh Park, Khan Market, Sujan Singh Park, New Delhi, Delhi 110003, India", "phone": "+91 98112 26600", "rating": "4.9", "review_count": "", "website": "https://gibsit.com/", "latitude": 28.5991413, "longitude": 77.2288398, "maps_url": "https://www.google.com/maps/search/?api=1&query=GIBS%20%28Global%20IT%20Business%20Solutions%29&query_place_id=ChIJf0vgss3jDDkRXzr2g_p_rkM"}, {"place_id": "ChIJQ9ayeBL9DDkRwYTi0d6EINU", "name": "UNION GLASS COMPANY", "street": "792 Chowk, Tilak Bazar, Katra Ghel, Khari Baoli, Chandni Chowk, Delhi, 110006, India", "phone": "+91 98115 75263", "rating": "4.5", "review_count": "", "website": "", "latitude": 28.6588967, "longitude": 77.2215078, "maps_url": "https://www.google.com/maps/search/?api=1&query=UNION%20GLASS%20COMPANY&query_place_id=ChIJQ9ayeBL9DDkRwYTi0d6EINU"}, {"place_id": "ChIJFeXlTZkCDTkRNw2aQAO8CNk", "name": "Himalayan IT Solutions | Best Website Designing Company in Delhi | SEO/Digital Marketing Company in Delhi NCR, India", "street": "61/4255, Padam Singh Rd, Block 29, Block 1, Regar Pura, Karol Bagh, Delhi, 110005, India", "phone": "+91 98990 98509", "rating": "3.9", "review_count": "", "website": "http://www.himalayanitsolutions.com/", "latitude": 28.649673999999997, "longitude": 77.186599, "maps_url": "https://www.google.com/maps/search/?api=1&query=Himalayan%20IT%20Solutions%20%7C%20Best%20Website%20Designing%20Company%20in%20Delhi%20%7C%20SEO/Digital%20Marketing%20Company%20in%20Delhi%20NCR%2C%20India&query_place_id=ChIJFeXlTZkCDTkRNw2aQAO8CNk"}, {"place_id": "ChIJAQAAAG_9DDkR0X5Gs4tMyvA", "name": "Arora Plastic Company", "street": "973-a Paan Mandi Sadar Bazaar, Sadar Bazaar, New Delhi, Delhi 110006, India", "phone": "+91 76786 93170", "rating": "4.8", "review_count": "", "website": "", "latitude": 28.656890299999997, "longitude": 77.2148991, "maps_url": "https://www.google.com/maps/search/?api=1&query=Arora%20Plastic%20Company&query_place_id=ChIJAQAAAG_9DDkR0X5Gs4tMyvA"}, {"place_id": "ChIJe3palOn9DDkRmNe3MxxK0nI", "name": "SURYA MASALA COMPANY (EKTA SPICES)", "street": "6410, Katra Bariyan, Naya Bans, Fatehpuri, Chandni Chowk, Delhi, 110006, India", "phone": "+91 96547 73357", "rating": "4.9", "review_count": "", "website": "", "latitude": 28.6552097, "longitude": 77.2216329, "maps_url": "https://www.google.com/maps/search/?api=1&query=SURYA%20MASALA%20COMPANY%20%28EKTA%20SPICES%29&query_place_id=ChIJe3palOn9DDkRmNe3MxxK0nI"}, {"place_id": "ChIJ7aqqWqz8DDkRgAFAey6rIAo", "name": "𝑨𝑶 𝑺𝒐𝒇𝒕𝒘𝒂𝒓𝒆 𝑺𝒐𝒍𝒖𝒕𝒊𝒐𝒏 Website Designing company-website development company-product promotion and ERP development company", "street": "1B, S-505, School Block, Laxmi Nagar, II, Shakarpur, New Delhi, Delhi, 110092, India", "phone": "+91 11 4260 3444", "rating": "4.8", "review_count": "", "website": "https://aosoftwaresolution.com/", "latitude": 28.6287195, "longitude": 77.2766171, "maps_url": "https://www.google.com/maps/search/?api=1&query=%F0%9D%91%A8%F0%9D%91%B6%20%F0%9D%91%BA%F0%9D%92%90%F0%9D%92%87%F0%9D%92%95%F0%9D%92%98%F0%9D%92%82%F0%9D%92%93%F0%9D%92%86%20%F0%9D%91%BA%F0%9D%92%90%F0%9D%92%8D%F0%9D%92%96%F0%9D%92%95%F0%9D%92%8A%F0%9D%92%90%F0%9D%92%8F%20Website%20Designing%20company-website%20development%20company-product%20promotion%20and%20ERP%20development%20company&query_place_id=ChIJ7aqqWqz8DDkRgAFAey6rIAo"}, {"place_id": "ChIJCXUND2b9DDkRUKIg_QDxGEM", "name": "Delhi Modi Express Transport Co", "street": "25, Rani Jhansi Road, Ram Kumar Marg, Motia Khan, New Delhi, Delhi 110055, India", "phone": "+91 98112 06706", "rating": "4.2", "review_count": "", "website": "https://www.delhimodi.in/", "latitude": 28.652214299999997, "longitude": 77.2070894, "maps_url": "https://www.google.com/maps/search/?api=1&query=Delhi%20Modi%20Express%20Transport%20Co&query_place_id=ChIJCXUND2b9DDkRUKIg_QDxGEM"}, {"place_id": "ChIJEeEztHD9DDkR-3Ga-fthgow", "name": "Mobile Skin Software", "street": "47, Rani Jhansi Rd, Motia Khan, Jhandewalan, New Delhi, Delhi 110055, India", "phone": "+91 95552 63344", "rating": "4.7", "review_count": "", "website": "http://mobileskinsoftware.com/", "latitude": 28.649371199999997, "longitude": 77.2056171, "maps_url": "https://www.google.com/maps/search/?api=1&query=Mobile%20Skin%20Software&query_place_id=ChIJEeEztHD9DDkR-3Ga-fthgow"}, {"place_id": "ChIJcesdOTX9DDkRtlHcx4gT3ds", "name": "Jak Software Pvt Ltd", "street": "52 Janpath, New Delhi, Delhi 110001, India", "phone": "+91 78272 49056", "rating": "4.4", "review_count": "", "website": "http://www.jaksoftware.co.in/", "latitude": 28.627537999999998, "longitude": 77.21878989999999, "maps_url": "https://www.google.com/maps/search/?api=1&query=Jak%20Software%20Pvt%20Ltd&query_place_id=ChIJcesdOTX9DDkRtlHcx4gT3ds"}, {"place_id": "ChIJAQDAsHL9DDkRNglClOqAkEM", "name": "IBM TRADING COMPANY.... GOODLUCK HOUSEWARES", "street": "New Market, 5396/ A 1, gupta market gali, Rui Mandi, Sadar Bazaar, New Delhi, Delhi, 110006, India", "phone": "", "rating": "5", "review_count": "", "website": "", "latitude": 28.6598631, "longitude": 77.2149721, "maps_url": "https://www.google.com/maps/search/?api=1&query=IBM%20TRADING%20COMPANY....%20GOODLUCK%20HOUSEWARES&query_place_id=ChIJAQDAsHL9DDkRNglClOqAkEM"}, {"place_id": "ChIJY516FST9DDkROI0-CcTmYsw", "name": "SHARMA TRADING COMPANY", "street": "Shop no:354 (ground Floor, Press St, Narain Market, Sadar Bazaar, Delhi, 110006, India", "phone": "+91 11 4244 4922", "rating": "4.8", "review_count": "", "website": "https://www.sharmatradingdelhi.com/", "latitude": 28.6573541, "longitude": 77.21452049999999, "maps_url": "https://www.google.com/maps/search/?api=1&query=SHARMA%20TRADING%20COMPANY&query_place_id=ChIJY516FST9DDkROI0-CcTmYsw"}, {"place_id": "ChIJRaU3o579DDkROpl_DOL9p0s", "name": "Import from China (Pree Import Export Co)", "street": "Mithai Pul, Rui Mandi, Sadar Bazaar, New Delhi, Delhi, 110006, India", "phone": "+91 74054 36196", "rating": "4.8", "review_count": "", "website": "http://www.preeimport.com/", "latitude": 28.6624736, "longitude": 77.2136965, "maps_url": "https://www.google.com/maps/search/?api=1&query=Import%20from%20China%20%28Pree%20Import%20Export%20Co%29&query_place_id=ChIJRaU3o579DDkROpl_DOL9p0s"}, {"place_id": "ChIJx1ToU-T9DDkRcJ2byevE3CE", "name": "PreeDex Softwares LLP", "street": "Ground Floor, 5993, Nawab Rd, Basti Harphool Singh, Ahata Kidara, Sadar Bazaar, Delhi, 110006, India", "phone": "+91 99105 56876", "rating": "5", "review_count": "", "website": "http://www.preedex.com/", "latitude": 28.6560934, "longitude": 77.2102938, "maps_url": "https://www.google.com/maps/search/?api=1&query=PreeDex%20Softwares%20LLP&query_place_id=ChIJx1ToU-T9DDkRcJ2byevE3CE"}, {"place_id": "ChIJCef7XhT9DDkR3yHHC4Lofpg", "name": "Kalpurja Company", "street": "72, GB Road, Shradhanand Marg, Delhi 6, Chandni Chowk, Delhi, 110006, India", "phone": "", "rating": "4.5", "review_count": "", "website": "http://www.kalpurjacompany.com/", "latitude": 28.650322499999998, "longitude": 77.2209807, "maps_url": "https://www.google.com/maps/search/?api=1&query=Kalpurja%20Company&query_place_id=ChIJCef7XhT9DDkR3yHHC4Lofpg"}, {"place_id": "ChIJAQAAAG_9DDkRBx9VmvyhtcU", "name": "Sushil Trading Company", "street": "4671, B MAHAVIR BAZAR, Cloth Market, Katra Ghel, Khari Baoli, Chandni Chowk, New Delhi, Delhi, 110006, India", "phone": "+91 99535 50208", "rating": "4.6", "review_count": "", "website": "", "latitude": 28.659528299999998, "longitude": 77.2230208, "maps_url": "https://www.google.com/maps/search/?api=1&query=Sushil%20Trading%20Company&query_place_id=ChIJAQAAAG_9DDkRBx9VmvyhtcU"}, {"place_id": "ChIJBeA_mXL9DDkRV8aw44epvLE", "name": "Bedi And Company", "street": "Shop No 2745, Chowk Qutub Road, Near Railway Station,Sadar Bazar, Old Delhi, New Delhi, Delhi 110006, India", "phone": "", "rating": "4.5", "review_count": "", "website": "", "latitude": 28.657822, "longitude": 77.21571949999999, "maps_url": "https://www.google.com/maps/search/?api=1&query=Bedi%20And%20Company&query_place_id=ChIJBeA_mXL9DDkRV8aw44epvLE"}, {"place_id": "ChIJl0O_Kun9DDkRRG0USQH2Kuk", "name": "AHLAN TRADER COMPANY", "street": "AHLAN TRADER,BB-115,First Floor Bagrian Basti, Nabi Karim, Paharganj, New Delhi, Delhi 110055, India", "phone": "+91 70422 50150", "rating": "5", "review_count": "", "website": "", "latitude": 28.650358699999998, "longitude": 77.2149998, "maps_url": "https://www.google.com/maps/search/?api=1&query=AHLAN%20TRADER%20COMPANY&query_place_id=ChIJl0O_Kun9DDkRRG0USQH2Kuk"}, {"place_id": "ChIJve_HJ2b9DDkRzJphaUssbtE", "name": "Manu Info Solutions", "street": "51, Rani Jhansi Rd, Motia Khan, Paharganj, New Delhi, Delhi 110055, India", "phone": "+91 87001 32566", "rating": "5", "review_count": "", "website": "http://www.manuinfosolutions.com/", "latitude": 28.6490059, "longitude": 77.2058175, "maps_url": "https://www.google.com/maps/search/?api=1&query=Manu%20Info%20Solutions&query_place_id=ChIJve_HJ2b9DDkRzJphaUssbtE"}, {"place_id": "ChIJ48Zm1_P8DDkRFJuFgn5LWK4", "name": "Shri Tapodhani Aluminium Trading Company", "street": "Xv 2758, Street No. 6, near banke bihari mandir, Bazar Sangatrashan, Chuna Mandi, Paharganj, New Delhi, Delhi 110055, India", "phone": "+91 99110 87778", "rating": "4.8", "review_count": "", "website": "https://tapodhani.com/", "latitude": 28.6435481, "longitude": 77.21105469999999, "maps_url": "https://www.google.com/maps/search/?api=1&query=Shri%20Tapodhani%20Aluminium%20Trading%20Company&query_place_id=ChIJ48Zm1_P8DDkRFJuFgn5LWK4"}, {"place_id": "ChIJuyBnjmP9DDkRRLDNseKIcas", "name": "Alpha Advertising co.", "street": "Plot No 1, Abhinash Mansion, Main, Joshi Rd, Karol Bagh, New Delhi, Delhi 110005, India", "phone": "+91 98110 85386", "rating": "5", "review_count": "", "website": "https://www.alphaadvertising.co.in/", "latitude": 28.653791299999998, "longitude": 77.2010801, "maps_url": "https://www.google.com/maps/search/?api=1&query=Alpha%20Advertising%20co.&query_place_id=ChIJuyBnjmP9DDkRRLDNseKIcas"}, {"place_id": "ChIJsb3kahL9DDkRL6gg6ZvlHaE", "name": "Rajiv Trading Co", "street": "399, Khari Baoli Rd, Katra Pedan, Khari Baoli, Old Delhi, Delhi, 110006, India", "phone": "+91 98688 18111", "rating": "5", "review_count": "", "website": "", "latitude": 28.6573139, "longitude": 77.22196009999999, "maps_url": "https://www.google.com/maps/search/?api=1&query=Rajiv%20Trading%20Co&query_place_id=ChIJsb3kahL9DDkRL6gg6ZvlHaE"}, {"place_id": "ChIJbaIAUT77DDkRqTREkokl8Iw", "name": "Arata Universal Co.", "street": "971/6, Motia Khan, Sadar Bazaar, New Delhi, Delhi, 110006, India", "phone": "+91 99994 80416", "rating": "4.5", "review_count": "", "website": "", "latitude": 28.656750499999998, "longitude": 77.2149841, "maps_url": "https://www.google.com/maps/search/?api=1&query=Arata%20Universal%20Co.&query_place_id=ChIJbaIAUT77DDkRqTREkokl8Iw"}, {"place_id": "ChIJh5Wc2G39DDkRthPbKtpKoZQ", "name": "D S I I D C W I N E S B E E R S H O P", "street": "shop no.2685, 13, Sadar Thana Rd, Narain Market, Sadar Bazaar, New Delhi, Delhi, 110006, India", "phone": "+91 98110 47367", "rating": "4.1", "review_count": "", "website": "", "latitude": 28.6553711, "longitude": 77.21184459999999, "maps_url": "https://www.google.com/maps/search/?api=1&query=D%20S%20I%20I%20D%20C%20W%20I%20N%20E%20S%20B%20E%20E%20R%20S%20H%20O%20P&query_place_id=ChIJh5Wc2G39DDkRthPbKtpKoZQ"}, {"place_id": "ChIJC9l7iRH9DDkRjpc4hrKQdzo", "name": "Rama Watch Company", "street": "297, Chandni Chowk Rd, Fatehpuri, Chandni Chowk, New Delhi, Delhi, 110006, India", "phone": "", "rating": "4.1", "review_count": "", "website": "https://ramawatchcompany.co.in/", "latitude": 28.656529, "longitude": 77.223474, "maps_url": "https://www.google.com/maps/search/?api=1&query=Rama%20Watch%20Company&query_place_id=ChIJC9l7iRH9DDkRjpc4hrKQdzo"}, {"place_id": "ChIJpf__r88EDTkRLb071jNqL4U", "name": "Kitchen Champion Basmati Rice , By Green India Rice Millers and exporters private limited", "street": "2nd floor, Maruti Bhawan Building, 210-11, 2618-19, Naya Bazar, Delhi, New Delhi, Delhi 110006, India", "phone": "+91 95608 42348", "rating": "4.5", "review_count": "", "website": "https://greenindiarice.com/", "latitude": 28.659029, "longitude": 77.219319, "maps_url": "https://www.google.com/maps/search/?api=1&query=Kitchen%20Champion%20Basmati%20Rice%20%2C%20By%20Green%20India%20Rice%20Millers%20and%20exporters%20private%20limited&query_place_id=ChIJpf__r88EDTkRLb071jNqL4U"}, {"place_id": "ChIJV5b4yDX9DDkRdJwaZgRwvK0", "name": "Sterco Digitex Pvt Limited", "street": "2nd Floor, 72, Janpath Rd, Atul Grove Road, Janpath, Connaught Place, New Delhi, Delhi 110001, India", "phone": "+91 120 485 7333", "rating": "4.1", "review_count": "", "website": "https://www.stercodigitex.com/", "latitude": 28.628133, "longitude": 77.21985099999999, "maps_url": "https://www.google.com/maps/search/?api=1&query=Sterco%20Digitex%20Pvt%20Limited&query_place_id=ChIJV5b4yDX9DDkRdJwaZgRwvK0"}, {"place_id": "ChIJX9eDUEX9DDkRoR6efKRhUnw", "name": "Anu & Company", "street": "2nd Floor, 10703, Jhandewalan Rd, Nabi Karim, Paharganj, New Delhi, Delhi, 110055, India", "phone": "+91 87004 80022", "rating": "4.8", "review_count": "", "website": "https://anucompany.in/", "latitude": 28.651619699999998, "longitude": 77.2130291, "maps_url": "https://www.google.com/maps/search/?api=1&query=Anu%20%26%20Company&query_place_id=ChIJX9eDUEX9DDkRoR6efKRhUnw"}, {"place_id": "ChIJpzprTP_9DDkR4U2tSfLEEXQ", "name": "Narayan Trading Co- Best Toys Shop in Sadar Bazar Delhi.", "street": "2nd Floor, Beliram Market, Shop no, 2873/14, Chowk, Teliwara, Sadar Bazaar, Delhi, 110006, India", "phone": "+91 95820 21506", "rating": "4.8", "review_count": "", "website": "", "latitude": 28.6595463, "longitude": 77.21592679999999, "maps_url": "https://www.google.com/maps/search/?api=1&query=Narayan%20Trading%20Co-%20Best%20Toys%20Shop%20in%20Sadar%20Bazar%20Delhi.&query_place_id=ChIJpzprTP_9DDkR4U2tSfLEEXQ"}, {"place_id": "ChIJCa3hOGj9DDkRpRtdyEoes44", "name": "A S N & COMPANY, Chartered Accountants", "street": "A-209 RG, City Centre, DDA COMMUNITY CENTRE, A-305, A-306, Plot No 4, Desh Bandhu Gupta Rd, adjacent to Novotel Hotel, Paharganj, New Delhi, Delhi 110055, India", "phone": "+91 11 4356 2313", "rating": "4.7", "review_count": "", "website": "http://asnandco.com/", "latitude": 28.646611699999998, "longitude": 77.2077482, "maps_url": "https://www.google.com/maps/search/?api=1&query=A%20S%20N%20%26%20COMPANY%2C%20Chartered%20Accountants&query_place_id=ChIJCa3hOGj9DDkRpRtdyEoes44"}, {"place_id": "ChIJn3lmq6T9DDkRuJFJBZmXzf4", "name": "Shri Santoshi Trading | Best Trading & Manufacturing Company in Delhi", "street": "3719,Ground floor, Roshanara Road, Gali Kumharo Wali, near Metro Station Pulbangash, Delhi, 110007, India", "phone": "+91 81786 61637", "rating": "5", "review_count": "", "website": "http://www.shrisantoshitrading.com/", "latitude": 28.666397999999997, "longitude": 77.2073716, "maps_url": "https://www.google.com/maps/search/?api=1&query=Shri%20Santoshi%20Trading%20%7C%20Best%20Trading%20%26%20Manufacturing%20Company%20in%20Delhi&query_place_id=ChIJn3lmq6T9DDkRuJFJBZmXzf4"}, {"place_id": "ChIJ8WEQONj9DDkRTD63j5K2KVI", "name": "Jai Sidhi Enterprises Pvt. Ltd.", "street": "Building No. 49, 3rd Floor, Rani Jhansi Rd, Bara Hindu Rao, Sadar Bazaar, New Delhi, Delhi, 110006, India", "phone": "+91 98116 54442", "rating": "4.4", "review_count": "", "website": "https://www.jaisidhienterprises.com/home-loan-1", "latitude": 28.662182899999998, "longitude": 77.20718269999999, "maps_url": "https://www.google.com/maps/search/?api=1&query=Jai%20Sidhi%20Enterprises%20Pvt.%20Ltd.&query_place_id=ChIJ8WEQONj9DDkRTD63j5K2KVI"}, {"place_id": "ChIJW-zNhA39DDkRgu-9RV8Mk2c", "name": "Suresh Trading Co.", "street": "139, Tilak Bazar, Khari Baoli, Old Delhi, New Delhi, Delhi, 110006, India", "phone": "+91 11 2391 5678", "rating": "5", "review_count": "", "website": "http://www.sureshtrading.in/", "latitude": 28.6584945, "longitude": 77.2207878, "maps_url": "https://www.google.com/maps/search/?api=1&query=Suresh%20Trading%20Co.&query_place_id=ChIJW-zNhA39DDkRgu-9RV8Mk2c"}, {"place_id": "ChIJAQAAAG_9DDkRMxTSI-jaYBM", "name": "K. Gian Chand Jain & Co.", "street": "231, Narain Market, Sadar Bazaar, Delhi, 110006, India", "phone": "+91 11 2354 9031", "rating": "3.8", "review_count": "", "website": "https://vypzee.com/business/k-gian-chand-jain", "latitude": 28.6577368, "longitude": 77.2150241, "maps_url": "https://www.google.com/maps/search/?api=1&query=K.%20Gian%20Chand%20Jain%20%26%20Co.&query_place_id=ChIJAQAAAG_9DDkRMxTSI-jaYBM"}, {"place_id": "ChIJB5o0B3L9DDkRrsWQdWJNUyA", "name": "Pk Lift Elevators", "street": "House Number 575, Ambedkar Dharamshala, Street No 2, Green Market, Pahari Dhiraj, Maidan Garhi, New Delhi, Delhi, 110006, India", "phone": "+91 99110 66870", "rating": "5", "review_count": "", "website": "https://www.pkliftelevators.co.in/", "latitude": 28.657377999999998, "longitude": 77.2121398, "maps_url": "https://www.google.com/maps/search/?api=1&query=Pk%20Lift%20Elevators&query_place_id=ChIJB5o0B3L9DDkRrsWQdWJNUyA"}, {"place_id": "ChIJ5REwhnP9DDkRTxH4CuwV5n0", "name": "Fancy Trading Co.", "street": "9648/4, Library Rd, Azad Market, Nawabganj, Tis Hazari, New Delhi, Delhi, 110006, India", "phone": "+91 98100 81381", "rating": "4.1", "review_count": "", "website": "", "latitude": 28.663316799999997, "longitude": 77.2122572, "maps_url": "https://www.google.com/maps/search/?api=1&query=Fancy%20Trading%20Co.&query_place_id=ChIJ5REwhnP9DDkRTxH4CuwV5n0"}, {"place_id": "ChIJG8rmtIz9DDkR1UFG65kfR2Q", "name": "Parnami & co", "street": "5903/7, Ground floor, Shankar Market, Central, Nabi Karim, Paharganj, New Delhi, Delhi, 110055, India", "phone": "+91 98116 06083", "rating": "4.7", "review_count": "", "website": "", "latitude": 28.6525924, "longitude": 77.2136395, "maps_url": "https://www.google.com/maps/search/?api=1&query=Parnami%20%26%20co&query_place_id=ChIJG8rmtIz9DDkR1UFG65kfR2Q"}, {"place_id": "ChIJ8WyuOA39DDkRxAqtXCS8M7g", "name": "ATC", "street": "ATC House, 3981-83, Naya Bazar Rd, Chhota Chamarwara, Khari Baoli, Chandni Chowk, New Delhi, Delhi, 110006, India", "phone": "", "rating": "3.7", "review_count": "", "website": "http://www.atcls.net/", "latitude": 28.6588061, "longitude": 77.2186825, "maps_url": "https://www.google.com/maps/search/?api=1&query=ATC&query_place_id=ChIJ8WyuOA39DDkRxAqtXCS8M7g"}, {"place_id": "ChIJIxm10j_9DDkRTEVEP1xJb0Y", "name": "CTC TRADING COMPANY", "street": "920, Station Road, Bagh Deewar, Mahajani Kucha, Katra Neel, Chandni Chowk, Delhi, 110006, India", "phone": "+91 98110 55497", "rating": "4.8", "review_count": "", "website": "http://www.ctctradingcompany.co/", "latitude": 28.6582522, "longitude": 77.2268105, "maps_url": "https://www.google.com/maps/search/?api=1&query=CTC%20TRADING%20COMPANY&query_place_id=ChIJIxm10j_9DDkRTEVEP1xJb0Y"}, {"place_id": "ChIJ_z7XofL9DDkRY1Rp0_L7Xf0", "name": "M.A. DOCUMENTATIONS", "street": "7640, MUNSHI ABDUL RAHIM STRRET, Quresh Nagar, Sadar Bazaar, Delhi, 110006, India", "phone": "+91 85870 70565", "rating": "5", "review_count": "", "website": "", "latitude": 28.656781499999997, "longitude": 77.20961249999999, "maps_url": "https://www.google.com/maps/search/?api=1&query=M.A.%20DOCUMENTATIONS&query_place_id=ChIJ_z7XofL9DDkRY1Rp0_L7Xf0"}, {"place_id": "ChIJ5cmuhRL9DDkReKKJUG8TYys", "name": "Amawat - SFS & Co. - Manufacturer & Retailer of Mukhwas, Mouth Freshener, Aam Papad, Saunf in India", "street": "1868, Kucha Chelan, Naya Bans, Naya Bazar, Khari Baoli, Chandni Chowk, Delhi, 110006, India", "phone": "+91 95996 19091", "rating": "5", "review_count": "", "website": "https://www.amawat.co.in/", "latitude": 28.657425999999997, "longitude": 77.2198828, "maps_url": "https://www.google.com/maps/search/?api=1&query=Amawat%20-%20SFS%20%26%20Co.%20-%20Manufacturer%20%26%20Retailer%20of%20Mukhwas%2C%20Mouth%20Freshener%2C%20Aam%20Papad%2C%20Saunf%20in%20India&query_place_id=ChIJ5cmuhRL9DDkReKKJUG8TYys"}, {"place_id": "ChIJUWJcVBX9DDkRFlsTCXnWUi0", "name": "Geeta Marble Company", "street": "7550, J6W9+M4F, Pearey Lal Bhawan, Qutab Rd, Prem Nagar, Ram Nagar, Paharganj, New Delhi, Delhi, 110055, India", "phone": "+91 98100 15799", "rating": "4.8", "review_count": "", "website": "", "latitude": 28.6467945, "longitude": 77.2177787, "maps_url": "https://www.google.com/maps/search/?api=1&query=Geeta%20Marble%20Company&query_place_id=ChIJUWJcVBX9DDkRFlsTCXnWUi0"}, {"place_id": "ChIJiwPCn1cDDTkRZReajY3KiX0", "name": "Appfinz Technologies", "street": "Nr Deep Chand Bandhu Hospital, B590 Ground Floor, Bunkar Colony, Phase 4, Ashok Vihar, New Delhi, Delhi 110052, India", "phone": "+91 83407 25097", "rating": "4.8", "review_count": "", "website": "https://www.appfinz.com/", "latitude": 28.682956299999997, "longitude": 77.17736959999999, "maps_url": "https://www.google.com/maps/search/?api=1&query=Appfinz%20Technologies&query_place_id=ChIJiwPCn1cDDTkRZReajY3KiX0"}, {"place_id": "ChIJaSXBoBL9DDkR8o5yVmOvD-w", "name": "Kanpur Delhi Goods Carriers Ltd.", "street": "4110, Naya Bazar Rd, Rui Mandi, Sadar Bazaar, Delhi, 110006, India", "phone": "+91 11 4151 4110", "rating": "3.2", "review_count": "", "website": "http://www.kdgc.in/", "latitude": 28.6600142, "longitude": 77.2182952, "maps_url": "https://www.google.com/maps/search/?api=1&query=Kanpur%20Delhi%20Goods%20Carriers%20Ltd.&query_place_id=ChIJaSXBoBL9DDkR8o5yVmOvD-w"}, {"place_id": "ChIJt7QR--b9DDkRFHrGVoPFoqg", "name": "Ram Dev & Company", "street": "135, Khari Baoli Rd, Gadodia Market, Fatehpuri, Chandni Chowk, New Delhi, Delhi, 110006, India", "phone": "+91 98739 30467", "rating": "4.6", "review_count": "", "website": "https://hing.co.in/", "latitude": 28.6568659, "longitude": 77.22164289999999, "maps_url": "https://www.google.com/maps/search/?api=1&query=Ram%20Dev%20%26%20Company&query_place_id=ChIJt7QR--b9DDkRFHrGVoPFoqg"}, {"place_id": "ChIJ6750cE0uXIgRPpj00kno5DA", "name": "The IT Company", "street": "16 Emory Pl STE 100, Knoxville, TN 37917", "phone": "(865) 392-9200", "rating": "4.8", "review_count": "", "website": "https://theitcompany.com/?utm_source=google&utm_medium=organic&utm_campaign=Google+Business+Profile", "latitude": 35.974151899999995, "longitude": -83.922608, "maps_url": "https://www.google.com/maps/search/?api=1&query=The%20IT%20Company&query_place_id=ChIJ6750cE0uXIgRPpj00kno5DA"}, {"place_id": "ChIJcelRTsf9DDkRxWgj4QLq39Y", "name": "Fernweh", "street": "T222, Delhi, 110006, India", "phone": "+91 79828 29600", "rating": "5", "review_count": "", "website": "https://fernwehaccessories.com/", "latitude": 28.6550524, "longitude": 77.2091435, "maps_url": "https://www.google.com/maps/search/?api=1&query=Fernweh&query_place_id=ChIJcelRTsf9DDkRxWgj4QLq39Y"}, {"place_id": "ChIJ5REwhnP9DDkR6h-4XO8EeCE", "name": "Wadhawan Canvas company", "street": "252, Azad Market, Mithai Pul, Teliwara, Sadar Bazaar, New Delhi, Delhi, 110006, India", "phone": "+91 98111 62636", "rating": "4.9", "review_count": "", "website": "http://wadhawancanvas.co.in/", "latitude": 28.662838899999997, "longitude": 77.2139965, "maps_url": "https://www.google.com/maps/search/?api=1&query=Wadhawan%20Canvas%20company&query_place_id=ChIJ5REwhnP9DDkR6h-4XO8EeCE"}, {"place_id": "ChIJZ9iFbGj9DDkRlLk8I7muWsc", "name": "JTH Computers", "street": "BG-21, R.G. Complex, Paharganj, near HDFC Bank, New Delhi, Delhi 110055, India", "phone": "+91 11 4283 8363", "rating": "5", "review_count": "", "website": "", "latitude": 28.646907, "longitude": 77.207065, "maps_url": "https://www.google.com/maps/search/?api=1&query=JTH%20Computers&query_place_id=ChIJZ9iFbGj9DDkRlLk8I7muWsc"}, {"place_id": "ChIJQb7rFnL9DDkRR9krEEklM8s", "name": "Gyasi Ram And Associates", "street": "Shop No. 458, Main Road, Maharaja Agarsain Marg, Narain Market, Sadar Bazaar, Delhi, 110006, India", "phone": "+91 98990 74490", "rating": "4", "review_count": "", "website": "http://www.indiamart.com/gyasiram/", "latitude": 28.658086899999997, "longitude": 77.21410639999999, "maps_url": "https://www.google.com/maps/search/?api=1&query=Gyasi%20Ram%20And%20Associates&query_place_id=ChIJQb7rFnL9DDkRR9krEEklM8s"}, {"place_id": "ChIJIzchGRL9DDkR0YE-lehiyZA", "name": "Samridhi Trading Co.", "street": "6523, Khari Baoli Rd, Fatehpuri, Old Delhi, New Delhi, Delhi, 110006, India", "phone": "+91 98115 69008", "rating": "1.8", "review_count": "", "website": "", "latitude": 28.657068499999998, "longitude": 77.2231752, "maps_url": "https://www.google.com/maps/search/?api=1&query=Samridhi%20Trading%20Co.&query_place_id=ChIJIzchGRL9DDkR0YE-lehiyZA"}, {"place_id": "ChIJn1o-JxL9DDkRukYE81QPdAA", "name": "Sham Trading Company", "street": "Shop No.6490, Fath Puri Chowk, Katra Bariyan, Katra Pedan, Khari Baoli, Chandni Chowk, Delhi, 110006, India", "phone": "+91 98110 20587", "rating": "1.4", "review_count": "", "website": "", "latitude": 28.656449, "longitude": 77.22316699999999, "maps_url": "https://www.google.com/maps/search/?api=1&query=Sham%20Trading%20Company&query_place_id=ChIJn1o-JxL9DDkRukYE81QPdAA"}, {"place_id": "ChIJAQDAsHL9DDkRIVDM37g5JbI", "name": "Dua Optical Company", "street": "1673-1675, Near Novelty Cinema, Shyama Prasad Mukherji Marg, New Delhi, Delhi 110006, India", "phone": "+91 85278 72727", "rating": "4.8", "review_count": "", "website": "", "latitude": 28.661225199999997, "longitude": 77.2209874, "maps_url": "https://www.google.com/maps/search/?api=1&query=Dua%20Optical%20Company&query_place_id=ChIJAQDAsHL9DDkRIVDM37g5JbI"}, {"place_id": "ChIJfYQ73iz9DDkRMh9aXrj8f-g", "name": "Prime Rice Company", "street": "2nd Floor, 4070, near Kotak Mahindra Bank, Naya Bazar, Rui Mandi, Sadar Bazaar, New Delhi, Delhi, 110006, India", "phone": "+91 99992 17575", "rating": "5", "review_count": "", "website": "https://www.primericecompany.com/", "latitude": 28.658441699999997, "longitude": 77.2184754, "maps_url": "https://www.google.com/maps/search/?api=1&query=Prime%20Rice%20Company&query_place_id=ChIJfYQ73iz9DDkRMh9aXrj8f-g"}, {"place_id": "ChIJLSYpyUn9DDkR6qgeeusxh7s", "name": "SIGMA CORP INDIA", "street": "5554, Sadar Thana Rd, Basti Harphool Singh, Ahata Kidara, Sadar Bazaar, Delhi, 110006, India", "phone": "+91 76785 77494", "rating": "", "review_count": "", "website": "", "latitude": 28.6548746, "longitude": 77.2104634, "maps_url": "https://www.google.com/maps/search/?api=1&query=SIGMA%20CORP%20INDIA&query_place_id=ChIJLSYpyUn9DDkR6qgeeusxh7s"}, {"place_id": "ChIJf4qFUmP9DDkRVGIVYxUrxNE", "name": "T-Shirt Manufacturer Company India", "street": "T-180, kabristan Wali gali, near filmistan, Model Basti, Kishan Ganj, Delhi, 110005, India", "phone": "+91 81301 19564", "rating": "5", "review_count": "", "website": "https://tshirts.ashg.co.in/", "latitude": 28.6576466, "longitude": 77.2029697, "maps_url": "https://www.google.com/maps/search/?api=1&query=T-Shirt%20Manufacturer%20Company%20India&query_place_id=ChIJf4qFUmP9DDkRVGIVYxUrxNE"}, {"place_id": "ChIJ--FPiBGKUocRKVmnpYxQnOw", "name": "IT-Tech LLC", "street": "1457 E 3300 S, Salt Lake City, UT 84106", "phone": "(801) 733-4900", "rating": "5", "review_count": "", "website": "https://www.it-tech.us/", "latitude": 40.7001571, "longitude": -111.8489072, "maps_url": "https://www.google.com/maps/search/?api=1&query=IT-Tech%20LLC&query_place_id=ChIJ--FPiBGKUocRKVmnpYxQnOw"}, {"place_id": "ChIJlx5-7JT9DDkRhhF-CJlswh4", "name": "SHIVANSH ENTERPRISES", "street": "C-5, Street No.3, near HANSRAJ MARKET, Block T, GAMRI EXTENSION, SUDAMAPURI, Delhi, 110053, India", "phone": "+91 88265 49483", "rating": "5", "review_count": "", "website": "", "latitude": 28.6781546, "longitude": 77.264049, "maps_url": "https://www.google.com/maps/search/?api=1&query=SHIVANSH%20ENTERPRISES&query_place_id=ChIJlx5-7JT9DDkRhhF-CJlswh4"}, {"place_id": "ChIJCcjFL6b9DDkRz4tayeg8xWE", "name": "Sai Raj Bag Company", "street": "Gali Zameer Wali, Nawabganj, Tis Hazari, New Delhi, Delhi, 110006, India", "phone": "", "rating": "5", "review_count": "", "website": "http://mybcard.co.in/PBcard1/?HiLike", "latitude": 28.664900399999997, "longitude": 77.21078729999999, "maps_url": "https://www.google.com/maps/search/?api=1&query=Sai%20Raj%20Bag%20Company&query_place_id=ChIJCcjFL6b9DDkRz4tayeg8xWE"}, {"place_id": "ChIJ-0G5pRcDDTkR0WAn5GYOCQw", "name": "EFC - Empire Furniture Co", "street": "mandir, 59, Rani Jhansi Rd, opp. jhandelwan, Motia Khan, Sadar Bazaar, New Delhi, Delhi 110055, India", "phone": "+91 93100 82174", "rating": "3.9", "review_count": "", "website": "http://www.empirefurnitureco.com/", "latitude": 28.647944199999998, "longitude": 77.2058603, "maps_url": "https://www.google.com/maps/search/?api=1&query=EFC%20-%20Empire%20Furniture%20Co&query_place_id=ChIJ-0G5pRcDDTkR0WAn5GYOCQw"}, {"place_id": "ChIJH2npDyr9DDkR6Nwr0Wijgx8", "name": "Nizaam Studio", "street": "Ground Floor, 5993, Nawab Rd, Basti Harphool Singh, Ahata Kidara, Sadar Bazaar, Delhi, 110006, India", "phone": "+91 74282 08893", "rating": "5", "review_count": "", "website": "http://nizaamstudio.com/", "latitude": 28.656093, "longitude": 77.21029399999999, "maps_url": "https://www.google.com/maps/search/?api=1&query=Nizaam%20Studio&query_place_id=ChIJH2npDyr9DDkR6Nwr0Wijgx8"}, {"place_id": "ChIJzyiPpIT9DDkRDxZTnzN3FVM", "name": "LAKSHITA ONLINE SOLUTION", "street": "2122, Basti, Julahan, Sadar Bazaar, New Delhi, Delhi, 110006, India", "phone": "+91 85868 38753", "rating": "5", "review_count": "", "website": "", "latitude": 28.6561545, "longitude": 77.2133266, "maps_url": "https://www.google.com/maps/search/?api=1&query=LAKSHITA%20ONLINE%20SOLUTION&query_place_id=ChIJzyiPpIT9DDkRDxZTnzN3FVM"}, {"place_id": "ChIJwX7BlQ39DDkRz_iWmY7mnTI", "name": "Arihant Packaging Co.", "street": "1026/4, Tilak Bazar, Katra Ghel, Khari Baoli, Old Delhi, New Delhi, Delhi, 110006, India", "phone": "+91 84475 78181", "rating": "3.9", "review_count": "", "website": "https://www.indiamart.com/arihantpackaging-delhi/enquiry.html", "latitude": 28.659398699999997, "longitude": 77.2215593, "maps_url": "https://www.google.com/maps/search/?api=1&query=Arihant%20Packaging%20Co.&query_place_id=ChIJwX7BlQ39DDkRz_iWmY7mnTI"}, {"place_id": "ChIJh0BP4S39DDkRm9ldKbsMNPo", "name": "Assured E-commerce choice", "street": "1524, sarai khalil, Narain Market, Sadar Bazaar, Delhi, 110006, India", "phone": "+91 99901 51057", "rating": "5", "review_count": "", "website": "", "latitude": 28.656352599999998, "longitude": 77.213672, "maps_url": "https://www.google.com/maps/search/?api=1&query=Assured%20E-commerce%20choice&query_place_id=ChIJh0BP4S39DDkRm9ldKbsMNPo"}, {"place_id": "ChIJnYKs9Az9DDkRBHCV9j1sXI4", "name": "B L TRADERS", "street": "Pan Mandi, 1029/2, Gali Gaye Wali, Narain Market, Sadar Bazaar, New Delhi, Delhi, 110006, India", "phone": "+91 85108 36884", "rating": "5", "review_count": "", "website": "", "latitude": 28.656611899999998, "longitude": 77.21438169999999, "maps_url": "https://www.google.com/maps/search/?api=1&query=B%20L%20TRADERS&query_place_id=ChIJnYKs9Az9DDkRBHCV9j1sXI4"}, {"place_id": "ChIJbdh749j9DDkR7TV47Xdv328", "name": "Business Setup in Dubai - AE Setup", "street": "GF-39A, Indra Prakash Building, 21, Barakhamba Rd, Barakhamba, New Delhi, Delhi 110001, India", "phone": "", "rating": "", "review_count": "", "website": "https://aesetup.com/", "latitude": 28.6293059, "longitude": 77.22376489999999, "maps_url": "https://www.google.com/maps/search/?api=1&query=Business%20Setup%20in%20Dubai%20-%20AE%20Setup&query_place_id=ChIJbdh749j9DDkR7TV47Xdv328"}, {"place_id": "ChIJN65gUXj9DDkRv5z67NS47dA", "name": "North Eastern Carrying Corporation Ltd. (NECC)", "street": "9062/47, Azad Market Rd, Naya Mohalla, Ram Bagh, Sadar Bazaar, Delhi, 110006, India", "phone": "+91 11 2351 7516", "rating": "3.7", "review_count": "", "website": "http://www.neccgroup.com/", "latitude": 28.6651417, "longitude": 77.2060087, "maps_url": "https://www.google.com/maps/search/?api=1&query=North%20Eastern%20Carrying%20Corporation%20Ltd.%20%28NECC%29&query_place_id=ChIJN65gUXj9DDkRv5z67NS47dA"}, {"place_id": "ChIJVVVVQRL9DDkRhdJFD0JWg4g", "name": "Sandeep Optical Company Private Limited", "street": "267/1, Katra Bariyan, katra Baryan, Fatehpuri, Chandni Chowk, New Delhi, Delhi, 110006, India", "phone": "+91 98112 28281", "rating": "4.9", "review_count": "", "website": "", "latitude": 28.656137299999997, "longitude": 77.22312699999999, "maps_url": "https://www.google.com/maps/search/?api=1&query=Sandeep%20Optical%20Company%20Private%20Limited&query_place_id=ChIJVVVVQRL9DDkRhdJFD0JWg4g"}, {"place_id": "ChIJAQAAAG_9DDkRG1do0yNpLtk", "name": "Packman Industries", "street": "1305, Sadar Bazaar, Pan Mandi, Sadar Bazaar, Delhi, 110006, India", "phone": "+91 99101 10911", "rating": "3", "review_count": "", "website": "http://www.packman.in/", "latitude": 28.6563517, "longitude": 77.2145453, "maps_url": "https://www.google.com/maps/search/?api=1&query=Packman%20Industries&query_place_id=ChIJAQAAAG_9DDkRG1do0yNpLtk"}, {"place_id": "ChIJD7FtYxT9DDkR-IDfTvVpigI", "name": "Kushal Trading Company", "street": "Ramnath Building, 2400/2 , 1st Floor, behind G.B. Road, Sharadhanand Marg, Farash Khana, Chandni Chowk, New Delhi, Delhi 110006, India", "phone": "+91 80 4896 7541", "rating": "5", "review_count": "", "website": "https://www.kushaltrading.com/", "latitude": 28.651477999999997, "longitude": 77.2206885, "maps_url": "https://www.google.com/maps/search/?api=1&query=Kushal%20Trading%20Company&query_place_id=ChIJD7FtYxT9DDkR-IDfTvVpigI"}, {"place_id": "ChIJAQAAAG_9DDkRGIx909bDHz8", "name": "M L Plastic Products", "street": "968, Pan Mandi, Sadar Bazar, New Delhi, Delhi 110006, India", "phone": "+91 88004 55599", "rating": "4.8", "review_count": "", "website": "", "latitude": 28.656855, "longitude": 77.21512899999999, "maps_url": "https://www.google.com/maps/search/?api=1&query=M%20L%20Plastic%20Products&query_place_id=ChIJAQAAAG_9DDkRGIx909bDHz8"}, {"place_id": "ChIJAQAA3Hr9DDkRNScMmgzp7qI", "name": "Vanesa Cosmetics", "street": "P-3/107, Central square(DCM) complex, 108 20, Manoharlal Khurana Marg, Bara Hindu Rao, Kishan Ganj, New Delhi, Delhi, 110006, India", "phone": "+91 11 4010 5349", "rating": "4.5", "review_count": "", "website": "https://www.vanesacosmetics.com/", "latitude": 28.663045999999998, "longitude": 77.2028002, "maps_url": "https://www.google.com/maps/search/?api=1&query=Vanesa%20Cosmetics&query_place_id=ChIJAQAA3Hr9DDkRNScMmgzp7qI"}, {"place_id": "ChIJv5TpZRL9DDkRs2CdCVQThX4", "name": "A. Kumar Trading Co (P) Ltd", "street": "6536, Khari Baoli, Chandni Chowk, Khari Baoli Rd, near Fatehpuri Masjid, Fatehpuri, Old Delhi, New Delhi, Delhi, 110006, India", "phone": "+91 11 2393 8801", "rating": "1.7", "review_count": "", "website": "", "latitude": 28.6570118, "longitude": 77.2223503, "maps_url": "https://www.google.com/maps/search/?api=1&query=A.%20Kumar%20Trading%20Co%20%28P%29%20Ltd&query_place_id=ChIJv5TpZRL9DDkRs2CdCVQThX4"}, {"place_id": "ChIJF_LZnsH9DDkRFPHblSJuPJQ", "name": "Ritik plastic", "street": "Gali No. - 11, Green Market, Narain Market, Sadar Bazaar, Delhi, 110006, India", "phone": "+91 76786 08673", "rating": "5", "review_count": "", "website": "", "latitude": 28.6576016, "longitude": 77.21306299999999, "maps_url": "https://www.google.com/maps/search/?api=1&query=Ritik%20plastic&query_place_id=ChIJF_LZnsH9DDkRFPHblSJuPJQ"}, {"place_id": "ChIJdYJzbW39DDkR1IzVmyVtTnc", "name": "Elson House", "street": "Shop No-1402, Pan Mandi, Sadar Bazaar, Delhi, 110006, India", "phone": "", "rating": "4.4", "review_count": "", "website": "https://www.elsonhouse.com/", "latitude": 28.6563347, "longitude": 77.2151392, "maps_url": "https://www.google.com/maps/search/?api=1&query=Elson%20House&query_place_id=ChIJdYJzbW39DDkR1IzVmyVtTnc"}, {"place_id": "ChIJxbLaMNn9DDkRu3JLuHVTsg8", "name": "Jai Krishna Bearing House", "street": "646, Shradhanand Marg, near Frash Khanna, Chabdi Bazar, Shardhanand Market, Farash Khana, Chandni Chowk, Delhi, 110006, India", "phone": "+91 11 4563 6050", "rating": "4.9", "review_count": "", "website": "https://www.jaikrishnabearing.com/hiwin-dealer-in-delhi.php", "latitude": 28.6519904, "longitude": 77.21991779999999, "maps_url": "https://www.google.com/maps/search/?api=1&query=Jai%20Krishna%20Bearing%20House&query_place_id=ChIJxbLaMNn9DDkRu3JLuHVTsg8"}, {"place_id": "ChIJc80Hk_0DDTkRzeDGAgk6Ino", "name": "Web Cloud Technology", "street": "3A/74 W.E.A, Sat Nagar, Karol Bagh, New Delhi, Delhi 110005, India", "phone": "+91 88823 24811", "rating": "4.4", "review_count": "", "website": "https://webcloudtechnology.in/", "latitude": 28.6465632, "longitude": 77.1824149, "maps_url": "https://www.google.com/maps/search/?api=1&query=Web%20Cloud%20Technology&query_place_id=ChIJc80Hk_0DDTkRzeDGAgk6Ino"}, {"place_id": "ChIJHTJZYW39DDkRrECZ1OE_kIE", "name": "Delhi Calcutta Carrying Corporation", "street": "Plot No.161, Qutab Rd, Near Ashu Dharamkata, Sisapur, Narain Market, Sadar Bazaar, Delhi, 110006, India", "phone": "+91 97179 47817", "rating": "3", "review_count": "", "website": "", "latitude": 28.65732, "longitude": 77.21574, "maps_url": "https://www.google.com/maps/search/?api=1&query=Delhi%20Calcutta%20Carrying%20Corporation&query_place_id=ChIJHTJZYW39DDkRrECZ1OE_kIE"}, {"place_id": "ChIJqSpuFHv9DDkRhjXhF6Halz0", "name": "Sariya Designs", "street": "Ground Floor, 5993, Nawab Rd, Basti Harphool Singh, Ahata Kidara, Sadar Bazaar, Delhi, 110006, India", "phone": "+91 88264 18355", "rating": "5", "review_count": "", "website": "http://sariyadesigns.com/", "latitude": 28.6560301, "longitude": 77.2102269, "maps_url": "https://www.google.com/maps/search/?api=1&query=Sariya%20Designs&query_place_id=ChIJqSpuFHv9DDkRhjXhF6Halz0"}, {"place_id": "ChIJO2tzUa2wTAARwJcWEKyw7FY", "name": "DNG WEB DEVELOPER - Website Development and Designing Company Delhi | App Development | Digital Marketing Company in Delhi", "street": "J6W7+475, Arya Nagar, Paharganj, New Delhi, Delhi 110055, India", "phone": "", "rating": "", "review_count": "", "website": "https://www.dngwebdeveloper.com/", "latitude": 28.6452545, "longitude": 77.2132341, "maps_url": "https://www.google.com/maps/search/?api=1&query=DNG%20WEB%20DEVELOPER%20-%20Website%20Development%20and%20Designing%20Company%20Delhi%20%7C%20App%20Development%20%7C%20Digital%20Marketing%20Company%20in%20Delhi&query_place_id=ChIJO2tzUa2wTAARwJcWEKyw7FY"}, {"place_id": "ChIJFThTCPb9DDkR8CyjhPYRnm4", "name": "LegalHisaab", "street": "F-7/11, Maharaja Agarsain Marg, opp. Bara Tuti, Narain Market, Sadar Bazaar, New Delhi, Delhi, 110006, India", "phone": "", "rating": "5", "review_count": "", "website": "https://legalhisaab.com/", "latitude": 28.658050099999997, "longitude": 77.2141156, "maps_url": "https://www.google.com/maps/search/?api=1&query=LegalHisaab&query_place_id=ChIJFThTCPb9DDkR8CyjhPYRnm4"}, {"place_id": "ChIJMzgihPmYJIgRWwB3hM5HguQ", "name": "Intelligent Technical Solutions", "street": "100 W Big Beaver Rd Suite 200, Troy, MI 48084", "phone": "(248) 422-1091", "rating": "4.5", "review_count": "", "website": "https://www.itsasap.com/its-detroit", "latitude": 42.5629626, "longitude": -83.15004069999999, "maps_url": "https://www.google.com/maps/search/?api=1&query=Intelligent%20Technical%20Solutions&query_place_id=ChIJMzgihPmYJIgRWwB3hM5HguQ"}, {"place_id": "ChIJAQAAAKMCDTkR_XyQP4G6Y-Q", "name": "Shinestar Bags", "street": "2284, Gali Munde Wali, 110 006, Sadar Thana Rd, near Aashu Cable, Sadar, Marg, Old Delhi, Delhi, 110006, India", "phone": "+91 83778 48686", "rating": "4.4", "review_count": "", "website": "", "latitude": 28.655462399999998, "longitude": 77.2119173, "maps_url": "https://www.google.com/maps/search/?api=1&query=Shinestar%20Bags&query_place_id=ChIJAQAAAKMCDTkR_XyQP4G6Y-Q"}, {"place_id": "ChIJF3r2Phj9DDkRQcx21peKVho", "name": "THE SCENT BAZAAR", "street": "MAIN ROAD, 2701/9 east, Sadar Thana Rd, opposite ICICI BANK, Narain Market, Sadar Bazaar, Delhi, 110006, India", "phone": "+91 99993 20748", "rating": "4.9", "review_count": "", "website": "http://www.thescentbazaar.in/", "latitude": 28.6550011, "longitude": 77.2116808, "maps_url": "https://www.google.com/maps/search/?api=1&query=THE%20SCENT%20BAZAAR&query_place_id=ChIJF3r2Phj9DDkRQcx21peKVho"}, {"place_id": "ChIJWTY1QxiZToYRzmZJqIr9-_o", "name": "IT Companies Network", "street": "325 North St. Paul Street Suite 3100, Dallas, TX 75201", "phone": "(347) 735-9952", "rating": "", "review_count": "", "website": "https://itcompanies.net/", "latitude": 32.783333999999996, "longitude": -96.7973576, "maps_url": "https://www.google.com/maps/search/?api=1&query=IT%20Companies%20Network&query_place_id=ChIJWTY1QxiZToYRzmZJqIr9-_o"}, {"place_id": "ChIJe0CjNPYDDTkR-AnYoCFV0WU", "name": "Century Law Firm", "street": "First Floor, western wing, Chamber No, 555-556, Courts, Tis Hazari, Delhi, 110054, India", "phone": "+91 93104 11779", "rating": "4.9", "review_count": "", "website": "https://centurylawfirm.in/", "latitude": 28.6642948, "longitude": 77.2178467, "maps_url": "https://www.google.com/maps/search/?api=1&query=Century%20Law%20Firm&query_place_id=ChIJe0CjNPYDDTkR-AnYoCFV0WU"}, {"place_id": "ChIJAQAAfA39DDkRpCHH1uj0YzU", "name": "Baby Saffron", "street": "Ist Floor, 2105, Khari Baoli Rd, Naya Bazar, Khari Baoli, Chandni Chowk, New Delhi, Delhi, 110006, India", "phone": "+91 11 2393 1155", "rating": "4.1", "review_count": "", "website": "", "latitude": 28.657317, "longitude": 77.220385, "maps_url": "https://www.google.com/maps/search/?api=1&query=Baby%20Saffron&query_place_id=ChIJAQAAfA39DDkRpCHH1uj0YzU"}, {"place_id": "ChIJSVVVuX0CDTkR9GOKD_EKwZM", "name": "Travel India Solution - Cab Service Provider In Delhi", "street": "Ground Floor, Landmark, Registered office address 8937, 14B, Gali No. - 11, near Shiv Mandir, Sidipura, Karol Bagh, New Delhi, Delhi 110006, India", "phone": "+91 98733 73779", "rating": "5", "review_count": "", "website": "http://www.travelindiasolution.com/", "latitude": 28.6573712, "longitude": 77.2119633, "maps_url": "https://www.google.com/maps/search/?api=1&query=Travel%20India%20Solution%20-%20Cab%20Service%20Provider%20In%20Delhi&query_place_id=ChIJSVVVuX0CDTkR9GOKD_EKwZM"}, {"place_id": "ChIJ0Ql-EWL9DDkRWb24ujA3NdY", "name": "Web Design, Digital Marketing, Software & Mobile App Development.", "street": "", "phone": "", "rating": "3.7", "review_count": "", "website": "", "latitude": 28.692404999999997, "longitude": 77.090042, "maps_url": "https://www.google.com/maps/search/?api=1&query=Web%20Design%2C%20Digital%20Marketing%2C%20Software%20%26%20Mobile%20App%20Development.&query_place_id=ChIJ0Ql-EWL9DDkRWb24ujA3NdY"}, {"place_id": "ChIJM9r7u0r9DDkRiUvt7zjjpRM", "name": "IT Executive vivek", "street": "22, Vijay Ghat, Raj Ghat, New Delhi, Delhi, 110006, India", "phone": "", "rating": "", "review_count": "", "website": "https://itexecuitive.com/", "latitude": 28.6584512, "longitude": 77.2449233, "maps_url": "https://www.google.com/maps/search/?api=1&query=IT%20Executive%20vivek&query_place_id=ChIJM9r7u0r9DDkRiUvt7zjjpRM"}]