{"timestamp": 1773730171.2391064, "keyword": "IT company", "location": "delhi", "cell_idx": 197, "results": [{"place_id": "0x390ce17fe586541d:0x425e234a344ee8b2", "name": "Trident Information Systems Pvt Ltd", "category": "Software company", "street": "M-31A, M Block Market", "city": "Block M, Greater Kailash II, Greater Kailash", "phone": "01129219927", "website": "https://www.tridentinfo.com/", "rating": 3.6, "review_count": "", "latitude": 28.5333558, "longitude": 77.2412192, "maps_url": "https://www.google.com/maps/place/?q=place_id:0x390ce17fe586541d:0x425e234a344ee8b2"}, {"place_id": "0x390ce3c153b89811:0xe7a279685777e9ca", "name": "IT Company", "category": "Automation company", "street": "A-14", "city": "near iskcon temple", "phone": "", "website": "http://www.opuswiz.com/", "rating": 3, "review_count": "", "latitude": 28.557167, "longitude": 77.25424819999999, "maps_url": "https://www.google.com/maps/place/?q=place_id:0x390ce3c153b89811:0xe7a279685777e9ca"}, {"place_id": "0x390ce1597b5509e5:0xfd8209b937b44d3c", "name": "IT Solutions India Private Limited", "category": "Software company", "street": "D-88/5", "city": "Pocket D, Okhla Phase I, Okhla Industrial Estate", "phone": "09810017429", "website": "https://www.itsipl.com/", "rating": 4.2, "review_count": "", "latitude": 28.520146, "longitude": 77.280431, "maps_url": "https://www.google.com/maps/place/?q=place_id:0x390ce1597b5509e5:0xfd8209b937b44d3c"}, {"place_id": "0x390ce1a1fb5549f5:0xad2c7b7f67406d87", "name": "BytesBrick InfoSystems Private Limited", "category": "Software company", "street": "2nd Floor, Building No.59,Mehar Chand Bldg", "city": "opp. Swami Vivekanand Park", "phone": "09582872758", "website": "https://www.bytesbrick.com/", "rating": 4.4, "review_count": "", "latitude": 28.525098, "longitude": 77.23261289999999, "maps_url": "https://www.google.com/maps/place/?q=place_id:0x390ce1a1fb5549f5:0xad2c7b7f67406d87"}, {"place_id": "0x390ce458d0000001:0xf2123bd299ec4501", "name": "IT Company India", "category": "Software company", "street": "D56", "city": "D Block, Sector 10", "phone": "09999244854", "website": "https://www.itcompanyindia.in/", "rating": 4.7, "review_count": "", "latitude": 28.589917699999997, "longitude": 77.3351153, "maps_url": "https://www.google.com/maps/place/?q=place_id:0x390ce458d0000001:0xf2123bd299ec4501"}, {"place_id": "0x390d053ee4271333:0x64c61924be17de78", "name": "WebOConnect Technologies Pvt. Ltd.", "category": "Software company", "street": "T", "city": "Press Enclave Marg", "phone": "08447141991", "website": "https://weboconnect.com/", "rating": 4.6, "review_count": "", "latitude": 28.5313457, "longitude": 77.2208345, "maps_url": "https://www.google.com/maps/place/?q=place_id:0x390d053ee4271333:0x64c61924be17de78"}, {"place_id": "0x390ce3ecb114ad9b:0x831bb62ea721e15", "name": "\ud835\udc06\ud835\udc22\ud835\udc2d\ud835\udc32\ud835\udc2c\ud835\udc28\ud835\udc1f\ud835\udc2d\u00ae \ud835\udc13\ud835\udc1e\ud835\udc1c\ud835\udc21\ud835\udc27\ud835\udc28\ud835\udc25\ud835\udc28\ud835\udc20\ud835\udc22\ud835\udc1e\ud835\udc2c", "category": "Software company", "street": "Pocket-M, Chitranjan Park", "city": "Police Station", "phone": "09821150988", "website": "https://gitysoft.com/", "rating": 5, "review_count": "", "latitude": 28.5396921, "longitude": 77.24901009999999, "maps_url": "https://www.google.com/maps/place/?q=place_id:0x390ce3ecb114ad9b:0x831bb62ea721e15"}, {"place_id": "0x390ce1fb44618b65:0x8e06b2a6128352d1", "name": "Acropolis Infotech - Delhi Office", "category": "Software company", "street": "metro station gate", "city": "55, 2nd Floor, Lane 2", "phone": "09999876593", "website": "https://www.acropolisinfotech.com/", "rating": 4.6, "review_count": "", "latitude": 28.518907, "longitude": 77.2015435, "maps_url": "https://www.google.com/maps/place/?q=place_id:0x390ce1fb44618b65:0x8e06b2a6128352d1"}, {"place_id": "0x390ce14964a76d17:0x7e93eacb961b15be", "name": "Edge N Roots Solutions Pvt Ltd", "category": "Software company", "street": "Basement", "city": "E - 497", "phone": "09920898167", "website": "https://www.edgenroots.com/", "rating": 5, "review_count": "", "latitude": 28.5357824, "longitude": 77.2396983, "maps_url": "https://www.google.com/maps/place/?q=place_id:0x390ce14964a76d17:0x7e93eacb961b15be"}, {"place_id": "0x390ce2305c00002d:0x9f7efbacdc0d8271", "name": "ICO WebTech Pvt. Ltd. - Website Designing Company in Delhi", "category": "Website designer", "street": "J E 5, Ground Floor, Khirki Extension, Malviya Nagar", "city": "New Delhi, Delhi 110017", "phone": "08447380262", "website": "https://www.icowebsolutions.com/", "rating": 4.6, "review_count": "", "latitude": 28.535594, "longitude": 77.21577099999999, "maps_url": "https://www.google.com/maps/place/?q=place_id:0x390ce2305c00002d:0x9f7efbacdc0d8271"}, {"place_id": "0x390ce21425118e25:0x70fb9d80e6685fad", "name": "Ananta Business Services", "category": "Software company", "street": "125, South", "city": "Shahpur Jat, Siri Fort", "phone": "09289371171", "website": "http://www.absite.in/", "rating": 4.7, "review_count": "", "latitude": 28.5490721, "longitude": 77.2159506, "maps_url": "https://www.google.com/maps/place/?q=place_id:0x390ce21425118e25:0x70fb9d80e6685fad"}, {"place_id": "0x390ce3c50d455555:0x625e4cf2def0b6ac", "name": "Infonative Solutions Limited", "category": "Computer support and services", "street": "107, 108", "city": "DLF South Court", "phone": "08448141818", "website": "https://infonative.net/", "rating": 4.7, "review_count": "", "latitude": 28.5274255, "longitude": 77.2209031, "maps_url": "https://www.google.com/maps/place/?q=place_id:0x390ce3c50d455555:0x625e4cf2def0b6ac"}, {"place_id": "0x390ce456aaaaaaab:0x6e4e087895622564", "name": "Klasiinn", "category": "Software company", "street": "E-506, Inder Mohan Bhardwaj Marg", "city": "Block E, Greater Kailash II, Greater Kailash", "phone": "07827882870", "website": "http://klasiinn.in/", "rating": 5, "review_count": "", "latitude": 28.5358657, "longitude": 77.2384798, "maps_url": "https://www.google.com/maps/place/?q=place_id:0x390ce456aaaaaaab:0x6e4e087895622564"}, {"place_id": "0x390cfd309eebed77:0xf47bee595f075e26", "name": "Asfera Technologies Private Limited | Dialer Software Company", "category": "Software company", "street": "59/1", "city": "Saroj Tower, Office No:- 15", "phone": "09066677770", "website": "https://www.asfera.in/", "rating": 4.6, "review_count": "", "latitude": 28.540130599999998, "longitude": 77.2619868, "maps_url": "https://www.google.com/maps/place/?q=place_id:0x390cfd309eebed77:0xf47bee595f075e26"}, {"place_id": "0x224b1b8b7f3dd20f:0x75db55892540065e", "name": "Click4Kart Tech Private Limited \u2013 IT Services & Software Solutions", "category": "Software company", "street": "Ambedkar Park", "city": "28/2-e/25 F/f L/s", "phone": "08447222999", "website": "https://www.click4kart.com/", "rating": 5, "review_count": "", "latitude": 28.6697302, "longitude": 77.29738669999999, "maps_url": "https://www.google.com/maps/place/?q=place_id:0x224b1b8b7f3dd20f:0x75db55892540065e"}, {"place_id": "0x390ce31a134804c3:0x1efe0384e9410898", "name": "CINCHIS DIGITAL INDIA PVT. LTD.", "category": "Computer support and services", "street": "Hemkunt Chambers", "city": "Nehru Place", "phone": "09667339664", "website": "https://cinchis.com/", "rating": 4.9, "review_count": "", "latitude": 28.547605299999997, "longitude": 77.25241419999999, "maps_url": "https://www.google.com/maps/place/?q=place_id:0x390ce31a134804c3:0x1efe0384e9410898"}, {"place_id": "0x390ce5fdcc79e755:0x309ce99251b84ef6", "name": "Optyminds IT Solutions - Top AI and IT company I Best Digital agency in Noida | Delhi NCR | India", "category": "Software company", "street": "1st Floor", "city": "B-70", "phone": "08929075975", "website": "https://optyminds.com/", "rating": 4.9, "review_count": "", "latitude": 28.584679599999998, "longitude": 77.3135042, "maps_url": "https://www.google.com/maps/place/?q=place_id:0x390ce5fdcc79e755:0x309ce99251b84ef6"}, {"place_id": "0x390ce403ff26faa9:0x5580cdfe53cdfc3f", "name": "ZNSoftech Pvt Ltd", "category": "Software company", "street": "Gate No. 6", "city": "Basement", "phone": "01141060828", "website": "http://www.znsoftech.com/", "rating": 4.3, "review_count": "", "latitude": 28.5408187, "longitude": 77.294422, "maps_url": "https://www.google.com/maps/place/?q=place_id:0x390ce403ff26faa9:0x5580cdfe53cdfc3f"}, {"place_id": "0x390ce3d53fffffff:0xfe96235e5cdfdcd0", "name": "TPS Infrastructure Limited HQ", "category": "Corporate office", "street": "Commercial Complex", "city": "84, M Block Rd", "phone": "01129210902", "website": "https://www.tpsmfg.com/", "rating": 4.4, "review_count": "", "latitude": 28.5321732, "longitude": 77.2426978, "maps_url": "https://www.google.com/maps/place/?q=place_id:0x390ce3d53fffffff:0xfe96235e5cdfdcd0"}, {"place_id": "0x390ce3b48e27a563:0x4ec8ae3c524366b", "name": "iSOFT INDIA TECHNOLOGIES", "category": "Software company", "street": "E-168|169, Amar Colony, Lajpat Nagar", "city": "New Delhi, Delhi 110024", "phone": "09717978320", "website": "", "rating": 4.9, "review_count": "", "latitude": 28.5657368, "longitude": 77.23946029999999, "maps_url": "https://www.google.com/maps/place/?q=place_id:0x390ce3b48e27a563:0x4ec8ae3c524366b"}, {"place_id": "0x390ce1656fbb7b65:0x7f0e4b2c21935a5c", "name": "Lynkit Solutions Pvt. Ltd.", "category": "Software company", "street": "246", "city": "Block A, Okhla Phase I, Okhla Industrial Estate", "phone": "01140824028", "website": "http://www.lynkit.in/", "rating": 4.3, "review_count": "", "latitude": 28.5254729, "longitude": 77.2754985, "maps_url": "https://www.google.com/maps/place/?q=place_id:0x390ce1656fbb7b65:0x7f0e4b2c21935a5c"}, {"place_id": "0x390ce11068dacbdd:0xac4070cb73f9c1b1", "name": "Reedham It solutions pvt ltd", "category": "Software company", "street": "1297B, H 16 Rd", "city": "Block G 1, Talimabad, Sangam Vihar", "phone": "01146012950", "website": "http://reedhamitsolution.com/", "rating": 5, "review_count": "", "latitude": 28.5017906, "longitude": 77.25404069999999, "maps_url": "https://www.google.com/maps/place/?q=place_id:0x390ce11068dacbdd:0xac4070cb73f9c1b1"}, {"place_id": "0x390ce3cfe91504eb:0x55346c5c499223d7", "name": "CCS Computers Private Limited", "category": "Computer support and services", "street": "2nd-3rd Floor Skipper House", "city": "Nehru Place", "phone": "01126463959", "website": "http://www.ccscomputers.co.in/", "rating": 4, "review_count": "", "latitude": 28.550090599999997, "longitude": 77.2537834, "maps_url": "https://www.google.com/maps/place/?q=place_id:0x390ce3cfe91504eb:0x55346c5c499223d7"}, {"place_id": "0x390ce3c8e5555555:0xc908f703f65324ea", "name": "Vinayak Compserve Pvt.Ltd", "category": "Computer service", "street": "220", "city": "Sant Nagar, East of Kailash", "phone": "01126430397", "website": "https://vinayakit.com/", "rating": 3.7, "review_count": "", "latitude": 28.5536721, "longitude": 77.2494229, "maps_url": "https://www.google.com/maps/place/?q=place_id:0x390ce3c8e5555555:0xc908f703f65324ea"}, {"place_id": "0x390ce30f4c4ed777:0x3a7c5e032ce51ce5", "name": "Appextech Software Solutions", "category": "Software company", "street": "Second Floor", "city": "Mohan Cooperative Industrial Estate", "phone": "09911432451", "website": "https://www.appextech.com/", "rating": 4.9, "review_count": "", "latitude": 28.502260099999997, "longitude": 77.28519, "maps_url": "https://www.google.com/maps/place/?q=place_id:0x390ce30f4c4ed777:0x3a7c5e032ce51ce5"}, {"place_id": "0x390ce361b85d45af:0xa4ae4cd320377b4e", "name": "Gazillio Concepts Pvt ltd", "category": "Computer Hardware Company", "street": "Lower ground", "city": "385 A", "phone": "09569927028", "website": "http://www.gazillio.com/", "rating": 4.9, "review_count": "", "latitude": 28.535964099999998, "longitude": 77.2298253, "maps_url": "https://www.google.com/maps/place/?q=place_id:0x390ce361b85d45af:0xa4ae4cd320377b4e"}, {"place_id": "0x390ce3b7c0000001:0x46ddd80ee502d937", "name": "Amtrak Technologies Private Limited", "category": "Computer support and services", "street": "6, Community Centre", "city": "East of Kailash", "phone": "01126448000", "website": "https://amtrak.co.in/", "rating": 4.4, "review_count": "", "latitude": 28.558434899999998, "longitude": 77.2463302, "maps_url": "https://www.google.com/maps/place/?q=place_id:0x390ce3b7c0000001:0x46ddd80ee502d937"}, {"place_id": "0x2a72b8b69d7b6493:0x11251466d4d34cac", "name": "WebZonal IT Company", "category": "Website designer", "street": "Wz-258/2-3, D Block Rd", "city": "Khazan Basti, Nangal Raya, Janakpuri", "phone": "09811170903", "website": "http://webzonal.com/", "rating": 5, "review_count": "", "latitude": 28.6122102, "longitude": 77.11159549999999, "maps_url": "https://www.google.com/maps/place/?q=place_id:0x2a72b8b69d7b6493:0x11251466d4d34cac"}, {"place_id": "0x390ce53010dfd08b:0x2990f9af6b173aad", "name": "Marc2web ERP Solutions Pvt Ltd", "category": "Software company", "street": "C-1/14A, 2nd Floor, Old Village Jasola Vihar Extn Opp- DDA Janta Flats", "city": "Pocket 11, Jasola Vihar", "phone": "", "website": "https://marc2web.com/", "rating": 3.8, "review_count": "", "latitude": 28.550180899999997, "longitude": 77.2913852, "maps_url": "https://www.google.com/maps/place/?q=place_id:0x390ce53010dfd08b:0x2990f9af6b173aad"}, {"place_id": "0x390ce3932eaaaaab:0xb308d9aae0d93852", "name": "Al Hadaf Technologies\u2013 ERP, CRM, HRM, Hospital, School, Billing Software Development Company in Delhi NCR", "category": "Software company", "street": "96, Gate No-2", "city": "opp. Escort Hospital", "phone": "08586972994", "website": "https://www.alhadaftech.com/", "rating": 4.9, "review_count": "", "latitude": 28.5562397, "longitude": 77.2762099, "maps_url": "https://www.google.com/maps/place/?q=place_id:0x390ce3932eaaaaab:0xb308d9aae0d93852"}, {"place_id": "0x390ce18106f0789b:0x9bf3256313d7494f", "name": "YFC Project Pvt Ltd (DC04- Metro Project Office)", "category": "Corporate office", "street": "G6HJ+RVC", "city": "Jahanpanah City Forest", "phone": "", "website": "", "rating": 4.1, "review_count": "", "latitude": 28.5295545, "longitude": 77.2321386, "maps_url": "https://www.google.com/maps/place/?q=place_id:0x390ce18106f0789b:0x9bf3256313d7494f"}, {"place_id": "0x390ce1954949b925:0xfed645cf021f4381", "name": "Canvalabs Solutions Private Limited | AV IT Contractors | Sound Rental | AV IT Integrator", "category": "Audio visual consultant", "street": "Shop No-4", "city": "W Block Rd", "phone": "08130786003", "website": "https://www.canvalabssolutions.com/", "rating": 4.9, "review_count": "", "latitude": 28.533562099999997, "longitude": 77.2364187, "maps_url": "https://www.google.com/maps/place/?q=place_id:0x390ce1954949b925:0xfed645cf021f4381"}, {"place_id": "0x390cfd3a787081f1:0xfb342375457d552d", "name": "Pamposh Constructions India Pvt. Ltd.", "category": "Real Estate Builders & Construction Company", "street": "II, 15, L.S.C", "city": "M.G. Bhawan", "phone": "01129215039", "website": "http://www.pamposh.net/", "rating": 4.4, "review_count": "", "latitude": 28.5267819, "longitude": 77.2322346, "maps_url": "https://www.google.com/maps/place/?q=place_id:0x390cfd3a787081f1:0xfb342375457d552d"}, {"place_id": "0x390ce137736852e9:0x7fe34ee47ed93a72", "name": "Pothera ERP Software for Manufacturing Company", "category": "Software company", "street": "Basement A-283, Near TATA Showroom Okhla Phase 1, New Delhi", "city": "Delhi, 110020", "phone": "", "website": "http://pothera.com/", "rating": 5, "review_count": "", "latitude": 28.525357099999997, "longitude": 77.27710809999999, "maps_url": "https://www.google.com/maps/place/?q=place_id:0x390ce137736852e9:0x7fe34ee47ed93a72"}, {"place_id": "0x390cfd9627f1ef6f:0x2ceaf9a99dfc7b29", "name": "QuaintX Innovations", "category": "Software company", "street": "3rd Floor, Building", "city": "125, Savitri Nagar Rd", "phone": "07015149213", "website": "https://quaintx.com/", "rating": 5, "review_count": "", "latitude": 28.5394647, "longitude": 77.21983519999999, "maps_url": "https://www.google.com/maps/place/?q=place_id:0x390cfd9627f1ef6f:0x2ceaf9a99dfc7b29"}, {"place_id": "0x390feda4c4f56aed:0x2277b287e38fc0ec", "name": "Dizivan IT Solutions Pvt Ltd- App Development & Digital Marketing Company", "category": "Software company", "street": "near Metro Station New Ashok Nagar", "city": "Block B, New Ashok Nagar", "phone": "09142092979", "website": "https://dizivan.com/", "rating": 5, "review_count": "", "latitude": 28.5891575, "longitude": 77.3020624, "maps_url": "https://www.google.com/maps/place/?q=place_id:0x390feda4c4f56aed:0x2277b287e38fc0ec"}, {"place_id": "0x390ce19d6aaaaaab:0x322f66cd91e8f6cd", "name": "Vikas Gupta Web Developer", "category": "Website designer", "street": "A-454 Dakshinpuri", "city": "New Delhi, Delhi 110062", "phone": "09643269244", "website": "https://itcrafterhub.com/website-developer-delhi/", "rating": 5, "review_count": "", "latitude": 28.522017599999998, "longitude": 77.2366923, "maps_url": "https://www.google.com/maps/place/?q=place_id:0x390ce19d6aaaaaab:0x322f66cd91e8f6cd"}, {"place_id": "0x390ce1842e897089:0xcb954d0aef116e6f", "name": "Internet Moguls", "category": "Internet marketing service", "street": "20, First Floor, Local Shopping Complex, Near Pushp Vihar", "city": "Madangir Village, Madangir", "phone": "08826104440", "website": "http://www.internetmoguls.com/", "rating": 4.5, "review_count": "", "latitude": 28.526926099999997, "longitude": 77.2317698, "maps_url": "https://www.google.com/maps/place/?q=place_id:0x390ce1842e897089:0xcb954d0aef116e6f"}, {"place_id": "0x390ce22c021eaa3f:0x8fff197cd24f0daf", "name": "Art Attackk-Website Designing Company In Delhi", "category": "Software company", "street": "E-92, Block E Greater Kailash Rd Number 3", "city": "Greater Kailash Part 3, Masjid Moth, Greater Kailash", "phone": "09499399914", "website": "https://www.artattackk.com/", "rating": 4.2, "review_count": "", "latitude": 28.5394227, "longitude": 77.2349143, "maps_url": "https://www.google.com/maps/place/?q=place_id:0x390ce22c021eaa3f:0x8fff197cd24f0daf"}, {"place_id": "0x390ce23eeab015ab:0x92d6a7e8dbc46e1a", "name": "Odyssey Website Development Company", "category": "Website designer", "street": "B-59", "city": "Block B, Soami Nagar South, Soami Nagar", "phone": "09654486464", "website": "http://odysseyin.com/?utm_source=GMB&utm_medium=Organic&utm_term=Odyssey&utm_content=Listing&utm_campaign=GMB1", "rating": 3.6, "review_count": "", "latitude": 28.541823599999997, "longitude": 77.2262008, "maps_url": "https://www.google.com/maps/place/?q=place_id:0x390ce23eeab015ab:0x92d6a7e8dbc46e1a"}, {"place_id": "0x390ce4f2fc4216a1:0x104c59100e2e337e", "name": "India IT Solutions", "category": "Software company", "street": "C-2, 207,New Ashok Nagar", "city": "Sector 7", "phone": "08802084788", "website": "", "rating": 4.5, "review_count": "", "latitude": 28.595324599999998, "longitude": 77.3118642, "maps_url": "https://www.google.com/maps/place/?q=place_id:0x390ce4f2fc4216a1:0x104c59100e2e337e"}, {"place_id": "0x390ce3001bfd51c7:0x43ad1c18c320f5e6", "name": "APPSYFY IT SOLUTIONS PVT LTD", "category": "Software company", "street": "211, Okhla Phase 3 Rd", "city": "Okhla Phase III, Okhla Industrial Estate", "phone": "", "website": "https://appsyfy.com/", "rating": 5, "review_count": "", "latitude": 28.5484191, "longitude": 77.27131729999999, "maps_url": "https://www.google.com/maps/place/?q=place_id:0x390ce3001bfd51c7:0x43ad1c18c320f5e6"}, {"place_id": "0x390ce25e35e99b33:0xf443abe69b4e8fcc", "name": "Synapse Valuetech Private Limited", "category": "Software company", "street": "Lower Ground Floor", "city": "221", "phone": "01146628882", "website": "https://www.synapsevaluetech.com/", "rating": 4.3, "review_count": "", "latitude": 28.558165, "longitude": 77.2592385, "maps_url": "https://www.google.com/maps/place/?q=place_id:0x390ce25e35e99b33:0xf443abe69b4e8fcc"}, {"place_id": "0x390d1f5abfb25fe1:0x7d9c4d5e159f2955", "name": "Jaimru Technology Pvt Ltd", "category": "Software company", "street": "WARD NO. 2", "city": "Plot No. 178 M 33 A/1", "phone": "07838153420", "website": "https://www.jaimru.com/", "rating": 4.9, "review_count": "", "latitude": 28.524347499999998, "longitude": 77.1731889, "maps_url": "https://www.google.com/maps/place/?q=place_id:0x390d1f5abfb25fe1:0x7d9c4d5e159f2955"}, {"place_id": "0x390ce3d647f7d2d5:0x389ee7c78c3019f9", "name": "APPWRK IT Solutions- Bespoke Web & Mobile App Development Company I AI Powered Solutions", "category": "Software company", "street": "101, NH-19", "city": "CRRI, Ishwar Nagar, Okhla", "phone": "", "website": "https://appwrk.com/", "rating": 5, "review_count": "", "latitude": 28.5508191, "longitude": 77.2746251, "maps_url": "https://www.google.com/maps/place/?q=place_id:0x390ce3d647f7d2d5:0x389ee7c78c3019f9"}, {"place_id": "0x390ce17fca0a25e7:0x4f3e880d5dc8d7ae", "name": "Hubhopper", "category": "Software company", "street": "M Block Market", "city": "M77, Inder Mohan Bhardwaj Marg", "phone": "", "website": "http://www.hubhopper.com/", "rating": 4.6, "review_count": "", "latitude": 28.5326202, "longitude": 77.2431498, "maps_url": "https://www.google.com/maps/place/?q=place_id:0x390ce17fca0a25e7:0x4f3e880d5dc8d7ae"}, {"place_id": "0x390ce45bcd61048f:0x5f6a5602f4155df7", "name": "JK Technosoft Limited", "category": "Software company", "street": "F", "city": "3", "phone": "01204606300", "website": "https://jktech.com/", "rating": 4.2, "review_count": "", "latitude": 28.5802509, "longitude": 77.31793329999999, "maps_url": "https://www.google.com/maps/place/?q=place_id:0x390ce45bcd61048f:0x5f6a5602f4155df7"}, {"place_id": "0x390ce276958f566d:0x1385e2d059fccb17", "name": "Wozo Gaming", "category": "Software company", "street": "A-5, Saket Cultural Complex", "city": "Innov8 Old Fort Delhi Fort", "phone": "", "website": "https://www.wozogaming.com/", "rating": 4.4, "review_count": "", "latitude": 28.527122, "longitude": 77.21670999999999, "maps_url": "https://www.google.com/maps/place/?q=place_id:0x390ce276958f566d:0x1385e2d059fccb17"}, {"place_id": "0x390ce1e92eec0d49:0x8b4c598e70e40b8", "name": "Kito Infocom Pvt. Ltd", "category": "Internet marketing service", "street": "2nd Floor", "city": "B-38", "phone": "08826845665", "website": "https://kitoinfocom.com/", "rating": 4.6, "review_count": "", "latitude": 28.5302415, "longitude": 77.2719123, "maps_url": "https://www.google.com/maps/place/?q=place_id:0x390ce1e92eec0d49:0x8b4c598e70e40b8"}, {"place_id": "0x390ce3c577996141:0x6f0e309d0c4c2de1", "name": "Eagle Information Systems Pvt. Ltd.", "category": "Computer support and services", "street": "Madhuban Building", "city": "705", "phone": "09818188012", "website": "http://www.eagle.in/", "rating": 4.5, "review_count": "", "latitude": 28.5486501, "longitude": 77.2520914, "maps_url": "https://www.google.com/maps/place/?q=place_id:0x390ce3c577996141:0x6f0e309d0c4c2de1"}, {"place_id": "0x390ce3c5130e43f3:0xce85951ee98d424e", "name": "MODI INFOSOL PVT. LTD.", "category": "Manufacturer", "street": "OFFICE # 168", "city": "D Block, Pocket D, Okhla Phase I, Okhla Industrial Estate", "phone": "01140746900", "website": "http://www.modiithub.com/", "rating": 3.6, "review_count": "", "latitude": 28.5209118, "longitude": 77.2783556, "maps_url": "https://www.google.com/maps/place/?q=place_id:0x390ce3c5130e43f3:0xce85951ee98d424e"}, {"place_id": "0x390ce3ea3fb39ced:0x8b9f74c98dfbe23e", "name": "StudioKrew : Game development company and App Development Studio India", "category": "Software company", "street": "2, Shambhu Dayal Marg", "city": "opp. Okhla Phase 3", "phone": "08826617711", "website": "https://studiokrew.com/", "rating": 4.4, "review_count": "", "latitude": 28.554599999999997, "longitude": 77.265056, "maps_url": "https://www.google.com/maps/place/?q=place_id:0x390ce3ea3fb39ced:0x8b9f74c98dfbe23e"}, {"place_id": "0x390ce1842b5bd7c1:0xc8a7e9b4f441926f", "name": "Sudarshan Facilities Private Limited", "category": "Security service", "street": "LSC, 2nd floor", "city": "Dakshinpuri Extension, Block 18", "phone": "01129964898", "website": "http://sudarshanfacilities.in/", "rating": 4.2, "review_count": "", "latitude": 28.526866899999998, "longitude": 77.2319488, "maps_url": "https://www.google.com/maps/place/?q=place_id:0x390ce1842b5bd7c1:0xc8a7e9b4f441926f"}, {"place_id": "0x390ce17fb4c77baf:0x2e51118d1d34389d", "name": "White Shrub Pvt. Ltd.", "category": "Corporate office", "street": "1st & 3rd Floor", "city": "M Block", "phone": "01141704861", "website": "https://cherrycrumble.com/", "rating": 3.9, "review_count": "", "latitude": 28.536027999999998, "longitude": 77.2448969, "maps_url": "https://www.google.com/maps/place/?q=place_id:0x390ce17fb4c77baf:0x2e51118d1d34389d"}, {"place_id": "0x390ce1a1fb5549f5:0xf3e13b4be140634c", "name": "Del Trade International", "category": "Corporate office", "street": "Beetal House", "city": "99", "phone": "01129967331", "website": "http://www.deltrade.in/", "rating": 4.6, "review_count": "", "latitude": 28.5251697, "longitude": 77.23309139999999, "maps_url": "https://www.google.com/maps/place/?q=place_id:0x390ce1a1fb5549f5:0xf3e13b4be140634c"}, {"place_id": "0x390ce196e61df7f3:0xedb8f1af808c8874", "name": "Best Digital Marketing Company in Kalkaji - HitupSolutions", "category": "Software company", "street": "1343, Street No. 13", "city": "Govindpuri", "phone": "07983772834", "website": "https://hitupsolutions.com/", "rating": 4.9, "review_count": "", "latitude": 28.5323982, "longitude": 77.2634478, "maps_url": "https://www.google.com/maps/place/?q=place_id:0x390ce196e61df7f3:0xedb8f1af808c8874"}, {"place_id": "0x390ce1b9de54d101:0xc5184256693b27dd", "name": "LCK Technologies - Website designing development company South Delhi", "category": "Website designer", "street": "439 1st floor", "city": "438", "phone": "09891337955", "website": "https://lckdigitalmedia.in/", "rating": 4.9, "review_count": "", "latitude": 28.5089698, "longitude": 77.20114769999999, "maps_url": "https://www.google.com/maps/place/?q=place_id:0x390ce1b9de54d101:0xc5184256693b27dd"}, {"place_id": "0x390ce3e8ccb99db7:0x333c7a94bc7d2676", "name": "OptMum Digital Marketing Agency in South Delhi", "category": "Website designer", "street": "Shop No. 1, CSC Market Opp. College Of Vocational Studies, Sheikh Sarai, Phase 2 New Delhi", "city": "Delhi, 110017", "phone": "08087312207", "website": "https://optmumdigitalmarketing.com/delhi/", "rating": 5, "review_count": "", "latitude": 28.5331391, "longitude": 77.2282865, "maps_url": "https://www.google.com/maps/place/?q=place_id:0x390ce3e8ccb99db7:0x333c7a94bc7d2676"}, {"place_id": "0x390ce1f07115d759:0xc18601354870cedf", "name": "Clay TechSystems", "category": "Software company", "street": "Innov8 LG-1", "city": "Saket District Centre, District Centre, Sector 6, Saket", "phone": "09990111222", "website": "http://www.clay.co.in/", "rating": 5, "review_count": "", "latitude": 28.527822699999998, "longitude": 77.2200807, "maps_url": "https://www.google.com/maps/place/?q=place_id:0x390ce1f07115d759:0xc18601354870cedf"}, {"place_id": "0x390ce1f0adb989f1:0x6b1eae6bc50f733f", "name": "Corporate Warranties (I) Pvt Ltd", "category": "Corporate office", "street": "263, First Floor", "city": "DLF South Court Mall", "phone": "", "website": "http://www.warranty.co.in/", "rating": 4.4, "review_count": "", "latitude": 28.5279261, "longitude": 77.2205915, "maps_url": "https://www.google.com/maps/place/?q=place_id:0x390ce1f0adb989f1:0x6b1eae6bc50f733f"}, {"place_id": "0x390ce3775810a6c5:0xbbdc62c8f716fb6a", "name": "JR CORPORATE SECURITY & HOSPITALITY SERVICES PVT. LTD.", "category": "Security service", "street": "Dda Commercial Complex", "city": "Building No.18, Office No.104, F/F", "phone": "09069696950", "website": "https://www.jrsecurityandhospitality.com/", "rating": 4.7, "review_count": "", "latitude": 28.526871699999997, "longitude": 77.2319447, "maps_url": "https://www.google.com/maps/place/?q=place_id:0x390ce3775810a6c5:0xbbdc62c8f716fb6a"}, {"place_id": "0x390ce3b1ca8aa29b:0x4378289a0d2e0fbc", "name": "Royal Hub", "category": "Event management company", "street": "Basement (Front Lower Ground Floor", "city": "S-473", "phone": "08700249372", "website": "https://www.royalhub.in/", "rating": 4.7, "review_count": "", "latitude": 28.5309775, "longitude": 77.2438938, "maps_url": "https://www.google.com/maps/place/?q=place_id:0x390ce3b1ca8aa29b:0x4378289a0d2e0fbc"}, {"place_id": "0x390cfb001e10cddf:0x5553b768bb09c964", "name": "STARTUPWAY24 IT SERVICES PVT. LTD.", "category": "Software company", "street": "MAKI SARAY", "city": "A- 160, Delhi Metro Red Line", "phone": "09711812800", "website": "http://startupway24.com/", "rating": 5, "review_count": "", "latitude": 28.6734996, "longitude": 77.2890843, "maps_url": "https://www.google.com/maps/place/?q=place_id:0x390cfb001e10cddf:0x5553b768bb09c964"}, {"place_id": "0x390ce1be2d2a7377:0x5020cce4790298e1", "name": "AJWA KAIF PVT LTD", "category": "Computer support and services", "street": "Ground Floor", "city": "Khirki Vill", "phone": "01142502100", "website": "https://www.ajwakaif.com/", "rating": 5, "review_count": "", "latitude": 28.5309287, "longitude": 77.2194186, "maps_url": "https://www.google.com/maps/place/?q=place_id:0x390ce1be2d2a7377:0x5020cce4790298e1"}, {"place_id": "0x390ce3e8c0000001:0x7e2d636beb2d1821", "name": "DigiSensy", "category": "Marketing agency", "street": "3", "city": "Okhla Phase I, Okhla Industrial Estate", "phone": "09935628555", "website": "https://www.digisensy.com/", "rating": 4.6, "review_count": "", "latitude": 28.549205999999998, "longitude": 77.26776, "maps_url": "https://www.google.com/maps/place/?q=place_id:0x390ce3e8c0000001:0x7e2d636beb2d1821"}, {"place_id": "0x390ce3d065468811:0xe6ad16ee437d72ce", "name": "Inventive Monks", "category": "Internet marketing service", "street": "108 A", "city": "Madangir Vlg Rd", "phone": "08700574125", "website": "http://inventivemonks.com/", "rating": 4.9, "review_count": "", "latitude": 28.525961799999997, "longitude": 77.23194149999999, "maps_url": "https://www.google.com/maps/place/?q=place_id:0x390ce3d065468811:0xe6ad16ee437d72ce"}, {"place_id": "0x390d1e186527b451:0x3d552630d3703e21", "name": "Inca Infotech Technologies Pvt Ltd", "category": "Computer support and services", "street": "D-23/405, UGF", "city": "100 Feet Rd", "phone": "18008891907", "website": "https://www.incainfotech.com/", "rating": 3.6, "review_count": "", "latitude": 28.506226899999998, "longitude": 77.1850521, "maps_url": "https://www.google.com/maps/place/?q=place_id:0x390d1e186527b451:0x3d552630d3703e21"}, {"place_id": "0x390ce45a25555555:0x83a27490bba534a7", "name": "Parangat Technologies", "category": "Software company", "street": "", "city": "", "phone": "08700213345", "website": "https://www.parangat.com/", "rating": 4.1, "review_count": "", "latitude": 9.374110199999999, "longitude": -74.9524576, "maps_url": "https://www.google.com/maps/place/?q=place_id:0x390ce45a25555555:0x83a27490bba534a7"}, {"place_id": "0x390cdda0937a36df:0x350a8716d5f40b92", "name": "VS Square Info Solutions", "category": "Computer support and services", "street": "Govardhan Building", "city": "Nehru Place", "phone": "09319173336", "website": "http://www.vssquareinfo.com/", "rating": 4.9, "review_count": "", "latitude": 28.5490526, "longitude": 77.251606, "maps_url": "https://www.google.com/maps/place/?q=place_id:0x390cdda0937a36df:0x350a8716d5f40b92"}, {"place_id": "0x390ce17a6c6f0859:0x6222b942ed18d4bd", "name": "Mediqua: Alkaline Water Ionizers", "category": "Water purification company", "street": "172", "city": "sector 7, Saket, Pushp Vihar", "phone": "08390423276", "website": "https://www.mediquaindia.com/", "rating": 5, "review_count": "", "latitude": 28.530612599999998, "longitude": 77.2297379, "maps_url": "https://www.google.com/maps/place/?q=place_id:0x390ce17a6c6f0859:0x6222b942ed18d4bd"}, {"place_id": "0x390ce1847db86803:0x82c126febafbf27b", "name": "SABSANG FINANCE LIMITED.", "category": "Corporate office", "street": "64", "city": "Block 11, Dakshinpuri", "phone": "09711124248", "website": "http://sabsangfinance.com/", "rating": 4.9, "review_count": "", "latitude": 28.524715699999998, "longitude": 77.23438089999999, "maps_url": "https://www.google.com/maps/place/?q=place_id:0x390ce1847db86803:0x82c126febafbf27b"}, {"place_id": "0x390ce39a24b89521:0x6e886c5e28fd05a9", "name": "Cloude Data Delhi | Best Cloud Service Provider company in India", "category": "Web hosting company", "street": "First Floor", "city": "A 212, Okhla Phase 3 Rd", "phone": "08882353612", "website": "https://cloudedata.com/", "rating": 4.4, "review_count": "", "latitude": 28.548515, "longitude": 77.2712834, "maps_url": "https://www.google.com/maps/place/?q=place_id:0x390ce39a24b89521:0x6e886c5e28fd05a9"}, {"place_id": "0x390ce39a3aaaaaef:0x1e5c9f03de5fa9fd", "name": "Bhive Technology Website Design Company in Delhi ! GAME DEVELOPMENT COMPANY IN DELHI", "category": "Website designer", "street": "Nsic Metro Grand Dream", "city": "Shambhu Dayal Bagh, Kalkaji", "phone": "09990034350", "website": "https://www.bhivetechnology.in/", "rating": 5, "review_count": "", "latitude": 28.555754699999998, "longitude": 77.2640089, "maps_url": "https://www.google.com/maps/place/?q=place_id:0x390ce39a3aaaaaef:0x1e5c9f03de5fa9fd"}, {"place_id": "0x390ce100f5e94809:0xd78d6863269ad2a1", "name": "Taom Solutions", "category": "Software company", "street": "E- 44/3 Ground Floor", "city": "F Block, Pocket X, Okhla Phase II, Okhla Industrial Estate", "phone": "", "website": "https://www.taomsolutions.com/", "rating": 5, "review_count": "", "latitude": 28.535762799999997, "longitude": 77.2764329, "maps_url": "https://www.google.com/maps/place/?q=place_id:0x390ce100f5e94809:0xd78d6863269ad2a1"}, {"place_id": "0x390ce3cc8ac27ff1:0xea2de413b59c20fd", "name": "Knowledgentia Consultants", "category": "Law firm", "street": "W-19", "city": "Block W, Greater Kailash II, Greater Kailash", "phone": "01149122916", "website": "http://knowledgentia.com/", "rating": 4.8, "review_count": "", "latitude": 28.5307432, "longitude": 77.24105759999999, "maps_url": "https://www.google.com/maps/place/?q=place_id:0x390ce3cc8ac27ff1:0xea2de413b59c20fd"}, {"place_id": "0x390d1ed3c6e9f579:0x322eccdb00f350d2", "name": "Techjockey", "category": "Software company", "street": "Ground floor, Habitat India", "city": "C-3", "phone": "01142213003", "website": "https://www.techjockey.com/", "rating": 4, "review_count": "", "latitude": 28.536615299999998, "longitude": 77.1902978, "maps_url": "https://www.google.com/maps/place/?q=place_id:0x390d1ed3c6e9f579:0x322eccdb00f350d2"}, {"place_id": "0x390d011e517039e5:0xd7871aa892609a4c", "name": "Top #1 Website Company in delhi", "category": "Software company", "street": "P56H+9CP, Commercial Complex, Gopal Nagar, Model Town", "city": "near Akash Cinema", "phone": "", "website": "", "rating": 4.6, "review_count": "", "latitude": 28.7109375, "longitude": 77.1785625, "maps_url": "https://www.google.com/maps/place/?q=place_id:0x390d011e517039e5:0xd7871aa892609a4c"}, {"place_id": "0x390ce17b01e1a187:0x586fa6002747476d", "name": "OneTap AI Solutions", "category": "Software company", "street": "FIRST FLOOR", "city": "HOLI CHOWK", "phone": "07859935902", "website": "https://onetapaisolutions.com/", "rating": 5, "review_count": "", "latitude": 28.5011396, "longitude": 77.2343595, "maps_url": "https://www.google.com/maps/place/?q=place_id:0x390ce17b01e1a187:0x586fa6002747476d"}, {"place_id": "0xa3f7b500ba6bee9b:0xbf6f44de92b28de", "name": "Yuvocreations Private Limited ( \u092f\u0941\u0935\u094b\u0915\u094d\u0930\u093f\u090f\u0936\u0928\u094d\u0938 \u092a\u094d\u0930\u093e\u0907\u0935\u0947\u091f \u0932\u093f\u092e\u093f\u091f\u0947\u0921 ) - Website Designing & Digital Marketing Agency", "category": "Software company", "street": "Lane no.4", "city": "Khasra no. 258, Westend Marg", "phone": "07042123166", "website": "https://yuvocreations.com/", "rating": 5, "review_count": "", "latitude": 28.5169774, "longitude": 77.19925789999999, "maps_url": "https://www.google.com/maps/place/?q=place_id:0xa3f7b500ba6bee9b:0xbf6f44de92b28de"}, {"place_id": "0x390ce459e2a3a42f:0xdda2e042090c2c72", "name": "InfiCare Technologies Pvt. Ltd", "category": "Software company", "street": "D-92 Second/Third floor", "city": "Sector 2", "phone": "09711265591", "website": "http://www.inficaretech.com/", "rating": 3.9, "review_count": "", "latitude": 28.582936099999998, "longitude": 77.3175146, "maps_url": "https://www.google.com/maps/place/?q=place_id:0x390ce459e2a3a42f:0xdda2e042090c2c72"}, {"place_id": "0x390ce10972701b43:0x88fbfcfafdaf00f3", "name": "SearchingYard Group Corporate HQ", "category": "Software company", "street": "Tower 1st Floor, A", "city": "Nagpal Business", "phone": "", "website": "http://www.searchingyard.com/", "rating": 1.7, "review_count": "", "latitude": 28.538387699999998, "longitude": 77.27080029999999, "maps_url": "https://www.google.com/maps/place/?q=place_id:0x390ce10972701b43:0x88fbfcfafdaf00f3"}, {"place_id": "0xa23da5c11cc29301:0x7892865b08c8d494", "name": "Call Center Solutions | Dialer Software Company | IVR Service", "category": "Telecommunications service provider", "street": "Office No:- 15 First Floor", "city": "59/1", "phone": "09930259555", "website": "https://www.callcentersolution.in/", "rating": 4.4, "review_count": "", "latitude": 28.540130599999998, "longitude": 77.2619868, "maps_url": "https://www.google.com/maps/place/?q=place_id:0xa23da5c11cc29301:0x7892865b08c8d494"}, {"place_id": "0x390ce1bef0c8c071:0xb0a64e46c6405fc6", "name": "Tech rise dynamics", "category": "Website designer", "street": "293, Lane-2, Westend Marg", "city": "near Saket Metro Station", "phone": "08750557052", "website": "https://www.techrisedynamics.com/", "rating": 5, "review_count": "", "latitude": 28.5177321, "longitude": 77.1986237, "maps_url": "https://www.google.com/maps/place/?q=place_id:0x390ce1bef0c8c071:0xb0a64e46c6405fc6"}, {"place_id": "0x390cfd0892efaf67:0x4e62ae77efde72d", "name": "Webitinfotech", "category": "Software company", "street": "G-243, Street No. 13", "city": "Indra Vihar I, Phase 2, Bhagirathi Vihar, delhi 94", "phone": "09990179858", "website": "https://webitinfotech.com/", "rating": 4.8, "review_count": "", "latitude": 28.713078699999997, "longitude": 77.2794655, "maps_url": "https://www.google.com/maps/place/?q=place_id:0x390cfd0892efaf67:0x4e62ae77efde72d"}, {"place_id": "0x390ce3bff9ba7d67:0x8b4534027f9a5803", "name": "Accel IT Services -Regional Office", "category": "Computer support and services", "street": "Ground Floor", "city": "A-61/1", "phone": "", "website": "https://www.accelits.com/", "rating": 3.9, "review_count": "", "latitude": 28.5396719, "longitude": 77.2697596, "maps_url": "https://www.google.com/maps/place/?q=place_id:0x390ce3bff9ba7d67:0x8b4534027f9a5803"}, {"place_id": "0x7f4b3ca25fc9b73:0x317c8405b30f2fc3", "name": "Auriga Accounting Pvt.Ltd", "category": "Accounting firm", "street": "163 D/1", "city": "Khirki Extension, Malviya Nagar", "phone": "07982044611", "website": "http://www.aurigaaccounting.in/", "rating": 4.9, "review_count": "", "latitude": 28.532131999999997, "longitude": 77.2188195, "maps_url": "https://www.google.com/maps/place/?q=place_id:0x7f4b3ca25fc9b73:0x317c8405b30f2fc3"}, {"place_id": "0x390cfea83f36661b:0x893715bf8766e4ee", "name": "IT Solution", "category": "Software company", "street": "P7CG+RPF", "city": "Mahalaxmi Vihar, Phase 7, Block A, Shiv Vihar, Karawal Nagar", "phone": "09818231784", "website": "", "rating": 5, "review_count": "", "latitude": 28.722054399999998, "longitude": 77.2768011, "maps_url": "https://www.google.com/maps/place/?q=place_id:0x390cfea83f36661b:0x893715bf8766e4ee"}, {"place_id": "0x390ce3ffe4d01b19:0xe0931b3dea29cf15", "name": "Buzytech : Web Development & Digital Marketing Company", "category": "Marketing agency", "street": "US Complex", "city": "204", "phone": "09810748731", "website": "http://www.buzytech.com/", "rating": 4.2, "review_count": "", "latitude": 28.538573, "longitude": 77.2826166, "maps_url": "https://www.google.com/maps/place/?q=place_id:0x390ce3ffe4d01b19:0xe0931b3dea29cf15"}, {"place_id": "0x390cfe2767c704c9:0x7976a0b8535f729b", "name": "Software IT Solution", "category": "Software company", "street": "H.No.188, Gali Number 8", "city": "Chandan Vihar, Virendar Nagar, Block B, West Sant Nagar, Burari", "phone": "09555739718", "website": "http://www.softwareitsolution.com/", "rating": 4.5, "review_count": "", "latitude": 28.7413723, "longitude": 77.1961584, "maps_url": "https://www.google.com/maps/place/?q=place_id:0x390cfe2767c704c9:0x7976a0b8535f729b"}, {"place_id": "0x390ce1f3680c0793:0x251c9beb1e8924ad", "name": "FSIndia - The Best Video Production Company", "category": "Video production service", "street": "192B/3, 2nd Floor", "city": "Govindpuri, Kalkaji", "phone": "09996910399", "website": "https://freelanceservicesindia.com/", "rating": 4.7, "review_count": "", "latitude": 28.536257799999998, "longitude": 77.2640229, "maps_url": "https://www.google.com/maps/place/?q=place_id:0x390ce1f3680c0793:0x251c9beb1e8924ad"}, {"place_id": "0x390ce3a840ea11c1:0xdf76e01fa07971ea", "name": "Camsol Advisory | Best Online CA Services in Delhi | Company Registration Services", "category": "Accounting firm", "street": "Basement, N Block", "city": "N-22, Guru Ravidas Marg", "phone": "09873895537", "website": "https://camsoladvisory.com/", "rating": 4.9, "review_count": "", "latitude": 28.537281, "longitude": 77.2591806, "maps_url": "https://www.google.com/maps/place/?q=place_id:0x390ce3a840ea11c1:0xdf76e01fa07971ea"}, {"place_id": "0x390ce234ad457b8b:0xf45fdcd2b1dcf3b5", "name": "Kred-Jure Law Firm", "category": "Law firm", "street": "W-41A", "city": "Block W, Greater Kailash II, Greater Kailash", "phone": "01140532096", "website": "http://www.kred-jure.in/", "rating": 4.5, "review_count": "", "latitude": 28.5323055, "longitude": 77.2391279, "maps_url": "https://www.google.com/maps/place/?q=place_id:0x390ce234ad457b8b:0xf45fdcd2b1dcf3b5"}, {"place_id": "0x390ce22b4fec8605:0xcd8c647ea2dd61ff", "name": "Nesta Events & MICE", "category": "Event management company", "street": "M 155", "city": "2", "phone": "09810518665", "website": "http://nestaevents.in/", "rating": 5, "review_count": "", "latitude": 28.5359454, "longitude": 77.2434269, "maps_url": "https://www.google.com/maps/place/?q=place_id:0x390ce22b4fec8605:0xcd8c647ea2dd61ff"}, {"place_id": "0x390ce18b532b6807:0x4eaf73f7c2d0cbd9", "name": "Ircon International Limited", "category": "Government office", "street": "Saket District Centre, District Centre, Sector 6, C-4", "city": "New Delhi, Delhi 110017", "phone": "", "website": "https://ircon.org/", "rating": 4.5, "review_count": "", "latitude": 28.526402299999997, "longitude": 77.2177299, "maps_url": "https://www.google.com/maps/place/?q=place_id:0x390ce18b532b6807:0x4eaf73f7c2d0cbd9"}, {"place_id": "0x390ce3d53fffffff:0xc0e02fb0a4887399", "name": "Aquaterra Adventures", "category": "Tour agency", "street": "507, Inder Mohan Bhardwaj Marg", "city": "Block S, Greater Kailash II, Greater Kailash", "phone": "09811103831", "website": "http://www.aquaterra.in/", "rating": 4.8, "review_count": "", "latitude": 28.5297059, "longitude": 77.2445106, "maps_url": "https://www.google.com/maps/place/?q=place_id:0x390ce3d53fffffff:0xc0e02fb0a4887399"}, {"place_id": "0x390ce3d53fffffff:0x2b239db8d932447b", "name": "Design Dimensions", "category": "Website designer", "street": "Ground Floor", "city": "M \u2013 283", "phone": "09625012486", "website": "http://www.designdimensions.in/", "rating": 3.9, "review_count": "", "latitude": 28.5339432, "longitude": 77.2418335, "maps_url": "https://www.google.com/maps/place/?q=place_id:0x390ce3d53fffffff:0x2b239db8d932447b"}, {"place_id": "0x390ce3ca2a26c269:0x5abe1b30660c1627", "name": "Film Production House | Getintofilm\u00ae Film Production Company", "category": "Film Production Company", "street": "Gate 3, Magenta) Metro Station", "city": "1st Floor, Above Fish Zone, B1", "phone": "09910239660", "website": "https://getintofilm.com/", "rating": 4.8, "review_count": "", "latitude": 28.5414848, "longitude": 77.2395519, "maps_url": "https://www.google.com/maps/place/?q=place_id:0x390ce3ca2a26c269:0x5abe1b30660c1627"}, {"place_id": "0x390ce6da5a589921:0x6405b533bce27a01", "name": "Mudita Express Cargo Private Limited", "category": "Shipping company", "street": "Plot No. M-66, 2nd Floor, M-Block Market", "city": "Greater Kailash II", "phone": "09810064843", "website": "http://www.muditacargo.com/", "rating": 3.7, "review_count": "", "latitude": 28.533248099999998, "longitude": 77.243816, "maps_url": "https://www.google.com/maps/place/?q=place_id:0x390ce6da5a589921:0x6405b533bce27a01"}, {"place_id": "0x390ce185d255bcd7:0xdc3a79cd19788c8d", "name": "ICICI Prudential Life Insurance Company Limited", "category": "Insurance agency", "street": "Plot No. 6, community centre, Pushp Vihar, Saket", "city": "New Delhi, Delhi 110062", "phone": "18002660", "website": "https://www.iciciprulife.com/", "rating": 3.8, "review_count": "", "latitude": 28.5266128, "longitude": 77.2317097, "maps_url": "https://www.google.com/maps/place/?q=place_id:0x390ce185d255bcd7:0xdc3a79cd19788c8d"}, {"place_id": "0x390ce39a3aaaaaef:0xca57821ce7ee09b0", "name": "Smart IT Technologies", "category": "Website designer", "street": "Saroj Sadan", "city": "100", "phone": "08840274824", "website": "https://smartittechnologies.com/", "rating": 5, "review_count": "", "latitude": 28.5697218, "longitude": 77.2680354, "maps_url": "https://www.google.com/maps/place/?q=place_id:0x390ce39a3aaaaaef:0xca57821ce7ee09b0"}]}