{"timestamp": 1773728939.7683067, "keyword": "IT company", "location": "delhi", "cell_idx": 15, "results": [{"place_id": "0x390d1fcf6c34ab99:0x285f961d231b2c61", "name": "Aadiyar Infotech Private Limited", "category": "Software company", "street": "1st Floor", "city": "Pannal Building No. 2", "phone": "09810164525", "website": "https://www.aadiyar.in/", "rating": 4.9, "review_count": "", "latitude": 28.487146, "longitude": 77.185315, "maps_url": "https://www.google.com/maps/place/?q=place_id:0x390d1fcf6c34ab99:0x285f961d231b2c61"}, {"place_id": "0x390d1e2fed1eed4b:0x101cd24533e257fa", "name": "SOFTLIFE Technologies Pvt. Ltd.", "category": "Software company", "street": "B-2, Block", "city": "Road", "phone": "09045199841", "website": "", "rating": 4.4, "review_count": "", "latitude": 28.4929925, "longitude": 77.18445489999999, "maps_url": "https://www.google.com/maps/place/?q=place_id:0x390d1e2fed1eed4b:0x101cd24533e257fa"}, {"place_id": "0x4c4f2ab74dacf91b:0x422ee5da7e75ec65", "name": "Panah Infosystem", "category": "Software company", "street": "C 520", "city": "JVTS Garden, Block C, Chhatarpur Extension, Chhatarpur", "phone": "09990799978", "website": "https://panahinfosystem.com/", "rating": 4.3, "review_count": "", "latitude": 28.4909283, "longitude": 77.17806829999999, "maps_url": "https://www.google.com/maps/place/?q=place_id:0x4c4f2ab74dacf91b:0x422ee5da7e75ec65"}, {"place_id": "0x390ce458d0000001:0xf2123bd299ec4501", "name": "IT Company India", "category": "Software company", "street": "D56", "city": "D Block, Sector 10", "phone": "09999244854", "website": "https://www.itcompanyindia.in/", "rating": 4.7, "review_count": "", "latitude": 28.589917699999997, "longitude": 77.3351153, "maps_url": "https://www.google.com/maps/place/?q=place_id:0x390ce458d0000001:0xf2123bd299ec4501"}, {"place_id": "0x390ce1fb44618b65:0x8e06b2a6128352d1", "name": "Acropolis Infotech - Delhi Office", "category": "Software company", "street": "metro station gate", "city": "55, 2nd Floor, Lane 2", "phone": "09999876593", "website": "https://www.acropolisinfotech.com/", "rating": 4.6, "review_count": "", "latitude": 28.518907, "longitude": 77.2015435, "maps_url": "https://www.google.com/maps/place/?q=place_id:0x390ce1fb44618b65:0x8e06b2a6128352d1"}, {"place_id": "0x390d1f43f6442193:0xa633a2795caaaf9a", "name": "iT EXPERT", "category": "Computer support and services", "street": "Plot No 165", "city": "near by C.R.C Building", "phone": "09643205555", "website": "https://it-expert.grexa.site/", "rating": 5, "review_count": "", "latitude": 28.496751, "longitude": 77.163401, "maps_url": "https://www.google.com/maps/place/?q=place_id:0x390d1f43f6442193:0xa633a2795caaaf9a"}, {"place_id": "0x390d17652843f4f5:0x25fea8d06ab431a6", "name": "Tenwave Infotech Pvt. Ltd. - Hospital Management Software | Best EMR Software India", "category": "Software company", "street": "D112, 60 Feet Rd", "city": "Chhatarpur Hills, Pocket D, Chattarpur Enclave, Chhatarpur", "phone": "07011657478", "website": "https://www.tenwavehealthcare.com/", "rating": 5, "review_count": "", "latitude": 28.502610299999997, "longitude": 77.18392349999999, "maps_url": "https://www.google.com/maps/place/?q=place_id:0x390d17652843f4f5:0x25fea8d06ab431a6"}, {"place_id": "0x390d1f124ea02ac7:0x8a2979a1e7233c57", "name": "Micromile Infotech | Best eCommerce Website Design and Development company | IT Consultant | Delhi, India", "category": "Website designer", "street": "JVTS Garden, Block C, Chhatarpur Extension, Chhatarpur", "city": "New Delhi, Delhi 110074", "phone": "", "website": "https://www.micromile.in/", "rating": "", "review_count": "", "latitude": 28.491668699999998, "longitude": 77.1789707, "maps_url": "https://www.google.com/maps/place/?q=place_id:0x390d1f124ea02ac7:0x8a2979a1e7233c57"}, {"place_id": "0x390d1fb30dd00ee3:0x77cfd1f858a2b9ee", "name": "Ionic Software Services", "category": "Software company", "street": "B-2/63, Africa Ave", "city": "Block A, Block B 2, Safdarjung Enclave", "phone": "08744941668", "website": "http://www.ionicsoftwares.com/", "rating": 4.7, "review_count": "", "latitude": 28.515873499999998, "longitude": 77.2044335, "maps_url": "https://www.google.com/maps/place/?q=place_id:0x390d1fb30dd00ee3:0x77cfd1f858a2b9ee"}, {"place_id": "0x390d1e269455720d:0x8f7dc59d495510bb", "name": "OM IT SOLUTIONS", "category": "Computer repair service", "street": "Maidan Garhi Rd", "city": "near Lavanya Hospital", "phone": "08860626288", "website": "https://omitsolutions.co.in/", "rating": 4.8, "review_count": "", "latitude": 28.4984292, "longitude": 77.19177959999999, "maps_url": "https://www.google.com/maps/place/?q=place_id:0x390d1e269455720d:0x8f7dc59d495510bb"}, {"place_id": "0x390ce3ad10000061:0xeff7e6017a22cce7", "name": "Alpinesoft IT Solutions Authorized Google Workspace Reseller", "category": "Software company", "street": "162/9 Ist Floor, KIshangarh - Gaushala Marg", "city": "Lakhi Nath Kuti, Mehrauli, Vasant Kunj", "phone": "09999011157", "website": "https://www.alpinesoftit.com/", "rating": 4.3, "review_count": "", "latitude": 28.515394399999998, "longitude": 77.16460359999999, "maps_url": "https://www.google.com/maps/place/?q=place_id:0x390ce3ad10000061:0xeff7e6017a22cce7"}, {"place_id": "0x390ce3c153b89811:0xe7a279685777e9ca", "name": "IT Company", "category": "Automation company", "street": "A-14", "city": "near iskcon temple", "phone": "", "website": "http://www.opuswiz.com/", "rating": 3, "review_count": "", "latitude": 28.557167, "longitude": 77.25424819999999, "maps_url": "https://www.google.com/maps/place/?q=place_id:0x390ce3c153b89811:0xe7a279685777e9ca"}, {"place_id": "0x390ce1d4d405afe9:0xb74a24bc34ddaac4", "name": "Zaid IT & Engineering Services", "category": "Software company", "street": "Khasra 913", "city": "Kharak Riwara", "phone": "", "website": "https://digitalkarigar.in/", "rating": 5, "review_count": "", "latitude": 28.467602399999997, "longitude": 77.2063491, "maps_url": "https://www.google.com/maps/place/?q=place_id:0x390ce1d4d405afe9:0xb74a24bc34ddaac4"}, {"place_id": "0x390d1f9ef34b79bd:0x2dc0fdd0c33d2e15", "name": "VLS Technology Private Limited", "category": "Software company", "street": "D 27A, Second Floor", "city": "60 Feet Rd", "phone": "09711200318", "website": "https://vlstechnology.com/", "rating": 5, "review_count": "", "latitude": 28.5020255, "longitude": 77.1837389, "maps_url": "https://www.google.com/maps/place/?q=place_id:0x390d1f9ef34b79bd:0x2dc0fdd0c33d2e15"}, {"place_id": "0x390d1f02979f830f:0xe69c6ce2151bc21f", "name": "GKYN Yash Raj Infotech Pvt.Ltd.", "category": "Business development service", "street": "Kh. No. 48/1", "city": "2nd Floor", "phone": "09676234203", "website": "", "rating": 4.4, "review_count": "", "latitude": 28.485106299999998, "longitude": 77.1850359, "maps_url": "https://www.google.com/maps/place/?q=place_id:0x390d1f02979f830f:0xe69c6ce2151bc21f"}, {"place_id": "0x390d190c759781b3:0x94e6fe1fe85279fe", "name": "AppTech Hub Pvt Ltd", "category": "Software company", "street": "JVTS Garden, Block C, Chhatarpur Extension, Chhatarpur", "city": "New Delhi, Delhi 110074", "phone": "", "website": "http://apptechhub.com/", "rating": 5, "review_count": "", "latitude": 28.4897811, "longitude": 77.1816003, "maps_url": "https://www.google.com/maps/place/?q=place_id:0x390d190c759781b3:0x94e6fe1fe85279fe"}, {"place_id": "0x390ce1be6203e2a3:0xf42ac020c65b0658", "name": "Wobot Intelligence Pvt Ltd", "category": "Software company", "street": "2nd Floor, Khasra number 372/74", "city": "Mehrauli-Gurgaon Rd", "phone": "", "website": "https://wobot.ai/", "rating": 4.4, "review_count": "", "latitude": 28.497643399999998, "longitude": 77.1584908, "maps_url": "https://www.google.com/maps/place/?q=place_id:0x390ce1be6203e2a3:0xf42ac020c65b0658"}, {"place_id": "0x390d1e30fdd42997:0xb49c8948466e58e6", "name": "Technexy Home Automation", "category": "Home automation company", "street": "Ground Floor, C-511", "city": "B-1", "phone": "09818256975", "website": "http://technexyhomeautomation.com/", "rating": 3.7, "review_count": "", "latitude": 28.490864499999997, "longitude": 77.17977669999999, "maps_url": "https://www.google.com/maps/place/?q=place_id:0x390d1e30fdd42997:0xb49c8948466e58e6"}, {"place_id": "0x390d1feb101a52f7:0x1508064fb1ff6340", "name": "Aditri Info Solutions", "category": "Computer store", "street": "Shop No. 05, Ground Floor", "city": "Chaudhary Complex", "phone": "08076945151", "website": "https://sites.google.com/view/aditriinfosolutions/home", "rating": 5, "review_count": "", "latitude": 28.4939167, "longitude": 77.1805449, "maps_url": "https://www.google.com/maps/place/?q=place_id:0x390d1feb101a52f7:0x1508064fb1ff6340"}, {"place_id": "0x390d1f31857204fb:0xabc508016ea7b7c9", "name": "Ce Info Software Solutions Tally Services Provider & Partner In Delhi Ncr", "category": "Software company", "street": "285 street No. -27", "city": "100 Feet Rd", "phone": "09711602378", "website": "http://ceinfosoft.com/", "rating": 5, "review_count": "", "latitude": 28.505185599999997, "longitude": 77.184986, "maps_url": "https://www.google.com/maps/place/?q=place_id:0x390d1f31857204fb:0xabc508016ea7b7c9"}, {"place_id": "0x390d1e26841f4029:0xbed40d3c611d8d6", "name": "SAY 2 GET iT", "category": "Software company", "street": "83 E", "city": "DR Ambedkar Colony, Chattarpur Enclave, Chhatarpur", "phone": "09319051305", "website": "http://www.say2getit.com/", "rating": 5, "review_count": "", "latitude": 28.5028699, "longitude": 77.1887764, "maps_url": "https://www.google.com/maps/place/?q=place_id:0x390d1e26841f4029:0xbed40d3c611d8d6"}, {"place_id": "0x390ce58ec08d89b1:0xe0ad635e49a8fca3", "name": "Tech Codexs | Website Development Company | IT Company", "category": "Website designer", "street": "C2", "city": "Block B, Sector 1", "phone": "09450402145", "website": "https://softtechsindia.com/", "rating": 4.6, "review_count": "", "latitude": 28.5900173, "longitude": 77.3116215, "maps_url": "https://www.google.com/maps/place/?q=place_id:0x390ce58ec08d89b1:0xe0ad635e49a8fca3"}, {"place_id": "0x41ddcb5488aa4703:0x5290c64921de1a5b", "name": "Bloatware IT Software Development Company | Game Development | Software Company in delhi", "category": "Software company", "street": "SILVER OAK FARMS", "city": "660, Mehrauli-Gurgaon Rd", "phone": "", "website": "https://bloatwareitsolutions.com/", "rating": 5, "review_count": "", "latitude": 28.4911034, "longitude": 77.1432663, "maps_url": "https://www.google.com/maps/place/?q=place_id:0x41ddcb5488aa4703:0x5290c64921de1a5b"}, {"place_id": "0x390d1e08d71a257f:0xea4e129d751fc99", "name": "Sukrit Infotech", "category": "Software company", "street": "1043 Ward No 8 1042/2D 2nd Floor Mehrauli Near Babar Building", "city": "Mehrauli", "phone": "01145607265", "website": "http://www.sukritinfotech.com/", "rating": 4.5, "review_count": "", "latitude": 28.517589599999997, "longitude": 77.1802435, "maps_url": "https://www.google.com/maps/place/?q=place_id:0x390d1e08d71a257f:0xea4e129d751fc99"}, {"place_id": "0x390d19298db2fb35:0xcaa0d46737c4561c", "name": "MLM Software Developer | Sunny citrix", "category": "Software company", "street": "office no 427C, 4th floor, vashisht complex", "city": "Sikanderpur", "phone": "07906059336", "website": "http://sunnycitrix.com/", "rating": 4.8, "review_count": "", "latitude": 28.4816798, "longitude": 77.09770569999999, "maps_url": "https://www.google.com/maps/place/?q=place_id:0x390d19298db2fb35:0xcaa0d46737c4561c"}, {"place_id": "0x390d1fb9b19cd7d7:0x2febfba590f33428", "name": "Corapana Technologies - Mobile App Development and Web Design Development Company Delhi", "category": "Software company", "street": "Ground floor", "city": "D-23", "phone": "08295242621", "website": "https://corapana.com/", "rating": 4.8, "review_count": "", "latitude": 28.496378999999997, "longitude": 77.17898, "maps_url": "https://www.google.com/maps/place/?q=place_id:0x390d1fb9b19cd7d7:0x2febfba590f33428"}, {"place_id": "0x390ce5fdcc79e755:0x309ce99251b84ef6", "name": "Optyminds IT Solutions - Top AI and IT company I Best Digital agency in Noida | Delhi NCR | India", "category": "Software company", "street": "1st Floor", "city": "B-70", "phone": "08929075975", "website": "https://optyminds.com/", "rating": 4.9, "review_count": "", "latitude": 28.584679599999998, "longitude": 77.3135042, "maps_url": "https://www.google.com/maps/place/?q=place_id:0x390ce5fdcc79e755:0x309ce99251b84ef6"}, {"place_id": "0x390d1e229aaaaaab:0x1562f3d41abbdac2", "name": "Simran IT Consulting India LLP", "category": "Software company", "street": "D", "city": "6-235", "phone": "09205433162", "website": "", "rating": "", "review_count": "", "latitude": 28.4931071, "longitude": 77.1763864, "maps_url": "https://www.google.com/maps/place/?q=place_id:0x390d1e229aaaaaab:0x1562f3d41abbdac2"}, {"place_id": "0x390d1f61836cd921:0x776e9717979fe108", "name": "Saiway Tech", "category": "Web hosting company", "street": "702", "city": "Near, Maruti Chowk", "phone": "07982506339", "website": "http://saiwaytech.com/", "rating": 4.8, "review_count": "", "latitude": 28.4924629, "longitude": 77.1411129, "maps_url": "https://www.google.com/maps/place/?q=place_id:0x390d1f61836cd921:0x776e9717979fe108"}, {"place_id": "0x390d1f5abfb25fe1:0x7d9c4d5e159f2955", "name": "Jaimru Technology Pvt Ltd", "category": "Software company", "street": "WARD NO. 2", "city": "Plot No. 178 M 33 A/1", "phone": "07838153420", "website": "https://www.jaimru.com/", "rating": 4.9, "review_count": "", "latitude": 28.524347499999998, "longitude": 77.1731889, "maps_url": "https://www.google.com/maps/place/?q=place_id:0x390d1f5abfb25fe1:0x7d9c4d5e159f2955"}, {"place_id": "0x390d192ca95aaaab:0xc152e62b92cf35b4", "name": "ISMEDU Software Solutions Pvt. Ltd.", "category": "Software company", "street": "204, 2nd Floor", "city": "GLOBAL BUSINESS PARK", "phone": "09205444090", "website": "https://www.ismedusoftsol.com/", "rating": 5, "review_count": "", "latitude": 28.4807173, "longitude": 77.1020856, "maps_url": "https://www.google.com/maps/place/?q=place_id:0x390d192ca95aaaab:0xc152e62b92cf35b4"}, {"place_id": "0x390d1e186527b451:0x3d552630d3703e21", "name": "Inca Infotech Technologies Pvt Ltd", "category": "Computer support and services", "street": "D-23/405, UGF", "city": "100 Feet Rd", "phone": "18008891907", "website": "https://www.incainfotech.com/", "rating": 3.6, "review_count": "", "latitude": 28.506226899999998, "longitude": 77.1850521, "maps_url": "https://www.google.com/maps/place/?q=place_id:0x390d1e186527b451:0x3d552630d3703e21"}, {"place_id": "0x390ce1597b5509e5:0x41371c9fd40ce199", "name": "TNS Networking Solutions Pvt. Ltd. - System Integrator for IT Infrastructure Projects", "category": "Computer support and services", "street": "293, Dhan Mill Rd", "city": "Chhatarpur Hills, Pocket D, Dr Ambedkar Colony, Chhatarpur", "phone": "01142375032", "website": "http://www.tnspl.com/", "rating": 4.7, "review_count": "", "latitude": 28.503260599999997, "longitude": 77.1838258, "maps_url": "https://www.google.com/maps/place/?q=place_id:0x390ce1597b5509e5:0x41371c9fd40ce199"}, {"place_id": "0x4215c6da63b4b82f:0x794ba814a6ada964", "name": "Asha Tech | Website Design, App Development & IT Solutions Delhi", "category": "Software company", "street": "no 2", "city": "195, Lane No. 1", "phone": "07531080874", "website": "https://ashatech.co.in/", "rating": 4.7, "review_count": "", "latitude": 28.519994099999998, "longitude": 77.2008791, "maps_url": "https://www.google.com/maps/place/?q=place_id:0x4215c6da63b4b82f:0x794ba814a6ada964"}, {"place_id": "0x390d1fcd4d591fdb:0x2224bc15ce2a541c", "name": "Digital Technology Solutions", "category": "Website designer", "street": "B, Ground Floor", "city": "B 302, South", "phone": "09540656789", "website": "https://www.digitechn.com/", "rating": 5, "review_count": "", "latitude": 28.493427999999998, "longitude": 77.1832369, "maps_url": "https://www.google.com/maps/place/?q=place_id:0x390d1fcd4d591fdb:0x2224bc15ce2a541c"}, {"place_id": "0x390d1923af5d91ed:0xbe103b16161f5631", "name": "Condeco Software Private Limited", "category": "Software company", "street": "Tower C", "city": "4th floor building 10", "phone": "01244760150", "website": "http://www.condecosoftware.com/apac", "rating": 4.3, "review_count": "", "latitude": 28.4940696, "longitude": 77.0885457, "maps_url": "https://www.google.com/maps/place/?q=place_id:0x390d1923af5d91ed:0xbe103b16161f5631"}, {"place_id": "0x390ce7b62827897b:0xf9c64750fed6eeef", "name": "Connect Infosoft Technologies Pvt.Ltd-Mobile and Software Application Development Company", "category": "Software company", "street": "Plot No.598", "city": "near Community Center", "phone": "", "website": "https://www.connectinfosoft.com/", "rating": 4.6, "review_count": "", "latitude": 28.451022599999998, "longitude": 77.29805, "maps_url": "https://www.google.com/maps/place/?q=place_id:0x390ce7b62827897b:0xf9c64750fed6eeef"}, {"place_id": "0x390d192f80e784d3:0x2c271ddf93d663b4", "name": "Tranciscolabs | Mobile App Development Company | Web Development Company", "category": "Software company", "street": "Park", "city": "RGREP", "phone": "09580174570", "website": "https://tranciscolabs.com/", "rating": 4.4, "review_count": "", "latitude": 28.4695091, "longitude": 77.06860209999999, "maps_url": "https://www.google.com/maps/place/?q=place_id:0x390d192f80e784d3:0x2c271ddf93d663b4"}, {"place_id": "0x2a72b8b69d7b6493:0x11251466d4d34cac", "name": "WebZonal IT Company", "category": "Website designer", "street": "Wz-258/2-3, D Block Rd", "city": "Khazan Basti, Nangal Raya, Janakpuri", "phone": "09811170903", "website": "http://webzonal.com/", "rating": 5, "review_count": "", "latitude": 28.6122102, "longitude": 77.11159549999999, "maps_url": "https://www.google.com/maps/place/?q=place_id:0x2a72b8b69d7b6493:0x11251466d4d34cac"}, {"place_id": "0x390d1f1958b2b979:0xb70bdc4d0319e82c", "name": "Market Shark IT", "category": "Website designer", "street": "H.NO 400", "city": "VILLAGE & POST OFFICE", "phone": "09319095077", "website": "http://www.marketsharkit.com/", "rating": 5, "review_count": "", "latitude": 28.4942474, "longitude": 77.1444345, "maps_url": "https://www.google.com/maps/place/?q=place_id:0x390d1f1958b2b979:0xb70bdc4d0319e82c"}, {"place_id": "0x390d1f6d1c150963:0x23ef53ec588cd28", "name": "Bytenovo", "category": "Software company", "street": "A93", "city": "Block A", "phone": "09717930424", "website": "https://bytenovo.com/", "rating": "", "review_count": "", "latitude": 28.4930897, "longitude": 77.18212539999999, "maps_url": "https://www.google.com/maps/place/?q=place_id:0x390d1f6d1c150963:0x23ef53ec588cd28"}, {"place_id": "0x390d1f1958b2b979:0xb70bdc4d0319e82c", "name": "Market Shark IT", "category": "Website designer", "street": "H.NO 400", "city": "VILLAGE & POST OFFICE", "phone": "09319095077", "website": "http://www.marketsharkit.com/", "rating": 5, "review_count": "", "latitude": 28.4942474, "longitude": 77.1444345, "maps_url": "https://www.google.com/maps/place/?q=place_id:0x390d1f1958b2b979:0xb70bdc4d0319e82c"}, {"place_id": "0x390ce1b9de54d101:0xc5184256693b27dd", "name": "LCK Technologies - Website designing development company South Delhi", "category": "Website designer", "street": "439 1st floor", "city": "438", "phone": "09891337955", "website": "https://lckdigitalmedia.in/", "rating": 4.9, "review_count": "", "latitude": 28.5089698, "longitude": 77.20114769999999, "maps_url": "https://www.google.com/maps/place/?q=place_id:0x390ce1b9de54d101:0xc5184256693b27dd"}, {"place_id": "0x65afd373fe4cb277:0xb57ca7e757c2def3", "name": "Eimager -Employees Background Verification SaaS", "category": "Software company", "street": "GF 5", "city": "672, Mehrauli-Gurgaon Rd", "phone": "", "website": "https://eimager.com/", "rating": 5, "review_count": "", "latitude": 28.4911376, "longitude": 77.1398955, "maps_url": "https://www.google.com/maps/place/?q=place_id:0x65afd373fe4cb277:0xb57ca7e757c2def3"}, {"place_id": "0x390d1dd3b45fe14f:0x212eb32e750c172e", "name": "Mobikasa Pvt Ltd", "category": "Software company", "street": "F4WW+H62", "city": "Plot 354, 100 Feet Rd", "phone": "09810488883", "website": "http://www.mobikasa.com/?utm_source=google&utm_medium=organic&utm_campaign=google_busines_slisting", "rating": 4, "review_count": "", "latitude": 28.496365899999997, "longitude": 77.14553409999999, "maps_url": "https://www.google.com/maps/place/?q=place_id:0x390d1dd3b45fe14f:0x212eb32e750c172e"}, {"place_id": "0x390ce12fcb3ffcb1:0x71361229010f48a6", "name": "Waldent", "category": "Corporate office", "street": "31/5", "city": "opp. DLF Gate", "phone": "09403323232", "website": "http://www.waldent.com/", "rating": 4.6, "review_count": "", "latitude": 28.487230399999998, "longitude": 77.1871285, "maps_url": "https://www.google.com/maps/place/?q=place_id:0x390ce12fcb3ffcb1:0x71361229010f48a6"}, {"place_id": "0x390d02994de5e515:0xd908bc03409a0d37", "name": "Himalayan IT Solutions | Best Website Designing Company in Delhi | SEO/Digital Marketing Company in Delhi NCR, India", "category": "Software company", "street": "61/4255, Padam Singh Rd", "city": "Block 29, Block 1, Regar Pura, Karol Bagh", "phone": "09899098509", "website": "http://www.himalayanitsolutions.com/", "rating": 3.9, "review_count": "", "latitude": 28.649673999999997, "longitude": 77.186599, "maps_url": "https://www.google.com/maps/place/?q=place_id:0x390d02994de5e515:0xd908bc03409a0d37"}, {"place_id": "0x390d1e27a164760b:0x90c8dd9e2b4ef002", "name": "JS Infosoft", "category": "Software company", "street": "B-293, Maidan Garhi Rd", "city": "Maidan Gari Extension, Chhatarpur Extension, Chhatarpur", "phone": "08587891066", "website": "http://www.jsinfosoft.in/", "rating": 4.9, "review_count": "", "latitude": 28.4984474, "longitude": 77.1917429, "maps_url": "https://www.google.com/maps/place/?q=place_id:0x390d1e27a164760b:0x90c8dd9e2b4ef002"}, {"place_id": "0x390d1e251155472f:0x73a2b4322272a994", "name": "ARS High Vision Developers Pvt Ltd", "category": "Real Estate Builders & Construction Company", "street": "Plot no 2 Ars Developers Near Chattarpur Central Satbari", "city": "Chhatarpur", "phone": "09289202498", "website": "http://www.arsdevelopers.com/", "rating": 4.9, "review_count": "", "latitude": 28.487146, "longitude": 77.185315, "maps_url": "https://www.google.com/maps/place/?q=place_id:0x390d1e251155472f:0x73a2b4322272a994"}, {"place_id": "0x390d1df079759d1f:0x8bfa70033f6c672a", "name": "NR Technoserve Pvt. Ltd.", "category": "Software company", "street": "133, Katwaria Sarai", "city": "Phase-2, Qutab Institutional Area", "phone": "07289096762", "website": "http://www.nrtechnoserve.co.in/", "rating": 4.4, "review_count": "", "latitude": 28.5413306, "longitude": 77.18495519999999, "maps_url": "https://www.google.com/maps/place/?q=place_id:0x390d1df079759d1f:0x8bfa70033f6c672a"}, {"place_id": "0x286d0447d6d37c89:0x27d96c70cce580ae", "name": "Moon Marketers", "category": "Internet marketing service", "street": "", "city": "", "phone": "09821108379", "website": "https://www.moonmarketers.in/", "rating": 5, "review_count": "", "latitude": 28.557674, "longitude": 77.203823, "maps_url": "https://www.google.com/maps/place/?q=place_id:0x286d0447d6d37c89:0x27d96c70cce580ae"}, {"place_id": "0x390d1f5f49b73a79:0x1cfcf7f7e9312a10", "name": "Sahni IT solutions", "category": "Computer support and services", "street": "1st floor", "city": "C29", "phone": "", "website": "", "rating": "", "review_count": "", "latitude": 28.492061, "longitude": 77.17868299999999, "maps_url": "https://www.google.com/maps/place/?q=place_id:0x390d1f5f49b73a79:0x1cfcf7f7e9312a10"}, {"place_id": "0x390d1f1e3922d7c9:0x125a60374f862bd8", "name": "SECURE YOURSELF COMPANY", "category": "Computer security service", "street": "Numberdar Complex", "city": "12", "phone": "09999629495", "website": "https://www.securestan.com/", "rating": 4.9, "review_count": "", "latitude": 28.4760234, "longitude": 77.1293797, "maps_url": "https://www.google.com/maps/place/?q=place_id:0x390d1f1e3922d7c9:0x125a60374f862bd8"}, {"place_id": "0x390ce10c7a32334b:0x8cd8a8e68071bc42", "name": "SSS INFOTECH", "category": "Computer support and services", "street": "CABIN NO-10 FLAT", "city": "No 211", "phone": "07428738100", "website": "", "rating": 3, "review_count": "", "latitude": 28.4871609, "longitude": 77.1804894, "maps_url": "https://www.google.com/maps/place/?q=place_id:0x390ce10c7a32334b:0x8cd8a8e68071bc42"}, {"place_id": "0x390d1e3a16317c85:0x3d0008eca94f4550", "name": "eschoolcampus", "category": "Software company", "street": "B-150/1", "city": "Chhatarpur Farms, Chhatarpur", "phone": "08384071182", "website": "https://ggsoftsolutions.com/", "rating": "", "review_count": "", "latitude": 28.4778889, "longitude": 77.1792407, "maps_url": "https://www.google.com/maps/place/?q=place_id:0x390d1e3a16317c85:0x3d0008eca94f4550"}, {"place_id": "0x390d1e74625c1571:0xf8d544a13aa69544", "name": "Site Sign", "category": "Software company", "street": "303,145A/9, G587+FJG", "city": "Kishangarh Village, Sector-A, Vasant Kunj", "phone": "07065702907", "website": "http://sitesign.in/", "rating": 5, "review_count": "", "latitude": 28.516187499999997, "longitude": 77.1640625, "maps_url": "https://www.google.com/maps/place/?q=place_id:0x390d1e74625c1571:0xf8d544a13aa69544"}, {"place_id": "0x390d1fe787d1c28f:0xe794ed2973046b72", "name": "RESOURCE ATLAS", "category": "Real Estate Builders & Construction Company", "street": "FLAT NO, S/F", "city": "Building No.: C-72", "phone": "06382107645", "website": "https://resourceatlas.in/", "rating": 4.8, "review_count": "", "latitude": 28.4909276, "longitude": 77.17951289999999, "maps_url": "https://www.google.com/maps/place/?q=place_id:0x390d1fe787d1c28f:0xe794ed2973046b72"}, {"place_id": "0x390ce3c50d455555:0x625e4cf2def0b6ac", "name": "Infonative Solutions Limited", "category": "Computer support and services", "street": "107, 108", "city": "DLF South Court", "phone": "08448141818", "website": "https://infonative.net/", "rating": 4.7, "review_count": "", "latitude": 28.5274255, "longitude": 77.2209031, "maps_url": "https://www.google.com/maps/place/?q=place_id:0x390ce3c50d455555:0x625e4cf2def0b6ac"}, {"place_id": "0x390cef8867d6550f:0x2905099f75abbbc8", "name": "Prudas Technologies Private Limited | IT Company in Noida", "category": "Website designer", "street": "H1A", "city": "20, Sector 63 Rd", "phone": "08377870707", "website": "http://www.prudas.com/", "rating": 4.6, "review_count": "", "latitude": 28.6275029, "longitude": 77.3757834, "maps_url": "https://www.google.com/maps/place/?q=place_id:0x390cef8867d6550f:0x2905099f75abbbc8"}, {"place_id": "0x390d191598f48ef3:0x70991b4ff870f05d", "name": "Shree Partners LLC", "category": "Software company", "street": "1, Tower A, Building, Cyber City", "city": "Corporate Edge Level", "phone": "01246728815", "website": "https://www.shreepartners.com/", "rating": 4.3, "review_count": "", "latitude": 28.4936018, "longitude": 77.088325, "maps_url": "https://www.google.com/maps/place/?q=place_id:0x390d191598f48ef3:0x70991b4ff870f05d"}, {"place_id": "0x390d190b8996b54d:0xa4d9ad7263547701", "name": "Company", "category": "Corporate office", "street": "The Coworking Space", "city": "A-14/15 DLF Phase 1, Sector 26 A Truworx", "phone": "01140844560", "website": "https://www.quickcompany.in/", "rating": 4.1, "review_count": 375, "latitude": 28.474366699999997, "longitude": 77.0943154, "maps_url": "https://www.google.com/maps/place/?q=place_id:0x390d190b8996b54d:0xa4d9ad7263547701"}, {"place_id": "0x8335ecf853715cbf:0x10d99fb1fba2b0a8", "name": "Oceonic IT Solution Pvt Ltd", "category": "Software company", "street": "C14 C Block", "city": "JVTS Garden, Block A1, Chhatarpur", "phone": "08874000083", "website": "https://www.oceonic.co/", "rating": 3, "review_count": 2, "latitude": 28.496824699999998, "longitude": 77.1828704, "maps_url": "https://www.google.com/maps/place/?q=place_id:0x8335ecf853715cbf:0x10d99fb1fba2b0a8"}, {"place_id": "0x390d1fe168142b7d:0x4d4a8e16dae8d42", "name": "Savvytree - Digital Marketing Company", "category": "Marketing agency", "street": "Savvytree 280, Mandi Rd", "city": "opposite Tata Sky", "phone": "08700354352", "website": "https://savvytree.in/", "rating": 4.7, "review_count": 21, "latitude": 28.5026725, "longitude": 77.1722109, "maps_url": "https://www.google.com/maps/place/?q=place_id:0x390d1fe168142b7d:0x4d4a8e16dae8d42"}, {"place_id": "0x61679272b097afaf:0x2d8ff2b0d95a1e18", "name": "Busybots | RPA & Robotic Process Automation for Banking, Healthcare, AI Services & UiPath, Python Training in Delhi", "category": "Software company", "street": "1st Floor, D", "city": "25, 100 Feet Rd", "phone": "09315867465", "website": "https://www.busybots.in/", "rating": 5, "review_count": 39, "latitude": 28.5055157, "longitude": 77.1852263, "maps_url": "https://www.google.com/maps/place/?q=place_id:0x61679272b097afaf:0x2d8ff2b0d95a1e18"}, {"place_id": "0x390d1f659e341e09:0xd88af0c1a7ecbdf8", "name": "Biswass IT Services Pvt. Ltd.", "category": "Software company", "street": "House No 590 1st Floor, ArjanGarh", "city": "BabaMoholla, Aya Nagar", "phone": "", "website": "https://www.biswass.com/", "rating": 4.8, "review_count": 31, "latitude": 28.4766589, "longitude": 77.13484439999999, "maps_url": "https://www.google.com/maps/place/?q=place_id:0x390d1f659e341e09:0xd88af0c1a7ecbdf8"}, {"place_id": "0x390d1f62365e9347:0x1bd3353446e1760f", "name": "Get Bit Technologies", "category": "Software company", "street": "D 5/2, Main Rd", "city": "Dr Ambedkar Colony, chhattapur", "phone": "", "website": "", "rating": 4.7, "review_count": 3, "latitude": 28.5003742, "longitude": 77.1841183, "maps_url": "https://www.google.com/maps/place/?q=place_id:0x390d1f62365e9347:0x1bd3353446e1760f"}, {"place_id": "0x390d195c26bfa369:0x69bd8efd2e3a31fe", "name": "Radical Minds Technologies Pvt. Ltd.", "category": "BPO Company", "street": "368", "city": "Phase II, Udyog Vihar, Sector 20", "phone": "01244338366", "website": "http://www.radicalminds.in/", "rating": 4.2, "review_count": 2604, "latitude": 28.506335099999998, "longitude": 77.0877546, "maps_url": "https://www.google.com/maps/place/?q=place_id:0x390d195c26bfa369:0x69bd8efd2e3a31fe"}, {"place_id": "0x390d1f757b93f529:0xaf41da4cbccf9a71", "name": "Webdiya Software Private Limited", "category": "Software company", "street": "18 A, Ground Floor", "city": "beside Yes Bank", "phone": "09911307448", "website": "https://www.webdiya.com/", "rating": "", "review_count": "", "latitude": 28.500331, "longitude": 77.183352, "maps_url": "https://www.google.com/maps/place/?q=place_id:0x390d1f757b93f529:0xaf41da4cbccf9a71"}, {"place_id": "0x390d1f7e30288d0d:0x89715ed4f9dc68e5", "name": "Vanguns I Digital Marketing Agency", "category": "Internet marketing service", "street": "D-128", "city": "Chhatarpur Extension, Chhatarpur", "phone": "09911999198", "website": "", "rating": 4.8, "review_count": 45, "latitude": 28.4942446, "longitude": 77.1780143, "maps_url": "https://www.google.com/maps/place/?q=place_id:0x390d1f7e30288d0d:0x89715ed4f9dc68e5"}, {"place_id": "0x390d1f02e162f5b3:0xb41bf9c953e0f3cc", "name": "Business Incorporation CluB | Company Registrations Accounting & Tax Advicing firm in Delhi", "category": "Business management consultant", "street": "Gate No. 3", "city": "D- 68", "phone": "09870206276", "website": "", "rating": 5, "review_count": 1, "latitude": 28.487208199999998, "longitude": 77.1840651, "maps_url": "https://www.google.com/maps/place/?q=place_id:0x390d1f02e162f5b3:0xb41bf9c953e0f3cc"}, {"place_id": "0x390d1960c2b8367f:0xd2d30e45ac71acea", "name": "Vorombetech Solutions - Top IT & Digitalization Service Company in Gurugram", "category": "Software company", "street": "249", "city": "Phase IV, Udyog Vihar, Sector 19", "phone": "", "website": "https://vorombetech.com/", "rating": 4.8, "review_count": 4, "latitude": 28.4941475, "longitude": 77.0808448, "maps_url": "https://www.google.com/maps/place/?q=place_id:0x390d1960c2b8367f:0xd2d30e45ac71acea"}, {"place_id": "0x390d1e89e51eaa77:0x846942011524af33", "name": "AATMAN Health and Wellness", "category": "Corporate office", "street": "DLF Chattarpur Farms Akhil Farms, Central Drive", "city": "1, Daisy Lane", "phone": "09818122848", "website": "", "rating": 4.8, "review_count": 15, "latitude": 28.4852502, "longitude": 77.17343439999999, "maps_url": "https://www.google.com/maps/place/?q=place_id:0x390d1e89e51eaa77:0x846942011524af33"}, {"place_id": "0x390d1bcb61739b37:0x5721fd59ec81271d", "name": "Excellence Soft", "category": "Software company", "street": "Plot in Khno-50", "city": "4/1, Road", "phone": "09902308175", "website": "http://excellencesoft.in/", "rating": 4.5, "review_count": 2, "latitude": 28.5015084, "longitude": 77.18497839999999, "maps_url": "https://www.google.com/maps/place/?q=place_id:0x390d1bcb61739b37:0x5721fd59ec81271d"}, {"place_id": "0x390ce1f38dc8b903:0x4115adc27ec684e", "name": "Creative Group", "category": "Architecture firm", "street": "S-21, Main Chhatarpur Rd", "city": "Asola, Chhatarpur", "phone": "09990107773", "website": "http://www.creativegroup.co.in/", "rating": 4.1, "review_count": 197, "latitude": 28.4878346, "longitude": 77.18650819999999, "maps_url": "https://www.google.com/maps/place/?q=place_id:0x390ce1f38dc8b903:0x4115adc27ec684e"}, {"place_id": "0x390ce45bcd61048f:0x5f6a5602f4155df7", "name": "JK Technosoft Limited", "category": "Software company", "street": "F", "city": "3", "phone": "01204606300", "website": "https://jktech.com/", "rating": 4.2, "review_count": 140, "latitude": 28.5802509, "longitude": 77.31793329999999, "maps_url": "https://www.google.com/maps/place/?q=place_id:0x390ce45bcd61048f:0x5f6a5602f4155df7"}, {"place_id": "0x390d1f0894c88d35:0x8eafe5e02bf8b179", "name": "A.R Prime Infra", "category": "Real Estate Builders & Construction Company", "street": "near by jvts", "city": "JVTS Garden, Block C, Chhatarpur Extension, Chhatarpur", "phone": "", "website": "https://www.facebook.com/share/1AjaY2jnFo/", "rating": 5, "review_count": 12, "latitude": 28.4910133, "longitude": 77.1789718, "maps_url": "https://www.google.com/maps/place/?q=place_id:0x390d1f0894c88d35:0x8eafe5e02bf8b179"}, {"place_id": "0x390ce21fe1a85d01:0x10c6c034e5c7237", "name": "FINA Storage Systems", "category": "Storage facility", "street": "flat no 301", "city": "Khasra no 40", "phone": "09667786622", "website": "http://www.finastorage.co/", "rating": 4.7, "review_count": 19, "latitude": 28.487311, "longitude": 77.179953, "maps_url": "https://www.google.com/maps/place/?q=place_id:0x390ce21fe1a85d01:0x10c6c034e5c7237"}, {"place_id": "0x390d1f7c90574dbf:0xda9c0293e4c6ce9e", "name": "Mango computer & IT solutions Pvt. Ltd.", "category": "Computer repair service", "street": "near bank of india", "city": "Chhatarpur Village, Block A1, Chhatarpur", "phone": "09997342702", "website": "", "rating": "", "review_count": "", "latitude": 28.4986967, "longitude": 77.1843006, "maps_url": "https://www.google.com/maps/place/?q=place_id:0x390d1f7c90574dbf:0xda9c0293e4c6ce9e"}, {"place_id": "0x390d1e435863aea9:0x91c2a1b5d6adfbd8", "name": "Editorji Technologies Pvt Ltd", "category": "Corporate office", "street": "3rd Floor, Plot B, Khasra 360", "city": "Sultanpur", "phone": "01140356666", "website": "https://www.editorji.com/", "rating": 4.4, "review_count": 67, "latitude": 28.497684099999997, "longitude": 77.1611729, "maps_url": "https://www.google.com/maps/place/?q=place_id:0x390d1e435863aea9:0x91c2a1b5d6adfbd8"}, {"place_id": "0x390cfd024a1027a7:0xf3d384e9a6d37f70", "name": "The Tohafa | Corporate Gifting made easy", "category": "Corporate gift supplier", "street": "Second Floor", "city": "A2, Ln 1A", "phone": "07999825512", "website": "https://www.thetohafa.in/", "rating": 4.9, "review_count": 234, "latitude": 28.4897028, "longitude": 77.1867724, "maps_url": "https://www.google.com/maps/place/?q=place_id:0x390cfd024a1027a7:0xf3d384e9a6d37f70"}, {"place_id": "0x390d1e748ef61961:0x754ceb660996cfdb", "name": "ACS System Solutions", "category": "Software company", "street": "Kishangarh, Kishangarh Village, Vasant Kunj", "city": "New Delhi, Delhi 110070", "phone": "01149858620", "website": "http://acssystem.in/", "rating": 3.4, "review_count": "", "latitude": 28.522178699999998, "longitude": 77.1692609, "maps_url": "https://www.google.com/maps/place/?q=place_id:0x390d1e748ef61961:0x754ceb660996cfdb"}, {"place_id": "0x390ce17b01e1a187:0x586fa6002747476d", "name": "OneTap AI Solutions", "category": "Software company", "street": "FIRST FLOOR", "city": "HOLI CHOWK", "phone": "07859935902", "website": "https://onetapaisolutions.com/", "rating": 5, "review_count": "", "latitude": 28.5011396, "longitude": 77.2343595, "maps_url": "https://www.google.com/maps/place/?q=place_id:0x390ce17b01e1a187:0x586fa6002747476d"}, {"place_id": "0x390ce1a909373e9b:0x9e3ebff3d8361830", "name": "Wellness RO Repair Service", "category": "Water purification company", "street": "Shop no. 5", "city": "JVTS Garden, C Block, Chhatarpur Extension, Chhatarpur", "phone": "08920271451", "website": "https://wellness-ro-repair.grexa.site/", "rating": 4.9, "review_count": "", "latitude": 28.487146, "longitude": 77.183937, "maps_url": "https://www.google.com/maps/place/?q=place_id:0x390ce1a909373e9b:0x9e3ebff3d8361830"}, {"place_id": "0x390d1e021e505ed3:0x5ad47a9afd96b4d7", "name": "Cruex Enterprises", "category": "Corporate office", "street": "104, Kuki", "city": "102, Mincha Wali Gali", "phone": "", "website": "", "rating": 5, "review_count": "", "latitude": 28.4935136, "longitude": 77.1596627, "maps_url": "https://www.google.com/maps/place/?q=place_id:0x390d1e021e505ed3:0x5ad47a9afd96b4d7"}, {"place_id": "0x390d1f5c48192149:0x7a49fb64e12e5115", "name": "Barista Coffee Company Ltd (Corporate Office)", "category": "Corporate office", "street": "Sultanpur", "city": "New Delhi, Delhi 110030", "phone": "09319392273", "website": "http://www.barista.co.in/", "rating": 4.5, "review_count": "", "latitude": 28.497703899999998, "longitude": 77.1601025, "maps_url": "https://www.google.com/maps/place/?q=place_id:0x390d1f5c48192149:0x7a49fb64e12e5115"}, {"place_id": "0x390ce17848fee8b3:0x2b94e887e2527706", "name": "FirstStartup.in - Pvt Ltd Company Registration in Delhi, Gurgaon & Noida", "category": "Legal services", "street": "3rd Floor", "city": "K - 318", "phone": "06395622281", "website": "https://www.firststartup.in/", "rating": 5, "review_count": "", "latitude": 28.5230774, "longitude": 77.1925818, "maps_url": "https://www.google.com/maps/place/?q=place_id:0x390ce17848fee8b3:0x2b94e887e2527706"}, {"place_id": "0x390d1fb45a37efcb:0x53ba63c680976ecd", "name": "Fratelli Wines Pvt Ltd (Corporate Office)", "category": "Vineyard", "street": "6, Sultanpur Mandi Rd", "city": "Mehrauli", "phone": "01126592900", "website": "http://fratelliwines.in/", "rating": 4.7, "review_count": "", "latitude": 28.495231999999998, "longitude": 77.16587799999999, "maps_url": "https://www.google.com/maps/place/?q=place_id:0x390d1fb45a37efcb:0x53ba63c680976ecd"}, {"place_id": "0x390d1f0df92e353d:0x54e79553d987073c", "name": "Zombie Marketers | Performance Marketing | Digital Marketing | Website development company in Delhi | SEO company in Delhi", "category": "Marketing agency", "street": "89/9 Mamman House B Block 4th Floor", "city": "Kishangarh Village, Vasant Kunj", "phone": "08527273938", "website": "", "rating": 4.4, "review_count": "", "latitude": 28.5189249, "longitude": 77.1646754, "maps_url": "https://www.google.com/maps/place/?q=place_id:0x390d1f0df92e353d:0x54e79553d987073c"}, {"place_id": "0x390d1e45ae084059:0xb58f0e3c59e838ad", "name": "Shreem Integrated Facilities Management Services", "category": "Property management company", "street": "Plot No.407", "city": "Sultanpur", "phone": "09582676039", "website": "https://shreem.org.in/", "rating": 4.2, "review_count": "", "latitude": 28.4943742, "longitude": 77.1635335, "maps_url": "https://www.google.com/maps/place/?q=place_id:0x390d1e45ae084059:0xb58f0e3c59e838ad"}, {"place_id": "0x390d193c3a36e523:0xe68f8d2568faeaad", "name": "Espire Infolabs Pvt. Ltd.", "category": "Software company", "street": "486 & 487", "city": "Phase III, Udyog Vihar III, Sector 20", "phone": "01247173000", "website": "http://www.espire.com/", "rating": 4.1, "review_count": "", "latitude": 28.5119516, "longitude": 77.0899661, "maps_url": "https://www.google.com/maps/place/?q=place_id:0x390d193c3a36e523:0xe68f8d2568faeaad"}, {"place_id": "0x390d1f2783537473:0x193c168fdf209093", "name": "Ghar Mandi", "category": "Real Estate Builders & Construction Company", "street": "First Floor, Khasra No", "city": "818 min", "phone": "09871832569", "website": "https://www.gharmandi.com/", "rating": 5, "review_count": "", "latitude": 28.4871791, "longitude": 77.1808502, "maps_url": "https://www.google.com/maps/place/?q=place_id:0x390d1f2783537473:0x193c168fdf209093"}, {"place_id": "0x390ce21c24e85b2f:0xf80cd35fedbc3cea", "name": "Cyberspace Networking Systems (P) Ltd.", "category": "Website designer", "street": "NIL-36C, Shvalik, DDA Flats, Malviya Nagar", "city": "New Delhi, Delhi 110017", "phone": "01141892901", "website": "http://www.cyberspace.in/", "rating": 3.9, "review_count": "", "latitude": 28.534816, "longitude": 77.21120789999999, "maps_url": "https://www.google.com/maps/place/?q=place_id:0x390ce21c24e85b2f:0xf80cd35fedbc3cea"}, {"place_id": "0x390d19345bcdc4f3:0x61d5221ed2c17f35", "name": "Cognizant", "category": "Software company", "street": "Tower C, SEZ Building, Building No 6, 5th & 6th Floor DLF C yber City Rd W Block", "city": "Near Shankar Chowk", "phone": "", "website": "http://www.cognizant.com/india", "rating": 4.1, "review_count": "", "latitude": 28.4964521, "longitude": 77.096576, "maps_url": "https://www.google.com/maps/place/?q=place_id:0x390d19345bcdc4f3:0x61d5221ed2c17f35"}, {"place_id": "0x390d1f5b9ea2751d:0x253d28d6c1643b07", "name": "Sales Training | Soft Skills Training | Corporate Sales Training Programs | Best Sales Training Companies Delhi NCR", "category": "Business development service", "street": "A 16", "city": "Block A, Rajpur, Chhatarpur", "phone": "09884623854", "website": "https://www.dishahconsultants.com/sales-training-in-delhi", "rating": 4.9, "review_count": "", "latitude": 28.497561599999997, "longitude": 77.1877729, "maps_url": "https://www.google.com/maps/place/?q=place_id:0x390d1f5b9ea2751d:0x253d28d6c1643b07"}, {"place_id": "0x390d1fbec6a9d709:0xfa5320b1b765f25d", "name": "Avance Insights Pvt Ltd", "category": "Market researcher", "street": "B-309/2", "city": "Chhatarpur Extension, Chhatarpur", "phone": "09313195176", "website": "https://avance-india.in/", "rating": 5, "review_count": "", "latitude": 28.492364799999997, "longitude": 77.1702535, "maps_url": "https://www.google.com/maps/place/?q=place_id:0x390d1fbec6a9d709:0xfa5320b1b765f25d"}, {"place_id": "0x390d1f8cba2d805f:0x994569ee494733c", "name": "S2-Jee CCTV Camera dealer Chhatarpur CCTV Installation Service", "category": "Security system supplier", "street": "Block A2", "city": "189", "phone": "09811711605", "website": "https://www.cctv-camera.in/s2-jee-cctv-camera/", "rating": 5, "review_count": "", "latitude": 28.489544199999997, "longitude": 77.1815854, "maps_url": "https://www.google.com/maps/place/?q=place_id:0x390d1f8cba2d805f:0x994569ee494733c"}, {"place_id": "0x390cfd024a1027a7:0xf3d384e9a6d37f70", "name": "The Tohafa | Corporate Gifting made easy", "category": "Corporate gift supplier", "street": "Second Floor", "city": "A2, Ln 1A", "phone": "07999825512", "website": "https://www.thetohafa.in/", "rating": 4.9, "review_count": "", "latitude": 28.4897028, "longitude": 77.1867724, "maps_url": "https://www.google.com/maps/place/?q=place_id:0x390cfd024a1027a7:0xf3d384e9a6d37f70"}, {"place_id": "0xac577056c2b5ff3d:0xaf00253141553d04", "name": "Devnotam | IT Company", "category": "Internet marketing service", "street": "", "city": "", "phone": "", "website": "https://devnotam.com/", "rating": 5, "review_count": "", "latitude": 28.692404999999997, "longitude": 77.090042, "maps_url": "https://www.google.com/maps/place/?q=place_id:0xac577056c2b5ff3d:0xaf00253141553d04"}, {"place_id": "0x390d193c3a36fabd:0x8bd7aacd8793bdb7", "name": "Orange Business Services", "category": "Public relations firm", "street": "Infinity Tower 8, Tower B", "city": "DLF Cyber City, DLF Phase 2, Sector 25", "phone": "", "website": "http://www.orange-business.com/", "rating": 4.5, "review_count": "", "latitude": 28.495814199999998, "longitude": 77.0910088, "maps_url": "https://www.google.com/maps/place/?q=place_id:0x390d193c3a36fabd:0x8bd7aacd8793bdb7"}, {"place_id": "0x390d1f819e1634d5:0x80ffeff4f2d366eb", "name": "Wooden Habitat", "category": "Architecture firm", "street": "Kh. No. 65/2", "city": "Plot No. 3", "phone": "", "website": "https://woodenhabitat.com/", "rating": 5, "review_count": "", "latitude": 28.487208199999998, "longitude": 77.1840651, "maps_url": "https://www.google.com/maps/place/?q=place_id:0x390d1f819e1634d5:0x80ffeff4f2d366eb"}]}