{"timestamp": 1773733384.173575, "keyword": "IT company", "location": "Indore", "cell_idx": 3, "results": [{"place_id": "0x3962fd71266aaa83:0x82398caa17930a40", "name": "Octavian InfoTech LLP", "category": "Software company", "street": "A 41 Ayodhya Puri", "city": "Kodriya", "phone": "09977741168", "website": "https://www.octavianinfotech.com/", "rating": 5, "review_count": "", "latitude": 22.537258599999998, "longitude": 75.7726136, "maps_url": "https://www.google.com/maps/place/?q=place_id:0x3962fd71266aaa83:0x82398caa17930a40"}, {"place_id": "0x3962f9d55308990b:0xb6ebe2e177c52632", "name": "Prodigitaly Technologies", "category": "Software company", "street": "L-31 Supercity , Opposite Shanti Nagar ,Mhowgaon", "city": "Dr. Ambedkar Nagar, Madhya Pradesh 453441", "phone": "09877530727", "website": "https://prodigitaly.com/", "rating": 5, "review_count": "", "latitude": 22.5524372, "longitude": 75.7565273, "maps_url": "https://www.google.com/maps/place/?q=place_id:0x3962f9d55308990b:0xb6ebe2e177c52632"}, {"place_id": "0x3962f90050be525f:0xa62fbb831ddecfb7", "name": "Nevaloss Technologies Pvt. Ltd.", "category": "Software company", "street": "Mhow, Madhya Pradesh 453331", "city": "", "phone": "09479591781", "website": "https://www.nevalosstechnologies.com/", "rating": 5, "review_count": "", "latitude": 22.62643, "longitude": 75.796882, "maps_url": "https://www.google.com/maps/place/?q=place_id:0x3962f90050be525f:0xa62fbb831ddecfb7"}, {"place_id": "0x390ce458d0000001:0xf2123bd299ec4501", "name": "IT Company India", "category": "Software company", "street": "D56", "city": "D Block, Sector 10", "phone": "09999244854", "website": "https://www.itcompanyindia.in/", "rating": 4.7, "review_count": "", "latitude": 28.589917699999997, "longitude": 77.3351153, "maps_url": "https://www.google.com/maps/place/?q=place_id:0x390ce458d0000001:0xf2123bd299ec4501"}, {"place_id": "0x3962f90d10bd7993:0xe34f9616e2e32c5e", "name": "Welloft IT Solutions", "category": "Website designer", "street": "301 Love App", "city": "SIMROL ROAD Sai Shardha colony Love apartment", "phone": "08819832755", "website": "https://wellsoft.in/", "rating": 5, "review_count": "", "latitude": 22.556339599999998, "longitude": 75.7805716, "maps_url": "https://www.google.com/maps/place/?q=place_id:0x3962f90d10bd7993:0xe34f9616e2e32c5e"}, {"place_id": "0x396264dba06d465d:0x7515a80bca46819", "name": "Sowmitras TechnoSoft Solutions Private Limited", "category": "Software company", "street": "4", "city": "Madhuban Colony", "phone": "08989133717", "website": "https://sowmitras.com/", "rating": 4.9, "review_count": "", "latitude": 22.178641499999998, "longitude": 75.5828774, "maps_url": "https://www.google.com/maps/place/?q=place_id:0x396264dba06d465d:0x7515a80bca46819"}, {"place_id": "0x3be7c21b5901e181:0x7fe794585addc1f6", "name": "Smartinfologiks - Software Development Company in India | IT Solutions", "category": "Software company", "street": "Hilton Center", "city": "514", "phone": "07400064691", "website": "https://www.smartinfologiks.com/", "rating": 4.6, "review_count": "", "latitude": 19.0139592, "longitude": 73.0382705, "maps_url": "https://www.google.com/maps/place/?q=place_id:0x3be7c21b5901e181:0x7fe794585addc1f6"}, {"place_id": "0x39628bc90ce8693b:0x994725c7d5c57f26", "name": "Bagwan Computers", "category": "Computer support and services", "street": "Vill Gulawad", "city": "Post", "phone": "08965040021", "website": "", "rating": 4.4, "review_count": "", "latitude": 22.2810721, "longitude": 75.722236, "maps_url": "https://www.google.com/maps/place/?q=place_id:0x39628bc90ce8693b:0x994725c7d5c57f26"}, {"place_id": "0x3bc2becdc35b6937:0x515ac559c349eee3", "name": "Thinkitive Technologies Private Limited", "category": "Software company", "street": "4th Floor", "city": "ABIL IMPERIAL COMMERCIAL SPACES", "phone": "08956467327", "website": "https://www.thinkitive.com/", "rating": 3.9, "review_count": "", "latitude": 18.5563888, "longitude": 73.7729748, "maps_url": "https://www.google.com/maps/place/?q=place_id:0x3bc2becdc35b6937:0x515ac559c349eee3"}, {"place_id": "0x3962f9236d105caf:0xbbc3c9013b8d48dc", "name": "Compli-Tech - Startup Consultant | Company Registration | Website Designing | Ecommerce Website Development", "category": "Business management consultant", "street": "Malwa Complex", "city": "88", "phone": "09302151441", "website": "https://compli-tech.odoo.com/", "rating": "", "review_count": "", "latitude": 22.5676845, "longitude": 75.7600538, "maps_url": "https://www.google.com/maps/place/?q=place_id:0x3962f9236d105caf:0xbbc3c9013b8d48dc"}, {"place_id": "0x39625f6c69a29271:0x9bb96846636398b1", "name": "Shree Saawariya Online Services", "category": "Computer support and services", "street": "Gram Mend Mhow Indore Mend", "city": "Mhow - Indore Hwy", "phone": "08319913142", "website": "", "rating": 5, "review_count": "", "latitude": 22.4171071, "longitude": 75.7101895, "maps_url": "https://www.google.com/maps/place/?q=place_id:0x39625f6c69a29271:0x9bb96846636398b1"}, {"place_id": "0x3962fd5eec2cf6a9:0xe1b5f67b53e20d06", "name": "Technoecorp Service Private Limited", "category": "Software company", "street": "C 180 chhatra Chhaya sector 01 Pithampur", "city": "Distt", "phone": "", "website": "http://www.technoecorp.com/", "rating": 4.9, "review_count": "", "latitude": 22.6052993, "longitude": 75.6858365, "maps_url": "https://www.google.com/maps/place/?q=place_id:0x3962fd5eec2cf6a9:0xe1b5f67b53e20d06"}, {"place_id": "0x39626ee41fc1bb01:0x9f9b8883fd4cd153", "name": "Dhamnod Computers", "category": "Computer support and services", "street": "Atal bihari complex", "city": "Dhamnod, Madhya Pradesh 454552", "phone": "", "website": "", "rating": 3.6, "review_count": "", "latitude": 22.2167981, "longitude": 75.47412489999999, "maps_url": "https://www.google.com/maps/place/?q=place_id:0x39626ee41fc1bb01:0x9f9b8883fd4cd153"}, {"place_id": "0x3962fd7d9b3cfd07:0xb8cc6a7d80bdbd62", "name": "3D Eyrans Private Limited", "category": "3D printing service", "street": "74/75, sun rise town village banjari", "city": "near manaal hotel", "phone": "07999797245", "website": "", "rating": 4.8, "review_count": "", "latitude": 22.589722599999998, "longitude": 75.68744149999999, "maps_url": "https://www.google.com/maps/place/?q=place_id:0x3962fd7d9b3cfd07:0xb8cc6a7d80bdbd62"}, {"place_id": "0x3962f91a9a1deadb:0xf9192245761ff2c", "name": "SmartTech-Developers", "category": "Software company", "street": "Suman Colony", "city": "Mhow Gaon, Madhya Pradesh 453441", "phone": "09691985153", "website": "http://smarttech-developers.com/", "rating": "", "review_count": "", "latitude": 22.5753395, "longitude": 75.74259119999999, "maps_url": "https://www.google.com/maps/place/?q=place_id:0x3962f91a9a1deadb:0xf9192245761ff2c"}, {"place_id": "0x39626ee4dedbfb69:0x6cb9b48503aece3b", "name": "The Z Solution Institute of Tally and Professional Skills Dhamnod, Dhar District 454552", "category": "Software company", "street": "The Z Solution", "city": "Road", "phone": "09826796745", "website": "http://www.thezsolution.com/%20%20%20#%20%20http://www.thezsolution.in", "rating": 4.9, "review_count": "", "latitude": 22.2173284, "longitude": 75.4788082, "maps_url": "https://www.google.com/maps/place/?q=place_id:0x39626ee4dedbfb69:0x6cb9b48503aece3b"}, {"place_id": "0x396264c4c409186d:0x24b8332740755a0a", "name": "I-TECH COMPUTER", "category": "Computer store", "street": "M.G Road", "city": "Maheshwar, Madhya Pradesh 451224", "phone": "", "website": "", "rating": 4.2, "review_count": "", "latitude": 22.1792382, "longitude": 75.5870879, "maps_url": "https://www.google.com/maps/place/?q=place_id:0x396264c4c409186d:0x24b8332740755a0a"}, {"place_id": "0x396261601700e369:0x8eab4d166fb96890", "name": "Nikhil Patidar Computers", "category": "Computer support and services", "street": "Main Road", "city": "Bablai, Madhya Pradesh 451221", "phone": "06266069958", "website": "", "rating": "", "review_count": "", "latitude": 22.2795506, "longitude": 75.64681519999999, "maps_url": "https://www.google.com/maps/place/?q=place_id:0x396261601700e369:0x8eab4d166fb96890"}, {"place_id": "0x3962fce330e1541b:0x125ef4cec09bea4e", "name": "Twarak Infotech Pvt Ltd", "category": "Software company", "street": "201 Sankalp 1", "city": "Chinar Residency, Kishanganj", "phone": "08770604745", "website": "https://www.twarakinfotech.com/", "rating": 4.5, "review_count": "", "latitude": 22.5789062, "longitude": 75.77662269999999, "maps_url": "https://www.google.com/maps/place/?q=place_id:0x3962fce330e1541b:0x125ef4cec09bea4e"}, {"place_id": "0x39625f766fcb4239:0x805879318352fff3", "name": "Shree Sawariya Computer And Mobile Repairing", "category": "Computer support and services", "street": "1, Ab Road", "city": "near by Tejaji Mandir", "phone": "09575153691", "website": "", "rating": 5, "review_count": "", "latitude": 22.4331791, "longitude": 75.62092729999999, "maps_url": "https://www.google.com/maps/place/?q=place_id:0x39625f766fcb4239:0x805879318352fff3"}, {"place_id": "0x3962fbe35c453537:0xa10ee88e33ab11ad", "name": "CodeCrest Technologies", "category": "Software company", "street": "Narmada Rd", "city": "Rau", "phone": "08319641124", "website": "https://codecresttechnologies.com/", "rating": "", "review_count": "", "latitude": 22.6363812, "longitude": 75.812113, "maps_url": "https://www.google.com/maps/place/?q=place_id:0x3962fbe35c453537:0xa10ee88e33ab11ad"}, {"place_id": "0x39626538ad22a7ab:0xcbfbee4efd86e240", "name": "Khan Std", "category": "Computer support and services", "street": "Front Of Kort", "city": "Maheshwar, Madhya Pradesh 451224", "phone": "09893513774", "website": "", "rating": 5, "review_count": "", "latitude": 22.1791828, "longitude": 75.5880152, "maps_url": "https://www.google.com/maps/place/?q=place_id:0x39626538ad22a7ab:0xcbfbee4efd86e240"}, {"place_id": "0x2112c3907880264b:0xb15e6e4664867762", "name": "Vertex Infotech Dhamnod", "category": "Computer support and services", "street": "", "city": "", "phone": "09685607336", "website": "https://vertexinfotech.in/", "rating": 4.7, "review_count": "", "latitude": 21.0680074, "longitude": 82.7525294, "maps_url": "https://www.google.com/maps/place/?q=place_id:0x2112c3907880264b:0xb15e6e4664867762"}, {"place_id": "0x396263b9f55b6db3:0x842045983bcb5b67", "name": "Khushi Digital Marketing", "category": "Internet marketing service", "street": "Shrinagar colony", "city": "nr. Kanwartara School & Jain Temple", "phone": "09033993452", "website": "https://khushidigitalmarketing.com/", "rating": 5, "review_count": "", "latitude": 22.1816732, "longitude": 75.68097929999999, "maps_url": "https://www.google.com/maps/place/?q=place_id:0x396263b9f55b6db3:0x842045983bcb5b67"}, {"place_id": "0x39628bab8b9d387b:0xde78a50373a80c71", "name": "Global Agri Machineries", "category": "Manufacturer", "street": "Gaytri Dham", "city": "Teh", "phone": "08999973458", "website": "", "rating": 4.9, "review_count": "", "latitude": 22.2828563, "longitude": 75.7964684, "maps_url": "https://www.google.com/maps/place/?q=place_id:0x39628bab8b9d387b:0xde78a50373a80c71"}, {"place_id": "0x3962f7a9cd6c9f71:0x66a31a84cc17dced", "name": "Sai Computers", "category": "Computer software store", "street": "1494, Chander Marg", "city": "Bombay Bazar, Hari Phatak", "phone": "09893545685", "website": "", "rating": "", "review_count": "", "latitude": 22.559409499999997, "longitude": 75.76513349999999, "maps_url": "https://www.google.com/maps/place/?q=place_id:0x3962f7a9cd6c9f71:0x66a31a84cc17dced"}, {"place_id": "0x39626f747ac7f9ed:0x3c505edc104e0f0", "name": "Industrial area jetapur", "category": "Real Estate Builders & Construction Company", "street": "6FMQ+5WG", "city": "Jetapur, Madhya Pradesh 454552", "phone": "", "website": "", "rating": 5, "review_count": "", "latitude": 22.2329418, "longitude": 75.4898156, "maps_url": "https://www.google.com/maps/place/?q=place_id:0x39626f747ac7f9ed:0x3c505edc104e0f0"}, {"place_id": "0x3962897a667c4d1f:0x25b5742da25f59e9", "name": "Anurag Online", "category": "Computer support and services", "street": "Nehru Market", "city": "Main Road", "phone": "07489209684", "website": "", "rating": "", "review_count": "", "latitude": 22.273569, "longitude": 75.7969363, "maps_url": "https://www.google.com/maps/place/?q=place_id:0x3962897a667c4d1f:0x25b5742da25f59e9"}, {"place_id": "0x3962681609290295:0xa59fc926cfc40933", "name": "webmillennium IT Company", "category": "Software company", "street": "8GC4+93C", "city": "Gujri, Madhya Pradesh 451224", "phone": "", "website": "", "rating": "", "review_count": "", "latitude": 22.3209491, "longitude": 75.5051264, "maps_url": "https://www.google.com/maps/place/?q=place_id:0x3962681609290295:0xa59fc926cfc40933"}, {"place_id": "0x39626773e7b9c63d:0x5fd6fa62c44e43ba", "name": "Annapurna Computers", "category": "Computer support and services", "street": "04, Maheshwar - Aashapur Rd", "city": "Aashapur, Sel, Madhya Pradesh 451224", "phone": "08435151191", "website": "", "rating": 5, "review_count": "", "latitude": 22.291550599999997, "longitude": 75.5638773, "maps_url": "https://www.google.com/maps/place/?q=place_id:0x39626773e7b9c63d:0x5fd6fa62c44e43ba"}, {"place_id": "0x3962f93bbf2be761:0xd4d10ddd80cb791a", "name": "digIT Consultants", "category": "Software company", "street": "Shop 1 - 15, Rajasva Nagar", "city": "Dharnaka", "phone": "08269639582", "website": "http://digitconsultants.co.in/", "rating": 5, "review_count": "", "latitude": 22.5656921, "longitude": 75.7485544, "maps_url": "https://www.google.com/maps/place/?q=place_id:0x3962f93bbf2be761:0xd4d10ddd80cb791a"}, {"place_id": "0x3962679bf0fcdb71:0xde216984da70ea12", "name": "Shree Online Center", "category": "Computer support and services", "street": "Main Road", "city": "Mohana, Samaspura, Madhya Pradesh 451224", "phone": "09977691413", "website": "", "rating": 3, "review_count": "", "latitude": 22.2733296, "longitude": 75.6078964, "maps_url": "https://www.google.com/maps/place/?q=place_id:0x3962679bf0fcdb71:0xde216984da70ea12"}, {"place_id": "0x3962f7258c7e67f5:0x3997f7bd639d8477", "name": "Business Consultant", "category": "Business management consultant", "street": "551,Vishwas Nagar, Banjari", "city": "Post", "phone": "08319803782", "website": "", "rating": "", "review_count": "", "latitude": 22.594945799999998, "longitude": 75.6916344, "maps_url": "https://www.google.com/maps/place/?q=place_id:0x3962f7258c7e67f5:0x3997f7bd639d8477"}, {"place_id": "0x39628bc0f02608bf:0x2999ed3d1006ea00", "name": "Digital Zone", "category": "Computer support and services", "street": "Gujariya Family", "city": "12, Bhawani Chok", "phone": "07724067142", "website": "", "rating": "", "review_count": "", "latitude": 22.2915661, "longitude": 75.7849303, "maps_url": "https://www.google.com/maps/place/?q=place_id:0x39628bc0f02608bf:0x2999ed3d1006ea00"}, {"place_id": "0x39626f3581086633:0xdc263ce7b26beaad", "name": "Waskel Computer", "category": "Computer support and services", "street": "Shop No 1", "city": "Road", "phone": "07470460190", "website": "", "rating": "", "review_count": "", "latitude": 22.2158716, "longitude": 75.4932326, "maps_url": "https://www.google.com/maps/place/?q=place_id:0x39626f3581086633:0xdc263ce7b26beaad"}, {"place_id": "0x3962f93bbf2be761:0xd4d10ddd80cb791a", "name": "digIT Consultants", "category": "Software company", "street": "Shop 1 - 15, Rajasva Nagar", "city": "Dharnaka", "phone": "08269639582", "website": "http://digitconsultants.co.in/", "rating": 5, "review_count": "", "latitude": 22.5656921, "longitude": 75.7485544, "maps_url": "https://www.google.com/maps/place/?q=place_id:0x3962f93bbf2be761:0xd4d10ddd80cb791a"}, {"place_id": "0x3962679bf0fcdb71:0xde216984da70ea12", "name": "Shree Online Center", "category": "Computer support and services", "street": "Main Road", "city": "Mohana, Samaspura, Madhya Pradesh 451224", "phone": "09977691413", "website": "", "rating": 3, "review_count": "", "latitude": 22.2733296, "longitude": 75.6078964, "maps_url": "https://www.google.com/maps/place/?q=place_id:0x3962679bf0fcdb71:0xde216984da70ea12"}, {"place_id": "0x3962f7258c7e67f5:0x3997f7bd639d8477", "name": "Business Consultant", "category": "Business management consultant", "street": "551,Vishwas Nagar, Banjari", "city": "Post", "phone": "08319803782", "website": "", "rating": "", "review_count": "", "latitude": 22.594945799999998, "longitude": 75.6916344, "maps_url": "https://www.google.com/maps/place/?q=place_id:0x3962f7258c7e67f5:0x3997f7bd639d8477"}, {"place_id": "0x39628bc0f02608bf:0x2999ed3d1006ea00", "name": "Digital Zone", "category": "Computer support and services", "street": "Gujariya Family", "city": "12, Bhawani Chok", "phone": "07724067142", "website": "", "rating": "", "review_count": "", "latitude": 22.2915661, "longitude": 75.7849303, "maps_url": "https://www.google.com/maps/place/?q=place_id:0x39628bc0f02608bf:0x2999ed3d1006ea00"}, {"place_id": "0x39626f3581086633:0xdc263ce7b26beaad", "name": "Waskel Computer", "category": "Computer support and services", "street": "Shop No 1", "city": "Road", "phone": "07470460190", "website": "", "rating": "", "review_count": "", "latitude": 22.2158716, "longitude": 75.4932326, "maps_url": "https://www.google.com/maps/place/?q=place_id:0x39626f3581086633:0xdc263ce7b26beaad"}, {"place_id": "0x39628bfbbf115f0f:0x878185d9354c015", "name": "Unique computers", "category": "Computer support and services", "street": "Karahi", "city": "Karhi, Madhya Pradesh 451220", "phone": "09893393189", "website": "", "rating": "", "review_count": "", "latitude": 22.277514399999998, "longitude": 75.8004351, "maps_url": "https://www.google.com/maps/place/?q=place_id:0x39628bfbbf115f0f:0x878185d9354c015"}, {"place_id": "0x39626f48450c0201:0x5951876cd5b0f17f", "name": "Access Computer Academy", "category": "Computer support and services", "street": "Shop No", "city": "11, Road", "phone": "09713160709", "website": "", "rating": "", "review_count": "", "latitude": 22.2166647, "longitude": 75.484901, "maps_url": "https://www.google.com/maps/place/?q=place_id:0x39626f48450c0201:0x5951876cd5b0f17f"}, {"place_id": "0x39628ba05f3200f5:0xac7dcbb7c15009c", "name": "Pardeep Online", "category": "Computer support and services", "street": "Ke Samne", "city": "Men Road", "phone": "06266601112", "website": "", "rating": "", "review_count": "", "latitude": 22.27628, "longitude": 75.7977889, "maps_url": "https://www.google.com/maps/place/?q=place_id:0x39628ba05f3200f5:0xac7dcbb7c15009c"}, {"place_id": "0x39626f62126a294f:0x10ce1a958dfd5b68", "name": "BYTECLOUD INFOTECH", "category": "Software company", "street": "", "city": "", "phone": "", "website": "", "rating": "", "review_count": "", "latitude": 21.0680074, "longitude": 82.7525294, "maps_url": "https://www.google.com/maps/place/?q=place_id:0x39626f62126a294f:0x10ce1a958dfd5b68"}]}