[{"place_id": "ChIJM-ZDIOXiDDkRHNlL6nlN1D4", "name": "Wirecto", "street": "Triloki Colony, C-49, South Extension I, Mahaveer Nagar, Kotla Mubarakpur, New Delhi, Delhi 110003, India", "phone": "+91 97166 70074", "rating": "5", "review_count": "", "website": "https://wirecto.app/", "latitude": 28.575404799999998, "longitude": 77.2250054, "maps_url": "https://www.google.com/maps/search/?api=1&query=Wirecto&query_place_id=ChIJM-ZDIOXiDDkRHNlL6nlN1D4"}, {"place_id": "ChIJ6xG0sw-c-DkRWHWbfpc_R74", "name": "Kbeatech - Digital Solutions Company", "street": "1893, 1st Floor, Uday Chand Marg, South Extension I, Kotla Mubarakpur, New Delhi, Delhi 110049, India", "phone": "", "rating": "4.9", "review_count": "", "website": "https://kbeatech.in/", "latitude": 28.571338299999997, "longitude": 77.2228884, "maps_url": "https://www.google.com/maps/search/?api=1&query=Kbeatech%20-%20Digital%20Solutions%20Company&query_place_id=ChIJ6xG0sw-c-DkRWHWbfpc_R74"}, {"place_id": "ChIJVVVVgV7iDDkRR38SUjV3P_k", "name": "SANEKT SOFTWARE SOLUTION", "street": "Top floor, H 11, South Extension, Block H, New Delhi, Delhi 110049, India", "phone": "+91 11 4158 9565", "rating": "5", "review_count": "", "website": "http://sanekt.com/", "latitude": 28.571361, "longitude": 77.221733, "maps_url": "https://www.google.com/maps/search/?api=1&query=SANEKT%20SOFTWARE%20SOLUTION&query_place_id=ChIJVVVVgV7iDDkRR38SUjV3P_k"}, {"place_id": "ChIJ8ZpKTwnjDDkRrSm4RmnGIdw", "name": "BAUDHYANTRAM IT Solutions | Website Designing | Web Development | Software Company in Delhi", "street": "H82 2nd Floor, opposite Bengali Sweet Center, South Extension I, Block H, New Delhi, Delhi 110049, India", "phone": "+91 79008 99996", "rating": "4.8", "review_count": "", "website": "http://www.baudhyantram.in/", "latitude": 28.5695803, "longitude": 77.221047, "maps_url": "https://www.google.com/maps/search/?api=1&query=BAUDHYANTRAM%20IT%20Solutions%20%7C%20Website%20Designing%20%7C%20Web%20Development%20%7C%20Software%20Company%20in%20Delhi&query_place_id=ChIJ8ZpKTwnjDDkRrSm4RmnGIdw"}, {"place_id": "ChIJEWC-3RDjDDkRlaR-qGzH5yk", "name": "DigiTecholic Private Limited", "street": "1st Floor, H-11, near Bengali Sweet Center, South Extension I, Block H, New Delhi, Delhi 110049, India", "phone": "+91 77008 40888", "rating": "5", "review_count": "", "website": "https://www.digitecholic.com/", "latitude": 28.5713112, "longitude": 77.2219863, "maps_url": "https://www.google.com/maps/search/?api=1&query=DigiTecholic%20Private%20Limited&query_place_id=ChIJEWC-3RDjDDkRlaR-qGzH5yk"}, {"place_id": "ChIJv6YqJl_kDDkRNy8E-JIbCFE", "name": "3ST Technologies pvt. ltd.", "street": "1899/A, 1st floor, Uday Chand Marg, South Extension I, Sher Singh Bazar, Kotla Mubarakpur, New Delhi, Delhi 110049, India", "phone": "+91 120 410 4290", "rating": "4.8", "review_count": "", "website": "http://www.3sttechnologies.com/", "latitude": 28.5732888, "longitude": 77.22124749999999, "maps_url": "https://www.google.com/maps/search/?api=1&query=3ST%20Technologies%20pvt.%20ltd.&query_place_id=ChIJv6YqJl_kDDkRNy8E-JIbCFE"}, {"place_id": "ChIJI8eBDIbjDDkRPmqowEMO9cU", "name": "Nextr Technology", "street": "2nd Floor, 1483/A-1, South Extension I, Wazir Nagar, New Delhi, Delhi 110003, India", "phone": "+91 99117 51575", "rating": "4.9", "review_count": "", "website": "http://www.nextr.in/", "latitude": 28.574374, "longitude": 77.224284, "maps_url": "https://www.google.com/maps/search/?api=1&query=Nextr%20Technology&query_place_id=ChIJI8eBDIbjDDkRPmqowEMO9cU"}, {"place_id": "ChIJ5QlVe1nhDDkRPE20N7kJgv0", "name": "IT Solutions India Private Limited", "street": "D-88/5, Pocket D, Okhla Phase I, Okhla Industrial Estate, New Delhi, Delhi 110020, India", "phone": "+91 98100 17429", "rating": "4.2", "review_count": "", "website": "https://www.itsipl.com/", "latitude": 28.520146, "longitude": 77.280431, "maps_url": "https://www.google.com/maps/search/?api=1&query=IT%20Solutions%20India%20Private%20Limited&query_place_id=ChIJ5QlVe1nhDDkRPE20N7kJgv0"}, {"place_id": "ChIJ_ek9kI_jDDkRG_vTxz1et2A", "name": "iTech Mission Private Limited (iTM)", "street": "4th Floor, Saira Tower, Gulmohar Commercial Complex, Yusuf Sarai, New Delhi, Delhi 110049, India", "phone": "", "rating": "5", "review_count": "", "website": "http://www.itechmission.org/", "latitude": 28.557895499999997, "longitude": 77.20812099999999, "maps_url": "https://www.google.com/maps/search/?api=1&query=iTech%20Mission%20Private%20Limited%20%28iTM%29&query_place_id=ChIJ_ek9kI_jDDkRG_vTxz1et2A"}, {"place_id": "ChIJ3RxiygnjDDkRcPAiFofoIus", "name": "Developer", "street": "South Extension, Zafar Nagar, Kotla Mubarakpur, New Delhi, Delhi 110049, India", "phone": "", "rating": "", "review_count": "", "website": "", "latitude": 28.5729825, "longitude": 77.2218865, "maps_url": "https://www.google.com/maps/search/?api=1&query=Developer&query_place_id=ChIJ3RxiygnjDDkRcPAiFofoIus"}, {"place_id": "ChIJHZAE51ziDDkR5Q_ZtoquOnY", "name": "Paragon IT Services Pvt.Ltd.", "street": "3rd Floor, 1882 Bhaskar Bhawan, Behind H-58/59, South Ex - I, New Delhi, Delhi 110049, India", "phone": "+91 81307 75107", "rating": "", "review_count": "", "website": "http://www.paragoninfotech.com/", "latitude": 28.5678487, "longitude": 77.22091309999999, "maps_url": "https://www.google.com/maps/search/?api=1&query=Paragon%20IT%20Services%20Pvt.Ltd.&query_place_id=ChIJHZAE51ziDDkR5Q_ZtoquOnY"}, {"place_id": "ChIJx7XxVqPjDDkRR7clIzs5wD0", "name": "Lifecircles Infomedia", "street": "F-21, 1, South Extension, Zafar Nagar, Kotla Mubarakpur, Delhi, New Delhi, Delhi 110003, India", "phone": "+91 11 4706 1795", "rating": "5", "review_count": "", "website": "https://www.lifecirclesinfomedia.com/", "latitude": 28.5731725, "longitude": 77.2226684, "maps_url": "https://www.google.com/maps/search/?api=1&query=Lifecircles%20Infomedia&query_place_id=ChIJx7XxVqPjDDkRR7clIzs5wD0"}, {"place_id": "ChIJJ6Ck-ULiDDkRZtG5amW08rE", "name": "Metasoft IT Systems Pvt Ltd", "street": "South Extension Plaza 2, 401 402, Guneet Kashyap Marg Rd, South Extension II, Masjid Moth Village, New Delhi, Delhi 110049, India", "phone": "+91 99109 75699", "rating": "", "review_count": "", "website": "http://www.metasoft.co.in/", "latitude": 28.5636208, "longitude": 77.2198183, "maps_url": "https://www.google.com/maps/search/?api=1&query=Metasoft%20IT%20Systems%20Pvt%20Ltd&query_place_id=ChIJJ6Ck-ULiDDkRZtG5amW08rE"}, {"place_id": "ChIJ5yEznVziDDkRzyJWFWqH7eg", "name": "Corporate Professionals", "street": "D, 28, South Extension I, Block D, New Delhi, Delhi 110049, India", "phone": "+91 11 4062 2200", "rating": "4.4", "review_count": "", "website": "http://www.corporateprofessionals.com/", "latitude": 28.572223299999997, "longitude": 77.2203427, "maps_url": "https://www.google.com/maps/search/?api=1&query=Corporate%20Professionals&query_place_id=ChIJ5yEznVziDDkRzyJWFWqH7eg"}, {"place_id": "ChIJn0gG-0LiDDkRF--BeyCP9tE", "name": "sGate Tech Solutions Pvt. Ltd.", "street": "South Ex. Tower, 309-310, Masjid Moth Rd, behind South Extension - II, South Extension II, Masjid Moth Village, New Delhi, Delhi 110049, India", "phone": "+91 87240 10101", "rating": "4.5", "review_count": "", "website": "https://www.sgate.in/", "latitude": 28.563666299999998, "longitude": 77.2199878, "maps_url": "https://www.google.com/maps/search/?api=1&query=sGate%20Tech%20Solutions%20Pvt.%20Ltd.&query_place_id=ChIJn0gG-0LiDDkRF--BeyCP9tE"}, {"place_id": "ChIJCXxNvm1Yv04RbCL1O8hVhJY", "name": "Anchor IT Solutions- App Development | Website Development | Digital Marketing", "street": "4, Vinoba Puri, Lajpat Nagar II, Lajpat Nagar, New Delhi, Delhi 110024, India", "phone": "+91 76786 58584", "rating": "4.8", "review_count": "", "website": "", "latitude": 28.566371399999998, "longitude": 77.2486924, "maps_url": "https://www.google.com/maps/search/?api=1&query=Anchor%20IT%20Solutions-%20App%20Development%20%7C%20Website%20Development%20%7C%20Digital%20Marketing&query_place_id=ChIJCXxNvm1Yv04RbCL1O8hVhJY"}, {"place_id": "ChIJd-4j78fjDDkRK3rtFLKOfTw", "name": "Shri Balaji Computerkart", "street": "1718, Gurudwara Rd, near lal mandir, South Extension I, Mahaveer Nagar, Kotla Mubarakpur, New Delhi, Delhi 110003, India", "phone": "+91 87008 18360", "rating": "4.9", "review_count": "", "website": "", "latitude": 28.572098, "longitude": 77.225115, "maps_url": "https://www.google.com/maps/search/?api=1&query=Shri%20Balaji%20Computerkart&query_place_id=ChIJd-4j78fjDDkRK3rtFLKOfTw"}, {"place_id": "ChIJl5geAqLjDDkRGQx9atNSvyg", "name": "It Softtech - Website Designing and Development Company in Delhi, India", "street": "149, Ring Rd, opp. Maharani Bagh, Kilokri, Phase 1, Hari Nagar Ashram, New Delhi, Delhi 110014, India", "phone": "+91 98100 56177", "rating": "5", "review_count": "", "website": "", "latitude": 28.5763395, "longitude": 77.2640869, "maps_url": "https://www.google.com/maps/search/?api=1&query=It%20Softtech%20-%20Website%20Designing%20and%20Development%20Company%20in%20Delhi%2C%20India&query_place_id=ChIJl5geAqLjDDkRGQx9atNSvyg"}, {"place_id": "ChIJc1K9Ai_jDDkRTrLqEZx7pgg", "name": "Seospidy Web Solution", "street": "First Floor, 1816, Uday Chand Marg, South Extension I, Zafar Nagar, Kotla Mubarakpur, New Delhi, Delhi 110003, India", "phone": "+91 98738 00494", "rating": "5", "review_count": "", "website": "https://seospidy.com/", "latitude": 28.5733668, "longitude": 77.2213888, "maps_url": "https://www.google.com/maps/search/?api=1&query=Seospidy%20Web%20Solution&query_place_id=ChIJc1K9Ai_jDDkRTrLqEZx7pgg"}, {"place_id": "ChIJtfISSl7iDDkRS9HBq7UxCXo", "name": "PCS Technology Limited", "street": "75-76, Amrit Nagar, NDSE Part-1, New Delhi, Delhi 110003, India", "phone": "+91 11 2465 7828", "rating": "4.2", "review_count": "", "website": "http://www.pcstech.com/", "latitude": 28.574493, "longitude": 77.21901, "maps_url": "https://www.google.com/maps/search/?api=1&query=PCS%20Technology%20Limited&query_place_id=ChIJtfISSl7iDDkRS9HBq7UxCXo"}, {"place_id": "ChIJfbHda17iDDkRdAlcUp0DqeM", "name": "Techno Constructions", "street": "B-19, South Extension I, New Delhi, Delhi 110049, India", "phone": "+91 98112 80191", "rating": "5", "review_count": "", "website": "http://technohomez.com/", "latitude": 28.5731203, "longitude": 77.2192857, "maps_url": "https://www.google.com/maps/search/?api=1&query=Techno%20Constructions&query_place_id=ChIJfbHda17iDDkRdAlcUp0DqeM"}, {"place_id": "ChIJiXht7V7iDDkRj29kc-4S9zw", "name": "Corporate Professionals Capital Private Limited", "street": "D38, South Extension I, Block D, New Delhi, Delhi 110049, India", "phone": "", "rating": "4.3", "review_count": "", "website": "http://www.corporatevaluations.in/", "latitude": 28.572256199999998, "longitude": 77.22110529999999, "maps_url": "https://www.google.com/maps/search/?api=1&query=Corporate%20Professionals%20Capital%20Private%20Limited&query_place_id=ChIJiXht7V7iDDkRj29kc-4S9zw"}, {"place_id": "ChIJnSs9bl_iDDkRm_Ull_yg81c", "name": "YATRA POINT TOURISM COMPANY INDIA", "street": "OFFICE NO-7, BULDING NO N-1, LGF, 4, near BANSALI JEWLLERS L, South Extension I, New Delhi, Delhi 110003, India", "phone": "+91 88600 16982", "rating": "4.9", "review_count": "", "website": "", "latitude": 28.574078, "longitude": 77.219089, "maps_url": "https://www.google.com/maps/search/?api=1&query=YATRA%20POINT%20TOURISM%20COMPANY%20INDIA&query_place_id=ChIJnSs9bl_iDDkRm_Ull_yg81c"}, {"place_id": "ChIJoQn2fl3iDDkRp_AUFrSLftw", "name": "AmazDraw Services PVT. LTD.", "street": "", "phone": "+91 85958 61648", "rating": "5", "review_count": "", "website": "https://amazdraw.com/", "latitude": 21.0680074, "longitude": 82.7525294, "maps_url": "https://www.google.com/maps/search/?api=1&query=AmazDraw%20Services%20PVT.%20LTD.&query_place_id=ChIJoQn2fl3iDDkRp_AUFrSLftw"}, {"place_id": "ChIJ_0AZnc3jDDkRLdzryjf8VDo", "name": "BizInnovision Pvt Ltd", "street": "A3, Upper Ground Floor, South Extension I, Block A, New Delhi, Delhi 110003, India", "phone": "+91 98103 66099", "rating": "4.9", "review_count": "", "website": "https://bizinnovision.com/", "latitude": 28.572141499999997, "longitude": 77.21807249999999, "maps_url": "https://www.google.com/maps/search/?api=1&query=BizInnovision%20Pvt%20Ltd&query_place_id=ChIJ_0AZnc3jDDkRLdzryjf8VDo"}, {"place_id": "ChIJ33NB7__jDDkR9vbUSyTF5m8", "name": "Eytick", "street": "Kotla Mubarakpur, Sewa Nagar, New Delhi, Delhi 110003, India", "phone": "", "rating": "5", "review_count": "", "website": "https://www.eytick.com/", "latitude": 28.575577199999998, "longitude": 77.2273546, "maps_url": "https://www.google.com/maps/search/?api=1&query=Eytick&query_place_id=ChIJ33NB7__jDDkR9vbUSyTF5m8"}, {"place_id": "ChIJXc_8A57jDDkRA7Hn-SNhoGw", "name": "MNB DIGITAL SOLUTIONS PVT LTD.", "street": "Ground Floor, gyani bazar, 1798-b, prasadi gali, Kotla Mubarakpur, Sewa Nagar, New Delhi, Delhi 110003, India", "phone": "+91 98106 02364", "rating": "5", "review_count": "", "website": "http://mnbdigitalsolution.com/", "latitude": 28.5755771, "longitude": 77.2273541, "maps_url": "https://www.google.com/maps/search/?api=1&query=MNB%20DIGITAL%20SOLUTIONS%20PVT%20LTD.&query_place_id=ChIJXc_8A57jDDkRA7Hn-SNhoGw"}, {"place_id": "ChIJgbNBg-vjDDkRIzCQsaeSJeU", "name": "A2Z Cyber Solution", "street": "1804/5, PRASADI GALI, South Extension I, Zafar Nagar, Kotla Mubarakpur, New Delhi, Delhi 110003, India", "phone": "+91 85060 92483", "rating": "5", "review_count": "", "website": "", "latitude": 28.572293, "longitude": 77.2230268, "maps_url": "https://www.google.com/maps/search/?api=1&query=A2Z%20Cyber%20Solution&query_place_id=ChIJgbNBg-vjDDkRIzCQsaeSJeU"}, {"place_id": "ChIJ435gaFniDDkRnAYG9W-FaPQ", "name": "Rural Script", "street": "702/2, South Extension I, Mahaveer Nagar, Kotla Mubarakpur, New Delhi, Delhi 110003, India", "phone": "+91 98108 92212", "rating": "5", "review_count": "", "website": "", "latitude": 28.573086399999998, "longitude": 77.22425419999999, "maps_url": "https://www.google.com/maps/search/?api=1&query=Rural%20Script&query_place_id=ChIJ435gaFniDDkRnAYG9W-FaPQ"}, {"place_id": "ChIJ1WUMPK3jDDkRKlevdnKZIoI", "name": "WimsTech", "street": "Ground Floor, 1899-A, near Bengali Sweets, South Extension I, Kotla Mubarak put, New Delhi, Delhi 110003, India", "phone": "+91 82872 38845", "rating": "4.1", "review_count": "", "website": "", "latitude": 28.5743948, "longitude": 77.2205079, "maps_url": "https://www.google.com/maps/search/?api=1&query=WimsTech&query_place_id=ChIJ1WUMPK3jDDkRKlevdnKZIoI"}, {"place_id": "ChIJlxgK8E7jDDkROtLH2f-kU9Q", "name": "Cyberelite Task Force", "street": "First Floor, Pilanji, 2028/24, Pilanji, Block E, Kotla Mubarakpur, Kidwai Nagar, New Delhi, Delhi 110023, India", "phone": "+91 79820 11271", "rating": "5", "review_count": "", "website": "http://cetf.org.in/", "latitude": 28.574479399999998, "longitude": 77.21800329999999, "maps_url": "https://www.google.com/maps/search/?api=1&query=Cyberelite%20Task%20Force&query_place_id=ChIJlxgK8E7jDDkROtLH2f-kU9Q"}, {"place_id": "ChIJEfKWl1zjDDkRh97Ve2prlA8", "name": "Mooze Tech Private Limited", "street": "S/F, Masjid Moth, 209/30, South Extension II, Masjid Moth Village, New Delhi, Delhi 110049, India", "phone": "+91 2143 299 690", "rating": "5", "review_count": "", "website": "https://www.moozetech.com/", "latitude": 28.5634527, "longitude": 77.2200486, "maps_url": "https://www.google.com/maps/search/?api=1&query=Mooze%20Tech%20Private%20Limited&query_place_id=ChIJEfKWl1zjDDkRh97Ve2prlA8"}, {"place_id": "ChIJtdPZsl7iDDkR12FI86DpHjQ", "name": "GLOBAL TECH INSTITUTE OF MANAGEMENT", "street": "1798a 3rd Floor, Gyani Bazar Kotla Mubarak Pur, South Extension, Part 1, New Delhi, Delhi 110003, India", "phone": "+91 95996 06497", "rating": "4.6", "review_count": "", "website": "https://www.gtim.edu.in/", "latitude": 28.572997899999997, "longitude": 77.22158619999999, "maps_url": "https://www.google.com/maps/search/?api=1&query=GLOBAL%20TECH%20INSTITUTE%20OF%20MANAGEMENT&query_place_id=ChIJtdPZsl7iDDkR12FI86DpHjQ"}, {"place_id": "ChIJHQIAbVjjDDkR_0s7zeanTC8", "name": "DUCAT - South Extension", "street": "D 27, South Extension I, Block D, New Delhi, Delhi 110049, India", "phone": "+91 98998 66334", "rating": "4.4", "review_count": "", "website": "https://www.ducatindia.com/", "latitude": 28.5721141, "longitude": 77.2201667, "maps_url": "https://www.google.com/maps/search/?api=1&query=DUCAT%20-%20South%20Extension&query_place_id=ChIJHQIAbVjjDDkR_0s7zeanTC8"}, {"place_id": "ChIJZc8LyV_iDDkRlyfCCTJoOfo", "name": "CREATION TECHNICS INDIA PRIVATE LIMITED", "street": "D-47, South Extension, Block D, New Delhi, Delhi 110049, India", "phone": "+91 85277 07222", "rating": "3.4", "review_count": "", "website": "https://www.decadeofdesign.com/", "latitude": 28.572830099999997, "longitude": 77.220911, "maps_url": "https://www.google.com/maps/search/?api=1&query=CREATION%20TECHNICS%20INDIA%20PRIVATE%20LIMITED&query_place_id=ChIJZc8LyV_iDDkRlyfCCTJoOfo"}, {"place_id": "ChIJ1656XXrjDDkRG3ymJVTGQSE", "name": "Online Narender | Digital Marketing Consultant Service and Virtual Assistance", "street": "791/5/1 Ground Floor, near South Extension I, Sukhdev Nagar, Arjun Nagar, Kotla Mubarakpur, New Delhi, Delhi 110003, India", "phone": "", "rating": "5", "review_count": "", "website": "", "latitude": 28.5747079, "longitude": 77.227374, "maps_url": "https://www.google.com/maps/search/?api=1&query=Online%20Narender%20%7C%20Digital%20Marketing%20Consultant%20Service%20and%20Virtual%20Assistance&query_place_id=ChIJ1656XXrjDDkRG3ymJVTGQSE"}, {"place_id": "ChIJIUgod1niDDkR5g32bUzjoHE", "name": "Goyal Trading Co", "street": "1466, Gurudwara Rd, Main Market, Mahaveer Nagar, Kotla Mubarakpur, New Delhi, Delhi 110003, India", "phone": "+91 95993 06642", "rating": "4.2", "review_count": "", "website": "", "latitude": 28.572097099999997, "longitude": 77.2251383, "maps_url": "https://www.google.com/maps/search/?api=1&query=Goyal%20Trading%20Co&query_place_id=ChIJIUgod1niDDkR5g32bUzjoHE"}, {"place_id": "ChIJS7a9-0rjDDkRcopiF5Vdv8U", "name": "Tennexo Import Export Pvt. Ltd.", "street": "3rd Floor, Shanti Bhawan, 1812A, Uday Chand Marg, South Extension I, Zafar Nagar, Kotla Mubarakpur, New Delhi, Delhi 110003, India", "phone": "+91 80763 85425", "rating": "4.9", "review_count": "", "website": "https://tennexo.com/", "latitude": 28.5721106, "longitude": 77.2220581, "maps_url": "https://www.google.com/maps/search/?api=1&query=Tennexo%20Import%20Export%20Pvt.%20Ltd.&query_place_id=ChIJS7a9-0rjDDkRcopiF5Vdv8U"}, {"place_id": "ChIJH3DrHlriDDkRQgjsfBu4Hwc", "name": "Shooting Solutions", "street": "Bhishma Pitamah Marg, South Extension I, Arjun Nagar, Kotla Mubarakpur, New Delhi, Delhi 110003, India", "phone": "+91 98108 81242", "rating": "4.3", "review_count": "", "website": "", "latitude": 28.5722991, "longitude": 77.2273859, "maps_url": "https://www.google.com/maps/search/?api=1&query=Shooting%20Solutions&query_place_id=ChIJH3DrHlriDDkRQgjsfBu4Hwc"}, {"place_id": "ChIJq6rqHF3iDDkRcd2NISwdq6w", "name": "Sangee Communications Pvt Limited", "street": "South Extension I, New Delhi, Delhi 110003, India", "phone": "+91 11 4059 1285", "rating": "3.8", "review_count": "", "website": "", "latitude": 28.5741603, "longitude": 77.21906779999999, "maps_url": "https://www.google.com/maps/search/?api=1&query=Sangee%20Communications%20Pvt%20Limited&query_place_id=ChIJq6rqHF3iDDkRcd2NISwdq6w"}, {"place_id": "ChIJKVhFG_njDDkRgI-hMTN-QYI", "name": "Daksh Printing Solutions", "street": "Ground Floor, Add. : 1819, 3, Sher Singh Marg, Kotla Mubarakpur, New Delhi, Delhi 110003, India", "phone": "+91 83683 05397", "rating": "5", "review_count": "", "website": "http://dakshprintingsolutions.com/", "latitude": 28.573787099999997, "longitude": 77.2209707, "maps_url": "https://www.google.com/maps/search/?api=1&query=Daksh%20Printing%20Solutions&query_place_id=ChIJKVhFG_njDDkRgI-hMTN-QYI"}, {"place_id": "ChIJBwhrHdPnDDkRn7NN-SkJZb8", "name": "UPBITE", "street": "D-37, Uday Chand Marg, near Union bank of India, South Extension I, Block D, New Delhi, Delhi 110049, India", "phone": "+91 93108 76121", "rating": "5", "review_count": "", "website": "", "latitude": 28.5731722, "longitude": 77.221254, "maps_url": "https://www.google.com/maps/search/?api=1&query=UPBITE&query_place_id=ChIJBwhrHdPnDDkRn7NN-SkJZb8"}, {"place_id": "ChIJdQgXb17iDDkR5adLJXUrHPE", "name": "Sigma Research and Consulting Pvt Ltd", "street": "First Floor, C- 23, South Extension I, New Delhi, Delhi 110049, India", "phone": "", "rating": "4.4", "review_count": "", "website": "http://www.sigma-india.in/", "latitude": 28.572902799999998, "longitude": 77.21957309999999, "maps_url": "https://www.google.com/maps/search/?api=1&query=Sigma%20Research%20and%20Consulting%20Pvt%20Ltd&query_place_id=ChIJdQgXb17iDDkR5adLJXUrHPE"}, {"place_id": "ChIJT4UWbgDjDDkRqnbMoprngFA", "name": "Alcove Business Centre", "street": "A-16, South Extension I, Block A, New Delhi, Delhi 110003, India", "phone": "+91 70309 19103", "rating": "5", "review_count": "", "website": "", "latitude": 28.5731471, "longitude": 77.2186675, "maps_url": "https://www.google.com/maps/search/?api=1&query=Alcove%20Business%20Centre&query_place_id=ChIJT4UWbgDjDDkRqnbMoprngFA"}, {"place_id": "ChIJp49ihIXjDDkRzmwE8r6TA-Y", "name": "EMKAY TRADING CO.", "street": "A-46, South Extension I, Bapu Park, Kotla Mubarakpur, New Delhi, Delhi 110003, India", "phone": "", "rating": "4.3", "review_count": "", "website": "", "latitude": 28.5750176, "longitude": 77.2209108, "maps_url": "https://www.google.com/maps/search/?api=1&query=EMKAY%20TRADING%20CO.&query_place_id=ChIJp49ihIXjDDkRzmwE8r6TA-Y"}, {"place_id": "ChIJjU03f2sMvIkRvpaGyZC0WZA", "name": "ArtsByPraveen - Web Design And Development Services", "street": "", "phone": "", "rating": "5", "review_count": "", "website": "https://www.artsbypraveen.in/", "latitude": 27.8083846, "longitude": 78.9466908, "maps_url": "https://www.google.com/maps/search/?api=1&query=ArtsByPraveen%20-%20Web%20Design%20And%20Development%20Services&query_place_id=ChIJjU03f2sMvIkRvpaGyZC0WZA"}, {"place_id": "ChIJ5bE4NCDuDDkRctZjtz0eXPI", "name": "WEBCOM Training", "street": "Part -1, C-23, South Extension, Amrit Nagar, New Delhi, Delhi 110049, India", "phone": "+91 92509 28431", "rating": "3.9", "review_count": "", "website": "https://saptraining.co.in/in/sap-training-in-delhi/", "latitude": 28.5729583, "longitude": 77.21958529999999, "maps_url": "https://www.google.com/maps/search/?api=1&query=WEBCOM%20Training&query_place_id=ChIJ5bE4NCDuDDkRctZjtz0eXPI"}, {"place_id": "ChIJkysewbjjDDkRg2Rca2SwWNc", "name": "NCRTC", "street": "GatiShakti Bhawan, INA Type A Quarters, INA, New Delhi, Delhi 110023, India", "phone": "+91 11 2466 6700", "rating": "4.5", "review_count": "", "website": "https://www.ncrtc.in/", "latitude": 28.576932499999998, "longitude": 77.2133825, "maps_url": "https://www.google.com/maps/search/?api=1&query=NCRTC&query_place_id=ChIJkysewbjjDDkRg2Rca2SwWNc"}, {"place_id": "ChIJp8bFql3iDDkRxH_07xofJWI", "name": "Nitin Mittal & Co.", "street": "C 21b, South Extension I, Block C, New Delhi, Delhi 110049, India", "phone": "+91 98101 47514", "rating": "4.7", "review_count": "", "website": "http://nmcindia.net/", "latitude": 28.572980899999997, "longitude": 77.2193036, "maps_url": "https://www.google.com/maps/search/?api=1&query=Nitin%20Mittal%20%26%20Co.&query_place_id=ChIJp8bFql3iDDkRxH_07xofJWI"}, {"place_id": "ChIJFWX9oF3iDDkRdA9_6HgbPiU", "name": "U & I Lockers", "street": "F-41, Ring Rd, South Extension I, New Delhi, Delhi 110003, India", "phone": "+91 98100 23589", "rating": "4.1", "review_count": "", "website": "https://uandigroup.net/", "latitude": 28.574219499999998, "longitude": 77.2207882, "maps_url": "https://www.google.com/maps/search/?api=1&query=U%20%26%20I%20Lockers&query_place_id=ChIJFWX9oF3iDDkRdA9_6HgbPiU"}, {"place_id": "ChIJX_D1pVniDDkRCYtf_LqePaY", "name": "Alfa Electronics", "street": "K-53, Gurudwara Rd, near Gurudwara, South Extension I, Mahaveer Nagar, Kotla Mubarakpur, Delhi, New Delhi, Delhi 110003, India", "phone": "+91 93122 24726", "rating": "4.1", "review_count": "", "website": "", "latitude": 28.574959, "longitude": 77.226721, "maps_url": "https://www.google.com/maps/search/?api=1&query=Alfa%20Electronics&query_place_id=ChIJX_D1pVniDDkRCYtf_LqePaY"}, {"place_id": "ChIJ0RbRgQvjDDkRZTWdZ_yqYr0", "name": "NSA Buildtech Private Limited", "street": "Ground Flooor, D-38, South Extension I, Block D, New Delhi, Delhi 110049, India", "phone": "+91 11 4059 2467", "rating": "4.8", "review_count": "", "website": "http://www.nsabuildtech.com/", "latitude": 28.5721964, "longitude": 77.2212378, "maps_url": "https://www.google.com/maps/search/?api=1&query=NSA%20Buildtech%20Private%20Limited&query_place_id=ChIJ0RbRgQvjDDkRZTWdZ_yqYr0"}, {"place_id": "ChIJM5BPiWrjDDkRsedQVpGJdks", "name": "AZ INFINITY", "street": "1st Floor, H6FG+4PW, 943, Nehru Rd, South Extension I, Arjun Nagar, Kotla Mubarakpur, New Delhi, Delhi 110003, India", "phone": "+91 11 4301 5954", "rating": "4.7", "review_count": "", "website": "http://www.azinfinity.in/", "latitude": 28.572948399999998, "longitude": 77.2268299, "maps_url": "https://www.google.com/maps/search/?api=1&query=AZ%20INFINITY&query_place_id=ChIJM5BPiWrjDDkRsedQVpGJdks"}, {"place_id": "ChIJOZgxcqbjDDkREzh3hsNAPio", "name": "ARUN AUTOMATION", "street": "2nd Floor, DSIDC Complex, 73&74, near Bapu Park, South Extension I, Bapu Park, Kotla Mubarakpur, New Delhi, Delhi 110003, India", "phone": "+91 85878 70939", "rating": "5", "review_count": "", "website": "https://arunautomation.com/?utm_source=gmb&utm_medium=organic&utm_campaign=local", "latitude": 28.5752584, "longitude": 77.22363399999999, "maps_url": "https://www.google.com/maps/search/?api=1&query=ARUN%20AUTOMATION&query_place_id=ChIJOZgxcqbjDDkREzh3hsNAPio"}, {"place_id": "ChIJ90v3YyfjDDkRM9Iegasigyg", "name": "Computer Repair Hub", "street": "", "phone": "+91 98116 12976", "rating": "4.9", "review_count": "", "website": "", "latitude": 28.5314385, "longitude": 77.20898509999999, "maps_url": "https://www.google.com/maps/search/?api=1&query=Computer%20Repair%20Hub&query_place_id=ChIJ90v3YyfjDDkRM9Iegasigyg"}, {"place_id": "ChIJf3X-hRzjDDkRliCA-1XMPFY", "name": "Upyogi Invisible grill - Invisible Grill in Delhi and Noida , Invisible Grill in Gurugram and Greater Noida", "street": "1665 A, Prasadi Gali, South Extension I, Mahaveer Nagar, Kotla Mubarakpur, New Delhi, Delhi 110003, India", "phone": "+91 93548 63119", "rating": "4.9", "review_count": "", "website": "", "latitude": 28.572470499999998, "longitude": 77.2230912, "maps_url": "https://www.google.com/maps/search/?api=1&query=Upyogi%20Invisible%20grill%20-%20Invisible%20Grill%20in%20Delhi%20and%20Noida%20%2C%20Invisible%20Grill%20in%20Gurugram%20and%20Greater%20Noida&query_place_id=ChIJf3X-hRzjDDkRliCA-1XMPFY"}, {"place_id": "ChIJuU0cho7jDDkRQSC_i1MTshg", "name": "Corporate Gift by What A Shop - Corporate Gift Company in Delhi | Pharma & Events gift | Employee Joining Kit | Diwali Gifts", "street": "826, South Extension I, Arjun Nagar, Kotla Mubarakpur, New Delhi, Delhi 110003, India", "phone": "+91 99904 06003", "rating": "5", "review_count": "", "website": "https://www.whatashop.in/", "latitude": 28.5730045, "longitude": 77.2274676, "maps_url": "https://www.google.com/maps/search/?api=1&query=Corporate%20Gift%20by%20What%20A%20Shop%20-%20Corporate%20Gift%20Company%20in%20Delhi%20%7C%20Pharma%20%26%20Events%20gift%20%7C%20Employee%20Joining%20Kit%20%7C%20Diwali%20Gifts&query_place_id=ChIJuU0cho7jDDkRQSC_i1MTshg"}, {"place_id": "ChIJ74NUvF7iDDkRcSiHYje_h6Y", "name": "Khandelwal Luggage", "street": "489, Gurudwara Rd, South Extension I, Shiv Nagar, Kotla Mubarakpur, New Delhi, Delhi 110003, India", "phone": "+91 85859 09018", "rating": "3.6", "review_count": "", "website": "", "latitude": 28.5739883, "longitude": 77.2261128, "maps_url": "https://www.google.com/maps/search/?api=1&query=Khandelwal%20Luggage&query_place_id=ChIJ74NUvF7iDDkRcSiHYje_h6Y"}, {"place_id": "ChIJX1qAeFniDDkR9dl6EfrDbc8", "name": "Aashi Cyber Cafe", "street": "Shop No 2, A-953, Nehru Rd, South Extension I, Arjun Nagar, Wazir Nagar, New Delhi, Delhi 110003, India", "phone": "+91 93503 19877", "rating": "3.8", "review_count": "", "website": "", "latitude": 28.573019199999997, "longitude": 77.22609849999999, "maps_url": "https://www.google.com/maps/search/?api=1&query=Aashi%20Cyber%20Cafe&query_place_id=ChIJX1qAeFniDDkR9dl6EfrDbc8"}, {"place_id": "ChIJ017lYPPjDDkR9YiHkk1fyi4", "name": "Rachitan Online Services", "street": "F-465, Krishna Gali, South Extension I, Shiv Nagar, Kotla Mubarakpur, New Delhi, Delhi 110003, India", "phone": "+91 92116 86450", "rating": "5", "review_count": "", "website": "https://sites.google.com/view/rachitanonlineservices/home", "latitude": 28.574238599999997, "longitude": 77.22525259999999, "maps_url": "https://www.google.com/maps/search/?api=1&query=Rachitan%20Online%20Services&query_place_id=ChIJ017lYPPjDDkR9YiHkk1fyi4"}, {"place_id": "ChIJD8gt-LPjDDkRyllrr_iGODg", "name": "Innovant Design", "street": "C-16 Basement Floor, South Extension I, New Delhi, Delhi 110049, India", "phone": "+91 99998 78878", "rating": "5", "review_count": "", "website": "http://facebook.com/innovantDesign", "latitude": 28.573272499999998, "longitude": 77.21910729999999, "maps_url": "https://www.google.com/maps/search/?api=1&query=Innovant%20Design&query_place_id=ChIJD8gt-LPjDDkRyllrr_iGODg"}, {"place_id": "ChIJfzJrLiDjDDkRoFakBxfpKu4", "name": "Baisoya Tempo Service", "street": "494 Kherpur, Gurudwara Rd, South Extension I, Shiv Nagar, Kotla Mubarakpur, New Delhi, Delhi 110003, India", "phone": "+91 99901 16005", "rating": "4.8", "review_count": "", "website": "https://baisoyatemposervice.in/", "latitude": 28.5731218, "longitude": 77.2256957, "maps_url": "https://www.google.com/maps/search/?api=1&query=Baisoya%20Tempo%20Service&query_place_id=ChIJfzJrLiDjDDkRoFakBxfpKu4"}, {"place_id": "ChIJjTYqoifjDDkRDAf8KcN7zOU", "name": "Shri Ram Enterprises:- Cctv Camera Installation Service | Wifi Camera Installation Service", "street": "S-229, South Extension I, Aliganj, Kotla Mubarakpur, Delhi, New Delhi, Delhi 110003, India", "phone": "+91 98996 77116", "rating": "4.9", "review_count": "", "website": "https://cctv-camera.in/kabeer-jk-cctv-camera/", "latitude": 28.576436899999997, "longitude": 77.2218001, "maps_url": "https://www.google.com/maps/search/?api=1&query=Shri%20Ram%20Enterprises%3A-%20Cctv%20Camera%20Installation%20Service%20%7C%20Wifi%20Camera%20Installation%20Service&query_place_id=ChIJjTYqoifjDDkRDAf8KcN7zOU"}, {"place_id": "ChIJIdY7ZV7iDDkR7i_THBssBXQ", "name": "India Law Offices LLP", "street": "D-31, South Extension I, Block D, New Delhi, Delhi 110049, India", "phone": "+91 11 2462 2216", "rating": "4.3", "review_count": "", "website": "https://www.indialawoffices.com/", "latitude": 28.572082899999998, "longitude": 77.2203493, "maps_url": "https://www.google.com/maps/search/?api=1&query=India%20Law%20Offices%20LLP&query_place_id=ChIJIdY7ZV7iDDkR7i_THBssBXQ"}, {"place_id": "ChIJDVmIOQDjDDkRy-Xgl5inDC0", "name": "R C Technology", "street": "H6FF+RVJ, Subhash Bazar, Shiv Nagar, Kotla Mubarakpur, New Delhi, Delhi 110003, India", "phone": "", "rating": "", "review_count": "", "website": "", "latitude": 28.574579, "longitude": 77.2246432, "maps_url": "https://www.google.com/maps/search/?api=1&query=R%20C%20Technology&query_place_id=ChIJDVmIOQDjDDkRy-Xgl5inDC0"}, {"place_id": "ChIJCQiVlEgXi0cR3lSf1TJJwho", "name": "Cinemac Animations", "street": "M-5 Basement, South Extension II, Zafar Nagar, Kotla Mubarakpur, New Delhi, Delhi 110003, India", "phone": "+91 85100 46004", "rating": "3.3", "review_count": "", "website": "https://cinemacanimations.com/", "latitude": 28.5731725, "longitude": 77.2226684, "maps_url": "https://www.google.com/maps/search/?api=1&query=Cinemac%20Animations&query_place_id=ChIJCQiVlEgXi0cR3lSf1TJJwho"}, {"place_id": "ChIJK_ko2V3jDDkRIIOC00SULBI", "name": "maid placement agency Baby sitter", "street": "3rd, Pillanji, 2034B/3, South Extension I, Kotla Mubarakpur, New Delhi, Delhi 110003, India", "phone": "+91 99716 91558", "rating": "4.5", "review_count": "", "website": "https://www.babysitterdelhi.in/", "latitude": 28.575279899999998, "longitude": 77.2186834, "maps_url": "https://www.google.com/maps/search/?api=1&query=maid%20placement%20agency%20Baby%20sitter&query_place_id=ChIJK_ko2V3jDDkRIIOC00SULBI"}, {"place_id": "ChIJ2-yDJQ_jDDkR6MNHIr_s718", "name": "Interioz Solutions", "street": "C, 28, South Extension, PART_1, New Delhi, Delhi 110003, India", "phone": "+91 99997 99673", "rating": "5", "review_count": "", "website": "https://interiozsolutions.com/", "latitude": 28.573739399999997, "longitude": 77.21990199999999, "maps_url": "https://www.google.com/maps/search/?api=1&query=Interioz%20Solutions&query_place_id=ChIJ2-yDJQ_jDDkR6MNHIr_s718"}, {"place_id": "ChIJdz9dNRfjDDkR6Xjp_EoB-qU", "name": "universal high care pest management services", "street": "shop no.1088, D1, Gurudwara Rd, South Extension I, Mahaveer Nagar, Bhola Nagar, Mehrauli, New Delhi, Delhi 110003, India", "phone": "+91 83840 45553", "rating": "4.7", "review_count": "", "website": "http://www.universalhighcare.in/", "latitude": 28.572507599999998, "longitude": 77.2254308, "maps_url": "https://www.google.com/maps/search/?api=1&query=universal%20high%20care%20pest%20management%20services&query_place_id=ChIJdz9dNRfjDDkR6Xjp_EoB-qU"}, {"place_id": "ChIJ0WlOTAbhDDkR1VnDj9o0-Qc", "name": "GANGA CYLINDER TESTING CO.", "street": "F 59 FIRST, LOCAL SHOPING COMPLEX, Pilanji, Block E, East Kidwai Nagar, Kidwai Nagar, New Delhi, Delhi 110023, India", "phone": "+91 98108 81128", "rating": "4.6", "review_count": "", "website": "http://www.gangahydrotesting.com/", "latitude": 28.5736992, "longitude": 77.2167486, "maps_url": "https://www.google.com/maps/search/?api=1&query=GANGA%20CYLINDER%20TESTING%20CO.&query_place_id=ChIJ0WlOTAbhDDkR1VnDj9o0-Qc"}, {"place_id": "ChIJ3RUEOOHjDDkROFd5I-wsprE", "name": "TGC India | Graphic Design Course in Delhi | Graphic design Institute in Delhi | UI UX Course in delhi", "street": "G, 5, above Metro gate no 2, South Extension I, Mahaveer Nagar, Bhola Nagar, New Delhi, Delhi 110003, India", "phone": "+91 95827 86407", "rating": "5", "review_count": "", "website": "https://www.tgcindia.com/", "latitude": 28.573041399999997, "longitude": 77.2245257, "maps_url": "https://www.google.com/maps/search/?api=1&query=TGC%20India%20%7C%20Graphic%20Design%20Course%20in%20Delhi%20%7C%20Graphic%20design%20Institute%20in%20Delhi%20%7C%20UI%20UX%20Course%20in%20delhi&query_place_id=ChIJ3RUEOOHjDDkROFd5I-wsprE"}, {"place_id": "ChIJcQWHt2HiDDkRHG18zz3XZ5I", "name": "DDA Vikas Sadan", "street": "H6G7+2CP, Barapullah Rd, beside SBI Bank, Aviation Colony, INA Colony, New Delhi, Delhi 110023, India", "phone": "+91 11 2469 0431", "rating": "3.8", "review_count": "", "website": "https://www.dda.org.in/", "latitude": 28.5750849, "longitude": 77.2135928, "maps_url": "https://www.google.com/maps/search/?api=1&query=DDA%20Vikas%20Sadan&query_place_id=ChIJcQWHt2HiDDkRHG18zz3XZ5I"}, {"place_id": "ChIJ-0jIbWXjDDkRWx9qAzO-auk", "name": "Forever living product india", "street": "H6GH+327, South Extension I, Arjun Nagar, Kotla Mubarakpur, New Delhi, Delhi 110003, India", "phone": "", "rating": "4.2", "review_count": "", "website": "", "latitude": 28.575172799999997, "longitude": 77.2275343, "maps_url": "https://www.google.com/maps/search/?api=1&query=Forever%20living%20product%20india&query_place_id=ChIJ-0jIbWXjDDkRWx9qAzO-auk"}, {"place_id": "ChIJ8WmnaCPjDDkRkWgBEaOyMcQ", "name": "Gift box manufacture", "street": "1801, prasadi gali, South Extension I, Zafar Nagar, Kotla Mubarakpur, New Delhi, Delhi 110003, India", "phone": "+91 81302 62757", "rating": "4.9", "review_count": "", "website": "", "latitude": 28.5727436, "longitude": 77.2215653, "maps_url": "https://www.google.com/maps/search/?api=1&query=Gift%20box%20manufacture&query_place_id=ChIJ8WmnaCPjDDkRkWgBEaOyMcQ"}, {"place_id": "ChIJp2T6dlniDDkRlYJMYi-d7IA", "name": "City Electronics", "street": "939, Gurudwara Rd, South Extension I, Arjun Nagar, Kotla Mubarakpur, New Delhi, Delhi 110003, India", "phone": "+91 98111 08726", "rating": "3.6", "review_count": "", "website": "", "latitude": 28.573535999999997, "longitude": 77.2260093, "maps_url": "https://www.google.com/maps/search/?api=1&query=City%20Electronics&query_place_id=ChIJp2T6dlniDDkRlYJMYi-d7IA"}, {"place_id": "ChIJb5YEIsDjDDkRwlSEiuh5n9Y", "name": "The High Beat (DJ)", "street": "C-57, Shiv Gali, South Extension I, Kotla Mubarakpur, NCB, New Delhi, Delhi 110003, India", "phone": "+91 99996 59339", "rating": "5", "review_count": "", "website": "", "latitude": 28.572527299999997, "longitude": 77.2255653, "maps_url": "https://www.google.com/maps/search/?api=1&query=The%20High%20Beat%20%28DJ%29&query_place_id=ChIJb5YEIsDjDDkRwlSEiuh5n9Y"}, {"place_id": "ChIJB_HhiVniDDkRa9NsRAUJ9Vg", "name": "PSK & ASSOCIATES", "street": "A-948, Nehru Rd, South Extension I, Arjun Nagar, Kotla Mubarakpur, New Delhi, Delhi 110003, India", "phone": "+91 11 4004 0205", "rating": "5", "review_count": "", "website": "", "latitude": 28.5727168, "longitude": 77.2271729, "maps_url": "https://www.google.com/maps/search/?api=1&query=PSK%20%26%20ASSOCIATES&query_place_id=ChIJB_HhiVniDDkRa9NsRAUJ9Vg"}, {"place_id": "ChIJldZnngfjDDkR0On8g-ANEyA", "name": "The Travel Companion", "street": "1st Floor, 11A, opp. DDA Park, Kotla Mubarakpur, New Delhi, Delhi 110003, India", "phone": "+91 98734 62224", "rating": "5", "review_count": "", "website": "http://thetravelcompanion.in/", "latitude": 28.5737095, "longitude": 77.22190429999999, "maps_url": "https://www.google.com/maps/search/?api=1&query=The%20Travel%20Companion&query_place_id=ChIJldZnngfjDDkR0On8g-ANEyA"}, {"place_id": "ChIJ9Ttme2odDTkRAVn87s3D6TQ", "name": "Enzo Prep GMAT | GRE | SAT Coaching in Delhi and Gurgaon", "street": "H-68, 3rd Floor, South Extension I, Zafar Nagar, Kotla Mubarakpur, New Delhi, Delhi 110003, India", "phone": "+91 84484 74648", "rating": "4.8", "review_count": "", "website": "http://enzoprep.com/", "latitude": 28.5733115, "longitude": 77.2220227, "maps_url": "https://www.google.com/maps/search/?api=1&query=Enzo%20Prep%20GMAT%20%7C%20GRE%20%7C%20SAT%20Coaching%20in%20Delhi%20and%20Gurgaon&query_place_id=ChIJ9Ttme2odDTkRAVn87s3D6TQ"}, {"place_id": "ChIJ2Ucarf7lDDkREDdtQ82JQAA", "name": "TV100", "street": "B1-MMTC / STC Colony Local Shopping Complex, Malviya Nagar, Delhi 110017, Noida, Uttar Pradesh 110023, India", "phone": "+91 84478 19571", "rating": "3.9", "review_count": "", "website": "https://www.tv100.news/", "latitude": 28.573229599999998, "longitude": 77.2180051, "maps_url": "https://www.google.com/maps/search/?api=1&query=TV100&query_place_id=ChIJ2Ucarf7lDDkREDdtQ82JQAA"}, {"place_id": "ChIJ_Vz0sVDjDDkRR804MWciOrk", "name": "Ansh Courier and Cargo - Courier Service in Delhi | Kotla Mubarakpur", "street": "A, 944, Nehru Rd, near Maruti Showroom, South Extension I, Arjun Nagar, Kotla Mubarakpur, Delhi, New Delhi, Delhi 110003, India", "phone": "+91 80 6924 5344", "rating": "5", "review_count": "", "website": "https://www.anshcourierandcargo.in/", "latitude": 28.572527599999997, "longitude": 77.2273879, "maps_url": "https://www.google.com/maps/search/?api=1&query=Ansh%20Courier%20and%20Cargo%20-%20Courier%20Service%20in%20Delhi%20%7C%20Kotla%20Mubarakpur&query_place_id=ChIJ_Vz0sVDjDDkRR804MWciOrk"}, {"place_id": "ChIJpZvXGlviDDkRYuHoWBPh29w", "name": "SAB Design Studio", "street": "58, South Extension I, Block A, New Delhi, Delhi 110049, India", "phone": "+91 99991 81886", "rating": "4.5", "review_count": "", "website": "http://www.sabdesignstudio.in/", "latitude": 28.5722173, "longitude": 77.2187635, "maps_url": "https://www.google.com/maps/search/?api=1&query=SAB%20Design%20Studio&query_place_id=ChIJpZvXGlviDDkRYuHoWBPh29w"}, {"place_id": "ChIJZenTpg7jDDkR6w4RevlojL4", "name": "South extension part one", "street": "C-12, near Aakash Medical Institute, South Extension I, Housing Society, New Delhi, Delhi 110049, India", "phone": "+91 99714 31233", "rating": "3.6", "review_count": "", "website": "", "latitude": 28.573154199999998, "longitude": 77.2212555, "maps_url": "https://www.google.com/maps/search/?api=1&query=South%20extension%20part%20one&query_place_id=ChIJZenTpg7jDDkR6w4RevlojL4"}, {"place_id": "ChIJN_hbxdLjDDkRWwlxr7sAek4", "name": "NBCC Tower 7, Type 7", "street": "Flat no 4F, Tower 7, Type 7, Block D, East Kidwai Nagar, Kidwai Nagar, New Delhi, Delhi 110023, India", "phone": "", "rating": "4", "review_count": "", "website": "", "latitude": 28.5722472, "longitude": 77.21522929999999, "maps_url": "https://www.google.com/maps/search/?api=1&query=NBCC%20Tower%207%2C%20Type%207&query_place_id=ChIJN_hbxdLjDDkRWwlxr7sAek4"}, {"place_id": "ChIJOU7d6xzjDDkR2Kj6Umsb1lY", "name": "27 Entertainment", "street": "27, Sewa Nagar, near Defence colony, Kotla Mubarakpur, Sewa Nagar, New Delhi, Delhi 110003, India", "phone": "+91 95993 33808", "rating": "4.7", "review_count": "", "website": "https://27-entertainment.com/", "latitude": 28.577939599999997, "longitude": 77.225245, "maps_url": "https://www.google.com/maps/search/?api=1&query=27%20Entertainment&query_place_id=ChIJOU7d6xzjDDkR2Kj6Umsb1lY"}, {"place_id": "ChIJd-3rnjD9DDkRqwfyvF3k88w", "name": "Active Liquid Level Controls", "street": "1800, near Union Bank of India, South Extension I, Mahaveer Nagar, Kotla Mubarakpur, New Delhi, Delhi 110003, India", "phone": "+91 80 4896 8290", "rating": "2.8", "review_count": "", "website": "https://www.liquidlevel.co.in/home-pumps-automation.html", "latitude": 28.572997899999997, "longitude": 77.22148419999999, "maps_url": "https://www.google.com/maps/search/?api=1&query=Active%20Liquid%20Level%20Controls&query_place_id=ChIJd-3rnjD9DDkRqwfyvF3k88w"}, {"place_id": "ChIJCU-Y-1bjDDkR2SBm4eTZEKg", "name": "Gaon Fresh", "street": "953, Nehru Rd, South Extension, Arjun Nagar, Kotla Mubarakpur, New Delhi, Delhi 110003, India", "phone": "+91 98119 42941", "rating": "5", "review_count": "", "website": "https://gaonfresh.com/", "latitude": 28.572820099999998, "longitude": 77.2265066, "maps_url": "https://www.google.com/maps/search/?api=1&query=Gaon%20Fresh&query_place_id=ChIJCU-Y-1bjDDkR2SBm4eTZEKg"}, {"place_id": "ChIJbWgALP3jDDkRs3KyePnqxog", "name": "SHOBO", "street": "FIRST FLOOR, GIYANI BAZAR, 1798, PRASHADI GALI, South Extension I, Kotla Mubarakpur, New Delhi, Delhi 110049, India", "phone": "", "rating": "4.8", "review_count": "", "website": "https://www.shobo.in/", "latitude": 28.5726406, "longitude": 77.2210717, "maps_url": "https://www.google.com/maps/search/?api=1&query=SHOBO&query_place_id=ChIJbWgALP3jDDkRs3KyePnqxog"}, {"place_id": "ChIJu5Pj3mFFgyER4MI4KxY843o", "name": "KloudIT Global Pvt. Ltd.", "street": "", "phone": "+91 99102 99046", "rating": "", "review_count": "", "website": "https://www.klouditglobal.com/", "latitude": 21.0680074, "longitude": 82.7525294, "maps_url": "https://www.google.com/maps/search/?api=1&query=KloudIT%20Global%20Pvt.%20Ltd.&query_place_id=ChIJu5Pj3mFFgyER4MI4KxY843o"}, {"place_id": "ChIJeyMCVu_dDDkR4mF01a_NZWQ", "name": "T-shirt Printing Hub| Sports wear| Custom Uniform", "street": "5/1, Lodhi Rd, near by sanatan dharm mandir, Aliganj, New Delhi, Delhi 110003, India", "phone": "+91 85954 04762", "rating": "4.7", "review_count": "", "website": "http://www.fishionlab.in/", "latitude": 28.576727199999997, "longitude": 77.22390899999999, "maps_url": "https://www.google.com/maps/search/?api=1&query=T-shirt%20Printing%20Hub%7C%20Sports%20wear%7C%20Custom%20Uniform&query_place_id=ChIJeyMCVu_dDDkR4mF01a_NZWQ"}, {"place_id": "ChIJ2edDIOXiDDkRheF6JNzH9ao", "name": "OneRoofTravel", "street": "2nd Floor, Pillanji, 2028/22, South Extension I, Zafar Nagar, Kotla, New Delhi, Delhi 110003, India", "phone": "+91 88008 05298", "rating": "5", "review_count": "", "website": "http://onerooftravel.com/", "latitude": 28.573435399999997, "longitude": 77.22188249999999, "maps_url": "https://www.google.com/maps/search/?api=1&query=OneRoofTravel&query_place_id=ChIJ2edDIOXiDDkRheF6JNzH9ao"}, {"place_id": "ChIJuSUyqZ6XEwARYqv00gBJC2A", "name": "Jai Enterprises | Maid Services | Baby Seater | Patient Care | Nanny Service | Japa Maid | Cook Service | Elderly Care", "street": "Ground Floor, 2045, B/P, Pillanji Village, Kotla Mubarakpur, New Delhi, Delhi 110003, India", "phone": "+91 98109 48448", "rating": "3.8", "review_count": "", "website": "https://jaienterprisesmaidservice.com/", "latitude": 28.576255999999997, "longitude": 77.2201169, "maps_url": "https://www.google.com/maps/search/?api=1&query=Jai%20Enterprises%20%7C%20Maid%20Services%20%7C%20Baby%20Seater%20%7C%20Patient%20Care%20%7C%20Nanny%20Service%20%7C%20Japa%20Maid%20%7C%20Cook%20Service%20%7C%20Elderly%20Care&query_place_id=ChIJuSUyqZ6XEwARYqv00gBJC2A"}, {"place_id": "ChIJwffNbgDjDDkR1nMLeySmH4g", "name": "RAJPRIT PHARMA", "street": "Shop 17, LGF, near South Extension Part 1, South Extension I, Sher Singh Bazar, KMP, New Delhi, Delhi 110003, India", "phone": "+91 93501 76294", "rating": "4.9", "review_count": "", "website": "https://rajpritpharma.com/", "latitude": 28.5735279, "longitude": 77.22206419999999, "maps_url": "https://www.google.com/maps/search/?api=1&query=RAJPRIT%20PHARMA&query_place_id=ChIJwffNbgDjDDkR1nMLeySmH4g"}, {"place_id": "ChIJ3YHcFn7iDDkRkGyCO0-AhgA", "name": "Central Vigilance Commission", "street": "A-Block, GPO Complex, Satarkata Bhavan, INA, New Delhi, Delhi 110023, India", "phone": "+91 11 2465 1020", "rating": "4", "review_count": "", "website": "https://cvc.gov.in/", "latitude": 28.5741943, "longitude": 77.215153, "maps_url": "https://www.google.com/maps/search/?api=1&query=Central%20Vigilance%20Commission&query_place_id=ChIJ3YHcFn7iDDkRkGyCO0-AhgA"}, {"place_id": "ChIJdVXgNtLjDDkRyA47WVnxjh0", "name": "Chaitram Cators", "street": "Wz-57, Krishna Gali, South Extension I, Shiv Nagar, Kotla Mubarakpur, New Delhi, Delhi 110003, India", "phone": "+91 98737 84975", "rating": "4", "review_count": "", "website": "", "latitude": 28.574478, "longitude": 77.2260433, "maps_url": "https://www.google.com/maps/search/?api=1&query=Chaitram%20Cators&query_place_id=ChIJdVXgNtLjDDkRyA47WVnxjh0"}, {"place_id": "ChIJK_jz_OHjDDkR6IFH0d3Jhxo", "name": "CREATIVE PRINT ARTS", "street": "2nd Floor, Gyani Bazar, 1810/1, opposite DDA Park, South Extension I, Zafar Nagar, Kotla Mubarakpur, New Delhi, Delhi 110003, India", "phone": "+91 98710 81398", "rating": "4.9", "review_count": "", "website": "https://creativeprintarts.com/", "latitude": 28.573366099999998, "longitude": 77.2214377, "maps_url": "https://www.google.com/maps/search/?api=1&query=CREATIVE%20PRINT%20ARTS&query_place_id=ChIJK_jz_OHjDDkR6IFH0d3Jhxo"}, {"place_id": "ChIJBfeTvW7jDDkRIucJGBv-Ew0", "name": "LUXURIA Cosmetics", "street": "30422, South Extension, Zafar Nagar, Kotla Mubarakpur, New Delhi, Delhi 110003, India", "phone": "", "rating": "5", "review_count": "", "website": "https://luxuriahaircare.com/", "latitude": 28.573605599999997, "longitude": 77.22140379999999, "maps_url": "https://www.google.com/maps/search/?api=1&query=LUXURIA%20Cosmetics&query_place_id=ChIJBfeTvW7jDDkRIucJGBv-Ew0"}, {"place_id": "ChIJfTpbMy7jDDkRz85mshEzqn4", "name": "Aakash", "street": "1915, South Extension, Trilok Colony, Kotla Mubarakpur, New Delhi, Delhi 110003, India", "phone": "+91 1800 102 2727", "rating": "3.6", "review_count": "", "website": "https://www.aakash.ac.in/", "latitude": 28.576253899999998, "longitude": 77.2212456, "maps_url": "https://www.google.com/maps/search/?api=1&query=Aakash&query_place_id=ChIJfTpbMy7jDDkRz85mshEzqn4"}, {"place_id": "ChIJ4Sm45BHjDDkRWACUMf6Oq9s", "name": "chadda air conditioning repair shop", "street": "Shop no 3, Near, NBCC Apts Rd, Pilanji, Block E, East Kidwai Nagar, Kidwai Nagar, South Delhi, New Delhi, Delhi 110023, India", "phone": "+91 84478 05658", "rating": "4.9", "review_count": "", "website": "http://chaddaairconditioning.in/", "latitude": 28.573673499999998, "longitude": 77.2167709, "maps_url": "https://www.google.com/maps/search/?api=1&query=chadda%20air%20conditioning%20repair%20shop&query_place_id=ChIJ4Sm45BHjDDkRWACUMf6Oq9s"}, {"place_id": "ChIJWxDSZavjDDkRa342vMpvMbw", "name": "Roopantaran Dance Company", "street": "T, 953/1, Nehru Rd, opposite Defence colony, South Extension I, Arjun Nagar, Kotla Mubarakpur, New Delhi, Delhi 110003, India", "phone": "+91 92204 60349", "rating": "4.9", "review_count": "", "website": "", "latitude": 28.5729318, "longitude": 77.2261235, "maps_url": "https://www.google.com/maps/search/?api=1&query=Roopantaran%20Dance%20Company&query_place_id=ChIJWxDSZavjDDkRa342vMpvMbw"}]