{"timestamp": 1773728889.368534, "keyword": "IT company", "location": "delhi", "cell_idx": 7, "results": [{"place_id": "0x390d19298db2fb35:0xcaa0d46737c4561c", "name": "MLM Software Developer | Sunny citrix", "category": "Software company", "street": "office no 427C, 4th floor, vashisht complex", "city": "Sikanderpur", "phone": "07906059336", "website": "http://sunnycitrix.com/", "rating": 4.8, "review_count": "", "latitude": 28.4816798, "longitude": 77.09770569999999, "maps_url": "https://www.google.com/maps/place/?q=place_id:0x390d19298db2fb35:0xcaa0d46737c4561c"}, {"place_id": "0x390d192ca95aaaab:0xc152e62b92cf35b4", "name": "ISMEDU Software Solutions Pvt. Ltd.", "category": "Software company", "street": "204, 2nd Floor", "city": "GLOBAL BUSINESS PARK", "phone": "09205444090", "website": "https://www.ismedusoftsol.com/", "rating": 5, "review_count": "", "latitude": 28.4807173, "longitude": 77.1020856, "maps_url": "https://www.google.com/maps/place/?q=place_id:0x390d192ca95aaaab:0xc152e62b92cf35b4"}, {"place_id": "0x390d192ead051335:0x1f45fb98e90cc397", "name": "Honeysha Technologies, Software Company in Gurgaon, Digital Marketing Agency in Gurgaon", "category": "Software company", "street": "Cyber City", "city": "U-79/18, Rd Number 79", "phone": "07692079000", "website": "https://honeyshatech.com/", "rating": 4.5, "review_count": "", "latitude": 28.4900566, "longitude": 77.09324459999999, "maps_url": "https://www.google.com/maps/place/?q=place_id:0x390d192ead051335:0x1f45fb98e90cc397"}, {"place_id": "0x390d1927c918c30d:0x77c4c1a35f67593b", "name": "Ajath Infotech | Mobile App Development Company", "category": "Software company", "street": "WeWork DLF Forum, Cybercity", "city": "Phase III", "phone": "07838518049", "website": "", "rating": 4.9, "review_count": "", "latitude": 28.4969054, "longitude": 77.0918947, "maps_url": "https://www.google.com/maps/place/?q=place_id:0x390d1927c918c30d:0x77c4c1a35f67593b"}, {"place_id": "0x390d190e50732f89:0xe8ba9bfa95bf2fd1", "name": "Webloop Technik India Pvt Ltd", "category": "Software company", "street": "104,second floor A S Tower", "city": "Sikanderpur", "phone": "09958692076", "website": "http://weblooptechnik.com/", "rating": 4.9, "review_count": "", "latitude": 28.4818027, "longitude": 77.09696129999999, "maps_url": "https://www.google.com/maps/place/?q=place_id:0x390d190e50732f89:0xe8ba9bfa95bf2fd1"}, {"place_id": "0x390d1937b7427b3f:0x8b7dde804c39ca02", "name": "Mitsubishi Electric India Private Limited", "category": "Corporate office", "street": "3rd Floor, Global Gateway Tower A", "city": "Global Gateway Towers", "phone": "01246739300", "website": "https://www.mitsubishielectric.in/", "rating": 4.3, "review_count": "", "latitude": 28.481308199999997, "longitude": 77.104231, "maps_url": "https://www.google.com/maps/place/?q=place_id:0x390d1937b7427b3f:0x8b7dde804c39ca02"}, {"place_id": "0x390d181b03ac9f6f:0x3ec5a92a519f94ad", "name": "Daffodil Software", "category": "Software company", "street": "9th Floor, Tower B1, DLF", "city": "World Tech Park", "phone": "01246817000", "website": "https://www.daffodilsw.com/", "rating": 4.1, "review_count": "", "latitude": 28.465191599999997, "longitude": 77.0564785, "maps_url": "https://www.google.com/maps/place/?q=place_id:0x390d181b03ac9f6f:0x3ec5a92a519f94ad"}, {"place_id": "0x390d1923af5d91ed:0xbe103b16161f5631", "name": "Condeco Software Private Limited", "category": "Software company", "street": "Tower C", "city": "4th floor building 10", "phone": "01244760150", "website": "http://www.condecosoftware.com/apac", "rating": 4.3, "review_count": "", "latitude": 28.4940696, "longitude": 77.0885457, "maps_url": "https://www.google.com/maps/place/?q=place_id:0x390d1923af5d91ed:0xbe103b16161f5631"}, {"place_id": "0x390d19316748a39b:0x427bebf40160d8ac", "name": "Construe IT Solutions Pvt. Ltd.", "category": "Software company", "street": "R # 3", "city": "56/10", "phone": "08130713756", "website": "http://www.construesol.com/", "rating": 4, "review_count": "", "latitude": 28.489741799999997, "longitude": 77.0963127, "maps_url": "https://www.google.com/maps/place/?q=place_id:0x390d19316748a39b:0x427bebf40160d8ac"}, {"place_id": "0x390d1ed3deb8f143:0xd3e288e080964084", "name": "Online Digital Company - SEO Services Company Singapore", "category": "Software company", "street": "410, 6th Floor", "city": "The Solitaire Plaza", "phone": "09818223457", "website": "https://www.onlinedigitalcompany.com/", "rating": 5, "review_count": "", "latitude": 28.4822126, "longitude": 77.10779629999999, "maps_url": "https://www.google.com/maps/place/?q=place_id:0x390d1ed3deb8f143:0xd3e288e080964084"}, {"place_id": "0x390d191100000001:0x424476192b3b5b5b", "name": "Binary Semantics Limited", "category": "Software company", "street": "PLot no", "city": "38", "phone": "08929156505", "website": "https://www.binarysemantics.com/", "rating": 3.7, "review_count": "", "latitude": 28.5018823, "longitude": 77.0701466, "maps_url": "https://www.google.com/maps/place/?q=place_id:0x390d191100000001:0x424476192b3b5b5b"}, {"place_id": "0x390d1923b0174c17:0x58b87583eb51b29c", "name": "KEYENCE India Pvt. Ltd.", "category": "Automation company", "street": "UNIT 9-12 3RD FLOOR", "city": "Emaar Mgf Capital Tower", "phone": "18001030090", "website": "http://www.keyence.co.in/", "rating": 4.4, "review_count": "", "latitude": 28.481899199999997, "longitude": 77.1071734, "maps_url": "https://www.google.com/maps/place/?q=place_id:0x390d1923b0174c17:0x58b87583eb51b29c"}, {"place_id": "0x390ce458d0000001:0xf2123bd299ec4501", "name": "IT Company India", "category": "Software company", "street": "D56", "city": "D Block, Sector 10", "phone": "09999244854", "website": "https://www.itcompanyindia.in/", "rating": 4.7, "review_count": "", "latitude": 28.589917699999997, "longitude": 77.3351153, "maps_url": "https://www.google.com/maps/place/?q=place_id:0x390ce458d0000001:0xf2123bd299ec4501"}, {"place_id": "0x390d1ed3c642016d:0x56ed94151964d0a6", "name": "DLF Corporate Park", "category": "Business park", "street": "Moulsari Ave", "city": "Garden Estate, DLF Phase 3, Sector 24", "phone": "", "website": "", "rating": 4.4, "review_count": "", "latitude": 28.482756, "longitude": 77.1051404, "maps_url": "https://www.google.com/maps/place/?q=place_id:0x390d1ed3c642016d:0x56ed94151964d0a6"}, {"place_id": "0x390d191c259ddb41:0xf2d7cee3fd3979dc", "name": "ProQubix", "category": "Software company", "street": "GLOBAL BUSINESS PARK", "city": "605", "phone": "", "website": "https://proqubix.com/", "rating": 5, "review_count": "", "latitude": 28.4812501, "longitude": 77.10204809999999, "maps_url": "https://www.google.com/maps/place/?q=place_id:0x390d191c259ddb41:0xf2d7cee3fd3979dc"}, {"place_id": "0x390d192f80e784d3:0x2c271ddf93d663b4", "name": "Tranciscolabs | Mobile App Development Company | Web Development Company", "category": "Software company", "street": "Park", "city": "RGREP", "phone": "09580174570", "website": "https://tranciscolabs.com/", "rating": 4.4, "review_count": "", "latitude": 28.4695091, "longitude": 77.06860209999999, "maps_url": "https://www.google.com/maps/place/?q=place_id:0x390d192f80e784d3:0x2c271ddf93d663b4"}, {"place_id": "0x390d191598f48ef3:0x70991b4ff870f05d", "name": "Shree Partners LLC", "category": "Software company", "street": "1, Tower A, Building, Cyber City", "city": "Corporate Edge Level", "phone": "01246728815", "website": "https://www.shreepartners.com/", "rating": 4.3, "review_count": "", "latitude": 28.4936018, "longitude": 77.088325, "maps_url": "https://www.google.com/maps/place/?q=place_id:0x390d191598f48ef3:0x70991b4ff870f05d"}, {"place_id": "0x390ce18cddf14577:0x70314701f8d76d96", "name": "NMDSOFT SOFTWARE & NETWORK PVT LTD", "category": "Software company", "street": "55-56, Mehrauli-Gurgaon Rd", "city": "U Block, DLF Phase 3, Sector 24", "phone": "02240375751", "website": "https://www.nmdsoft.co.in/", "rating": 5, "review_count": "", "latitude": 28.4861491, "longitude": 77.0953779, "maps_url": "https://www.google.com/maps/place/?q=place_id:0x390ce18cddf14577:0x70314701f8d76d96"}, {"place_id": "0x390d190b8996b54d:0xa4d9ad7263547701", "name": "Company", "category": "Corporate office", "street": "The Coworking Space", "city": "A-14/15 DLF Phase 1, Sector 26 A Truworx", "phone": "01140844560", "website": "https://www.quickcompany.in/", "rating": 4.1, "review_count": "", "latitude": 28.474366699999997, "longitude": 77.0943154, "maps_url": "https://www.google.com/maps/place/?q=place_id:0x390d190b8996b54d:0xa4d9ad7263547701"}, {"place_id": "0x390d1f7e95430865:0xed5a1ac8f29efea1", "name": "vandymond global private limited", "category": "Computer support and services", "street": "7TH FLOOR", "city": "Palm Court", "phone": "", "website": "", "rating": "", "review_count": "", "latitude": 28.4827287, "longitude": 77.10795089999999, "maps_url": "https://www.google.com/maps/place/?q=place_id:0x390d1f7e95430865:0xed5a1ac8f29efea1"}, {"place_id": "0x390d193854a9b805:0xeb675c7a6d5768f7", "name": "Cvent India", "category": "Software company", "street": "19th Floor Building", "city": "No.14C", "phone": "0008001008934", "website": "https://careers.cvent.com/", "rating": 4.3, "review_count": "", "latitude": 28.4968638, "longitude": 77.0941567, "maps_url": "https://www.google.com/maps/place/?q=place_id:0x390d193854a9b805:0xeb675c7a6d5768f7"}, {"place_id": "0x390d02333de55555:0xc18926163e18f6c5", "name": "Team Builders", "category": "Corporate office", "street": "Team Builders India , NR 41", "city": "near Neelkanth Hospital", "phone": "09953169855", "website": "http://www.teambuilders.co.in/", "rating": 5, "review_count": "", "latitude": 28.483788099999998, "longitude": 77.10673849999999, "maps_url": "https://www.google.com/maps/place/?q=place_id:0x390d02333de55555:0xc18926163e18f6c5"}, {"place_id": "0x390d1fc639161b3d:0xbf2f2b5624f54b5e", "name": "Auric India Consulting Services LLP", "category": "Business management consultant", "street": "3rd Floor", "city": "JMD Regent Arcade Mall", "phone": "07389929217", "website": "https://www.auriccon.com/", "rating": 5, "review_count": "", "latitude": 28.4827287, "longitude": 77.10795089999999, "maps_url": "https://www.google.com/maps/place/?q=place_id:0x390d1fc639161b3d:0xbf2f2b5624f54b5e"}, {"place_id": "0x390d1f1e3922d7c9:0x125a60374f862bd8", "name": "SECURE YOURSELF COMPANY", "category": "Computer security service", "street": "Numberdar Complex", "city": "12", "phone": "09999629495", "website": "https://www.securestan.com/", "rating": 4.9, "review_count": "", "latitude": 28.4760234, "longitude": 77.1293797, "maps_url": "https://www.google.com/maps/place/?q=place_id:0x390d1f1e3922d7c9:0x125a60374f862bd8"}, {"place_id": "0x390d165555555555:0xb19daa0e6d9bcc53", "name": "Dhanuka Agritech Limited", "category": "Corporate office", "street": "Global Gateway Towers", "city": "Mehrauli-Gurgaon Rd", "phone": "01244345000", "website": "http://www.dhanuka.com/", "rating": 4.6, "review_count": "", "latitude": 28.4807608, "longitude": 77.1040879, "maps_url": "https://www.google.com/maps/place/?q=place_id:0x390d165555555555:0xb19daa0e6d9bcc53"}, {"place_id": "0x390d193b91020b5f:0x29f92a3eb636e978", "name": "Upbeat IT Solutions", "category": "Computer support and services", "street": "Chanderlok, DLF Phase IV", "city": "Gurugram, Haryana 122002", "phone": "08851731423", "website": "https://em77v8.webwave.dev/", "rating": 5, "review_count": "", "latitude": 28.4749868, "longitude": 77.0804268, "maps_url": "https://www.google.com/maps/place/?q=place_id:0x390d193b91020b5f:0x29f92a3eb636e978"}, {"place_id": "0x390d1ed3dc744075:0x6b41c1a7bdc4eba5", "name": "Ads 360 Media", "category": "Software company", "street": "Metro Station 170", "city": "Mehrauli-Gurgaon Rd", "phone": "09891719074", "website": "", "rating": 4.8, "review_count": "", "latitude": 28.482726399999997, "longitude": 77.10777809999999, "maps_url": "https://www.google.com/maps/place/?q=place_id:0x390d1ed3dc744075:0x6b41c1a7bdc4eba5"}, {"place_id": "0x390d1946a4b0d01f:0xab23cbaa408b3b9c", "name": "Tagbin Services Pvt. Ltd. \u2013 Best AI & Experiential Tech Company in Gurgaon", "category": "Software company", "street": "3rd Floor, Wing A, Enkay Centre", "city": "Vaniya Kunj", "phone": "08178112682", "website": "https://tagbin.in/", "rating": 4.2, "review_count": "", "latitude": 28.4974691, "longitude": 77.08654609999999, "maps_url": "https://www.google.com/maps/place/?q=place_id:0x390d1946a4b0d01f:0xab23cbaa408b3b9c"}, {"place_id": "0x390d19361c56cecd:0x50517af3dc928d70", "name": "Mycom", "category": "Software company", "street": "7th Floor", "city": "Building 8b", "phone": "01244508000", "website": "http://www.mycom-osi.com/", "rating": 4.3, "review_count": "", "latitude": 28.4982059, "longitude": 77.0900367, "maps_url": "https://www.google.com/maps/place/?q=place_id:0x390d19361c56cecd:0x50517af3dc928d70"}, {"place_id": "0x390d19d6fada2dbb:0xf471019497f6cda8", "name": "Suvrin Technologies|Website Development | eCommerce & Mobile App Development company", "category": "Software company", "street": "P1/55", "city": "Mushedpur, DLF Phase 2, Sector 25", "phone": "09811021616", "website": "https://www.suvrin.com/", "rating": 3.9, "review_count": "", "latitude": 28.4872941, "longitude": 77.0874865, "maps_url": "https://www.google.com/maps/place/?q=place_id:0x390d19d6fada2dbb:0xf471019497f6cda8"}, {"place_id": "0x390ce1877a5ef8eb:0xd5abb94a30425144", "name": "Plusone Technologies Private Limited", "category": "Software company", "street": "Phase IV, Udyog Vihar, Sector 18", "city": "Gurugram, Haryana 122015", "phone": "09891387094", "website": "https://www.plusonetech.co/", "rating": 4.7, "review_count": "", "latitude": 28.4941475, "longitude": 77.0808448, "maps_url": "https://www.google.com/maps/place/?q=place_id:0x390ce1877a5ef8eb:0xd5abb94a30425144"}, {"place_id": "0x390d19437cb628b3:0x12e71803eb09ac16", "name": "Clavax Technologies", "category": "Software company", "street": "727", "city": "Udyog Vihar, Phase 5", "phone": "+18444252829", "website": "http://www.clavax.com/", "rating": 4.1, "review_count": "", "latitude": 28.5052123, "longitude": 77.0850025, "maps_url": "https://www.google.com/maps/place/?q=place_id:0x390d19437cb628b3:0x12e71803eb09ac16"}, {"place_id": "0x390d1ed12e02c659:0xb23215ab8e35db66", "name": "Conscient Infrastructure Private Limited", "category": "Real Estate Builders & Construction Company", "street": "10th Floor, Tower D", "city": "GLOBAL BUSINESS PARK", "phone": "01242803000", "website": "http://www.conscient.in/", "rating": 3.9, "review_count": "", "latitude": 28.4799236, "longitude": 77.1024491, "maps_url": "https://www.google.com/maps/place/?q=place_id:0x390d1ed12e02c659:0xb23215ab8e35db66"}, {"place_id": "0x390d1960c2b8367f:0xd2d30e45ac71acea", "name": "Vorombetech Solutions - Top IT & Digitalization Service Company in Gurugram", "category": "Software company", "street": "249", "city": "Phase IV, Udyog Vihar, Sector 19", "phone": "", "website": "https://vorombetech.com/", "rating": 4.8, "review_count": "", "latitude": 28.4941475, "longitude": 77.0808448, "maps_url": "https://www.google.com/maps/place/?q=place_id:0x390d1960c2b8367f:0xd2d30e45ac71acea"}, {"place_id": "0x390d195c26bfa369:0x69bd8efd2e3a31fe", "name": "Radical Minds Technologies Pvt. Ltd.", "category": "BPO Company", "street": "368", "city": "Phase II, Udyog Vihar, Sector 20", "phone": "01244338366", "website": "http://www.radicalminds.in/", "rating": 4.2, "review_count": "", "latitude": 28.506335099999998, "longitude": 77.0877546, "maps_url": "https://www.google.com/maps/place/?q=place_id:0x390d195c26bfa369:0x69bd8efd2e3a31fe"}, {"place_id": "0x390ce3d176e643cb:0x3d49f7e0bea3a788", "name": "Timble Glance", "category": "Software company", "street": "Pillar Number 181", "city": "Shop No. 2, 2nd Floor", "phone": "08373950553", "website": "http://www.timbleglance.com/", "rating": 2.8, "review_count": "", "latitude": 28.4821702, "longitude": 77.1281423, "maps_url": "https://www.google.com/maps/place/?q=place_id:0x390ce3d176e643cb:0x3d49f7e0bea3a788"}, {"place_id": "0x390cfb4bf15a6733:0xaf50e6f3c5fb7641", "name": "Digitals Daddy: Web & App Development Company", "category": "Software company", "street": "Metro Gate No. 2", "city": "Nearest Sikandarpur", "phone": "09818286609", "website": "https://www.digitalsdaddy.com/", "rating": 4.9, "review_count": "", "latitude": 28.4847884, "longitude": 77.0922192, "maps_url": "https://www.google.com/maps/place/?q=place_id:0x390cfb4bf15a6733:0xaf50e6f3c5fb7641"}, {"place_id": "0x390d192b54440395:0x200851db01b2bef0", "name": "Kearney", "category": "Business management consultant", "street": "8th Floor", "city": "Emaar Mgf Capital Tower", "phone": "01244090700", "website": "https://www.kearney.com/?utm_campaign=gmb-listing&utm_medium=organic&utm_source=google", "rating": 4.5, "review_count": "", "latitude": 28.4816187, "longitude": 77.1050659, "maps_url": "https://www.google.com/maps/place/?q=place_id:0x390d192b54440395:0x200851db01b2bef0"}, {"place_id": "0x390d196e5620c6b3:0x652d4fb39964124d", "name": "Aukark - Website Design Company in Gurgaon", "category": "Software company", "street": "Ground Floor", "city": "10, Poorvi Marg", "phone": "09452209150", "website": "https://aukark.com/", "rating": 5, "review_count": "", "latitude": 28.4847565, "longitude": 77.0946597, "maps_url": "https://www.google.com/maps/place/?q=place_id:0x390d196e5620c6b3:0x652d4fb39964124d"}, {"place_id": "0x390d19345bcdc4f3:0x61d5221ed2c17f35", "name": "Cognizant", "category": "Software company", "street": "Tower C, SEZ Building, Building No 6, 5th & 6th Floor DLF C yber City Rd W Block", "city": "Near Shankar Chowk", "phone": "", "website": "http://www.cognizant.com/india", "rating": 4.1, "review_count": "", "latitude": 28.4964521, "longitude": 77.096576, "maps_url": "https://www.google.com/maps/place/?q=place_id:0x390d19345bcdc4f3:0x61d5221ed2c17f35"}, {"place_id": "0x390d1ed3dc744075:0xac8143a929de0eed", "name": "Technowave Solutions", "category": "Computer support and services", "street": "No- 203, Vashisht Complex, Sikandarpur", "city": "Mehrauli-Gurgaon Rd", "phone": "09999874078", "website": "http://technowavesolutions.com/", "rating": "", "review_count": "", "latitude": 28.482698, "longitude": 77.1082423, "maps_url": "https://www.google.com/maps/place/?q=place_id:0x390d1ed3dc744075:0xac8143a929de0eed"}, {"place_id": "0x390d19174792f4db:0xcb5f589caa71b6e7", "name": "Knocial India Limited", "category": "Software company", "street": "60B", "city": "Udyog Vihar, Sector 22", "phone": "09354120847", "website": "https://www.knocialindia.com/", "rating": 4.7, "review_count": "", "latitude": 28.504239499999997, "longitude": 77.0651981, "maps_url": "https://www.google.com/maps/place/?q=place_id:0x390d19174792f4db:0xcb5f589caa71b6e7"}, {"place_id": "0x390d1f61836cd921:0x776e9717979fe108", "name": "Saiway Tech", "category": "Web hosting company", "street": "702", "city": "Near, Maruti Chowk", "phone": "07982506339", "website": "http://saiwaytech.com/", "rating": 4.8, "review_count": "", "latitude": 28.4924629, "longitude": 77.1411129, "maps_url": "https://www.google.com/maps/place/?q=place_id:0x390d1f61836cd921:0x776e9717979fe108"}, {"place_id": "0x390d192fc20b97e7:0x3048b25634f6d955", "name": "Nagarro", "category": "Software company", "street": "Plot 6B, Sub. Major Laxmi Chand Rd", "city": "Maruti Udyog, Sector 18", "phone": "", "website": "https://www.nagarro.com/en", "rating": 4.5, "review_count": "", "latitude": 28.491098599999997, "longitude": 77.0673492, "maps_url": "https://www.google.com/maps/place/?q=place_id:0x390d192fc20b97e7:0x3048b25634f6d955"}, {"place_id": "0x390ce3b5c2a11543:0xc4df0cd95534bf85", "name": "LimeTray", "category": "Software company", "street": "2nd Floor", "city": "815", "phone": "", "website": "https://limetray.com/", "rating": 3.6, "review_count": "", "latitude": 28.5015508, "longitude": 77.08626919999999, "maps_url": "https://www.google.com/maps/place/?q=place_id:0x390ce3b5c2a11543:0xc4df0cd95534bf85"}, {"place_id": "0x390d19404f4f65d5:0xc7a5e785eb2e8ef6", "name": "Infodart Technologies Ltd", "category": "Software company", "street": "2nd floor", "city": "plot no 254", "phone": "", "website": "https://www.infodartglobal.com/", "rating": 4, "review_count": "", "latitude": 28.4979135, "longitude": 77.0815518, "maps_url": "https://www.google.com/maps/place/?q=place_id:0x390d19404f4f65d5:0xc7a5e785eb2e8ef6"}, {"place_id": "0x390d1faf8be8f93f:0x7a5c7e8d89c9b88f", "name": "Smart Safety India", "category": "Security system installation service", "street": "S 18/10 Second Floor", "city": "DLF Phase 3, Sector 24", "phone": "09205009768", "website": "https://www.smartsafetyindia.in/", "rating": 4.7, "review_count": "", "latitude": 28.487873999999998, "longitude": 77.1071079, "maps_url": "https://www.google.com/maps/place/?q=place_id:0x390d1faf8be8f93f:0x7a5c7e8d89c9b88f"}, {"place_id": "0x390d19288f0d0ff1:0xc44280a18f568bf3", "name": "Girnarsoft Education Services Pvt Ltd", "category": "Corporate office", "street": "1/23", "city": "DLF Phase 3, Sector 26", "phone": "", "website": "", "rating": 2, "review_count": "", "latitude": 28.4846652, "longitude": 77.1105772, "maps_url": "https://www.google.com/maps/place/?q=place_id:0x390d19288f0d0ff1:0xc44280a18f568bf3"}, {"place_id": "0x390d19c976cdb4bd:0x827b1280f387e788", "name": "Team Cowork", "category": "Corporate office", "street": "7F", "city": "Palm Court", "phone": "08178523633", "website": "https://teamco.work/?utm_source=google&utm_medium=organic&utm_campaign=gmb", "rating": 5, "review_count": "", "latitude": 28.4827287, "longitude": 77.10795089999999, "maps_url": "https://www.google.com/maps/place/?q=place_id:0x390d19c976cdb4bd:0x827b1280f387e788"}, {"place_id": "0x65afd373fe4cb277:0xb57ca7e757c2def3", "name": "Eimager -Employees Background Verification SaaS", "category": "Software company", "street": "GF 5", "city": "672, Mehrauli-Gurgaon Rd", "phone": "", "website": "https://eimager.com/", "rating": 5, "review_count": "", "latitude": 28.4911376, "longitude": 77.1398955, "maps_url": "https://www.google.com/maps/place/?q=place_id:0x65afd373fe4cb277:0xb57ca7e757c2def3"}, {"place_id": "0x390d1f4effffffff:0xcfc715ac63417946", "name": "Bechtel India Private Limited", "category": "Corporate office", "street": "244-245", "city": "Phase IV, Udyog Vihar, Knowledge Park", "phone": "01244098000", "website": "http://www.bechtel.com/", "rating": 4.4, "review_count": "", "latitude": 28.4956277, "longitude": 77.0839426, "maps_url": "https://www.google.com/maps/place/?q=place_id:0x390d1f4effffffff:0xcfc715ac63417946"}, {"place_id": "0x390d19437e719739:0x14737a286b425c55", "name": "Mediology Software", "category": "Software company", "street": "Tower B, 4th Floor", "city": "ASF Towers", "phone": "01244747500", "website": "https://www.mediologysoftware.com/", "rating": 4.1, "review_count": "", "latitude": 28.4966176, "longitude": 77.0842566, "maps_url": "https://www.google.com/maps/place/?q=place_id:0x390d19437e719739:0x14737a286b425c55"}, {"place_id": "0x390d1944a3689949:0x63200da406e47fac", "name": "DCM Infotech Limited", "category": "Computer support and services", "street": "316, Udyog Vihar II Rd", "city": "Phase II, Udyog Vihar, Sector 20", "phone": "01244122800", "website": "http://dcminfotech.com/", "rating": 3.8, "review_count": "", "latitude": 28.506505399999998, "longitude": 77.0857503, "maps_url": "https://www.google.com/maps/place/?q=place_id:0x390d1944a3689949:0x63200da406e47fac"}, {"place_id": "0x390d193097bf62ed:0x4c704c3065d8da14", "name": "Genpact India Private Limited", "category": "Software company", "street": "DLF Phase 5, Sector 53", "city": "Gurugram, Haryana 122011", "phone": "01244022000", "website": "http://www.genpact.com/", "rating": 4.4, "review_count": "", "latitude": 28.448837299999997, "longitude": 77.0990415, "maps_url": "https://www.google.com/maps/place/?q=place_id:0x390d193097bf62ed:0x4c704c3065d8da14"}, {"place_id": "0x390d1f51fac7121b:0x5f31c9f352e1c139", "name": "Rockman Industries Corporate Office", "category": "Corporate office", "street": "9th floor Unit No 3&4", "city": "Emaar CAPITAL TOWER-2", "phone": "01244707700", "website": "https://www.rockman.in/", "rating": 4.4, "review_count": "", "latitude": 28.481526199999998, "longitude": 77.1048434, "maps_url": "https://www.google.com/maps/place/?q=place_id:0x390d1f51fac7121b:0x5f31c9f352e1c139"}, {"place_id": "0x390d1f9193b27707:0x167d25eb14279276", "name": "Aays Analytics", "category": "Business management consultant", "street": "Tower 4B, DLF Corporate Park", "city": "PC - 101, Mehrauli-Gurgaon Rd", "phone": "", "website": "https://www.aaysanalytics.com/", "rating": 4.5, "review_count": "", "latitude": 28.483100399999998, "longitude": 77.1046143, "maps_url": "https://www.google.com/maps/place/?q=place_id:0x390d1f9193b27707:0x167d25eb14279276"}, {"place_id": "0x390d1f2e09e51131:0xba9e131ae9fd9777", "name": "Wellwa Life India PVT LTD", "category": "Water purification company", "street": "7th Floor", "city": "Palm Court", "phone": "", "website": "https://www.wellwalifeindia.com/", "rating": 4.1, "review_count": "", "latitude": 28.4827287, "longitude": 77.10795089999999, "maps_url": "https://www.google.com/maps/place/?q=place_id:0x390d1f2e09e51131:0xba9e131ae9fd9777"}, {"place_id": "0x390d1ed12e02c659:0xb840140ea04a9471", "name": "Orchid Infrastructure Developers Pvt. Ltd.", "category": "Real estate developer", "street": "Level II, Global Arcade", "city": "Mehrauli-Gurgaon Rd", "phone": "01244590000", "website": "https://www.oidpl.com/", "rating": 4.7, "review_count": "", "latitude": 28.481214599999998, "longitude": 77.1032302, "maps_url": "https://www.google.com/maps/place/?q=place_id:0x390d1ed12e02c659:0xb840140ea04a9471"}, {"place_id": "0x390d1915fa5d766d:0x1d92c0eb013cd4f2", "name": "FIS Global Business Solutions India Pvt. Ltd.", "category": "Corporate office", "street": "402, I Park, Plot No. 15", "city": "Phase IV", "phone": "01243927500", "website": "https://www.fisglobal.com/", "rating": 4.1, "review_count": "", "latitude": 28.490092899999997, "longitude": 77.078841, "maps_url": "https://www.google.com/maps/place/?q=place_id:0x390d1915fa5d766d:0x1d92c0eb013cd4f2"}, {"place_id": "0x390d1f4faf8632ed:0x9e5f59aadfefb992", "name": "Experis IT Pvt. Ltd", "category": "Recruiter", "street": "6th Floor", "city": "Vatika City Point", "phone": "1800120120000", "website": "http://experisindia.com/", "rating": 3, "review_count": "", "latitude": 28.482726399999997, "longitude": 77.10777809999999, "maps_url": "https://www.google.com/maps/place/?q=place_id:0x390d1f4faf8632ed:0x9e5f59aadfefb992"}, {"place_id": "0x390d193c3a36fabd:0x8bd7aacd8793bdb7", "name": "Orange Business Services", "category": "Public relations firm", "street": "Infinity Tower 8, Tower B", "city": "DLF Cyber City, DLF Phase 2, Sector 25", "phone": "", "website": "http://www.orange-business.com/", "rating": 4.5, "review_count": "", "latitude": 28.495814199999998, "longitude": 77.0910088, "maps_url": "https://www.google.com/maps/place/?q=place_id:0x390d193c3a36fabd:0x8bd7aacd8793bdb7"}, {"place_id": "0x390d1925d3811e61:0x78c5cd3b544c6f6", "name": "BYD Company Limited", "category": "Corporate office", "street": "unit no. 9& 10", "city": "Emaar Mgf Capital Tower Tower 1", "phone": "", "website": "https://bydautoindia.com/", "rating": 2.3, "review_count": "", "latitude": 28.481319, "longitude": 77.107188, "maps_url": "https://www.google.com/maps/place/?q=place_id:0x390d1925d3811e61:0x78c5cd3b544c6f6"}, {"place_id": "0x3be7c86c7fbfffff:0xf0fc39a9428f0873", "name": "Cinta Medtech", "category": "Corporate office", "street": "Cinta Medtech, 409", "city": "Emaar Mgf Capital Tower", "phone": "", "website": "http://cintamedtech.com/", "rating": 4.8, "review_count": "", "latitude": 28.482056999999998, "longitude": 77.1072243, "maps_url": "https://www.google.com/maps/place/?q=place_id:0x3be7c86c7fbfffff:0xf0fc39a9428f0873"}, {"place_id": "0x390d18574741abd3:0x6533204c7dde11d0", "name": "Analec Infotech Pvt. Ltd.", "category": "Software company", "street": "6th floor, Tower B", "city": "Park Centra", "phone": "", "website": "http://www.analec.com/", "rating": 3.7, "review_count": "", "latitude": 28.459702399999998, "longitude": 77.0516896, "maps_url": "https://www.google.com/maps/place/?q=place_id:0x390d18574741abd3:0x6533204c7dde11d0"}, {"place_id": "0x390d192cac5485df:0xdeeb4ccbddfdd533", "name": "Global Business Park", "category": "Business park", "street": "Mehrauli-Gurgaon Rd", "city": "Sikanderpur, Sector 26", "phone": "", "website": "", "rating": 4.3, "review_count": "", "latitude": 28.4812306, "longitude": 77.102032, "maps_url": "https://www.google.com/maps/place/?q=place_id:0x390d192cac5485df:0xdeeb4ccbddfdd533"}, {"place_id": "0x390d19982d7c3399:0x2136b684e2801680", "name": "Codenexus", "category": "Software Training Institute", "street": "2nd Floor", "city": "Gaurav Plaza", "phone": "09319210584", "website": "", "rating": 5, "review_count": "", "latitude": 28.481719599999998, "longitude": 77.0983775, "maps_url": "https://www.google.com/maps/place/?q=place_id:0x390d19982d7c3399:0x2136b684e2801680"}, {"place_id": "0x390d1f1958b2b979:0xb70bdc4d0319e82c", "name": "Market Shark IT", "category": "Website designer", "street": "H.NO 400", "city": "VILLAGE & POST OFFICE", "phone": "09319095077", "website": "http://www.marketsharkit.com/", "rating": 5, "review_count": "", "latitude": 28.4942474, "longitude": 77.1444345, "maps_url": "https://www.google.com/maps/place/?q=place_id:0x390d1f1958b2b979:0xb70bdc4d0319e82c"}, {"place_id": "0x390d193628f9608b:0x33567585d2e83dc3", "name": "EXL Service India", "category": "Software company", "street": "Tower D", "city": "Building No. 14", "phone": "01246144700", "website": "https://www.exlservice.com/locations", "rating": 4.3, "review_count": "", "latitude": 28.4969382, "longitude": 77.0944075, "maps_url": "https://www.google.com/maps/place/?q=place_id:0x390d193628f9608b:0x33567585d2e83dc3"}, {"place_id": "0x390d1f17882e9283:0xafc1653d8d30ab3f", "name": "Ascendeum", "category": "Corporate office", "street": "Office No.-302", "city": "Tower-1", "phone": "", "website": "https://ascendeum.com/", "rating": 3, "review_count": "", "latitude": 28.482635499999997, "longitude": 77.10463779999999, "maps_url": "https://www.google.com/maps/place/?q=place_id:0x390d1f17882e9283:0xafc1653d8d30ab3f"}, {"place_id": "0x390d19158765706b:0x7940981b18929c00", "name": "Infogix International Pvt. Ltd.", "category": "Software company", "street": "5 th floor", "city": "Tower 10", "phone": "01244802900", "website": "https://www.infogix.com/", "rating": 4, "review_count": "", "latitude": 28.4945511, "longitude": 77.08714619999999, "maps_url": "https://www.google.com/maps/place/?q=place_id:0x390d19158765706b:0x7940981b18929c00"}, {"place_id": "0x390d1ed30882bf55:0x5bce98ea164f88ef", "name": "MOVIN", "category": "Corporate office", "street": "3B", "city": "DLF Corporate Park", "phone": "18001214747", "website": "http://movin.in/", "rating": 3.3, "review_count": "", "latitude": 28.4830717, "longitude": 77.1055282, "maps_url": "https://www.google.com/maps/place/?q=place_id:0x390d1ed30882bf55:0x5bce98ea164f88ef"}, {"place_id": "0x390d1922f3a8407f:0xdee4e5ea9e949aaa", "name": "Vooid Technology", "category": "Marketing agency", "street": "plot no 72 A", "city": "Siris Rd", "phone": "07002430511", "website": "", "rating": 5, "review_count": "", "latitude": 28.4862936, "longitude": 77.106479, "maps_url": "https://www.google.com/maps/place/?q=place_id:0x390d1922f3a8407f:0xdee4e5ea9e949aaa"}, {"place_id": "0x4156579e876131e7:0x356c887f8dac5e97", "name": "Haaditech Private Limited", "category": "Software company", "street": "Gate No. 04", "city": "Ambience Mall", "phone": "", "website": "https://www.haaditech.com/", "rating": 5, "review_count": "", "latitude": 28.5057491, "longitude": 77.0960972, "maps_url": "https://www.google.com/maps/place/?q=place_id:0x4156579e876131e7:0x356c887f8dac5e97"}, {"place_id": "0x390d1f659e341e09:0xd88af0c1a7ecbdf8", "name": "Biswass IT Services Pvt. Ltd.", "category": "Software company", "street": "House No 590 1st Floor, ArjanGarh", "city": "BabaMoholla, Aya Nagar", "phone": "", "website": "https://www.biswass.com/", "rating": 4.8, "review_count": "", "latitude": 28.4766589, "longitude": 77.13484439999999, "maps_url": "https://www.google.com/maps/place/?q=place_id:0x390d1f659e341e09:0xd88af0c1a7ecbdf8"}, {"place_id": "0x390ce58c7403e0a1:0x2a35ba3fcd3ecb95", "name": "Akhil Systems Pvt Ltd - Electronic Medical Records Software, Best Hospital Software India, Hospital Management Software", "category": "Software company", "street": "5th Floor", "city": "Incuspaze Building", "phone": "08448799453", "website": "https://akhilsystems.com/", "rating": 3.4, "review_count": "", "latitude": 28.4914019, "longitude": 77.0771321, "maps_url": "https://www.google.com/maps/place/?q=place_id:0x390ce58c7403e0a1:0x2a35ba3fcd3ecb95"}, {"place_id": "0x390d1998f13e103f:0xbfdd18ccb54d54cf", "name": "Adwordix (Unit of S S Technologies) - SEO Company Gurgaon", "category": "Internet marketing service", "street": "Phase 1", "city": "359, Basement", "phone": "08104330050", "website": "https://adwordix.com/", "rating": 5, "review_count": "", "latitude": 28.470387499999998, "longitude": 77.0908929, "maps_url": "https://www.google.com/maps/place/?q=place_id:0x390d1998f13e103f:0xbfdd18ccb54d54cf"}, {"place_id": "0x390d193c3a36e523:0xe68f8d2568faeaad", "name": "Espire Infolabs Pvt. Ltd.", "category": "Software company", "street": "486 & 487", "city": "Phase III, Udyog Vihar III, Sector 20", "phone": "01247173000", "website": "http://www.espire.com/", "rating": 4.1, "review_count": "", "latitude": 28.5119516, "longitude": 77.0899661, "maps_url": "https://www.google.com/maps/place/?q=place_id:0x390d193c3a36e523:0xe68f8d2568faeaad"}, {"place_id": "0x390d19c4f81c373b:0x569790526001fe47", "name": "Pasenture Technologies - Web Development Company in Gurugram, Software Development Company in Gurgaon for CRM & Saas Software", "category": "Software company", "street": "2nd Floor", "city": "90, IDC", "phone": "09717197498", "website": "https://pasenture.in/", "rating": 4, "review_count": "", "latitude": 28.4716508, "longitude": 77.0509349, "maps_url": "https://www.google.com/maps/place/?q=place_id:0x390d19c4f81c373b:0x569790526001fe47"}, {"place_id": "0x390d193629340953:0xe1a3aaf4c76afd36", "name": "Concentrix", "category": "Corporate office", "street": "17th Floor", "city": "DLF Building", "phone": "", "website": "https://www.concentrix.com/", "rating": 4.4, "review_count": "", "latitude": 28.496898899999998, "longitude": 77.0942848, "maps_url": "https://www.google.com/maps/place/?q=place_id:0x390d193629340953:0xe1a3aaf4c76afd36"}, {"place_id": "0x390d19482ec7af6b:0xce48ba6ad2474bf2", "name": "AVIZVA Solutions Pvt Ltd", "category": "Corporate office", "street": "16th Floor, Building No. 14 Tower D Building", "city": "DLF Cyber City, DLF Phase 3, Sector 25A", "phone": "01246542490", "website": "http://www.avizva.com/", "rating": 3.9, "review_count": "", "latitude": 28.496678799999998, "longitude": 77.0944262, "maps_url": "https://www.google.com/maps/place/?q=place_id:0x390d19482ec7af6b:0xce48ba6ad2474bf2"}, {"place_id": "0x390d193c3a36e523:0xe68f8d2568faeaad", "name": "Espire Infolabs Pvt. Ltd.", "category": "Software company", "street": "486 & 487", "city": "Phase III, Udyog Vihar III, Sector 20", "phone": "01247173000", "website": "http://www.espire.com/", "rating": 4.1, "review_count": "", "latitude": 28.5119516, "longitude": 77.0899661, "maps_url": "https://www.google.com/maps/place/?q=place_id:0x390d193c3a36e523:0xe68f8d2568faeaad"}, {"place_id": "0x390d1f2a83be863f:0x36bac2cd8e52eb05", "name": "BMSF Design Consultants Pvt. Ltd.", "category": "Structural engineer", "street": "S-13/25, Ground Floor", "city": "DLF Phase-III", "phone": "01141771821", "website": "http://www.bmsfdesign.com/", "rating": 4.7, "review_count": "", "latitude": 28.4868489, "longitude": 77.110928, "maps_url": "https://www.google.com/maps/place/?q=place_id:0x390d1f2a83be863f:0x36bac2cd8e52eb05"}, {"place_id": "0x390d1f5798bf3573:0xb874e73471d833e7", "name": "Medhavi Skills University (Gurgaon)", "category": "Corporate office", "street": "4th Floor, ALTF Spaces Pvt. Ltd", "city": "JMD Empire Square", "phone": "09874875876", "website": "https://www.msu.edu.in/", "rating": 4.9, "review_count": "", "latitude": 28.4827287, "longitude": 77.10795089999999, "maps_url": "https://www.google.com/maps/place/?q=place_id:0x390d1f5798bf3573:0xb874e73471d833e7"}, {"place_id": "0x390d19384000000f:0xdae06636dc69e80", "name": "Ramboll India Private Limited", "category": "Engineering consultant", "street": "Level 17 Building No. 5 Tower B", "city": "DLF Cyber City, Phase - III", "phone": "01244611999", "website": "https://www.ramboll.com/contact-us/india", "rating": 4.5, "review_count": "", "latitude": 28.4897983, "longitude": 77.0923114, "maps_url": "https://www.google.com/maps/place/?q=place_id:0x390d19384000000f:0xdae06636dc69e80"}, {"place_id": "0x390d19c4f81c373b:0x569790526001fe47", "name": "Pasenture Technologies - Web Development Company in Gurugram, Software Development Company in Gurgaon for CRM & Saas Software", "category": "Software company", "street": "2nd Floor", "city": "90, IDC", "phone": "09717197498", "website": "https://pasenture.in/", "rating": 4, "review_count": "", "latitude": 28.4716508, "longitude": 77.0509349, "maps_url": "https://www.google.com/maps/place/?q=place_id:0x390d19c4f81c373b:0x569790526001fe47"}, {"place_id": "0x390ce6aa9de651c9:0xf87011fdf987539f", "name": "Goodyear India Limited", "category": "Tyre manufacturer", "street": "Emaar capital tower 2", "city": "9th, Mehrauli-Gurgaon Rd", "phone": "", "website": "http://www.goodyear.co.in/", "rating": 4.2, "review_count": "", "latitude": 28.481418599999998, "longitude": 77.1049441, "maps_url": "https://www.google.com/maps/place/?q=place_id:0x390ce6aa9de651c9:0xf87011fdf987539f"}, {"place_id": "0x390d1918cfb61ec5:0x2fdef84d05c1b246", "name": "SKH Corporate Office", "category": "Corporate office", "street": "14th floor, Tower D", "city": "GLOBAL BUSINESS PARK", "phone": "", "website": "https://www.skhgroup.co.in/", "rating": 3.9, "review_count": "", "latitude": 28.4800473, "longitude": 77.1022232, "maps_url": "https://www.google.com/maps/place/?q=place_id:0x390d1918cfb61ec5:0x2fdef84d05c1b246"}, {"place_id": "0x390d18fae8ff77b3:0x34eaa3822bfab6a0", "name": "GX Group", "category": "Fiber Optic Products Supplier", "street": "401, 4th floor, JMD Regent Plaza Mall", "city": "Mehrauli-Gurgaon Rd", "phone": "09599182590", "website": "https://www.gxgroup.eu/", "rating": 4.1, "review_count": "", "latitude": 28.4811323, "longitude": 77.1004287, "maps_url": "https://www.google.com/maps/place/?q=place_id:0x390d18fae8ff77b3:0x34eaa3822bfab6a0"}, {"place_id": "0x390d1f69788c1c0b:0x61278bffd5ea6617", "name": "The Altruist Business Stays (DLF Phase 3)", "category": "Hotel", "street": "Plot No. 70", "city": "The Altruist Business Stays", "phone": "09056088815", "website": "https://thealtruisthotels.com/", "rating": 4.6, "review_count": "", "latitude": 28.486669, "longitude": 77.1069041, "maps_url": "https://www.google.com/maps/place/?q=place_id:0x390d1f69788c1c0b:0x61278bffd5ea6617"}, {"place_id": "0x390d195b82955c11:0x4ac608c95db239fa", "name": "Worxpertise (Edge Business Solutions Pvt. Ltd.)", "category": "Business to business service", "street": "4th Floor, WING-B", "city": "AIHP Tower", "phone": "", "website": "https://worxpertise.com/", "rating": 4.1, "review_count": "", "latitude": 28.497374899999997, "longitude": 77.0827276, "maps_url": "https://www.google.com/maps/place/?q=place_id:0x390d195b82955c11:0x4ac608c95db239fa"}, {"place_id": "0x390d19e854fa073d:0x677e7dea662c5747", "name": "Salesforce", "category": "Software company", "street": "8a, DLF Cyber City Rd", "city": "DLF Cyber City, DLF Phase 2, Sector 24", "phone": "", "website": "https://www.salesforce.com/", "rating": 4.4, "review_count": "", "latitude": 28.4955507, "longitude": 77.089473, "maps_url": "https://www.google.com/maps/place/?q=place_id:0x390d19e854fa073d:0x677e7dea662c5747"}, {"place_id": "0x3a0270cbd0f9485b:0x5b8dbf6ccb22191f", "name": "Adidev Press Private Limited", "category": "Book publisher", "street": "1st Floor", "city": "DLF Downtown", "phone": "07428230663", "website": "https://www.adidevpress.com/", "rating": 4.9, "review_count": "", "latitude": 28.486378199999997, "longitude": 77.10759259999999, "maps_url": "https://www.google.com/maps/place/?q=place_id:0x3a0270cbd0f9485b:0x5b8dbf6ccb22191f"}, {"place_id": "0x390d192fdd6391fd:0x97dc08ef19529114", "name": "Sunrisers Hosting - Web Hosting Company", "category": "Web hosting company", "street": "Delhi - Jaipur Expy", "city": "near Sarhol", "phone": "08595104872", "website": "https://www.sunrisershosting.com/", "rating": 4.8, "review_count": "", "latitude": 28.500808799999998, "longitude": 77.09104889999999, "maps_url": "https://www.google.com/maps/place/?q=place_id:0x390d192fdd6391fd:0x97dc08ef19529114"}, {"place_id": "0x390d1f23028c7987:0x7fc49154f8f48410", "name": "UDYAMEXPERT CONSULTANCY LLP", "category": "Legal services", "street": "COMMERCIAL COMPLEX", "city": "NM-27, Mehrauli-Gurgaon Rd", "phone": "07618397166", "website": "https://udyamexpert.com/", "rating": 4.8, "review_count": "", "latitude": 28.482726399999997, "longitude": 77.10777809999999, "maps_url": "https://www.google.com/maps/place/?q=place_id:0x390d1f23028c7987:0x7fc49154f8f48410"}, {"place_id": "0x390d18db3a0a13e1:0x1413ecc504222fe6", "name": "Firmelist- Gurugram", "category": "Internet marketing service", "street": "Outlet No 5, South I Sector 41", "city": "Gurugram, Haryana 122009", "phone": "08750884884", "website": "https://www.firmelist.com/", "rating": 5, "review_count": "", "latitude": 28.462471999999998, "longitude": 77.087096, "maps_url": "https://www.google.com/maps/place/?q=place_id:0x390d18db3a0a13e1:0x1413ecc504222fe6"}, {"place_id": "0x390d1937dafd43af:0x8b73e267e5170935", "name": "DLF Building 9B, Cyber City Gurugram", "category": "Corporate office", "street": "no 9 A", "city": "M/s DLF Building", "phone": "01244568900", "website": "https://www.dlf.in/offices/gurugram/dlfcybercity", "rating": 4.6, "review_count": "", "latitude": 28.495222499999997, "longitude": 77.09354909999999, "maps_url": "https://www.google.com/maps/place/?q=place_id:0x390d1937dafd43af:0x8b73e267e5170935"}, {"place_id": "0x390d19ce1f2130e9:0x557e814a1e7a0f7b", "name": "Needle ads- digital Marketing company in gurgaon lead generation services in gurgaon", "category": "Software company", "street": "Cyber City", "city": "DLF Cyber City, DLF Phase 3, Sector 24", "phone": "08750500075", "website": "https://www.theneedleads.com/", "rating": 5, "review_count": "", "latitude": 28.4936018, "longitude": 77.088325, "maps_url": "https://www.google.com/maps/place/?q=place_id:0x390d19ce1f2130e9:0x557e814a1e7a0f7b"}, {"place_id": "0x390d193feaaaaaab:0x7a36da7465a8aea3", "name": "SoftAge Information Technology Limited", "category": "Corporate office", "street": "204", "city": "Phase IV, Udyog Vihar, Sector 18", "phone": "09999886622", "website": "http://www.softage.net/", "rating": 4.3, "review_count": "", "latitude": 28.496942699999998, "longitude": 77.0796953, "maps_url": "https://www.google.com/maps/place/?q=place_id:0x390d193feaaaaaab:0x7a36da7465a8aea3"}, {"place_id": "0x390d1ecd6d358615:0xbd4d31044b81fd75", "name": "Tirupati Office Systems pvt ltd", "category": "Office furniture store", "street": "S 6/10, Palm Drive Lane", "city": "DLF Phase 3, Sector 24", "phone": "09818148101", "website": "http://www.tirupatioffice.com/", "rating": 4.6, "review_count": "", "latitude": 28.4858759, "longitude": 77.10838989999999, "maps_url": "https://www.google.com/maps/place/?q=place_id:0x390d1ecd6d358615:0xbd4d31044b81fd75"}, {"place_id": "0x390d1fc47df9975f:0xa2716a77234b6974", "name": "Spaceven", "category": "Interior designer", "street": "Unit 703", "city": "Palm Court", "phone": "", "website": "https://spaceven.com/", "rating": 4.5, "review_count": "", "latitude": 28.4827287, "longitude": 77.10795089999999, "maps_url": "https://www.google.com/maps/place/?q=place_id:0x390d1fc47df9975f:0xa2716a77234b6974"}]}