{"timestamp": 1773733467.8899906, "keyword": "IT company", "location": "Indore", "cell_idx": 62, "results": [{"place_id": "0x396257edbb3a0893:0xe7479b53ae320e14", "name": "Universe Capsules Biotech Pvt. Ltd", "category": "Pharmaceutical company", "street": "Plot No. 83, Smart Industrial Park", "city": "Pithampur", "phone": "09589872422", "website": "https://universecapsules.com/", "rating": 5, "review_count": "", "latitude": 22.5730923, "longitude": 75.5957118, "maps_url": "https://www.google.com/maps/place/?q=place_id:0x396257edbb3a0893:0xe7479b53ae320e14"}, {"place_id": "0x396255efadca2437:0xfed5742d979c4770", "name": "PRATAP DIGITAL COMMUNICATIONS PVT. LTD.", "category": "Manufacturer", "street": "Smart Industrial Park Natrip", "city": "Plot no. 40", "phone": "", "website": "https://www.corsis.in/", "rating": 4.7, "review_count": "", "latitude": 22.5818367, "longitude": 75.593475, "maps_url": "https://www.google.com/maps/place/?q=place_id:0x396255efadca2437:0xfed5742d979c4770"}, {"place_id": "0x39625176f708b433:0xd14d3dedb56604c0", "name": "Tenneco Clean Air India Pvt Ltd", "category": "Industrial consultant", "street": "Asukhedi, Madhya Pradesh 454774", "city": "", "phone": "", "website": "", "rating": 4.2, "review_count": "", "latitude": 22.571509799999998, "longitude": 75.59651509999999, "maps_url": "https://www.google.com/maps/place/?q=place_id:0x39625176f708b433:0xd14d3dedb56604c0"}, {"place_id": "0x39625774032b2dd1:0x101c44ef5a877752", "name": "Varcas Nexgen | Digital Marketing & IT Services Company", "category": "Software company", "street": "AL163", "city": "H.B Colony", "phone": "08602758854", "website": "https://www.varcasnexgen.com/", "rating": 5, "review_count": "", "latitude": 22.599356999999998, "longitude": 75.68772539999999, "maps_url": "https://www.google.com/maps/place/?q=place_id:0x39625774032b2dd1:0x101c44ef5a877752"}, {"place_id": "0x3962f9d55308990b:0xb6ebe2e177c52632", "name": "Prodigitaly Technologies", "category": "Software company", "street": "L-31 Supercity , Opposite Shanti Nagar ,Mhowgaon", "city": "Dr. Ambedkar Nagar, Madhya Pradesh 453441", "phone": "09877530727", "website": "https://prodigitaly.com/", "rating": 5, "review_count": "", "latitude": 22.5524372, "longitude": 75.7565273, "maps_url": "https://www.google.com/maps/place/?q=place_id:0x3962f9d55308990b:0xb6ebe2e177c52632"}, {"place_id": "0x3962fd71266aaa83:0x82398caa17930a40", "name": "Octavian InfoTech LLP", "category": "Software company", "street": "A 41 Ayodhya Puri", "city": "Kodriya", "phone": "09977741168", "website": "https://www.octavianinfotech.com/", "rating": 5, "review_count": "", "latitude": 22.537258599999998, "longitude": 75.7726136, "maps_url": "https://www.google.com/maps/place/?q=place_id:0x3962fd71266aaa83:0x82398caa17930a40"}, {"place_id": "0x3962577de7732179:0xb01bf9b9dae7632f", "name": "C.S Technology", "category": "Computer support and services", "street": "near New Genius School", "city": "Chhatrachhaya, Sagour Kuti", "phone": "07000654574", "website": "https://www.cstechnologypithampur.com/", "rating": 4.9, "review_count": "", "latitude": 22.6051872, "longitude": 75.68249209999999, "maps_url": "https://www.google.com/maps/place/?q=place_id:0x3962577de7732179:0xb01bf9b9dae7632f"}, {"place_id": "0x3962fd6d5c629411:0xf6c83fcf3257fec1", "name": "Appalto Electronics Pvt Ltd", "category": "Electronics Company", "street": "IT Park", "city": "24-25, Indore - Dhar Rd", "phone": "07314780800", "website": "http://www.appalto.in/", "rating": 4, "review_count": "", "latitude": 22.6925815, "longitude": 75.7888832, "maps_url": "https://www.google.com/maps/place/?q=place_id:0x3962fd6d5c629411:0xf6c83fcf3257fec1"}, {"place_id": "0x3962f90d10bd7993:0xe34f9616e2e32c5e", "name": "Welloft IT Solutions", "category": "Website designer", "street": "301 Love App", "city": "SIMROL ROAD Sai Shardha colony Love apartment", "phone": "08819832755", "website": "https://wellsoft.in/", "rating": 5, "review_count": "", "latitude": 22.556339599999998, "longitude": 75.7805716, "maps_url": "https://www.google.com/maps/place/?q=place_id:0x3962f90d10bd7993:0xe34f9616e2e32c5e"}, {"place_id": "0x390ce458d0000001:0xf2123bd299ec4501", "name": "IT Company India", "category": "Software company", "street": "D56", "city": "D Block, Sector 10", "phone": "09999244854", "website": "https://www.itcompanyindia.in/", "rating": 4.7, "review_count": "", "latitude": 28.589917699999997, "longitude": 77.3351153, "maps_url": "https://www.google.com/maps/place/?q=place_id:0x390ce458d0000001:0xf2123bd299ec4501"}, {"place_id": "0x3962fd5eec2cf6a9:0xe1b5f67b53e20d06", "name": "Technoecorp Service Private Limited", "category": "Software company", "street": "C 180 chhatra Chhaya sector 01 Pithampur", "city": "Distt", "phone": "", "website": "http://www.technoecorp.com/", "rating": 4.9, "review_count": "", "latitude": 22.6052993, "longitude": 75.6858365, "maps_url": "https://www.google.com/maps/place/?q=place_id:0x3962fd5eec2cf6a9:0xe1b5f67b53e20d06"}, {"place_id": "0x3962510037b3ab4f:0xc6a1b304890d6ae7", "name": "Uno Minda Limited, Seating Division.", "category": "Manufacturer", "street": "HHGQ+P2X", "city": "Suhagpura, Madhya Pradesh 454774", "phone": "", "website": "http://www.unominda.com/", "rating": 5, "review_count": "", "latitude": 22.5768515, "longitude": 75.5876213, "maps_url": "https://www.google.com/maps/place/?q=place_id:0x3962510037b3ab4f:0xc6a1b304890d6ae7"}, {"place_id": "0x396256a28661ad75:0xa315a629fe76f6be", "name": "Cummins Turbo Technologies Ltd.", "category": "Manufacturer", "street": "Indore Special Economic Zone Phase II", "city": "Division of Cummins Technologies India ltd, Plot No. M5, Sector 3", "phone": "07292301300", "website": "http://www.cummins.com/turbos", "rating": 4.5, "review_count": "", "latitude": 22.625135699999998, "longitude": 75.6430572, "maps_url": "https://www.google.com/maps/place/?q=place_id:0x396256a28661ad75:0xa315a629fe76f6be"}, {"place_id": "0x3962fdf63c5a16a7:0x36aa8fadb45e2bcf", "name": "Onports Pvt. Ltd. | Software Development Company", "category": "Software company", "street": "Aslam estate", "city": "31", "phone": "09399390985", "website": "https://www.onports.in/", "rating": 5, "review_count": "", "latitude": 22.707174199999997, "longitude": 75.80335769999999, "maps_url": "https://www.google.com/maps/place/?q=place_id:0x3962fdf63c5a16a7:0x36aa8fadb45e2bcf"}, {"place_id": "0x3962515e48574ad7:0x31a381ad5c5ad70a", "name": "Lalit Singh Rajput Kunwarsi.", "category": "Farm", "street": "2", "city": "Kunwarsi, Madhya Pradesh 454774", "phone": "", "website": "", "rating": 5, "review_count": "", "latitude": 22.556171199999998, "longitude": 75.5656887, "maps_url": "https://www.google.com/maps/place/?q=place_id:0x3962515e48574ad7:0x31a381ad5c5ad70a"}, {"place_id": "0x3962517f515688ed:0xde8f4000edf9aa47", "name": "Jalpa Devi Engineering Pvt. Ltd., Dilip Buildcon Limited", "category": "Corporate office", "street": "Plot no. 831 to 836", "city": "near Indorama Mandir", "phone": "", "website": "", "rating": 4.4, "review_count": "", "latitude": 22.6217869, "longitude": 75.5746976, "maps_url": "https://www.google.com/maps/place/?q=place_id:0x3962517f515688ed:0xde8f4000edf9aa47"}, {"place_id": "0x3962571f328ba1d1:0x7052e3a0dc6e3536", "name": "Altis Industries Pvt. Ltd.", "category": "Corporate office", "street": "BR 04, Industrial Growth Center Pithampur - V, De-Notified Area", "city": "Madhya Pradesh 454774", "phone": "07314780800", "website": "http://www.altis.in/", "rating": 4.1, "review_count": "", "latitude": 22.6199776, "longitude": 75.6465839, "maps_url": "https://www.google.com/maps/place/?q=place_id:0x3962571f328ba1d1:0x7052e3a0dc6e3536"}, {"place_id": "0x3962ffd473a40201:0xa76c73231d4845e7", "name": "Medibest TechServ LLP", "category": "Software company", "street": "303", "city": "IT Park Center IT Park", "phone": "09171341515", "website": "https://medibest.in/", "rating": 4.6, "review_count": "", "latitude": 22.6900619, "longitude": 75.7868108, "maps_url": "https://www.google.com/maps/place/?q=place_id:0x3962ffd473a40201:0xa76c73231d4845e7"}, {"place_id": "0x396256464da4be57:0x81feca1ea650d13a", "name": "Kores India Engineering", "category": "Manufacturer", "street": "Plot no.6", "city": "Sector 1, Industrial Area, Sagour Kuti", "phone": "09223286731", "website": "https://engineering.kores.in/", "rating": 4.2, "review_count": "", "latitude": 22.6052629, "longitude": 75.68751019999999, "maps_url": "https://www.google.com/maps/place/?q=place_id:0x396256464da4be57:0x81feca1ea650d13a"}, {"place_id": "0x39625665383e0ec3:0xe07ade2d739f8b42", "name": "Acoem India", "category": "Manufacturer", "street": "Plot No 57 Pithampur", "city": "Sector 2", "phone": "07292426409", "website": "https://www.acoem.com/india", "rating": 4.5, "review_count": "", "latitude": 22.6248209, "longitude": 75.6773436, "maps_url": "https://www.google.com/maps/place/?q=place_id:0x39625665383e0ec3:0xe07ade2d739f8b42"}, {"place_id": "0x3962f9236d105caf:0xbbc3c9013b8d48dc", "name": "Compli-Tech - Startup Consultant | Company Registration | Website Designing | Ecommerce Website Development", "category": "Business management consultant", "street": "Malwa Complex", "city": "88", "phone": "09302151441", "website": "https://compli-tech.odoo.com/", "rating": "", "review_count": "", "latitude": 22.5676845, "longitude": 75.7600538, "maps_url": "https://www.google.com/maps/place/?q=place_id:0x3962f9236d105caf:0xbbc3c9013b8d48dc"}, {"place_id": "0x3962522c60474e65:0x7c886eb4fd5691be", "name": "SIMRAN AGRITECH PVT. LTD.", "category": "Food manufacturer", "street": "Plot no. 63", "city": "Pithampur Industrial Area, Industrial Area, Sector-3", "phone": "", "website": "", "rating": 4, "review_count": "", "latitude": 22.635094799999997, "longitude": 75.5705401, "maps_url": "https://www.google.com/maps/place/?q=place_id:0x3962522c60474e65:0x7c886eb4fd5691be"}, {"place_id": "0x3962561639dcf60f:0x73f3c8893e81980b", "name": "Cipla Limited (Unit 1)", "category": "Pharmaceutical company", "street": "Plot no. 9, SEZ", "city": "Pithampur Industrial Area", "phone": "02224826000", "website": "http://www.cipla.com/", "rating": 4.2, "review_count": "", "latitude": 22.629214899999997, "longitude": 75.6227652, "maps_url": "https://www.google.com/maps/place/?q=place_id:0x3962561639dcf60f:0x73f3c8893e81980b"}, {"place_id": "0x396256a4c71572d3:0x347474341f5c85e3", "name": "Lupin Limited", "category": "Pharmaceutical company", "street": "Plot No. 2, SEZ Phase-II, Misc Zone, Apparel Park", "city": "District Dhar", "phone": "07292417300", "website": "https://www.lupin.com/", "rating": 4.1, "review_count": "", "latitude": 22.622044499999998, "longitude": 75.637076, "maps_url": "https://www.google.com/maps/place/?q=place_id:0x396256a4c71572d3:0x347474341f5c85e3"}, {"place_id": "0x3962518119320775:0x7fdc9b44dfe0d9e5", "name": "Torrent Pharmaceuticals Ltd", "category": "Pharmaceutical company", "street": "Plot. No. 810, Sector III, Industrial Area Pithampur", "city": "Kalibillod, Madhya Pradesh 454774", "phone": "07292256224", "website": "http://www.torrentpharma.com/", "rating": 4.3, "review_count": "", "latitude": 22.6242345, "longitude": 75.56933529999999, "maps_url": "https://www.google.com/maps/place/?q=place_id:0x3962518119320775:0x7fdc9b44dfe0d9e5"}, {"place_id": "0x3be7c21b5901e181:0x7fe794585addc1f6", "name": "Smartinfologiks - Software Development Company in India | IT Solutions", "category": "Software company", "street": "Hilton Center", "city": "514", "phone": "07400064691", "website": "https://www.smartinfologiks.com/", "rating": 4.6, "review_count": "", "latitude": 19.0139592, "longitude": 73.0382705, "maps_url": "https://www.google.com/maps/place/?q=place_id:0x3be7c21b5901e181:0x7fe794585addc1f6"}, {"place_id": "0x3bc2becdc35b6937:0x515ac559c349eee3", "name": "Thinkitive Technologies Private Limited", "category": "Software company", "street": "4th Floor", "city": "ABIL IMPERIAL COMMERCIAL SPACES", "phone": "08956467327", "website": "https://www.thinkitive.com/", "rating": 3.9, "review_count": "", "latitude": 18.5563888, "longitude": 73.7729748, "maps_url": "https://www.google.com/maps/place/?q=place_id:0x3bc2becdc35b6937:0x515ac559c349eee3"}, {"place_id": "0x3962f91a9a1deadb:0xf9192245761ff2c", "name": "SmartTech-Developers", "category": "Software company", "street": "Suman Colony", "city": "Mhow Gaon, Madhya Pradesh 453441", "phone": "09691985153", "website": "http://smarttech-developers.com/", "rating": "", "review_count": "", "latitude": 22.5753395, "longitude": 75.74259119999999, "maps_url": "https://www.google.com/maps/place/?q=place_id:0x3962f91a9a1deadb:0xf9192245761ff2c"}, {"place_id": "0x39625181a8160835:0xc71f64a785bc90ce", "name": "Signet Industries Ltd.", "category": "Pipe Manufacturer", "street": "JHFC+JHC", "city": "Pithampur Industrial Area", "phone": "07314217800", "website": "https://www.groupsignet.com/contact-us.html", "rating": 3.2, "review_count": "", "latitude": 22.624068599999998, "longitude": 75.571404, "maps_url": "https://www.google.com/maps/place/?q=place_id:0x39625181a8160835:0xc71f64a785bc90ce"}, {"place_id": "0x3962522ccec2044d:0xb118c4e81afaec7a", "name": "Gallard Steel Limited", "category": "Foundry", "street": "66, Sector 3", "city": "Pithampur Industrial Area", "phone": "09926904052", "website": "http://gallardsteel.com/", "rating": 4.3, "review_count": "", "latitude": 22.6203894, "longitude": 75.5703683, "maps_url": "https://www.google.com/maps/place/?q=place_id:0x3962522ccec2044d:0xb118c4e81afaec7a"}, {"place_id": "0x39625614deab87c9:0xac1a988eafd5ac01", "name": "Aeon Medical Private Limited", "category": "Manufacturer", "street": "Sector No.-1", "city": "62, 63 & 64A", "phone": "08989978403", "website": "http://www.aeonmedical.co.in/", "rating": 4.9, "review_count": "", "latitude": 22.6169555, "longitude": 75.6897161, "maps_url": "https://www.google.com/maps/place/?q=place_id:0x39625614deab87c9:0xac1a988eafd5ac01"}, {"place_id": "0x396256ac375b75eb:0x2401e406b4ae6cf9", "name": "Bridgestone India Private Limited", "category": "Corporate office", "street": "Kheda Growth Centre", "city": "Plot No. 12, Post", "phone": "07292423333", "website": "http://www.bridgestone.co.in/", "rating": 4.3, "review_count": "", "latitude": 22.6240867, "longitude": 75.6249787, "maps_url": "https://www.google.com/maps/place/?q=place_id:0x396256ac375b75eb:0x2401e406b4ae6cf9"}, {"place_id": "0x3962533a5c53424f:0x620a7b72f60151d6", "name": "SafeFlex International Limited Unit-2", "category": "Corporate office", "street": "Pithampur Industrial Area", "city": "Sulawad, Madhya Pradesh 454774", "phone": "", "website": "http://www.safeflex.org/", "rating": 4.3, "review_count": "", "latitude": 22.627546499999998, "longitude": 75.56337599999999, "maps_url": "https://www.google.com/maps/place/?q=place_id:0x3962533a5c53424f:0x620a7b72f60151d6"}, {"place_id": "0x3962519fa04c9a8f:0x16d70a86722b557d", "name": "Vivekananda Enterprise", "category": "Computer support and services", "street": "Mukati Colony", "city": "Sagore Rd", "phone": "08109742835", "website": "", "rating": 5, "review_count": "", "latitude": 22.599554299999998, "longitude": 75.6015196, "maps_url": "https://www.google.com/maps/place/?q=place_id:0x3962519fa04c9a8f:0x16d70a86722b557d"}, {"place_id": "0x396253cd1d310117:0xc52fbc1638291fd0", "name": "rtpl pvt ltd", "category": "Corporate office", "street": "M82", "city": "Pithampur Industrial Area, Sector-3", "phone": "", "website": "http://rtpl.co.in/", "rating": 4.2, "review_count": "", "latitude": 22.6425134, "longitude": 75.5763913, "maps_url": "https://www.google.com/maps/place/?q=place_id:0x396253cd1d310117:0xc52fbc1638291fd0"}, {"place_id": "0x396257738d472b69:0xac0ef39ab243dda7", "name": "ZF Steering Gear (India) Limited", "category": "Manufacturer", "street": "Pithampur Industrial Area", "city": "Pithampur, Madhya Pradesh 454774", "phone": "02137305100", "website": "http://www.zfindia.com/", "rating": 4.4, "review_count": "", "latitude": 22.6219598, "longitude": 75.6457784, "maps_url": "https://www.google.com/maps/place/?q=place_id:0x396257738d472b69:0xac0ef39ab243dda7"}, {"place_id": "0x396253e0f2611e75:0xe217224899890f7a", "name": "Larsen & Toubro Limited", "category": "Corporate office", "street": "158-B, 454774", "city": "Pithampur Industrial Area, Sector-3", "phone": "07292400740", "website": "http://www.larsentoubro.com/", "rating": 4.1, "review_count": "", "latitude": 22.6347052, "longitude": 75.59804799999999, "maps_url": "https://www.google.com/maps/place/?q=place_id:0x396253e0f2611e75:0xe217224899890f7a"}, {"place_id": "0x396256a9a6a6b611:0xd257ef1a76381913", "name": "Glenmark Pharmaceuticals Ltd.", "category": "Pharmaceutical company", "street": "Plot No.2, Phase II, Pharma Zone, ISEZ", "city": "Pithampur, Madhya Pradesh 454774", "phone": "07292667900", "website": "http://glenmarkpharma.com/", "rating": 4.5, "review_count": "", "latitude": 22.6303257, "longitude": 75.6284524, "maps_url": "https://www.google.com/maps/place/?q=place_id:0x396256a9a6a6b611:0xd257ef1a76381913"}, {"place_id": "0x39625710d533ab11:0xfa00527d942051ef", "name": "Praveer Industries", "category": "3D printing service", "street": "Sunrise town", "city": "74/75", "phone": "09770205594", "website": "https://thepraveerstore.com/", "rating": 5, "review_count": "", "latitude": 22.589725299999998, "longitude": 75.6874455, "maps_url": "https://www.google.com/maps/place/?q=place_id:0x39625710d533ab11:0xfa00527d942051ef"}, {"place_id": "0x396253d6cb5bf6e3:0x35b077e731d80aef", "name": "Simplex Metal Processors(I) Pvt. Ltd.", "category": "Manufacturer", "street": "Plot No. 70 D & 70C", "city": "Pithampur Industrial Area, Sector-3", "phone": "09752494211", "website": "http://simplexmetalprocessors.com/", "rating": 4.3, "review_count": "", "latitude": 22.632206099999998, "longitude": 75.581861, "maps_url": "https://www.google.com/maps/place/?q=place_id:0x396253d6cb5bf6e3:0x35b077e731d80aef"}, {"place_id": "0x396256a4c71572d3:0x347474341f5c85e3", "name": "Lupin Limited", "category": "Pharmaceutical company", "street": "Plot No. 2, SEZ Phase-II, Misc Zone, Apparel Park", "city": "District Dhar", "phone": "07292417300", "website": "https://www.lupin.com/", "rating": 4.1, "review_count": "", "latitude": 22.622044499999998, "longitude": 75.637076, "maps_url": "https://www.google.com/maps/place/?q=place_id:0x396256a4c71572d3:0x347474341f5c85e3"}, {"place_id": "0x396253e0f2611e75:0xe217224899890f7a", "name": "Larsen & Toubro Limited", "category": "Corporate office", "street": "158-B, 454774", "city": "Pithampur Industrial Area, Sector-3", "phone": "07292400740", "website": "http://www.larsentoubro.com/", "rating": 4.1, "review_count": "", "latitude": 22.6347052, "longitude": 75.59804799999999, "maps_url": "https://www.google.com/maps/place/?q=place_id:0x396253e0f2611e75:0xe217224899890f7a"}, {"place_id": "0x3962534ad2204585:0xb63f9d2ab0283922", "name": "Thinq pharmacutical pvt. limited", "category": "Chemical plant", "street": "Pithampur Industrial Area", "city": "Madhya Pradesh 454774", "phone": "", "website": "", "rating": 4.3, "review_count": "", "latitude": 22.6460269, "longitude": 75.5812791, "maps_url": "https://www.google.com/maps/place/?q=place_id:0x3962534ad2204585:0xb63f9d2ab0283922"}, {"place_id": "0x396257148c4549b1:0x9a4ad0de3d372f5e", "name": "Motherson Sumi Wiring India Ltd (Plant 1)", "category": "Auto parts manufacturer", "street": "Plot No. 8", "city": "Sector-5", "phone": "", "website": "https://www.motherson.com/", "rating": 4.1, "review_count": "", "latitude": 22.618008, "longitude": 75.638375, "maps_url": "https://www.google.com/maps/place/?q=place_id:0x396257148c4549b1:0x9a4ad0de3d372f5e"}, {"place_id": "0x396256403e4814d1:0x3ac3418031db49ba", "name": "Prashanti Engineering Works Pvt. Ltd.", "category": "Auto parts manufacturer", "street": "Pithampur Industrial Area", "city": "Pithampur, Madhya Pradesh 454775", "phone": "", "website": "https://prashantiengg.com/", "rating": 4.2, "review_count": "", "latitude": 22.613792099999998, "longitude": 75.68907349999999, "maps_url": "https://www.google.com/maps/place/?q=place_id:0x396256403e4814d1:0x3ac3418031db49ba"}, {"place_id": "0x3962573e64a3132f:0x1fff58d012af4d03", "name": "Motherson Sumi Electric Wires(MSEW)", "category": "Automation company", "street": "Plot No 3, Industrial Growth Centre", "city": "Pithampur Industrial Area", "phone": "", "website": "http://www.motherson.com/", "rating": 4, "review_count": "", "latitude": 22.6211363, "longitude": 75.6293762, "maps_url": "https://www.google.com/maps/place/?q=place_id:0x3962573e64a3132f:0x1fff58d012af4d03"}, {"place_id": "0x39625163ce25524d:0xda13e14634646d84", "name": "Erawat Pharma Limited", "category": "Manufacturer", "street": "512, Industrial Area No. 3, Pithampur, Rau - Pithampur Rd", "city": "Pithampur Industrial Area", "phone": "07316659100", "website": "http://www.erawat.com/", "rating": 3.9, "review_count": "", "latitude": 22.6256748, "longitude": 75.59043489999999, "maps_url": "https://www.google.com/maps/place/?q=place_id:0x39625163ce25524d:0xda13e14634646d84"}, {"place_id": "0x3963ffe90de78f43:0xad94a873253734ed", "name": "APK APPARELS PRIVATE LIMITED", "category": "Garment Exporter", "street": "PLOT NO. 33", "city": "Pithampur Industrial Area, SECTOR 2, Industrial Area", "phone": "09893408014", "website": "http://www.apkapparels.in/", "rating": 4.9, "review_count": "", "latitude": 22.625024699999997, "longitude": 75.6742846, "maps_url": "https://www.google.com/maps/place/?q=place_id:0x3963ffe90de78f43:0xad94a873253734ed"}, {"place_id": "0x39625161162d52ad:0xfaa74529699445a1", "name": "ARPIJAY FABTICATORS", "category": "Corporate office", "street": "JHGV+4FP", "city": "Pithampur Industrial Area", "phone": "", "website": "", "rating": 4.3, "review_count": "", "latitude": 22.6253432, "longitude": 75.5937129, "maps_url": "https://www.google.com/maps/place/?q=place_id:0x39625161162d52ad:0xfaa74529699445a1"}, {"place_id": "0x3962565de2c263eb:0x3f95f7eb8a7214c5", "name": "VE Commercial Vehicles Limited", "category": "Corporate office", "street": "Pithampur Industrial Area", "city": "Pithampur, Madhya Pradesh 454775", "phone": "01244415600", "website": "http://www.vecv.in/", "rating": 4.3, "review_count": "", "latitude": 22.611927299999998, "longitude": 75.6744796, "maps_url": "https://www.google.com/maps/place/?q=place_id:0x3962565de2c263eb:0x3f95f7eb8a7214c5"}, {"place_id": "0x396253ffce365433:0x2f204a66b907cbd6", "name": "Mylan laboratories LIMITED,PITHAMPUR", "category": "Company", "street": "JJM9+39P", "city": "Pithampur Industrial Area", "phone": "07292370200", "website": "http://www.mylan.com/", "rating": 4.1, "review_count": "", "latitude": 22.632723499999997, "longitude": 75.6184401, "maps_url": "https://www.google.com/maps/place/?q=place_id:0x396253ffce365433:0x2f204a66b907cbd6"}, {"place_id": "0x396256630fad880d:0x34336f61dc52c36", "name": "Swaraj Technocraft Ltd", "category": "Industrial equipment supplier", "street": "plot no. 40", "city": "Pithampur Industrial Area, Sector 2", "phone": "09752265813", "website": "http://swarajtechnocrafts.com/", "rating": 3.9, "review_count": "", "latitude": 22.6231241, "longitude": 75.6709223, "maps_url": "https://www.google.com/maps/place/?q=place_id:0x396256630fad880d:0x34336f61dc52c36"}, {"place_id": "0x39625232dca1c709:0x9be4434972b2d936", "name": "NIRMAL TRADING CORPORATION", "category": "Welding supply store", "street": "PLOT NO 275", "city": "Pithampur Industrial Area, SECTOR 1", "phone": "08109089001", "website": "http://ntcsales.in/", "rating": 4.7, "review_count": "", "latitude": 22.6183326, "longitude": 75.6932484, "maps_url": "https://www.google.com/maps/place/?q=place_id:0x39625232dca1c709:0x9be4434972b2d936"}, {"place_id": "0x3962573e40e05fa1:0xe348ab6cc0aed9ad", "name": "Liugong India plant", "category": "Manufacturer", "street": "Plot no 163", "city": "Pithampur Industrial Area, Sector-3", "phone": "", "website": "http://www.liugong.com/", "rating": 4.1, "review_count": "", "latitude": 22.6403398, "longitude": 75.5938698, "maps_url": "https://www.google.com/maps/place/?q=place_id:0x3962573e40e05fa1:0xe348ab6cc0aed9ad"}, {"place_id": "0x3962530c7cdc5143:0xc933a67c89f20d34", "name": "Worth Peripherals Ltd.", "category": "Bus company", "street": "JHPR+9JG", "city": "Pithampur Industrial Area", "phone": "02262638200", "website": "https://www.worthindia.com/", "rating": 3.9, "review_count": "", "latitude": 22.6359375, "longitude": 75.5915625, "maps_url": "https://www.google.com/maps/place/?q=place_id:0x3962530c7cdc5143:0xc933a67c89f20d34"}, {"place_id": "0x396253d8f5506d15:0x19fc54f1756e33f3", "name": "Mohini Health & Hygiene Ltd (Formerly known as Mohini Fibers Pvt Ltd)", "category": "Pharmaceutical company", "street": "JHJQ+GJ5", "city": "109, Sector 3", "phone": "07292426665", "website": "http://mohinihealthandhygiene.com/", "rating": 4.3, "review_count": "", "latitude": 22.631111, "longitude": 75.588921, "maps_url": "https://www.google.com/maps/place/?q=place_id:0x396253d8f5506d15:0x19fc54f1756e33f3"}, {"place_id": "0x39625619956530f7:0x52ada2b7713e79d5", "name": "Diversitech General Engg. Pvt. Ltd. Unit 2", "category": "Manufacturer", "street": "Plot no. 201 A", "city": "Pithampur Industrial Area, Sector no. 1", "phone": "07292403106", "website": "https://www.diversitech.in/", "rating": 4.3, "review_count": "", "latitude": 22.621321, "longitude": 75.70338319999999, "maps_url": "https://www.google.com/maps/place/?q=place_id:0x39625619956530f7:0x52ada2b7713e79d5"}, {"place_id": "0x39625167e753a401:0xeec717a4d0375f75", "name": "Kingspan Jindal Pvt. Ltd.", "category": "Real Estate Builders & Construction Company", "street": "JH9W+9QP", "city": "Pithampur Industrial Area", "phone": "09516666886", "website": "http://www.kingspanjindal.com/", "rating": 4.2, "review_count": "", "latitude": 22.6184613, "longitude": 75.5969537, "maps_url": "https://www.google.com/maps/place/?q=place_id:0x39625167e753a401:0xeec717a4d0375f75"}, {"place_id": "0x396253c0ce7c1615:0x954bdde2dd06fc6c", "name": "Qualipack packagings pvt. Ltd.", "category": "Suppliers", "street": "Plot no.152-A sector-3", "city": "behind Bagdun police Station", "phone": "", "website": "", "rating": 4.3, "review_count": "", "latitude": 22.6369316, "longitude": 75.5911464, "maps_url": "https://www.google.com/maps/place/?q=place_id:0x396253c0ce7c1615:0x954bdde2dd06fc6c"}, {"place_id": "0x396256464da4be57:0x81feca1ea650d13a", "name": "Kores India Engineering", "category": "Manufacturer", "street": "Plot no.6", "city": "Sector 1, Industrial Area, Sagour Kuti", "phone": "09223286731", "website": "https://engineering.kores.in/", "rating": 4.2, "review_count": "", "latitude": 22.6052629, "longitude": 75.68751019999999, "maps_url": "https://www.google.com/maps/place/?q=place_id:0x396256464da4be57:0x81feca1ea650d13a"}]}