{"timestamp": 1773733413.334529, "keyword": "IT company", "location": "Indore", "cell_idx": 31, "results": [{"place_id": "0x3962fd71266aaa83:0x82398caa17930a40", "name": "Octavian InfoTech LLP", "category": "Software company", "street": "A 41 Ayodhya Puri", "city": "Kodriya", "phone": "09977741168", "website": "https://www.octavianinfotech.com/", "rating": 5, "review_count": "", "latitude": 22.537258599999998, "longitude": 75.7726136, "maps_url": "https://www.google.com/maps/place/?q=place_id:0x3962fd71266aaa83:0x82398caa17930a40"}, {"place_id": "0x3962367e582f0f65:0xabcb6b1d7969eec8", "name": "Mahavir Infotech", "category": "Computer support and services", "street": "Office No 4, 2nd Floor", "city": "Aadarsh Road", "phone": "09424003908", "website": "https://mahavirinfotech.in/", "rating": 4.8, "review_count": "", "latitude": 22.6002054, "longitude": 75.3087668, "maps_url": "https://www.google.com/maps/place/?q=place_id:0x3962367e582f0f65:0xabcb6b1d7969eec8"}, {"place_id": "0x390ce458d0000001:0xf2123bd299ec4501", "name": "IT Company India", "category": "Software company", "street": "D56", "city": "D Block, Sector 10", "phone": "09999244854", "website": "https://www.itcompanyindia.in/", "rating": 4.7, "review_count": "", "latitude": 28.589917699999997, "longitude": 77.3351153, "maps_url": "https://www.google.com/maps/place/?q=place_id:0x390ce458d0000001:0xf2123bd299ec4501"}, {"place_id": "0x39625774032b2dd1:0x101c44ef5a877752", "name": "Varcas Nexgen | Digital Marketing & IT Services Company", "category": "Software company", "street": "AL163", "city": "H.B Colony", "phone": "08602758854", "website": "https://www.varcasnexgen.com/", "rating": 5, "review_count": "", "latitude": 22.599356999999998, "longitude": 75.68772539999999, "maps_url": "https://www.google.com/maps/place/?q=place_id:0x39625774032b2dd1:0x101c44ef5a877752"}, {"place_id": "0x3962367c57dba0f5:0x9a2f507b00966283", "name": "Akshat Computers & Binary Solutions", "category": "Software company", "street": "9, Mahaveer Marg", "city": "Pochaupati", "phone": "09893210607", "website": "https://binarysolutions.in/", "rating": 3.8, "review_count": "", "latitude": 22.5936734, "longitude": 75.2982109, "maps_url": "https://www.google.com/maps/place/?q=place_id:0x3962367c57dba0f5:0x9a2f507b00966283"}, {"place_id": "0x39620d727537131f:0x1157f277c683c015", "name": "YOUTAG INFOTECH PVT LTD BARWANI", "category": "Business networking company", "street": "post", "city": "Deola, Balgaon, Madhya Pradesh 451660", "phone": "09171751390", "website": "https://www.youtagindia.in/", "rating": 5, "review_count": "", "latitude": 22.0499793, "longitude": 75.3025514, "maps_url": "https://www.google.com/maps/place/?q=place_id:0x39620d727537131f:0x1157f277c683c015"}, {"place_id": "0x3be7c21b5901e181:0x7fe794585addc1f6", "name": "Smartinfologiks - Software Development Company in India | IT Solutions", "category": "Software company", "street": "Hilton Center", "city": "514", "phone": "07400064691", "website": "https://www.smartinfologiks.com/", "rating": 4.6, "review_count": "", "latitude": 19.0139592, "longitude": 73.0382705, "maps_url": "https://www.google.com/maps/place/?q=place_id:0x3be7c21b5901e181:0x7fe794585addc1f6"}, {"place_id": "0x396256a28661ad75:0xa315a629fe76f6be", "name": "Cummins Turbo Technologies Ltd.", "category": "Manufacturer", "street": "Indore Special Economic Zone Phase II", "city": "Division of Cummins Technologies India ltd, Plot No. M5, Sector 3", "phone": "07292301300", "website": "http://www.cummins.com/turbos", "rating": 4.5, "review_count": "", "latitude": 22.625135699999998, "longitude": 75.6430572, "maps_url": "https://www.google.com/maps/place/?q=place_id:0x396256a28661ad75:0xa315a629fe76f6be"}, {"place_id": "0x396255efadca2437:0xfed5742d979c4770", "name": "PRATAP DIGITAL COMMUNICATIONS PVT. LTD.", "category": "Manufacturer", "street": "Smart Industrial Park Natrip", "city": "Plot no. 40", "phone": "", "website": "https://www.corsis.in/", "rating": 4.7, "review_count": "", "latitude": 22.5818367, "longitude": 75.593475, "maps_url": "https://www.google.com/maps/place/?q=place_id:0x396255efadca2437:0xfed5742d979c4770"}, {"place_id": "0x3bc2becdc35b6937:0x515ac559c349eee3", "name": "Thinkitive Technologies Private Limited", "category": "Software company", "street": "4th Floor", "city": "ABIL IMPERIAL COMMERCIAL SPACES", "phone": "08956467327", "website": "https://www.thinkitive.com/", "rating": 3.9, "review_count": "", "latitude": 18.5563888, "longitude": 73.7729748, "maps_url": "https://www.google.com/maps/place/?q=place_id:0x3bc2becdc35b6937:0x515ac559c349eee3"}, {"place_id": "0x3962fd5eec2cf6a9:0xe1b5f67b53e20d06", "name": "Technoecorp Service Private Limited", "category": "Software company", "street": "C 180 chhatra Chhaya sector 01 Pithampur", "city": "Distt", "phone": "", "website": "http://www.technoecorp.com/", "rating": 4.9, "review_count": "", "latitude": 22.6052993, "longitude": 75.6858365, "maps_url": "https://www.google.com/maps/place/?q=place_id:0x3962fd5eec2cf6a9:0xe1b5f67b53e20d06"}, {"place_id": "0x396237a4019d3be3:0xa915e25448c5a7b1", "name": "Tech Services and Products JMDRB INDIA", "category": "Software company", "street": "infront of GDC college", "city": "14, fadhke Marg", "phone": "", "website": "https://www.techservicesproductsjmdrbindia.space/", "rating": "", "review_count": "", "latitude": 22.598054899999998, "longitude": 75.3039628, "maps_url": "https://www.google.com/maps/place/?q=place_id:0x396237a4019d3be3:0xa915e25448c5a7b1"}, {"place_id": "0x3962366352f80047:0x349bf5fdf91c2b27", "name": "Saluja", "category": "Software company", "street": "115 Rajendra Marg", "city": "99 Nalcha Gate", "phone": "", "website": "http://www.saluja.asia/", "rating": 4.3, "review_count": "", "latitude": 22.5907648, "longitude": 75.29979589999999, "maps_url": "https://www.google.com/maps/place/?q=place_id:0x3962366352f80047:0x349bf5fdf91c2b27"}, {"place_id": "0x3962374822b4e92f:0x86498addb1b43b0a", "name": "Smart Technology Information", "category": "Computer service", "street": "District Bhoj Hospital 14", "city": "Bhoj Civil Hospital", "phone": "09685530890", "website": "", "rating": 4.8, "review_count": "", "latitude": 22.5942608, "longitude": 75.30929309999999, "maps_url": "https://www.google.com/maps/place/?q=place_id:0x3962374822b4e92f:0x86498addb1b43b0a"}, {"place_id": "0x396256464da4be57:0x81feca1ea650d13a", "name": "Kores India Engineering", "category": "Manufacturer", "street": "Plot no.6", "city": "Sector 1, Industrial Area, Sagour Kuti", "phone": "09223286731", "website": "https://engineering.kores.in/", "rating": 4.2, "review_count": "", "latitude": 22.6052629, "longitude": 75.68751019999999, "maps_url": "https://www.google.com/maps/place/?q=place_id:0x396256464da4be57:0x81feca1ea650d13a"}, {"place_id": "0x3962517f515688ed:0xde8f4000edf9aa47", "name": "Jalpa Devi Engineering Pvt. Ltd., Dilip Buildcon Limited", "category": "Corporate office", "street": "Plot no. 831 to 836", "city": "near Indorama Mandir", "phone": "", "website": "", "rating": 4.4, "review_count": "", "latitude": 22.6217869, "longitude": 75.5746976, "maps_url": "https://www.google.com/maps/place/?q=place_id:0x3962517f515688ed:0xde8f4000edf9aa47"}, {"place_id": "0x39625665383e0ec3:0xe07ade2d739f8b42", "name": "Acoem India", "category": "Manufacturer", "street": "Plot No 57 Pithampur", "city": "Sector 2", "phone": "07292426409", "website": "https://www.acoem.com/india", "rating": 4.5, "review_count": "", "latitude": 22.6248209, "longitude": 75.6773436, "maps_url": "https://www.google.com/maps/place/?q=place_id:0x39625665383e0ec3:0xe07ade2d739f8b42"}, {"place_id": "0x3962571f328ba1d1:0x7052e3a0dc6e3536", "name": "Altis Industries Pvt. Ltd.", "category": "Corporate office", "street": "BR 04, Industrial Growth Center Pithampur - V, De-Notified Area", "city": "Madhya Pradesh 454774", "phone": "07314780800", "website": "http://www.altis.in/", "rating": 4.1, "review_count": "", "latitude": 22.6199776, "longitude": 75.6465839, "maps_url": "https://www.google.com/maps/place/?q=place_id:0x3962571f328ba1d1:0x7052e3a0dc6e3536"}, {"place_id": "0x396237efa1953b6d:0x47c8b365b4308d7b", "name": "S.G.Technologies", "category": "Computer store", "street": "14", "city": "Kashi Bagh Complex", "phone": "09131689787", "website": "", "rating": 5, "review_count": "", "latitude": 22.6033294, "longitude": 75.3115428, "maps_url": "https://www.google.com/maps/place/?q=place_id:0x396237efa1953b6d:0x47c8b365b4308d7b"}, {"place_id": "0x3962522c60474e65:0x7c886eb4fd5691be", "name": "SIMRAN AGRITECH PVT. LTD.", "category": "Food manufacturer", "street": "Plot no. 63", "city": "Pithampur Industrial Area, Industrial Area, Sector-3", "phone": "", "website": "", "rating": 4, "review_count": "", "latitude": 22.635094799999997, "longitude": 75.5705401, "maps_url": "https://www.google.com/maps/place/?q=place_id:0x3962522c60474e65:0x7c886eb4fd5691be"}, {"place_id": "0x3962561639dcf60f:0x73f3c8893e81980b", "name": "Cipla Limited (Unit 1)", "category": "Pharmaceutical company", "street": "Plot no. 9, SEZ", "city": "Pithampur Industrial Area", "phone": "02224826000", "website": "http://www.cipla.com/", "rating": 4.2, "review_count": "", "latitude": 22.629214899999997, "longitude": 75.6227652, "maps_url": "https://www.google.com/maps/place/?q=place_id:0x3962561639dcf60f:0x73f3c8893e81980b"}, {"place_id": "0x39625614deab87c9:0xac1a988eafd5ac01", "name": "Aeon Medical Private Limited", "category": "Manufacturer", "street": "Sector No.-1", "city": "62, 63 & 64A", "phone": "08989978403", "website": "http://www.aeonmedical.co.in/", "rating": 4.9, "review_count": "", "latitude": 22.6169555, "longitude": 75.6897161, "maps_url": "https://www.google.com/maps/place/?q=place_id:0x39625614deab87c9:0xac1a988eafd5ac01"}, {"place_id": "0x396256a4c71572d3:0x347474341f5c85e3", "name": "Lupin Limited", "category": "Pharmaceutical company", "street": "Plot No. 2, SEZ Phase-II, Misc Zone, Apparel Park", "city": "District Dhar", "phone": "07292417300", "website": "https://www.lupin.com/", "rating": 4.1, "review_count": "", "latitude": 22.622044499999998, "longitude": 75.637076, "maps_url": "https://www.google.com/maps/place/?q=place_id:0x396256a4c71572d3:0x347474341f5c85e3"}, {"place_id": "0x396257edbb3a0893:0xe7479b53ae320e14", "name": "Universe Capsules Biotech Pvt. Ltd", "category": "Pharmaceutical company", "street": "Plot No. 83, Smart Industrial Park", "city": "Pithampur", "phone": "09589872422", "website": "https://universecapsules.com/", "rating": 5, "review_count": "", "latitude": 22.5730923, "longitude": 75.5957118, "maps_url": "https://www.google.com/maps/place/?q=place_id:0x396257edbb3a0893:0xe7479b53ae320e14"}, {"place_id": "0x39625710d533ab11:0xfa00527d942051ef", "name": "Praveer Industries", "category": "3D printing service", "street": "Sunrise town", "city": "74/75", "phone": "09770205594", "website": "https://thepraveerstore.com/", "rating": 5, "review_count": "", "latitude": 22.589725299999998, "longitude": 75.6874455, "maps_url": "https://www.google.com/maps/place/?q=place_id:0x39625710d533ab11:0xfa00527d942051ef"}, {"place_id": "0x3962518119320775:0x7fdc9b44dfe0d9e5", "name": "Torrent Pharmaceuticals Ltd", "category": "Pharmaceutical company", "street": "Plot. No. 810, Sector III, Industrial Area Pithampur", "city": "Kalibillod, Madhya Pradesh 454774", "phone": "07292256224", "website": "http://www.torrentpharma.com/", "rating": 4.3, "review_count": "", "latitude": 22.6242345, "longitude": 75.56933529999999, "maps_url": "https://www.google.com/maps/place/?q=place_id:0x3962518119320775:0x7fdc9b44dfe0d9e5"}, {"place_id": "0x3962367be790bf59:0x4ead4bf852529e4a", "name": "Mouse Computer Sales & Service", "category": "Computer store", "street": "VEER SAVARKAR NAGAR", "city": "167-B, Magajpura Rd", "phone": "", "website": "", "rating": 4.1, "review_count": "", "latitude": 22.597451, "longitude": 75.31164799999999, "maps_url": "https://www.google.com/maps/place/?q=place_id:0x3962367be790bf59:0x4ead4bf852529e4a"}, {"place_id": "0x396245d7112e4359:0xf1d220091502fb47", "name": "Ma Aashapuri Online", "category": "Computer support and services", "street": "455, To", "city": "Dhamnond", "phone": "08120518107", "website": "", "rating": "", "review_count": "", "latitude": 22.4554464, "longitude": 75.45632979999999, "maps_url": "https://www.google.com/maps/place/?q=place_id:0x396245d7112e4359:0xf1d220091502fb47"}, {"place_id": "0x396257738d472b69:0xac0ef39ab243dda7", "name": "ZF Steering Gear (India) Limited", "category": "Manufacturer", "street": "Pithampur Industrial Area", "city": "Pithampur, Madhya Pradesh 454774", "phone": "02137305100", "website": "http://www.zfindia.com/", "rating": 4.4, "review_count": "", "latitude": 22.6219598, "longitude": 75.6457784, "maps_url": "https://www.google.com/maps/place/?q=place_id:0x396257738d472b69:0xac0ef39ab243dda7"}, {"place_id": "0x396253e0f2611e75:0xe217224899890f7a", "name": "Larsen & Toubro Limited", "category": "Corporate office", "street": "158-B, 454774", "city": "Pithampur Industrial Area, Sector-3", "phone": "07292400740", "website": "http://www.larsentoubro.com/", "rating": 4.1, "review_count": "", "latitude": 22.6347052, "longitude": 75.59804799999999, "maps_url": "https://www.google.com/maps/place/?q=place_id:0x396253e0f2611e75:0xe217224899890f7a"}, {"place_id": "0x396256ac375b75eb:0x2401e406b4ae6cf9", "name": "Bridgestone India Private Limited", "category": "Corporate office", "street": "Kheda Growth Centre", "city": "Plot No. 12, Post", "phone": "07292423333", "website": "http://www.bridgestone.co.in/", "rating": 4.3, "review_count": "", "latitude": 22.6240867, "longitude": 75.6249787, "maps_url": "https://www.google.com/maps/place/?q=place_id:0x396256ac375b75eb:0x2401e406b4ae6cf9"}, {"place_id": "0x3962565de2c263eb:0x3f95f7eb8a7214c5", "name": "VE Commercial Vehicles Limited", "category": "Corporate office", "street": "Pithampur Industrial Area", "city": "Pithampur, Madhya Pradesh 454775", "phone": "01244415600", "website": "http://www.vecv.in/", "rating": 4.3, "review_count": "", "latitude": 22.611927299999998, "longitude": 75.6744796, "maps_url": "https://www.google.com/maps/place/?q=place_id:0x3962565de2c263eb:0x3f95f7eb8a7214c5"}, {"place_id": "0x396256a9a6a6b611:0xd257ef1a76381913", "name": "Glenmark Pharmaceuticals Ltd.", "category": "Pharmaceutical company", "street": "Plot No.2, Phase II, Pharma Zone, ISEZ", "city": "Pithampur, Madhya Pradesh 454774", "phone": "07292667900", "website": "http://glenmarkpharma.com/", "rating": 4.5, "review_count": "", "latitude": 22.6303257, "longitude": 75.6284524, "maps_url": "https://www.google.com/maps/place/?q=place_id:0x396256a9a6a6b611:0xd257ef1a76381913"}, {"place_id": "0x3962fb25e310c02f:0xc3b411c572aa8f40", "name": "Growtech Agri Science and Research Pvt Ltd", "category": "Corporate office", "street": "GMG7+7HW", "city": "Unnamed Road", "phone": "07312856994", "website": "http://www.growtechagriscience.com/", "rating": 4.7, "review_count": "", "latitude": 22.525745999999998, "longitude": 75.6639651, "maps_url": "https://www.google.com/maps/place/?q=place_id:0x3962fb25e310c02f:0xc3b411c572aa8f40"}, {"place_id": "0x39625181a8160835:0xc71f64a785bc90ce", "name": "Signet Industries Ltd.", "category": "Pipe Manufacturer", "street": "JHFC+JHC", "city": "Pithampur Industrial Area", "phone": "07314217800", "website": "https://www.groupsignet.com/contact-us.html", "rating": 3.2, "review_count": "", "latitude": 22.624068599999998, "longitude": 75.571404, "maps_url": "https://www.google.com/maps/place/?q=place_id:0x39625181a8160835:0xc71f64a785bc90ce"}, {"place_id": "0x396256877c6df571:0xd046f0f12a79401f", "name": "Piramal Pharma Limited", "category": "Pharmaceutical company", "street": "plot 67", "city": "70", "phone": "07292428383", "website": "https://www.piramalpharmasolutions.com/", "rating": 4.3, "review_count": "", "latitude": 22.6280648, "longitude": 75.6670381, "maps_url": "https://www.google.com/maps/place/?q=place_id:0x396256877c6df571:0xd046f0f12a79401f"}, {"place_id": "0x396256403e4814d1:0x3ac3418031db49ba", "name": "Prashanti Engineering Works Pvt. Ltd.", "category": "Auto parts manufacturer", "street": "Pithampur Industrial Area", "city": "Pithampur, Madhya Pradesh 454775", "phone": "", "website": "https://prashantiengg.com/", "rating": 4.2, "review_count": "", "latitude": 22.613792099999998, "longitude": 75.68907349999999, "maps_url": "https://www.google.com/maps/place/?q=place_id:0x396256403e4814d1:0x3ac3418031db49ba"}, {"place_id": "0x396257148c4549b1:0x9a4ad0de3d372f5e", "name": "Motherson Sumi Wiring India Ltd (Plant 1)", "category": "Auto parts manufacturer", "street": "Plot No. 8", "city": "Sector-5", "phone": "", "website": "https://www.motherson.com/", "rating": 4.1, "review_count": "", "latitude": 22.618008, "longitude": 75.638375, "maps_url": "https://www.google.com/maps/place/?q=place_id:0x396257148c4549b1:0x9a4ad0de3d372f5e"}, {"place_id": "0x396257adf5285e4f:0x47f23c9e72775fa", "name": "Eicher Company Pithampur", "category": "Manufacturer", "street": "Pithampur Industrial Area", "city": "Pithampur, Madhya Pradesh 454775", "phone": "", "website": "", "rating": 4.4, "review_count": "", "latitude": 22.6113166, "longitude": 75.6747529, "maps_url": "https://www.google.com/maps/place/?q=place_id:0x396257adf5285e4f:0x47f23c9e72775fa"}, {"place_id": "0x396253ffce365433:0x2f204a66b907cbd6", "name": "Mylan laboratories LIMITED,PITHAMPUR", "category": "Company", "street": "JJM9+39P", "city": "Pithampur Industrial Area", "phone": "07292370200", "website": "http://www.mylan.com/", "rating": 4.1, "review_count": "", "latitude": 22.632723499999997, "longitude": 75.6184401, "maps_url": "https://www.google.com/maps/place/?q=place_id:0x396253ffce365433:0x2f204a66b907cbd6"}, {"place_id": "0x3962522ccec2044d:0xb118c4e81afaec7a", "name": "Gallard Steel Limited", "category": "Foundry", "street": "66, Sector 3", "city": "Pithampur Industrial Area", "phone": "09926904052", "website": "http://gallardsteel.com/", "rating": 4.3, "review_count": "", "latitude": 22.6203894, "longitude": 75.5703683, "maps_url": "https://www.google.com/maps/place/?q=place_id:0x3962522ccec2044d:0xb118c4e81afaec7a"}, {"place_id": "0x39625792f4c37da9:0x46ed324b14a9e54b", "name": "TECHNO BUILD ENTERPRISES", "category": "Civil engineering company", "street": "", "city": "", "phone": "07024869869", "website": "", "rating": 4.6, "review_count": "", "latitude": 22.6051772, "longitude": 75.68250119999999, "maps_url": "https://www.google.com/maps/place/?q=place_id:0x39625792f4c37da9:0x46ed324b14a9e54b"}, {"place_id": "0x396253d6cb5bf6e3:0x35b077e731d80aef", "name": "Simplex Metal Processors(I) Pvt. Ltd.", "category": "Manufacturer", "street": "Plot No. 70 D & 70C", "city": "Pithampur Industrial Area, Sector-3", "phone": "09752494211", "website": "http://simplexmetalprocessors.com/", "rating": 4.3, "review_count": "", "latitude": 22.632206099999998, "longitude": 75.581861, "maps_url": "https://www.google.com/maps/place/?q=place_id:0x396253d6cb5bf6e3:0x35b077e731d80aef"}, {"place_id": "0x39625163ce25524d:0xda13e14634646d84", "name": "Erawat Pharma Limited", "category": "Manufacturer", "street": "512, Industrial Area No. 3, Pithampur, Rau - Pithampur Rd", "city": "Pithampur Industrial Area", "phone": "07316659100", "website": "http://www.erawat.com/", "rating": 3.9, "review_count": "", "latitude": 22.6256748, "longitude": 75.59043489999999, "maps_url": "https://www.google.com/maps/place/?q=place_id:0x39625163ce25524d:0xda13e14634646d84"}, {"place_id": "0x39625f766fcb4239:0x805879318352fff3", "name": "Shree Sawariya Computer And Mobile Repairing", "category": "Computer support and services", "street": "1, Ab Road", "city": "near by Tejaji Mandir", "phone": "09575153691", "website": "", "rating": 5, "review_count": "", "latitude": 22.4331791, "longitude": 75.62092729999999, "maps_url": "https://www.google.com/maps/place/?q=place_id:0x39625f766fcb4239:0x805879318352fff3"}, {"place_id": "0x39625619956530f7:0x52ada2b7713e79d5", "name": "Diversitech General Engg. Pvt. Ltd. Unit 2", "category": "Manufacturer", "street": "Plot no. 201 A", "city": "Pithampur Industrial Area, Sector no. 1", "phone": "07292403106", "website": "https://www.diversitech.in/", "rating": 4.3, "review_count": "", "latitude": 22.621321, "longitude": 75.70338319999999, "maps_url": "https://www.google.com/maps/place/?q=place_id:0x39625619956530f7:0x52ada2b7713e79d5"}, {"place_id": "0x396253d8042890b9:0x8bd88116fbab4c2a", "name": "SRF Limited", "category": "Manufacturer", "street": "JHHP+QGG", "city": "Mhow-Ghatabillod Road, Pithampur Industrial Area", "phone": "09425776389", "website": "http://www.srf.com/", "rating": 4.2, "review_count": "", "latitude": 22.62944, "longitude": 75.5863433, "maps_url": "https://www.google.com/maps/place/?q=place_id:0x396253d8042890b9:0x8bd88116fbab4c2a"}, {"place_id": "0x3962515b2909ef5f:0xfa7d0d95951452f4", "name": "Makin Laboratories Pvt.Ltd", "category": "Pharmaceutical company", "street": "JJC3+68Q", "city": "Pithampur Industrial Area", "phone": "", "website": "http://makinlaboratories.com/", "rating": 3.5, "review_count": "", "latitude": 22.6205851, "longitude": 75.60336749999999, "maps_url": "https://www.google.com/maps/place/?q=place_id:0x3962515b2909ef5f:0xfa7d0d95951452f4"}, {"place_id": "0x3962573e64a3132f:0x1fff58d012af4d03", "name": "Motherson Sumi Electric Wires(MSEW)", "category": "Automation company", "street": "Plot No 3, Industrial Growth Centre", "city": "Pithampur Industrial Area", "phone": "", "website": "http://www.motherson.com/", "rating": 4, "review_count": "", "latitude": 22.6211363, "longitude": 75.6293762, "maps_url": "https://www.google.com/maps/place/?q=place_id:0x3962573e64a3132f:0x1fff58d012af4d03"}, {"place_id": "0x396253c4379a5143:0xca08a61266281a58", "name": "Ipca Laboratories Ltd. (Biotech)", "category": "Pharmaceutical company", "street": "JHHC+5H4", "city": "Unnamed Road", "phone": "", "website": "", "rating": 4.2, "review_count": "", "latitude": 22.6278893, "longitude": 75.57146089999999, "maps_url": "https://www.google.com/maps/place/?q=place_id:0x396253c4379a5143:0xca08a61266281a58"}, {"place_id": "0x396256654b689cb5:0x86b5879129e0e77c", "name": "SPM Autocomp Pvt. Ltd.", "category": "Foundry", "street": "Unnamed Road", "city": "Pithampur Industrial Area", "phone": "08869977348", "website": "", "rating": 4.2, "review_count": "", "latitude": 22.6259072, "longitude": 75.67884289999999, "maps_url": "https://www.google.com/maps/place/?q=place_id:0x396256654b689cb5:0x86b5879129e0e77c"}, {"place_id": "0x396256bcd8cfab9b:0x2ab07550da5c6766", "name": "Rubicon Research Ltd, Pithampur", "category": "Manufacturer", "street": "JJCR+G98", "city": "Pithampur Industrial Area", "phone": "", "website": "http://www.rubicon.co.in/", "rating": 4.4, "review_count": "", "latitude": 22.6212967, "longitude": 75.6409537, "maps_url": "https://www.google.com/maps/place/?q=place_id:0x396256bcd8cfab9b:0x2ab07550da5c6766"}, {"place_id": "0x39625742e7f09c03:0x1422e205ccbcfc55", "name": "PEB Konstruct Technofab Pvt Ltd", "category": "Manufacturer", "street": "AH47", "city": "Pithampur Industrial Area", "phone": "08718000037", "website": "https://www.konstructpeb.com/", "rating": 5, "review_count": "", "latitude": 22.6193705, "longitude": 75.71231019999999, "maps_url": "https://www.google.com/maps/place/?q=place_id:0x39625742e7f09c03:0x1422e205ccbcfc55"}, {"place_id": "0x3962517e0c74fa11:0xa0a3d22fdafc3a15", "name": "Shakti Pumps India Limited", "category": "Corporate office", "street": "Plot No. 401, 402, & 413 Industrial Area", "city": "Sector-3", "phone": "07292410500", "website": "https://www.shaktipumps.com/", "rating": 4.3, "review_count": "", "latitude": 22.626606, "longitude": 75.58131569999999, "maps_url": "https://www.google.com/maps/place/?q=place_id:0x3962517e0c74fa11:0xa0a3d22fdafc3a15"}, {"place_id": "0x39625176f708b433:0xd14d3dedb56604c0", "name": "Tenneco Clean Air India Pvt Ltd", "category": "Industrial consultant", "street": "Asukhedi, Madhya Pradesh 454774", "city": "", "phone": "", "website": "", "rating": 4.2, "review_count": "", "latitude": 22.571509799999998, "longitude": 75.59651509999999, "maps_url": "https://www.google.com/maps/place/?q=place_id:0x39625176f708b433:0xd14d3dedb56604c0"}, {"place_id": "0x3962519fa04c9a8f:0x16d70a86722b557d", "name": "Vivekananda Enterprise", "category": "Computer support and services", "street": "Mukati Colony", "city": "Sagore Rd", "phone": "08109742835", "website": "", "rating": 5, "review_count": "", "latitude": 22.599554299999998, "longitude": 75.6015196, "maps_url": "https://www.google.com/maps/place/?q=place_id:0x3962519fa04c9a8f:0x16d70a86722b557d"}, {"place_id": "0x396253d5f1876d4d:0xf110959a715082b7", "name": "Shakti Irrigation India Limited", "category": "Farm equipment supplier", "street": "Pithampur Sector-3, Plot No. 396-399", "city": "Pithampur, Madhya Pradesh 454774", "phone": "18001035555", "website": "http://www.shaktiirrigation.com/", "rating": 4.3, "review_count": "", "latitude": 22.62889, "longitude": 75.578982, "maps_url": "https://www.google.com/maps/place/?q=place_id:0x396253d5f1876d4d:0xf110959a715082b7"}, {"place_id": "0x3962522c36692551:0x3f26e768de176b91", "name": "Methodex Systems", "category": "Security system supplier", "street": "JHP9+8VP", "city": "Pithampur Industrial Area", "phone": "", "website": "", "rating": 4.2, "review_count": "", "latitude": 22.635843899999998, "longitude": 75.5697172, "maps_url": "https://www.google.com/maps/place/?q=place_id:0x3962522c36692551:0x3f26e768de176b91"}, {"place_id": "0x396256a3e438039f:0x15974c118b438a5b", "name": "Kusum Healthcare Pvt. Ltd.", "category": "Corporate office", "street": "M-3 SEZ", "city": "Pithampur, 454774", "phone": "01141005147", "website": "http://www.kusumhealthcare.com/", "rating": 4.4, "review_count": "", "latitude": 22.6272023, "longitude": 75.6386335, "maps_url": "https://www.google.com/maps/place/?q=place_id:0x396256a3e438039f:0x15974c118b438a5b"}, {"place_id": "0x396256630fad880d:0x34336f61dc52c36", "name": "Swaraj Technocraft Ltd", "category": "Industrial equipment supplier", "street": "plot no. 40", "city": "Pithampur Industrial Area, Sector 2", "phone": "09752265813", "website": "http://swarajtechnocrafts.com/", "rating": 3.9, "review_count": "", "latitude": 22.6231241, "longitude": 75.6709223, "maps_url": "https://www.google.com/maps/place/?q=place_id:0x396256630fad880d:0x34336f61dc52c36"}]}