[{"place_id": "ChIJPR796sD9DDkRLo5M9V9l1nA", "name": "Binarysoft Technologies (We bring IT)", "street": "1st Floor, 1626/33, Block 27F, Naiwala, Karol Bagh, Delhi, 110005, India", "phone": "+91 92054 71661", "rating": "5", "review_count": "", "website": "http://www.binarysoft.com/", "latitude": 28.647633, "longitude": 77.19496199999999, "maps_url": "https://www.google.com/maps/search/?api=1&query=Binarysoft%20Technologies%20%28We%20bring%20IT%29&query_place_id=ChIJPR796sD9DDkRLo5M9V9l1nA"}, {"place_id": "ChIJuzZ3usj9DDkR5Q91Qz7GlDc", "name": "Busy Infotech Pvt. Ltd.", "street": "3, Rani Jhansi Rd, Block E 4, Jhandewalan Extension, Karol Bagh, New Delhi, Delhi 110055, India", "phone": "+91 11 4096 4096", "rating": "4.6", "review_count": "", "website": "https://busy.in/", "latitude": 28.6454408, "longitude": 77.2042627, "maps_url": "https://www.google.com/maps/search/?api=1&query=Busy%20Infotech%20Pvt.%20Ltd.&query_place_id=ChIJuzZ3usj9DDkR5Q91Qz7GlDc"}, {"place_id": "ChIJA6KtL5kCDTkR7wFe_OSD2bE", "name": "Omniscient IT Solutions Pvt. Ltd", "street": "4, 28, Saraswati Marg, Block 15A, WEA, Karol Bagh, New Delhi, Delhi, 110005, India", "phone": "+91 98110 27310", "rating": "4.6", "review_count": "", "website": "https://www.omniscientitsolutions.com/", "latitude": 28.646959, "longitude": 77.1882229, "maps_url": "https://www.google.com/maps/search/?api=1&query=Omniscient%20IT%20Solutions%20Pvt.%20Ltd&query_place_id=ChIJA6KtL5kCDTkR7wFe_OSD2bE"}, {"place_id": "ChIJtXMHQGj9DDkRRE43pKtyAYM", "name": "Dvayweb Consultancy Services Pvt. Ltd.", "street": "Rani Jhansi Rd, Block E 4, Jhandewalan Extension, Jhandewalan, New Delhi, Delhi 110055, India", "phone": "+91 98730 30060", "rating": "4.6", "review_count": "", "website": "https://dvayweb.com/", "latitude": 28.645454599999997, "longitude": 77.2042455, "maps_url": "https://www.google.com/maps/search/?api=1&query=Dvayweb%20Consultancy%20Services%20Pvt.%20Ltd.&query_place_id=ChIJtXMHQGj9DDkRRE43pKtyAYM"}, {"place_id": "ChIJVdkZih79DDkR_dClCtK2ZkU", "name": "SoftGiant Technologies - Custom Software Development & Best eCommmerce Development Company in Delhi, India", "street": "T-1871 D, 2/F, Ashok Nagar Uppar Ridge Road Jhandewalan, Karol Bagh, New Delhi, Delhi 110055, India", "phone": "+91 85958 85110", "rating": "5", "review_count": "", "website": "http://www.softgianttech.com/", "latitude": 28.647350699999997, "longitude": 77.2016845, "maps_url": "https://www.google.com/maps/search/?api=1&query=SoftGiant%20Technologies%20-%20Custom%20Software%20Development%20%26%20Best%20eCommmerce%20Development%20Company%20in%20Delhi%2C%20India&query_place_id=ChIJVdkZih79DDkR_dClCtK2ZkU"}, {"place_id": "ChIJO4sr49IDDTkRALZaeWsr-oI", "name": "Iraitech | Software Development Company", "street": "Central Square Complex 3, Unit No-1051, 1st Floor, Near Filmistan, DCM chowk, Bara Hindu Rao, Kishan Ganj, Delhi, 110006, India", "phone": "+91 81301 04108", "rating": "4.1", "review_count": "", "website": "https://www.iraitech.com/", "latitude": 28.6631951, "longitude": 77.20308639999999, "maps_url": "https://www.google.com/maps/search/?api=1&query=Iraitech%20%7C%20Software%20Development%20Company&query_place_id=ChIJO4sr49IDDTkRALZaeWsr-oI"}, {"place_id": "ChIJFeXlTZkCDTkRNw2aQAO8CNk", "name": "Himalayan IT Solutions | Best Website Designing Company in Delhi | SEO/Digital Marketing Company in Delhi NCR, India", "street": "61/4255, Padam Singh Rd, Block 29, Block 1, Regar Pura, Karol Bagh, Delhi, 110005, India", "phone": "+91 98990 98509", "rating": "3.9", "review_count": "", "website": "http://www.himalayanitsolutions.com/", "latitude": 28.649673999999997, "longitude": 77.186599, "maps_url": "https://www.google.com/maps/search/?api=1&query=Himalayan%20IT%20Solutions%20%7C%20Best%20Website%20Designing%20Company%20in%20Delhi%20%7C%20SEO/Digital%20Marketing%20Company%20in%20Delhi%20NCR%2C%20India&query_place_id=ChIJFeXlTZkCDTkRNw2aQAO8CNk"}, {"place_id": "ChIJC3MN3zb9DDkR-JxtEG9cQg0", "name": "I. T. Solutions", "street": "Gate No. 8, A-6, 1st Floor, Inner Circle, Above Post office, near ICICI Bank, Bon Ton and Metro, Connaught Place, New Delhi, Delhi 110001, India", "phone": "+91 11 4152 3242", "rating": "4.9", "review_count": "", "website": "http://www.itsolutioncp.com/", "latitude": 28.6324367, "longitude": 77.2183441, "maps_url": "https://www.google.com/maps/search/?api=1&query=I.%20T.%20Solutions&query_place_id=ChIJC3MN3zb9DDkR-JxtEG9cQg0"}, {"place_id": "ChIJnSUGhMb9DDkR1RSiSe5bP8s", "name": "Scrrum Labs Private Limited", "street": "We-start co-working space, 2E/25, Jhandewalan Extension, Block E 2, Jhandewalan Extension, Karol Bagh, New Delhi, Delhi 110055, India", "phone": "+91 98999 29886", "rating": "4.7", "review_count": "", "website": "", "latitude": 28.6442767, "longitude": 77.2012045, "maps_url": "https://www.google.com/maps/search/?api=1&query=Scrrum%20Labs%20Private%20Limited&query_place_id=ChIJnSUGhMb9DDkR1RSiSe5bP8s"}, {"place_id": "ChIJVSDU85wCDTkR3TEe80XmjVY", "name": "AI Micro Mind®Technology", "street": "3rd Floor, 16/448, Block I, Building Number, Military Rd, Karol Bagh, New Delhi, Delhi, 110005, India", "phone": "+91 98183 53030", "rating": "4.8", "review_count": "", "website": "http://micromind.in/", "latitude": 28.656936299999998, "longitude": 77.1817737, "maps_url": "https://www.google.com/maps/search/?api=1&query=AI%20Micro%20Mind%C2%AETechnology&query_place_id=ChIJVSDU85wCDTkR3TEe80XmjVY"}, {"place_id": "ChIJEeEztHD9DDkR-3Ga-fthgow", "name": "Mobile Skin Software", "street": "47, Rani Jhansi Rd, Motia Khan, Jhandewalan, New Delhi, Delhi 110055, India", "phone": "+91 95552 63344", "rating": "4.7", "review_count": "", "website": "http://mobileskinsoftware.com/", "latitude": 28.649371199999997, "longitude": 77.2056171, "maps_url": "https://www.google.com/maps/search/?api=1&query=Mobile%20Skin%20Software&query_place_id=ChIJEeEztHD9DDkR-3Ga-fthgow"}, {"place_id": "ChIJve_HJ2b9DDkRzJphaUssbtE", "name": "Manu Info Solutions", "street": "51, Rani Jhansi Rd, Motia Khan, Paharganj, New Delhi, Delhi 110055, India", "phone": "+91 87001 32566", "rating": "5", "review_count": "", "website": "http://www.manuinfosolutions.com/", "latitude": 28.6490059, "longitude": 77.2058175, "maps_url": "https://www.google.com/maps/search/?api=1&query=Manu%20Info%20Solutions&query_place_id=ChIJve_HJ2b9DDkRzJphaUssbtE"}, {"place_id": "ChIJCdwjeUv9DDkRSs9WJ7tQaSY", "name": "Big Feathers Technology", "street": "8577, New Rohtak Rd, Ratan Nagar, Karol Bagh, Delhi, 110005, India", "phone": "+91 86907 20398", "rating": "4.9", "review_count": "", "website": "https://www.thebigfeathers.com/", "latitude": 28.657151, "longitude": 77.1959542, "maps_url": "https://www.google.com/maps/search/?api=1&query=Big%20Feathers%20Technology&query_place_id=ChIJCdwjeUv9DDkRSs9WJ7tQaSY"}, {"place_id": "ChIJEZi4U8HjDDkRyul3V2h5ouc", "name": "IT Company", "street": "A-14, near iskcon temple, Block A, APB Garhi, Vasant Vihar, New Delhi, Delhi 110065, India", "phone": "", "rating": "3", "review_count": "", "website": "http://www.opuswiz.com/", "latitude": 28.557167, "longitude": 77.25424819999999, "maps_url": "https://www.google.com/maps/search/?api=1&query=IT%20Company&query_place_id=ChIJEZi4U8HjDDkRyul3V2h5ouc"}, {"place_id": "ChIJ6fogp5QCDTkRX_8pAuL_gew", "name": "it company", "street": "Block 31/25, Block 31, East Patel Nagar, Patel Nagar, New Delhi, Delhi, 110008, India", "phone": "+91 98189 02645", "rating": "", "review_count": "", "website": "", "latitude": 28.6477211, "longitude": 77.1727298, "maps_url": "https://www.google.com/maps/search/?api=1&query=it%20company&query_place_id=ChIJ6fogp5QCDTkRX_8pAuL_gew"}, {"place_id": "ChIJ____ewXiDDkRWkRWfPl6bfA", "name": "BNG Infotech Private Limited", "street": "509-511 Gagandeep Building, Rajendra Place, New Delhi, Delhi 110008, India", "phone": "+91 81006 41006", "rating": "4.4", "review_count": "", "website": "https://www.bng.co.in/", "latitude": 28.6439304, "longitude": 77.1772003, "maps_url": "https://www.google.com/maps/search/?api=1&query=BNG%20Infotech%20Private%20Limited&query_place_id=ChIJ____ewXiDDkRWkRWfPl6bfA"}, {"place_id": "ChIJ0Ql-EWL9DDkRWb24ujA3NdY", "name": "Web Design, Digital Marketing, Software & Mobile App Development.", "street": "", "phone": "", "rating": "3.7", "review_count": "", "website": "", "latitude": 28.692404999999997, "longitude": 77.090042, "maps_url": "https://www.google.com/maps/search/?api=1&query=Web%20Design%2C%20Digital%20Marketing%2C%20Software%20%26%20Mobile%20App%20Development.&query_place_id=ChIJ0Ql-EWL9DDkRWb24ujA3NdY"}, {"place_id": "ChIJ7aqqWqz8DDkRgAFAey6rIAo", "name": "𝑨𝑶 𝑺𝒐𝒇𝒕𝒘𝒂𝒓𝒆 𝑺𝒐𝒍𝒖𝒕𝒊𝒐𝒏 Website Designing company-website development company-product promotion and ERP development company", "street": "1B, S-505, School Block, Laxmi Nagar, II, Shakarpur, New Delhi, Delhi, 110092, India", "phone": "+91 11 4260 3444", "rating": "4.8", "review_count": "", "website": "https://aosoftwaresolution.com/", "latitude": 28.6287195, "longitude": 77.2766171, "maps_url": "https://www.google.com/maps/search/?api=1&query=%F0%9D%91%A8%F0%9D%91%B6%20%F0%9D%91%BA%F0%9D%92%90%F0%9D%92%87%F0%9D%92%95%F0%9D%92%98%F0%9D%92%82%F0%9D%92%93%F0%9D%92%86%20%F0%9D%91%BA%F0%9D%92%90%F0%9D%92%8D%F0%9D%92%96%F0%9D%92%95%F0%9D%92%8A%F0%9D%92%90%F0%9D%92%8F%20Website%20Designing%20company-website%20development%20company-product%20promotion%20and%20ERP%20development%20company&query_place_id=ChIJ7aqqWqz8DDkRgAFAey6rIAo"}, {"place_id": "ChIJX9eDUEX9DDkRoR6efKRhUnw", "name": "Anu & Company", "street": "2nd Floor, 10703, Jhandewalan Rd, Nabi Karim, Paharganj, New Delhi, Delhi, 110055, India", "phone": "+91 87004 80022", "rating": "4.8", "review_count": "", "website": "https://anucompany.in/", "latitude": 28.651619699999998, "longitude": 77.2130291, "maps_url": "https://www.google.com/maps/search/?api=1&query=Anu%20%26%20Company&query_place_id=ChIJX9eDUEX9DDkRoR6efKRhUnw"}, {"place_id": "ChIJP357jJv9DDkRNv1bevRgOSg", "name": "NCR Corporation India Pvt Ltd", "street": "Office - ll, Bhavbhuti Marg, Kamla Market, Ajmeri Gate, New Delhi, Delhi, 110002, India", "phone": "+91 1800 225 5627", "rating": "4.6", "review_count": "", "website": "http://www.ncr.com/", "latitude": 28.6423271, "longitude": 77.2241044, "maps_url": "https://www.google.com/maps/search/?api=1&query=NCR%20Corporation%20India%20Pvt%20Ltd&query_place_id=ChIJP357jJv9DDkRNv1bevRgOSg"}, {"place_id": "ChIJ51AtDZ0DDTkRF6QrEcB_6Ks", "name": "Renovision Automation Services Pvt.Ltd-karol bagh", "street": "16, 8, Arya Samaj Rd, Block 16, WEA, Karol Bagh, New Delhi, Delhi, 110005, India", "phone": "+91 93107 19624", "rating": "3.7", "review_count": "", "website": "http://www.raspl.com/", "latitude": 28.647336499999998, "longitude": 77.1937694, "maps_url": "https://www.google.com/maps/search/?api=1&query=Renovision%20Automation%20Services%20Pvt.Ltd-karol%20bagh&query_place_id=ChIJ51AtDZ0DDTkRF6QrEcB_6Ks"}, {"place_id": "ChIJy7DDiosDDTkRPkiXRAOvmGQ", "name": "FUTURE ENERGY", "street": "2C, 19, New Rohtak Rd, Block 57, Karol Bagh, New Delhi, Delhi, 110005, India", "phone": "+91 98719 67776", "rating": "4.7", "review_count": "", "website": "http://futureenergy.co.in/", "latitude": 28.6547368, "longitude": 77.1996736, "maps_url": "https://www.google.com/maps/search/?api=1&query=FUTURE%20ENERGY&query_place_id=ChIJy7DDiosDDTkRPkiXRAOvmGQ"}, {"place_id": "ChIJCef7XhT9DDkR3yHHC4Lofpg", "name": "Kalpurja Company", "street": "72, GB Road, Shradhanand Marg, Delhi 6, Chandni Chowk, Delhi, 110006, India", "phone": "", "rating": "4.5", "review_count": "", "website": "http://www.kalpurjacompany.com/", "latitude": 28.650322499999998, "longitude": 77.2209807, "maps_url": "https://www.google.com/maps/search/?api=1&query=Kalpurja%20Company&query_place_id=ChIJCef7XhT9DDkR3yHHC4Lofpg"}, {"place_id": "ChIJjeJIYfv9DDkRW6JxZ0ugd-A", "name": "Alliancef Global | Mobile App Development | eCommerce Website Design and Development company in Delhi, India", "street": "8th Floor, Vijaya Building, 811, Barakhamba Rd, Todermal Road Area, Mandi House, New Delhi, Delhi 110001, India", "phone": "+91 95821 99196", "rating": "5", "review_count": "", "website": "https://alliancef.global/", "latitude": 28.628632099999997, "longitude": 77.2269889, "maps_url": "https://www.google.com/maps/search/?api=1&query=Alliancef%20Global%20%7C%20Mobile%20App%20Development%20%7C%20eCommerce%20Website%20Design%20and%20Development%20company%20in%20Delhi%2C%20India&query_place_id=ChIJjeJIYfv9DDkRW6JxZ0ugd-A"}, {"place_id": "ChIJE_4Tci0dyAYRsVXvsz3K03g", "name": "Asquare Consulting Group", "street": "2745, 2nd Floor, Gali Number 23, Beadonpura, Karol Bagh, Delhi, 110005, India", "phone": "+91 11 4654 2628", "rating": "4.8", "review_count": "", "website": "", "latitude": 28.6516213, "longitude": 77.1919178, "maps_url": "https://www.google.com/maps/search/?api=1&query=Asquare%20Consulting%20Group&query_place_id=ChIJE_4Tci0dyAYRsVXvsz3K03g"}, {"place_id": "ChIJp2QZy6PhDDkRo4MA8enlBaI", "name": "Highlex Technologies", "street": "1st Floor, Krishna Park, D-300, Connaught Place, New Delhi, Delhi 110001, India", "phone": "+91 85868 53031", "rating": "5", "review_count": "", "website": "https://highlex.in/", "latitude": 28.632742999999998, "longitude": 77.219597, "maps_url": "https://www.google.com/maps/search/?api=1&query=Highlex%20Technologies&query_place_id=ChIJp2QZy6PhDDkRo4MA8enlBaI"}, {"place_id": "ChIJiwPCn1cDDTkRZReajY3KiX0", "name": "Appfinz Technologies", "street": "Nr Deep Chand Bandhu Hospital, B590 Ground Floor, Bunkar Colony, Phase 4, Ashok Vihar, New Delhi, Delhi 110052, India", "phone": "+91 83407 25097", "rating": "4.8", "review_count": "", "website": "https://www.appfinz.com/", "latitude": 28.682956299999997, "longitude": 77.17736959999999, "maps_url": "https://www.google.com/maps/search/?api=1&query=Appfinz%20Technologies&query_place_id=ChIJiwPCn1cDDTkRZReajY3KiX0"}, {"place_id": "ChIJf_GPBmf9DDkR-EyK3aivCjA", "name": "ScanBulk Business Solution", "street": "176, 1st floor, Cycle Market, Block E 4, Jhandewalan Extension, Jhandewalan, New Delhi, Delhi 110055, India", "phone": "+91 88793 81599", "rating": "5", "review_count": "", "website": "http://www.scanbulk.co.in//", "latitude": 28.6461734, "longitude": 77.2033424, "maps_url": "https://www.google.com/maps/search/?api=1&query=ScanBulk%20Business%20Solution&query_place_id=ChIJf_GPBmf9DDkR-EyK3aivCjA"}, {"place_id": "ChIJcesdOTX9DDkRtlHcx4gT3ds", "name": "Jak Software Pvt Ltd", "street": "52 Janpath, New Delhi, Delhi 110001, India", "phone": "+91 78272 49056", "rating": "4.4", "review_count": "", "website": "http://www.jaksoftware.co.in/", "latitude": 28.627537999999998, "longitude": 77.21878989999999, "maps_url": "https://www.google.com/maps/search/?api=1&query=Jak%20Software%20Pvt%20Ltd&query_place_id=ChIJcesdOTX9DDkRtlHcx4gT3ds"}, {"place_id": "ChIJJxEZLa38DDkRjqnAHiAFyIM", "name": "IT Nucleus", "street": "310, 3rd Floor, S-524, Aggarwal House Opp-Metro Pillar 27, School Block shakarpur, Laxmi Nagar, Delhi, 110092, India", "phone": "+91 11 4300 1828", "rating": "4.9", "review_count": "", "website": "http://www.itnucleus.com/", "latitude": 28.629542599999997, "longitude": 77.2766257, "maps_url": "https://www.google.com/maps/search/?api=1&query=IT%20Nucleus&query_place_id=ChIJJxEZLa38DDkRjqnAHiAFyIM"}, {"place_id": "ChIJ__8vhTQCDTkRUWfmHwih9g0", "name": "Wingify", "street": "KLJ TOWER, North, Netaji Subhash Place, Pitampura, Delhi, 110034, India", "phone": "+91 11 4764 0497", "rating": "4.4", "review_count": "", "website": "https://wingify.com/", "latitude": 28.6911475, "longitude": 77.1509423, "maps_url": "https://www.google.com/maps/search/?api=1&query=Wingify&query_place_id=ChIJ__8vhTQCDTkRUWfmHwih9g0"}, {"place_id": "ChIJV4blL5gCDTkRktgeIDWd3T8", "name": "Manning Consulting", "street": "", "phone": "+91 98112 22637", "rating": "4.8", "review_count": "", "website": "http://www.manningconsulting.in/", "latitude": 21.0680074, "longitude": 82.7525294, "maps_url": "https://www.google.com/maps/search/?api=1&query=Manning%20Consulting&query_place_id=ChIJV4blL5gCDTkRktgeIDWd3T8"}, {"place_id": "ChIJ4_QbqvQDDTkRUV17EnOsFkk", "name": "QSpiders Delhi", "street": "No. 8/3, Part, Fourth Floor, Western Extn Karol Bagh Colony, Rajender Nagar Ward, Zone, Karol Bagh, New Delhi, Delhi 110005, India", "phone": "+91 89519 38997", "rating": "4.7", "review_count": "", "website": "https://qspiders.com/", "latitude": 28.645386499999997, "longitude": 77.1922999, "maps_url": "https://www.google.com/maps/search/?api=1&query=QSpiders%20Delhi&query_place_id=ChIJ4_QbqvQDDTkRUV17EnOsFkk"}, {"place_id": "ChIJ0bY3rWj9DDkRH1uVjbIVfHc", "name": "Suntop Bags Manufacturer", "street": "8, MM Rani Jhansi Road, Motia Khan Industrial Area, Delhi, 110055, India", "phone": "+91 98059 66702", "rating": "5", "review_count": "", "website": "http://www.suntopbags.com/", "latitude": 28.6510714, "longitude": 77.206897, "maps_url": "https://www.google.com/maps/search/?api=1&query=Suntop%20Bags%20Manufacturer&query_place_id=ChIJ0bY3rWj9DDkRH1uVjbIVfHc"}, {"place_id": "ChIJK6kJh4EDDTkRbCZ0HSHv31c", "name": "Onlincer", "street": "", "phone": "", "rating": "5", "review_count": "", "website": "http://www.directappoint.com/", "latitude": 9.374110199999999, "longitude": -74.9524576, "maps_url": "https://www.google.com/maps/search/?api=1&query=Onlincer&query_place_id=ChIJK6kJh4EDDTkRbCZ0HSHv31c"}, {"place_id": "ChIJd-3rnjD9DDkRC1ouB5NrtvU", "name": "ITI Tools Co (INDIAN TECHNOLOGY CO.)", "street": "3675, Shradhanand Marg, Chabdi Bazar, Ajmeri Gate, New Delhi, Delhi, 110006, India", "phone": "+91 98714 08551", "rating": "3.2", "review_count": "", "website": "", "latitude": 28.648723399999998, "longitude": 77.2218827, "maps_url": "https://www.google.com/maps/search/?api=1&query=ITI%20Tools%20Co%20%28INDIAN%20TECHNOLOGY%20CO.%29&query_place_id=ChIJd-3rnjD9DDkRC1ouB5NrtvU"}, {"place_id": "ChIJCa3hOGj9DDkRpRtdyEoes44", "name": "A S N & COMPANY, Chartered Accountants", "street": "A-209 RG, City Centre, DDA COMMUNITY CENTRE, A-305, A-306, Plot No 4, Desh Bandhu Gupta Rd, adjacent to Novotel Hotel, Paharganj, New Delhi, Delhi 110055, India", "phone": "+91 11 4356 2313", "rating": "4.7", "review_count": "", "website": "http://asnandco.com/", "latitude": 28.646611699999998, "longitude": 77.2077482, "maps_url": "https://www.google.com/maps/search/?api=1&query=A%20S%20N%20%26%20COMPANY%2C%20Chartered%20Accountants&query_place_id=ChIJCa3hOGj9DDkRpRtdyEoes44"}, {"place_id": "ChIJz_pOD4b9DDkRXClfFZyE_r0", "name": "SJ Security Systems Pvt Ltd", "street": "2705/24, Second Floor, Bank St, Karol Bagh, New Delhi, Delhi 110005, India", "phone": "+91 99100 57500", "rating": "5", "review_count": "", "website": "https://www.sjsecurity.com/", "latitude": 28.6514208, "longitude": 77.1926269, "maps_url": "https://www.google.com/maps/search/?api=1&query=SJ%20Security%20Systems%20Pvt%20Ltd&query_place_id=ChIJz_pOD4b9DDkRXClfFZyE_r0"}, {"place_id": "ChIJVVVVJUL9DDkRdQ6lOpBZGOU", "name": "Skycut India", "street": "first floor, 3034, Gali No. 2, near Hari Masid, Bazar Sangatrashan, Chuna Mandi, Paharganj, New Delhi, Delhi 110055, India", "phone": "+91 87507 77222", "rating": "4.8", "review_count": "", "website": "https://skycutindia.com/", "latitude": 28.6449693, "longitude": 77.2110816, "maps_url": "https://www.google.com/maps/search/?api=1&query=Skycut%20India&query_place_id=ChIJVVVVJUL9DDkRdQ6lOpBZGOU"}, {"place_id": "ChIJc80Hk_0DDTkRzeDGAgk6Ino", "name": "Web Cloud Technology", "street": "3A/74 W.E.A, Sat Nagar, Karol Bagh, New Delhi, Delhi 110005, India", "phone": "+91 88823 24811", "rating": "4.4", "review_count": "", "website": "https://webcloudtechnology.in/", "latitude": 28.6465632, "longitude": 77.1824149, "maps_url": "https://www.google.com/maps/search/?api=1&query=Web%20Cloud%20Technology&query_place_id=ChIJc80Hk_0DDTkRzeDGAgk6Ino"}, {"place_id": "ChIJiXUDIwz9DDkRvZmUMDLc3ys", "name": "Infycat Com", "street": "4311, Gali Bhairo Wali, Jogiwara, Chandni Chowk, New Delhi, Delhi, 110006, India", "phone": "+91 95823 23923", "rating": "3.7", "review_count": "", "website": "https://www.infycat.com/", "latitude": 28.652357, "longitude": 77.2279069, "maps_url": "https://www.google.com/maps/search/?api=1&query=Infycat%20Com&query_place_id=ChIJiXUDIwz9DDkRvZmUMDLc3ys"}, {"place_id": "ChIJ57xZTpgCDTkRYjnFNtZRjs8", "name": "Multicolor Steel Pvt Ltd", "street": "White House, 1/18-20, Rani Jhansi Rd, Type 4, Block B, Aram Bagh, Jhandewalan, New Delhi, Delhi 110055, India", "phone": "+91 78273 13233", "rating": "4.2", "review_count": "", "website": "https://www.multicolorsteel.com/", "latitude": 28.6427418, "longitude": 77.20515069999999, "maps_url": "https://www.google.com/maps/search/?api=1&query=Multicolor%20Steel%20Pvt%20Ltd&query_place_id=ChIJ57xZTpgCDTkRYjnFNtZRjs8"}, {"place_id": "ChIJvyvv6ZwCDTkRNT4IC05RZvQ", "name": "I M Enterprises", "street": "Namdhari Chambers, G-15, Desh Bandhu Gupta Rd, Block 56, Karol Bagh, New Delhi, Delhi, 110005, India", "phone": "+91 98100 14287", "rating": "4.4", "review_count": "", "website": "", "latitude": 28.653686099999998, "longitude": 77.19167139999999, "maps_url": "https://www.google.com/maps/search/?api=1&query=I%20M%20Enterprises&query_place_id=ChIJvyvv6ZwCDTkRNT4IC05RZvQ"}, {"place_id": "ChIJO2tzUa2wTAARwJcWEKyw7FY", "name": "DNG WEB DEVELOPER - Website Development and Designing Company Delhi | App Development | Digital Marketing Company in Delhi", "street": "J6W7+475, Arya Nagar, Paharganj, New Delhi, Delhi 110055, India", "phone": "", "rating": "", "review_count": "", "website": "https://www.dngwebdeveloper.com/", "latitude": 28.6452545, "longitude": 77.2132341, "maps_url": "https://www.google.com/maps/search/?api=1&query=DNG%20WEB%20DEVELOPER%20-%20Website%20Development%20and%20Designing%20Company%20Delhi%20%7C%20App%20Development%20%7C%20Digital%20Marketing%20Company%20in%20Delhi&query_place_id=ChIJO2tzUa2wTAARwJcWEKyw7FY"}, {"place_id": "ChIJ28mlS2b9DDkROhaHyIlBq8g", "name": "Anmol Enterprises", "street": "B 11, Block E, Jhandewalan Extension, Jhandewalan, New Delhi, Delhi 110055, India", "phone": "+91 11 4011 5176", "rating": "4.7", "review_count": "", "website": "https://anmolent.in/", "latitude": 28.647574, "longitude": 77.2049011, "maps_url": "https://www.google.com/maps/search/?api=1&query=Anmol%20Enterprises&query_place_id=ChIJ28mlS2b9DDkROhaHyIlBq8g"}, {"place_id": "ChIJ23F4xzb9DDkR6oiWoTSG1iY", "name": "NTT DATA Payment Services India", "street": "Second Floor, Daftar Coworks : 23, 1-E, near Videocon Tower, Jhandewalan Extension, New Delhi, Delhi 110055, India", "phone": "+91 22 6807 4100", "rating": "1.3", "review_count": "", "website": "http://in.nttdatapay.com/", "latitude": 28.645186, "longitude": 77.20287979999999, "maps_url": "https://www.google.com/maps/search/?api=1&query=NTT%20DATA%20Payment%20Services%20India&query_place_id=ChIJ23F4xzb9DDkR6oiWoTSG1iY"}, {"place_id": "ChIJjcZpn6UGDTkRPRUJ1Y8OFng", "name": "UniSpark Innovation", "street": "1st Floor, Unispark innovation Pvt. ltd, B-39, Middle Cir, Block B, Connaught Place, New Delhi, Delhi 110001, India", "phone": "+91 88600 77276", "rating": "5", "review_count": "", "website": "https://www.unisparkinnovation.com/", "latitude": 28.633904299999998, "longitude": 77.21771, "maps_url": "https://www.google.com/maps/search/?api=1&query=UniSpark%20Innovation&query_place_id=ChIJjcZpn6UGDTkRPRUJ1Y8OFng"}, {"place_id": "ChIJl0O_Kun9DDkRRG0USQH2Kuk", "name": "AHLAN TRADER COMPANY", "street": "AHLAN TRADER,BB-115,First Floor Bagrian Basti, Nabi Karim, Paharganj, New Delhi, Delhi 110055, India", "phone": "+91 70422 50150", "rating": "5", "review_count": "", "website": "", "latitude": 28.650358699999998, "longitude": 77.2149998, "maps_url": "https://www.google.com/maps/search/?api=1&query=AHLAN%20TRADER%20COMPANY&query_place_id=ChIJl0O_Kun9DDkRRG0USQH2Kuk"}, {"place_id": "ChIJNzGy7LYDDTkRNXf56mjXolg", "name": "The Creation", "street": "4th Floor, 17, Pusa Rd, Block 8, WEA, Karol Bagh, New Delhi, Delhi, 110005, India", "phone": "+91 98184 05894", "rating": "4.5", "review_count": "", "website": "http://www.thecreation.in/", "latitude": 28.64474, "longitude": 77.191228, "maps_url": "https://www.google.com/maps/search/?api=1&query=The%20Creation&query_place_id=ChIJNzGy7LYDDTkRNXf56mjXolg"}, {"place_id": "ChIJe3palOn9DDkRmNe3MxxK0nI", "name": "SURYA MASALA COMPANY (EKTA SPICES)", "street": "6410, Katra Bariyan, Naya Bans, Fatehpuri, Chandni Chowk, Delhi, 110006, India", "phone": "+91 96547 73357", "rating": "4.9", "review_count": "", "website": "", "latitude": 28.6552097, "longitude": 77.2216329, "maps_url": "https://www.google.com/maps/search/?api=1&query=SURYA%20MASALA%20COMPANY%20%28EKTA%20SPICES%29&query_place_id=ChIJe3palOn9DDkRmNe3MxxK0nI"}, {"place_id": "ChIJ5XAX8V39DDkR4gQP6Af1-9E", "name": "Adio Brand Solutions : Digital Marketing Agency", "street": "2-E, Block E 3, Jhandewalan Extension, Jhandewalan, New Delhi, Delhi 110055, India", "phone": "+91 98995 66665", "rating": "5", "review_count": "", "website": "https://www.adiobrandsolutions.com/", "latitude": 28.6453027, "longitude": 77.2027925, "maps_url": "https://www.google.com/maps/search/?api=1&query=Adio%20Brand%20Solutions%20%3A%20Digital%20Marketing%20Agency&query_place_id=ChIJ5XAX8V39DDkR4gQP6Af1-9E"}, {"place_id": "ChIJE0TwoGj9DDkRkJq7i9GWxpE", "name": "Xfas Logistics Pvt. Ltd", "street": "75, 1st Floor, Rani Jhansi Rd, Motia Khan, Sadar Bazaar, Delhi, New Delhi, Delhi 110055, India", "phone": "+91 78100 02244", "rating": "2.6", "review_count": "", "website": "http://www.xfas.in/", "latitude": 28.649903, "longitude": 77.2062316, "maps_url": "https://www.google.com/maps/search/?api=1&query=Xfas%20Logistics%20Pvt.%20Ltd&query_place_id=ChIJE0TwoGj9DDkRkJq7i9GWxpE"}, {"place_id": "ChIJf4qFUmP9DDkRVGIVYxUrxNE", "name": "T-Shirt Manufacturer Company India", "street": "T-180, kabristan Wali gali, near filmistan, Model Basti, Kishan Ganj, Delhi, 110005, India", "phone": "+91 81301 19564", "rating": "5", "review_count": "", "website": "https://tshirts.ashg.co.in/", "latitude": 28.6576466, "longitude": 77.2029697, "maps_url": "https://www.google.com/maps/search/?api=1&query=T-Shirt%20Manufacturer%20Company%20India&query_place_id=ChIJf4qFUmP9DDkRVGIVYxUrxNE"}, {"place_id": "ChIJ____P2f9DDkRK3oP70sP8rA", "name": "KLB Instruments Co. Private Limited", "street": "1E, 17, Link Road, Block E 1, Jhandewalan Extension, Jhandewalan, New Delhi, Delhi 110055, India", "phone": "+91 11 4154 3333", "rating": "4.3", "review_count": "", "website": "https://klb.in/", "latitude": 28.645252, "longitude": 77.20116089999999, "maps_url": "https://www.google.com/maps/search/?api=1&query=KLB%20Instruments%20Co.%20Private%20Limited&query_place_id=ChIJ____P2f9DDkRK3oP70sP8rA"}, {"place_id": "ChIJq6q2H5wCDTkRppYnUcFbRVo", "name": "Makpower Mobile Accessories Manufacturer Delhi", "street": "1st floor, 5/31, Block 5, WEA, Karol Bagh, New Delhi, Delhi, 110005, India", "phone": "+91 78279 76524", "rating": "4.6", "review_count": "", "website": "https://makpowerindia.com/", "latitude": 28.648004699999998, "longitude": 77.189694, "maps_url": "https://www.google.com/maps/search/?api=1&query=Makpower%20Mobile%20Accessories%20Manufacturer%20Delhi&query_place_id=ChIJq6q2H5wCDTkRppYnUcFbRVo"}, {"place_id": "ChIJ48Zm1_P8DDkRFJuFgn5LWK4", "name": "Shri Tapodhani Aluminium Trading Company", "street": "Xv 2758, Street No. 6, near banke bihari mandir, Bazar Sangatrashan, Chuna Mandi, Paharganj, New Delhi, Delhi 110055, India", "phone": "+91 99110 87778", "rating": "4.8", "review_count": "", "website": "https://tapodhani.com/", "latitude": 28.6435481, "longitude": 77.21105469999999, "maps_url": "https://www.google.com/maps/search/?api=1&query=Shri%20Tapodhani%20Aluminium%20Trading%20Company&query_place_id=ChIJ48Zm1_P8DDkRFJuFgn5LWK4"}, {"place_id": "ChIJASA3qYT9DDkR2YGTHKDXhow", "name": "Cutting Plotters", "street": "72, Rani Jhansi Rd, Block A, Mukharjee Market, Jhandewalan, New Delhi, Delhi 110055, India", "phone": "+91 11 4156 3389", "rating": "4.8", "review_count": "", "website": "https://cuttingplotters.in/", "latitude": 28.649752399999997, "longitude": 77.2048495, "maps_url": "https://www.google.com/maps/search/?api=1&query=Cutting%20Plotters&query_place_id=ChIJASA3qYT9DDkR2YGTHKDXhow"}, {"place_id": "ChIJE9NL9GD9DDkRaQa6HLygtd4", "name": "Vertex Fincorp Pvt Ltd", "street": "Number 3, Faiz Rd, Sewak Chember, Block 49A, Naiwala, Karol Bagh, New Delhi, Delhi, 110005, India", "phone": "", "rating": "4.8", "review_count": "", "website": "", "latitude": 28.648685399999998, "longitude": 77.19842109999999, "maps_url": "https://www.google.com/maps/search/?api=1&query=Vertex%20Fincorp%20Pvt%20Ltd&query_place_id=ChIJE9NL9GD9DDkRaQa6HLygtd4"}, {"place_id": "ChIJ1-nWQZ4CDTkR6IgbNef9w6Y", "name": "FURMATS", "street": "Pratap Chambers, 404, Gurudwara Rd, Block 25A, Naiwala, Karol Bagh, New Delhi, Delhi, 110005, India", "phone": "+91 11 3060 6000", "rating": "3.3", "review_count": "", "website": "https://furmats.com/", "latitude": 28.648244299999998, "longitude": 77.1928775, "maps_url": "https://www.google.com/maps/search/?api=1&query=FURMATS&query_place_id=ChIJ1-nWQZ4CDTkR6IgbNef9w6Y"}, {"place_id": "ChIJVVkZANEFDTkREuPMUDxEtVc", "name": "Yogesher India", "street": "2nd Floor, 2E, 8, Jhandewalan Rd, Block E 1, Jhandewalan Extension, Karol Bagh, New Delhi, Delhi 110055, India", "phone": "+91 11 4102 0647", "rating": "3.5", "review_count": "", "website": "https://www.yogesher.com/", "latitude": 28.6449534, "longitude": 77.2012128, "maps_url": "https://www.google.com/maps/search/?api=1&query=Yogesher%20India&query_place_id=ChIJVVkZANEFDTkREuPMUDxEtVc"}, {"place_id": "ChIJUxxeUxX9DDkRuuBQshLqJ6A", "name": "CCTV Delhi Wala (Dhun Solutions)", "street": "7832, Qutab Rd, near kotak bank ATM, Prem Nagar, Ram Nagar, Paharganj, New Delhi, Delhi, 110055, India", "phone": "", "rating": "4.7", "review_count": "", "website": "http://www.cctvdelhiwala.com/", "latitude": 28.6457916, "longitude": 77.217581, "maps_url": "https://www.google.com/maps/search/?api=1&query=CCTV%20Delhi%20Wala%20%28Dhun%20Solutions%29&query_place_id=ChIJUxxeUxX9DDkRuuBQshLqJ6A"}, {"place_id": "ChIJAQAAAG_9DDkRFyl46Foh0ns", "name": "Shree Krishna Engineering Company (Lovely Fasteners & Tools)", "street": "Gate No.1, Metro Station, 73/74, Deen Dayal Upadhaya Market, opp. Tanga Stand, next to Chawri Bazar, Hauz Qazi, New Delhi, Delhi 110006, India", "phone": "+91 11 4100 3034", "rating": "4.9", "review_count": "", "website": "http://www.lovelyfasteners.com/", "latitude": 28.6483748, "longitude": 77.2263569, "maps_url": "https://www.google.com/maps/search/?api=1&query=Shree%20Krishna%20Engineering%20Company%20%28Lovely%20Fasteners%20%26%20Tools%29&query_place_id=ChIJAQAAAG_9DDkRFyl46Foh0ns"}, {"place_id": "ChIJQU2gj2wDDTkRCtE4pycX5n0", "name": "MARS ACCESSORIES INDIA PRIVATE LIMITED", "street": "5/31, 3rd Floor, Saraswati Marg, Block 5, WEA, Karol Bagh, Delhi, 110005, India", "phone": "+91 87662 67369", "rating": "4.1", "review_count": "", "website": "https://muvit.in/", "latitude": 28.6477078, "longitude": 77.18925829999999, "maps_url": "https://www.google.com/maps/search/?api=1&query=MARS%20ACCESSORIES%20INDIA%20PRIVATE%20LIMITED&query_place_id=ChIJQU2gj2wDDTkRCtE4pycX5n0"}, {"place_id": "ChIJZ0CHYWf9DDkR_si6mR_okSw", "name": "Onkar International Private Limited", "street": "110055, 14 Extension, Block E 3, Jhandewalan Extension, Jhandewalan, New Delhi, Delhi 110055, India", "phone": "+91 11 4141 4040", "rating": "4.4", "review_count": "", "website": "http://www.onkarinternational.co/", "latitude": 28.6449952, "longitude": 77.20203769999999, "maps_url": "https://www.google.com/maps/search/?api=1&query=Onkar%20International%20Private%20Limited&query_place_id=ChIJZ0CHYWf9DDkR_si6mR_okSw"}, {"place_id": "ChIJV5b4yDX9DDkRdJwaZgRwvK0", "name": "Sterco Digitex Pvt Limited", "street": "2nd Floor, 72, Janpath Rd, Atul Grove Road, Janpath, Connaught Place, New Delhi, Delhi 110001, India", "phone": "+91 120 485 7333", "rating": "4.1", "review_count": "", "website": "https://www.stercodigitex.com/", "latitude": 28.628133, "longitude": 77.21985099999999, "maps_url": "https://www.google.com/maps/search/?api=1&query=Sterco%20Digitex%20Pvt%20Limited&query_place_id=ChIJV5b4yDX9DDkRdJwaZgRwvK0"}, {"place_id": "ChIJUd11z2f9DDkRp1m0cxx_yIY", "name": "POLYTUF", "street": "208a second floor, Pal Mohan Plaza, Desh Bandhu Gupta Rd, Karol Bagh, New Delhi, Delhi 110005, India", "phone": "", "rating": "5", "review_count": "", "website": "https://www.polytuf.in/", "latitude": 28.651697, "longitude": 77.1951488, "maps_url": "https://www.google.com/maps/search/?api=1&query=POLYTUF&query_place_id=ChIJUd11z2f9DDkRp1m0cxx_yIY"}, {"place_id": "ChIJD7FtYxT9DDkR-IDfTvVpigI", "name": "Kushal Trading Company", "street": "Ramnath Building, 2400/2 , 1st Floor, behind G.B. Road, Sharadhanand Marg, Farash Khana, Chandni Chowk, New Delhi, Delhi 110006, India", "phone": "+91 80 4896 7541", "rating": "5", "review_count": "", "website": "https://www.kushaltrading.com/", "latitude": 28.651477999999997, "longitude": 77.2206885, "maps_url": "https://www.google.com/maps/search/?api=1&query=Kushal%20Trading%20Company&query_place_id=ChIJD7FtYxT9DDkR-IDfTvVpigI"}, {"place_id": "ChIJ8Ys1siUCDTkRgUaQzYhM_KY", "name": "SETINDIABIZ", "street": "2nd Floor, Regal Building, Innov8 CP2, 44, Backary Portion, Connaught Place, New Delhi, Delhi 110001, India", "phone": "+91 98996 00605", "rating": "4.7", "review_count": "", "website": "https://www.setindiabiz.com/", "latitude": 28.6311227, "longitude": 77.216672, "maps_url": "https://www.google.com/maps/search/?api=1&query=SETINDIABIZ&query_place_id=ChIJ8Ys1siUCDTkRgUaQzYhM_KY"}, {"place_id": "ChIJM32GX2D9DDkRDTQwGBm5vus", "name": "Sethi Steel Fabricator Safe and Almirah co.", "street": "Shop No. T- 2313, Opp. Federal Bank , Near Hanuman Statue, Faiz Road, Karol Bagh, New Delhi, Delhi 110005, India", "phone": "+91 96501 41432", "rating": "4.4", "review_count": "", "website": "http://www.sethisteelfabricator.com/", "latitude": 28.646075399999997, "longitude": 77.1973336, "maps_url": "https://www.google.com/maps/search/?api=1&query=Sethi%20Steel%20Fabricator%20Safe%20and%20Almirah%20co.&query_place_id=ChIJM32GX2D9DDkRDTQwGBm5vus"}, {"place_id": "ChIJ28mlS2b9DDkRXJvKHZO1SbY", "name": "Supervac Industries LLP - Vacuum Pump Oil", "street": "B-21, Desh Bandhu Gupta Rd, Block E, Jhandewalan Extension, Jhandewalan, New Delhi, Delhi 110055, India", "phone": "+91 11 4356 4967", "rating": "4.2", "review_count": "", "website": "https://www.supervacoils.com/", "latitude": 28.647511899999998, "longitude": 77.2049085, "maps_url": "https://www.google.com/maps/search/?api=1&query=Supervac%20Industries%20LLP%20-%20Vacuum%20Pump%20Oil&query_place_id=ChIJ28mlS2b9DDkRXJvKHZO1SbY"}, {"place_id": "ChIJAQDAsHL9DDkRNglClOqAkEM", "name": "IBM TRADING COMPANY.... GOODLUCK HOUSEWARES", "street": "New Market, 5396/ A 1, gupta market gali, Rui Mandi, Sadar Bazaar, New Delhi, Delhi, 110006, India", "phone": "", "rating": "5", "review_count": "", "website": "", "latitude": 28.6598631, "longitude": 77.2149721, "maps_url": "https://www.google.com/maps/search/?api=1&query=IBM%20TRADING%20COMPANY....%20GOODLUCK%20HOUSEWARES&query_place_id=ChIJAQDAsHL9DDkRNglClOqAkEM"}, {"place_id": "ChIJcZZw2GP9DDkRo45qdQn9XRs", "name": "BHAMBRI SOLAR PRIVATE LIMITED", "street": "794, Joshi Rd, Block A, Karol Bagh, New Delhi, Delhi, 110005, India", "phone": "+91 11 2354 1114", "rating": "3.8", "review_count": "", "website": "http://www.kingsunsolarproducts.com/", "latitude": 28.650143999999997, "longitude": 77.198095, "maps_url": "https://www.google.com/maps/search/?api=1&query=BHAMBRI%20SOLAR%20PRIVATE%20LIMITED&query_place_id=ChIJcZZw2GP9DDkRo45qdQn9XRs"}, {"place_id": "ChIJCXUND2b9DDkRUKIg_QDxGEM", "name": "Delhi Modi Express Transport Co", "street": "25, Rani Jhansi Road, Ram Kumar Marg, Motia Khan, New Delhi, Delhi 110055, India", "phone": "+91 98112 06706", "rating": "4.2", "review_count": "", "website": "https://www.delhimodi.in/", "latitude": 28.652214299999997, "longitude": 77.2070894, "maps_url": "https://www.google.com/maps/search/?api=1&query=Delhi%20Modi%20Express%20Transport%20Co&query_place_id=ChIJCXUND2b9DDkRUKIg_QDxGEM"}, {"place_id": "ChIJPVhNlbXkDDkRggTWkzh6ASI", "name": "Bright Secret Services & Detectives Pvt. Ltd. ( bright confidential )", "street": "239, Desh Bandhu Gupta Rd, Motia Khan, Paharganj, New Delhi, Delhi 110055, India", "phone": "+91 97168 71400", "rating": "5", "review_count": "", "website": "http://www.bssdetectives.com/", "latitude": 28.6468708, "longitude": 77.20767339999999, "maps_url": "https://www.google.com/maps/search/?api=1&query=Bright%20Secret%20Services%20%26%20Detectives%20Pvt.%20Ltd.%20%28%20bright%20confidential%20%29&query_place_id=ChIJPVhNlbXkDDkRggTWkzh6ASI"}, {"place_id": "ChIJw5pcGWD9DDkRdfwjhZ450iY", "name": "Pringle Homeware", "street": "5, Pusa Rd, Block 18 A, WEA, Karol Bagh, New Delhi, Delhi, 110005, India", "phone": "+91 1800 120 7010", "rating": "3.4", "review_count": "", "website": "http://www.pringle.in/", "latitude": 28.6452, "longitude": 77.194923, "maps_url": "https://www.google.com/maps/search/?api=1&query=Pringle%20Homeware&query_place_id=ChIJw5pcGWD9DDkRdfwjhZ450iY"}, {"place_id": "ChIJGx0Mrjf9DDkRwLZIK37YPfo", "name": "Holidays 2 Cherish Travel Company", "street": "Second floor, 16/10164, Landmark:, Padam Singh Rd, opposite Shastri car Parking entrance, Block 15, WEA, Karol Bagh, New Delhi, Delhi, 110005, India", "phone": "", "rating": "4.7", "review_count": "", "website": "http://www.holidays2cherish.com/", "latitude": 28.647129999999997, "longitude": 77.19254149999999, "maps_url": "https://www.google.com/maps/search/?api=1&query=Holidays%202%20Cherish%20Travel%20Company&query_place_id=ChIJGx0Mrjf9DDkRwLZIK37YPfo"}, {"place_id": "ChIJFVm4kzb9DDkR-ZKDtUrPo-w", "name": "Shri Ram Awning & Tensile Co.( Tensile Structure Manufacturer )", "street": "Gali Number 4, near Bake Bihari Mandir, Bazar Sangatrashan, Chuna Mandi, Paharganj, New Delhi, Delhi 110055, India", "phone": "", "rating": "4.5", "review_count": "", "website": "http://www.shriramtensile.com/", "latitude": 28.644241299999997, "longitude": 77.21217949999999, "maps_url": "https://www.google.com/maps/search/?api=1&query=Shri%20Ram%20Awning%20%26%20Tensile%20Co.%28%20Tensile%20Structure%20Manufacturer%20%29&query_place_id=ChIJFVm4kzb9DDkR-ZKDtUrPo-w"}, {"place_id": "ChIJHy_mJJwCDTkRjjWBA338368", "name": "Lahore Watch Co.", "street": "Shop No. 112, Shop No. 112 113 Ghaffar Market, Block, 113, Ghaffar Market, Block 23, Beadonpura, Karol Bagh, New Delhi, Delhi 110005, India", "phone": "+91 99996 68166", "rating": "4.8", "review_count": "", "website": "http://lahorewatchco.com/", "latitude": 28.649777999999998, "longitude": 77.191687, "maps_url": "https://www.google.com/maps/search/?api=1&query=Lahore%20Watch%20Co.&query_place_id=ChIJHy_mJJwCDTkRjjWBA338368"}, {"place_id": "ChIJRayZC4UCDTkRDpiZOAvrdSg", "name": "S. C. Bhagat & Co.", "street": "53/6, Desh Bandhu Gupta Rd, Block 56, Karol Bagh, New Delhi, Delhi, 110005, India", "phone": "+91 11 4504 2945", "rating": "4.3", "review_count": "", "website": "https://www.scbc.co/", "latitude": 28.6534046, "longitude": 77.1917134, "maps_url": "https://www.google.com/maps/search/?api=1&query=S.%20C.%20Bhagat%20%26%20Co.&query_place_id=ChIJRayZC4UCDTkRDpiZOAvrdSg"}, {"place_id": "ChIJf2RLJxb9DDkRq5nIuDsDeLk", "name": "N.C. BOLT CO.", "street": "141, Ajmere Gate Rd, Kucha Tiku Shah, Ajmeri Gate, New Delhi, Delhi, 110006, India", "phone": "+91 88003 88343", "rating": "5", "review_count": "", "website": "", "latitude": 28.647105, "longitude": 77.22507499999999, "maps_url": "https://www.google.com/maps/search/?api=1&query=N.C.%20BOLT%20CO.&query_place_id=ChIJf2RLJxb9DDkRq5nIuDsDeLk"}, {"place_id": "ChIJUWJcVBX9DDkRFlsTCXnWUi0", "name": "Geeta Marble Company", "street": "7550, J6W9+M4F, Pearey Lal Bhawan, Qutab Rd, Prem Nagar, Ram Nagar, Paharganj, New Delhi, Delhi, 110055, India", "phone": "+91 98100 15799", "rating": "4.8", "review_count": "", "website": "", "latitude": 28.6467945, "longitude": 77.2177787, "maps_url": "https://www.google.com/maps/search/?api=1&query=Geeta%20Marble%20Company&query_place_id=ChIJUWJcVBX9DDkRFlsTCXnWUi0"}, {"place_id": "ChIJG8rmtIz9DDkR1UFG65kfR2Q", "name": "Parnami & co", "street": "5903/7, Ground floor, Shankar Market, Central, Nabi Karim, Paharganj, New Delhi, Delhi, 110055, India", "phone": "+91 98116 06083", "rating": "4.7", "review_count": "", "website": "", "latitude": 28.6525924, "longitude": 77.2136395, "maps_url": "https://www.google.com/maps/search/?api=1&query=Parnami%20%26%20co&query_place_id=ChIJG8rmtIz9DDkR1UFG65kfR2Q"}, {"place_id": "ChIJbQ3ir58CDTkR7oaREwH4xZk", "name": "Expert Trading Company", "street": "2273, 69, Abdul Aziz Rd, Block 25A, Naiwala, Karol Bagh, New Delhi, Delhi, 110005, India", "phone": "+91 98100 29670", "rating": "3.8", "review_count": "", "website": "", "latitude": 28.648117499999998, "longitude": 77.19372729999999, "maps_url": "https://www.google.com/maps/search/?api=1&query=Expert%20Trading%20Company&query_place_id=ChIJbQ3ir58CDTkR7oaREwH4xZk"}, {"place_id": "ChIJ1YTnVXYDDTkRi0A-3qe9tAA", "name": "Akbar Travels of India Pvt Ltd", "street": "J5VR+WGW, Akbar Online Booking Co Pvt Ltd 17, (1st Floor, 17, Pusa Rd, near Karol bagh, Block 8, WEA, Karol Bagh, New Delhi, Delhi 110005, India", "phone": "+91 11 6647 7000", "rating": "3.4", "review_count": "", "website": "https://www.akbartravels.com/", "latitude": 28.644702799999997, "longitude": 77.1913294, "maps_url": "https://www.google.com/maps/search/?api=1&query=Akbar%20Travels%20of%20India%20Pvt%20Ltd&query_place_id=ChIJ1YTnVXYDDTkRi0A-3qe9tAA"}, {"place_id": "ChIJIcaddUL9DDkRyHDz2IlzCrs", "name": "Sen & Company - Wooden Flooring Dealer and Wholesaler In Delhi | Laminate Wooden Flooring In Delhi | Sofa and Curtain Fabric In Delhi", "street": "8, 4, Desh Bandhu Gupta Rd, Bazar Sangatrashan, Chuna Mandi, Paharganj, New Delhi, Delhi 110055, India", "phone": "+91 92500 82100", "rating": "4.7", "review_count": "", "website": "", "latitude": 28.645565599999998, "longitude": 77.2100387, "maps_url": "https://www.google.com/maps/search/?api=1&query=Sen%20%26%20Company%20-%20Wooden%20Flooring%20Dealer%20and%20Wholesaler%20In%20Delhi%20%7C%20Laminate%20Wooden%20Flooring%20In%20Delhi%20%7C%20Sofa%20and%20Curtain%20Fabric%20In%20Delhi&query_place_id=ChIJIcaddUL9DDkRyHDz2IlzCrs"}, {"place_id": "ChIJMen4JTP9DDkRC7DSoPzEmGw", "name": "Sollace Co-works", "street": "1E/2, Block E 1, Jhandewalan Extension, Karol Bagh, New Delhi, Delhi 110055, India", "phone": "+91 98106 31405", "rating": "5", "review_count": "", "website": "https://sollacecoworks.com/coworking-spaces-in-jhandewalan/", "latitude": 28.644596999999997, "longitude": 77.2002167, "maps_url": "https://www.google.com/maps/search/?api=1&query=Sollace%20Co-works&query_place_id=ChIJMen4JTP9DDkRC7DSoPzEmGw"}, {"place_id": "ChIJ_2kC4eL9DDkR_tMbDLZDaZU", "name": "Air Filter Manufacturer in Delhi | Fiilters.com", "street": "Ghaffar Market, Block 24N, Beadonpura, Karol Bagh, New Delhi, Delhi, 110005, India", "phone": "+91 99997 90843", "rating": "5", "review_count": "", "website": "https://www.fiilters.com/", "latitude": 28.648443399999998, "longitude": 77.19279639999999, "maps_url": "https://www.google.com/maps/search/?api=1&query=Air%20Filter%20Manufacturer%20in%20Delhi%20%7C%20Fiilters.com&query_place_id=ChIJ_2kC4eL9DDkR_tMbDLZDaZU"}, {"place_id": "ChIJyaZsG2D9DDkRZmKlfZC3J24", "name": "Cholamandalam Investment and Finance Company Limited", "street": "1st & 2nd Floor, Pusa Rd, above SBI, Block 17 A, WEA, Karol Bagh, New Delhi, Delhi, 110005, India", "phone": "+91 80 4446 5036", "rating": "4.1", "review_count": "", "website": "https://www.cholamandalam.com/branch/karol-bagh", "latitude": 28.645148799999998, "longitude": 77.1946042, "maps_url": "https://www.google.com/maps/search/?api=1&query=Cholamandalam%20Investment%20and%20Finance%20Company%20Limited&query_place_id=ChIJyaZsG2D9DDkRZmKlfZC3J24"}, {"place_id": "ChIJfUWt0N39DDkRBa3QZGWRazY", "name": "Mittal Jain And Co. LLP Chartered Accountants", "street": "1/4, Panchkuian Rd, near R K Ashram, Bharat Nagar, Paharganj, New Delhi, Delhi 110001, India", "phone": "+91 81780 58454", "rating": "5", "review_count": "", "website": "", "latitude": 28.6393165, "longitude": 77.2088169, "maps_url": "https://www.google.com/maps/search/?api=1&query=Mittal%20Jain%20And%20Co.%20LLP%20Chartered%20Accountants&query_place_id=ChIJfUWt0N39DDkRBa3QZGWRazY"}, {"place_id": "ChIJ3yY_64X9DDkRoQnXJHzWKtw", "name": "Sky Packers and Movers India Pvt. Ltd.", "street": "8410, Gali No 1, Arya Nagar, Paharganj, New Delhi, Delhi 110055, India", "phone": "+91 94394 34242", "rating": "4.8", "review_count": "", "website": "https://skypackers.in/", "latitude": 28.645349, "longitude": 77.21306299999999, "maps_url": "https://www.google.com/maps/search/?api=1&query=Sky%20Packers%20and%20Movers%20India%20Pvt.%20Ltd.&query_place_id=ChIJ3yY_64X9DDkRoQnXJHzWKtw"}, {"place_id": "ChIJ____b2f9DDkR3Gju4fBmnPY", "name": "KK Capital Services Ltd business loan in Delhi, SME loan, unsecured business loan", "street": "251 , Anarkali Complex, Jhandewalan Extension, New Delhi, 110055, India", "phone": "+91 95990 86061", "rating": "5", "review_count": "", "website": "https://www.kkcap.in/msme-sme-loan", "latitude": 28.645591, "longitude": 77.2024306, "maps_url": "https://www.google.com/maps/search/?api=1&query=KK%20Capital%20Services%20Ltd%20business%20loan%20in%20Delhi%2C%20SME%20loan%2C%20unsecured%20business%20loan&query_place_id=ChIJ____b2f9DDkR3Gju4fBmnPY"}, {"place_id": "ChIJ3WUmhPwDDTkRNCsfiK-kD2g", "name": "Parana Tools", "street": "BUILDING 2745 3RD FLOOR, GAFFAR MARKET, Gali Number 23, Beadonpura, Karol Bagh, New Delhi, Delhi, 110005, India", "phone": "+91 87001 66499", "rating": "4.6", "review_count": "", "website": "http://www.paranatools.com/", "latitude": 28.6516409, "longitude": 77.1918793, "maps_url": "https://www.google.com/maps/search/?api=1&query=Parana%20Tools&query_place_id=ChIJ3WUmhPwDDTkRNCsfiK-kD2g"}, {"place_id": "ChIJt7QR--b9DDkRFHrGVoPFoqg", "name": "Ram Dev & Company", "street": "135, Khari Baoli Rd, Gadodia Market, Fatehpuri, Chandni Chowk, New Delhi, Delhi, 110006, India", "phone": "+91 98739 30467", "rating": "4.6", "review_count": "", "website": "https://hing.co.in/", "latitude": 28.6568659, "longitude": 77.22164289999999, "maps_url": "https://www.google.com/maps/search/?api=1&query=Ram%20Dev%20%26%20Company&query_place_id=ChIJt7QR--b9DDkRFHrGVoPFoqg"}, {"place_id": "ChIJuyBnjmP9DDkRRLDNseKIcas", "name": "Alpha Advertising co.", "street": "Plot No 1, Abhinash Mansion, Main, Joshi Rd, Karol Bagh, New Delhi, Delhi 110005, India", "phone": "+91 98110 85386", "rating": "5", "review_count": "", "website": "https://www.alphaadvertising.co.in/", "latitude": 28.653791299999998, "longitude": 77.2010801, "maps_url": "https://www.google.com/maps/search/?api=1&query=Alpha%20Advertising%20co.&query_place_id=ChIJuyBnjmP9DDkRRLDNseKIcas"}, {"place_id": "ChIJbaIAUT77DDkRqTREkokl8Iw", "name": "Arata Universal Co.", "street": "971/6, Motia Khan, Sadar Bazaar, New Delhi, Delhi, 110006, India", "phone": "+91 99994 80416", "rating": "4.5", "review_count": "", "website": "", "latitude": 28.656750499999998, "longitude": 77.2149841, "maps_url": "https://www.google.com/maps/search/?api=1&query=Arata%20Universal%20Co.&query_place_id=ChIJbaIAUT77DDkRqTREkokl8Iw"}, {"place_id": "ChIJO0SbjrQDDTkRRwJcoWg5-ik", "name": "Kohli & Co.", "street": "Prabhat Rd, Block 5C, Karol Bagh, New Delhi, Delhi, 110005, India", "phone": "+91 82877 35178", "rating": "5", "review_count": "", "website": "http://kohli-co.com/", "latitude": 28.660183699999997, "longitude": 77.1923794, "maps_url": "https://www.google.com/maps/search/?api=1&query=Kohli%20%26%20Co.&query_place_id=ChIJO0SbjrQDDTkRRwJcoWg5-ik"}, {"place_id": "ChIJL742cmL9DDkRNiiWgwiXyI0", "name": "AADI INTERNATIONAL", "street": "102A, Pal Mohan Plaza, 11/56, Desh Bandhu Gupta Rd, New Delhi, Delhi 110005, India", "phone": "+91 98111 41277", "rating": "4.3", "review_count": "", "website": "http://www.aaditents.com/", "latitude": 28.6517941, "longitude": 77.1950201, "maps_url": "https://www.google.com/maps/search/?api=1&query=AADI%20INTERNATIONAL&query_place_id=ChIJL742cmL9DDkRNiiWgwiXyI0"}, {"place_id": "ChIJQ9ayeBL9DDkRwYTi0d6EINU", "name": "UNION GLASS COMPANY", "street": "792 Chowk, Tilak Bazar, Katra Ghel, Khari Baoli, Chandni Chowk, Delhi, 110006, India", "phone": "+91 98115 75263", "rating": "4.5", "review_count": "", "website": "", "latitude": 28.6588967, "longitude": 77.2215078, "maps_url": "https://www.google.com/maps/search/?api=1&query=UNION%20GLASS%20COMPANY&query_place_id=ChIJQ9ayeBL9DDkRwYTi0d6EINU"}, {"place_id": "ChIJC9l7iRH9DDkRjpc4hrKQdzo", "name": "Rama Watch Company", "street": "297, Chandni Chowk Rd, Fatehpuri, Chandni Chowk, New Delhi, Delhi, 110006, India", "phone": "", "rating": "4.1", "review_count": "", "website": "https://ramawatchcompany.co.in/", "latitude": 28.656529, "longitude": 77.223474, "maps_url": "https://www.google.com/maps/search/?api=1&query=Rama%20Watch%20Company&query_place_id=ChIJC9l7iRH9DDkRjpc4hrKQdzo"}, {"place_id": "ChIJVVVVQRL9DDkRhdJFD0JWg4g", "name": "Sandeep Optical Company Private Limited", "street": "267/1, Katra Bariyan, katra Baryan, Fatehpuri, Chandni Chowk, New Delhi, Delhi, 110006, India", "phone": "+91 98112 28281", "rating": "4.9", "review_count": "", "website": "", "latitude": 28.656137299999997, "longitude": 77.22312699999999, "maps_url": "https://www.google.com/maps/search/?api=1&query=Sandeep%20Optical%20Company%20Private%20Limited&query_place_id=ChIJVVVVQRL9DDkRhdJFD0JWg4g"}]