{"timestamp": 1773730803.9148448, "keyword": "IT company", "location": "delhi", "cell_idx": 297, "results": [{"place_id": "0x390ce3c153b89811:0xe7a279685777e9ca", "name": "IT Company", "category": "Automation company", "street": "A-14", "city": "near iskcon temple", "phone": "", "website": "http://www.opuswiz.com/", "rating": 3, "review_count": "", "latitude": 28.557167, "longitude": 77.25424819999999, "maps_url": "https://www.google.com/maps/place/?q=place_id:0x390ce3c153b89811:0xe7a279685777e9ca"}, {"place_id": "0x390ce3d606c913ef:0xd246bd5631eb2cad", "name": "Delvetech", "category": "Software company", "street": "87A/1, 3rd Floor, Opp. Block N-115, G.K-1, Near Moolchand Merto", "city": "Block B, Zamrudpur, Greater Kailash", "phone": "09873895154", "website": "http://www.delvetech.co.in/", "rating": 4.1, "review_count": "", "latitude": 28.5570597, "longitude": 77.2356981, "maps_url": "https://www.google.com/maps/place/?q=place_id:0x390ce3d606c913ef:0xd246bd5631eb2cad"}, {"place_id": "0x390ce24a0f9aee77:0xe313ca93b4bc8e6f", "name": "ITES Horizon Pvt. Ltd.", "category": "Software company", "street": "H64P+P6V", "city": "Goyal", "phone": "01204217086", "website": "http://www.iteshorizon.com/", "rating": 3.6, "review_count": "", "latitude": 28.556850899999997, "longitude": 77.2355388, "maps_url": "https://www.google.com/maps/place/?q=place_id:0x390ce24a0f9aee77:0xe313ca93b4bc8e6f"}, {"place_id": "0x390ce3c7b85554e5:0x34e439c15e247631", "name": "HAUT IT Solutions Pvt. Ltd", "category": "Software company", "street": "390", "city": "Sant Nagar, East of Kailash", "phone": "09934753003", "website": "http://www.hautitsolutions.com/", "rating": 4.3, "review_count": "", "latitude": 28.554910099999997, "longitude": 77.25111249999999, "maps_url": "https://www.google.com/maps/place/?q=place_id:0x390ce3c7b85554e5:0x34e439c15e247631"}, {"place_id": "0x390ce458d0000001:0xf2123bd299ec4501", "name": "IT Company India", "category": "Software company", "street": "D56", "city": "D Block, Sector 10", "phone": "09999244854", "website": "https://www.itcompanyindia.in/", "rating": 4.7, "review_count": "", "latitude": 28.589917699999997, "longitude": 77.3351153, "maps_url": "https://www.google.com/maps/place/?q=place_id:0x390ce458d0000001:0xf2123bd299ec4501"}, {"place_id": "0x390ce1597b5509e5:0xfd8209b937b44d3c", "name": "IT Solutions India Private Limited", "category": "Software company", "street": "D-88/5", "city": "Pocket D, Okhla Phase I, Okhla Industrial Estate", "phone": "09810017429", "website": "https://www.itsipl.com/", "rating": 4.2, "review_count": "", "latitude": 28.520146, "longitude": 77.280431, "maps_url": "https://www.google.com/maps/place/?q=place_id:0x390ce1597b5509e5:0xfd8209b937b44d3c"}, {"place_id": "0x390ce3eee628f8d1:0xacc045558f02cdd2", "name": "Rk IT solutions", "category": "Computer repair service", "street": "Kailash Colony, Block C, Zamrudpur, Greater Kailash", "city": "New Delhi, Delhi 110048", "phone": "07761865128", "website": "", "rating": 4.7, "review_count": "", "latitude": 28.5576369, "longitude": 77.2369804, "maps_url": "https://www.google.com/maps/place/?q=place_id:0x390ce3eee628f8d1:0xacc045558f02cdd2"}, {"place_id": "0x390ce3974939d72d:0x6fd7635ea1244d86", "name": "Webvines Services (OPC) Private Limited", "category": "Computer support and services", "street": "A - 110", "city": "Greater Kailash-1, Block B, Zamrudpur, Greater Kailash", "phone": "", "website": "https://www.webvines.in/?utm_source=google&utm_medium=wix_google_business_profile&utm_campaign=13120322183812541592", "rating": 5, "review_count": "", "latitude": 28.5571234, "longitude": 77.23697419999999, "maps_url": "https://www.google.com/maps/place/?q=place_id:0x390ce3974939d72d:0x6fd7635ea1244d86"}, {"place_id": "0x390ce161ceec9d85:0x952e8b11295dfe85", "name": "HYBEC IT SOLUTION", "category": "Software company", "street": "National Small Industries Corporation", "city": "Block F, Okhla Phase III, Okhla Industrial Estate", "phone": "01149128591", "website": "http://www.hybecitsolutions.com/", "rating": 4.8, "review_count": "", "latitude": 28.5490569, "longitude": 77.2674236, "maps_url": "https://www.google.com/maps/place/?q=place_id:0x390ce161ceec9d85:0x952e8b11295dfe85"}, {"place_id": "0x39f89c0fb3b411eb:0xbe473f977e9b7558", "name": "Kbeatech - Digital Solutions Company", "category": "Software company", "street": "1893, 1st Floor", "city": "Uday Chand Marg", "phone": "", "website": "https://kbeatech.in/", "rating": 4.9, "review_count": "", "latitude": 28.571338299999997, "longitude": 77.2228884, "maps_url": "https://www.google.com/maps/place/?q=place_id:0x39f89c0fb3b411eb:0xbe473f977e9b7558"}, {"place_id": "0x390ce3de4687a317:0x587eff2ec36e0933", "name": "SNJ Solutions Pvt Ltd", "category": "Software company", "street": "", "city": "", "phone": "09958110050", "website": "http://www.snjsolutions.co.in/", "rating": 4.9, "review_count": "", "latitude": 21.0680074, "longitude": 82.7525294, "maps_url": "https://www.google.com/maps/place/?q=place_id:0x390ce3de4687a317:0x587eff2ec36e0933"}, {"place_id": "0x390ce1451c1e9705:0x23327f52dffba165", "name": "Trans India Technologies", "category": "Software company", "street": "18, Community Center", "city": "Kailash Colony, Zamrudpur, Saket", "phone": "09716983756", "website": "https://www.transindiatechnologies.com/", "rating": "", "review_count": "", "latitude": 28.555034199999998, "longitude": 77.238013, "maps_url": "https://www.google.com/maps/place/?q=place_id:0x390ce1451c1e9705:0x23327f52dffba165"}, {"place_id": "0x390ce38f903de9fd:0x60b75e3dc7d3fb1b", "name": "iTech Mission Private Limited (iTM)", "category": "Software company", "street": "4th Floor, Saira Tower", "city": "Gulmohar Commercial Complex", "phone": "", "website": "http://www.itechmission.org/", "rating": 5, "review_count": "", "latitude": 28.557895499999997, "longitude": 77.20812099999999, "maps_url": "https://www.google.com/maps/place/?q=place_id:0x390ce38f903de9fd:0x60b75e3dc7d3fb1b"}, {"place_id": "0x390ce36576bd9599:0x5f20b8da5923d9f4", "name": "Software and Studio", "category": "Software company", "street": "Gargi College Lane", "city": "23, Siri Fort Rd", "phone": "08920850757", "website": "https://www.softwareandstudio.in/", "rating": 4.7, "review_count": "", "latitude": 28.554875799999998, "longitude": 77.2250122, "maps_url": "https://www.google.com/maps/place/?q=place_id:0x390ce36576bd9599:0x5f20b8da5923d9f4"}, {"place_id": "0x4ebf586dbe4d7c09:0x968455c83bf5226c", "name": "Anchor IT Solutions- App Development | Website Development | Digital Marketing", "category": "Software company", "street": "4", "city": "Vinoba Puri, Lajpat Nagar II, Lajpat Nagar", "phone": "07678658584", "website": "", "rating": 4.8, "review_count": "", "latitude": 28.566371399999998, "longitude": 77.2486924, "maps_url": "https://www.google.com/maps/place/?q=place_id:0x4ebf586dbe4d7c09:0x968455c83bf5226c"}, {"place_id": "0x390ce3094f4a9af1:0xdc21c66946b829ad", "name": "BAUDHYANTRAM IT Solutions | Website Designing | Web Development | Software Company in Delhi", "category": "Software company", "street": "H82 2nd Floor", "city": "opposite Bengali Sweet Center", "phone": "07900899996", "website": "http://www.baudhyantram.in/", "rating": 4.8, "review_count": "", "latitude": 28.5695803, "longitude": 77.221047, "maps_url": "https://www.google.com/maps/place/?q=place_id:0x390ce3094f4a9af1:0xdc21c66946b829ad"}, {"place_id": "0x390ce3c8e5555555:0xf6f40f0763e78501", "name": "Kss It Private Limited", "category": "Software company", "street": "NO 187", "city": "188", "phone": "", "website": "", "rating": 1, "review_count": "", "latitude": 28.556442999999998, "longitude": 77.242558, "maps_url": "https://www.google.com/maps/place/?q=place_id:0x390ce3c8e5555555:0xf6f40f0763e78501"}, {"place_id": "0x390ce24a9d6ea41f:0x512d6c5ca8626e8d", "name": "IYCWorld SoftInfrastructure Pvt. Ltd.", "category": "Corporate office", "street": "A43", "city": "Block B, Zamrudpur, Greater Kailash", "phone": "01146556855", "website": "http://iycworld.net/", "rating": 4.6, "review_count": "", "latitude": 28.5571234, "longitude": 77.23697419999999, "maps_url": "https://www.google.com/maps/place/?q=place_id:0x390ce24a9d6ea41f:0x512d6c5ca8626e8d"}, {"place_id": "0x390ce22b1e3df285:0xc37f9f117b75ba56", "name": "Ubitech Solutions Pvt Ltd", "category": "Software company", "street": "S-553, Inder Mohan Bhardwaj Marg", "city": "Block E, Greater Kailash II, Greater Kailash", "phone": "", "website": "http://www.ubitechsolutions.com/", "rating": 4.7, "review_count": "", "latitude": 28.5364878, "longitude": 77.2388501, "maps_url": "https://www.google.com/maps/place/?q=place_id:0x390ce22b1e3df285:0xc37f9f117b75ba56"}, {"place_id": "0x390ce25e81555555:0xf93f773552127f47", "name": "SANEKT SOFTWARE SOLUTION", "category": "Software company", "street": "Top floor", "city": "H 11", "phone": "01141589565", "website": "http://sanekt.com/", "rating": 5, "review_count": "", "latitude": 28.571361, "longitude": 77.221733, "maps_url": "https://www.google.com/maps/place/?q=place_id:0x390ce25e81555555:0xf93f773552127f47"}, {"place_id": "0x390ce3ed50712e4f:0xc576b836f883d069", "name": "SB Constructions", "category": "Real Estate Builders & Construction Company", "street": "B-215", "city": "Block B, Greater Kailash I, Greater Kailash", "phone": "", "website": "http://www.sbconstruct.co.in/", "rating": 4.8, "review_count": "", "latitude": 28.5548543, "longitude": 77.2309396, "maps_url": "https://www.google.com/maps/place/?q=place_id:0x390ce3ed50712e4f:0xc576b836f883d069"}, {"place_id": "0x390ce3dee7c3502d:0xfc5f2c815b86da49", "name": "Code & Kraft - Web Development & Digital Marketing Agency", "category": "Website designer", "street": "Greater Kailash-1, Block B, Greater Kailash I, Greater Kailash", "city": "New Delhi, Delhi 110048", "phone": "07827111033", "website": "https://codeandkraft.com/", "rating": 5, "review_count": "", "latitude": 28.556379699999997, "longitude": 77.2326027, "maps_url": "https://www.google.com/maps/place/?q=place_id:0x390ce3dee7c3502d:0xfc5f2c815b86da49"}, {"place_id": "0x390ce24a142f0903:0x8226375967aa237f", "name": "Excellent Infocom Pvt. Ltd.", "category": "Web hosting company", "street": "89A First Floor", "city": "Nandi Vithi Rd", "phone": "09650310225", "website": "", "rating": 4.4, "review_count": "", "latitude": 28.557346, "longitude": 77.2358477, "maps_url": "https://www.google.com/maps/place/?q=place_id:0x390ce24a142f0903:0x8226375967aa237f"}, {"place_id": "0x390ce22ae5104c51:0x2323d373ce668ed3", "name": "IT-TAAS Pvt Ltd", "category": "Software company", "street": "E-506, Inder Mohan Bhardwaj Marg", "city": "Block E, Greater Kailash II, Greater Kailash", "phone": "09810134631", "website": "http://it-taas.com/", "rating": "", "review_count": "", "latitude": 28.535871999999998, "longitude": 77.23848699999999, "maps_url": "https://www.google.com/maps/place/?q=place_id:0x390ce22ae5104c51:0x2323d373ce668ed3"}]}