{"timestamp": 1773729301.0092385, "keyword": "IT company", "location": "delhi", "cell_idx": 67, "results": [{"place_id": "0x390d1fcf6c34ab99:0x285f961d231b2c61", "name": "Aadiyar Infotech Private Limited", "category": "Software company", "street": "1st Floor", "city": "Pannal Building No. 2", "phone": "09810164525", "website": "https://www.aadiyar.in/", "rating": 4.9, "review_count": "", "latitude": 28.487146, "longitude": 77.185315, "maps_url": "https://www.google.com/maps/place/?q=place_id:0x390d1fcf6c34ab99:0x285f961d231b2c61"}, {"place_id": "0x390d1e269455720d:0x8f7dc59d495510bb", "name": "OM IT SOLUTIONS", "category": "Computer repair service", "street": "Maidan Garhi Rd", "city": "near Lavanya Hospital", "phone": "08860626288", "website": "https://omitsolutions.co.in/", "rating": 4.8, "review_count": "", "latitude": 28.4984292, "longitude": 77.19177959999999, "maps_url": "https://www.google.com/maps/place/?q=place_id:0x390d1e269455720d:0x8f7dc59d495510bb"}, {"place_id": "0x390d1e2fed1eed4b:0x101cd24533e257fa", "name": "SOFTLIFE Technologies Pvt. Ltd.", "category": "Software company", "street": "B-2, Block", "city": "Road", "phone": "09045199841", "website": "", "rating": 4.4, "review_count": "", "latitude": 28.4929925, "longitude": 77.18445489999999, "maps_url": "https://www.google.com/maps/place/?q=place_id:0x390d1e2fed1eed4b:0x101cd24533e257fa"}, {"place_id": "0x390d1e26841f4029:0xbed40d3c611d8d6", "name": "SAY 2 GET iT", "category": "Software company", "street": "83 E", "city": "DR Ambedkar Colony, Chattarpur Enclave, Chhatarpur", "phone": "09319051305", "website": "http://www.say2getit.com/", "rating": 5, "review_count": "", "latitude": 28.5028699, "longitude": 77.1887764, "maps_url": "https://www.google.com/maps/place/?q=place_id:0x390d1e26841f4029:0xbed40d3c611d8d6"}, {"place_id": "0x390ce1fb44618b65:0x8e06b2a6128352d1", "name": "Acropolis Infotech - Delhi Office", "category": "Software company", "street": "metro station gate", "city": "55, 2nd Floor, Lane 2", "phone": "09999876593", "website": "https://www.acropolisinfotech.com/", "rating": 4.6, "review_count": "", "latitude": 28.518907, "longitude": 77.2015435, "maps_url": "https://www.google.com/maps/place/?q=place_id:0x390ce1fb44618b65:0x8e06b2a6128352d1"}, {"place_id": "0x390ce458d0000001:0xf2123bd299ec4501", "name": "IT Company India", "category": "Software company", "street": "D56", "city": "D Block, Sector 10", "phone": "09999244854", "website": "https://www.itcompanyindia.in/", "rating": 4.7, "review_count": "", "latitude": 28.589917699999997, "longitude": 77.3351153, "maps_url": "https://www.google.com/maps/place/?q=place_id:0x390ce458d0000001:0xf2123bd299ec4501"}, {"place_id": "0x390d1f9ef34b79bd:0x2dc0fdd0c33d2e15", "name": "VLS Technology Private Limited", "category": "Software company", "street": "D 27A, Second Floor", "city": "60 Feet Rd", "phone": "09711200318", "website": "https://vlstechnology.com/", "rating": 5, "review_count": "", "latitude": 28.5020255, "longitude": 77.1837389, "maps_url": "https://www.google.com/maps/place/?q=place_id:0x390d1f9ef34b79bd:0x2dc0fdd0c33d2e15"}, {"place_id": "0x390ce3c153b89811:0xe7a279685777e9ca", "name": "IT Company", "category": "Automation company", "street": "A-14", "city": "near iskcon temple", "phone": "", "website": "http://www.opuswiz.com/", "rating": 3, "review_count": "", "latitude": 28.557167, "longitude": 77.25424819999999, "maps_url": "https://www.google.com/maps/place/?q=place_id:0x390ce3c153b89811:0xe7a279685777e9ca"}, {"place_id": "0x390ce1597b5509e5:0x41371c9fd40ce199", "name": "TNS Networking Solutions Pvt. Ltd. - System Integrator for IT Infrastructure Projects", "category": "Computer support and services", "street": "293, Dhan Mill Rd", "city": "Chhatarpur Hills, Pocket D, Dr Ambedkar Colony, Chhatarpur", "phone": "01142375032", "website": "http://www.tnspl.com/", "rating": 4.7, "review_count": "", "latitude": 28.503260599999997, "longitude": 77.1838258, "maps_url": "https://www.google.com/maps/place/?q=place_id:0x390ce1597b5509e5:0x41371c9fd40ce199"}, {"place_id": "0x390ce3ad10000061:0xeff7e6017a22cce7", "name": "Alpinesoft IT Solutions Authorized Google Workspace Reseller", "category": "Software company", "street": "162/9 Ist Floor, KIshangarh - Gaushala Marg", "city": "Lakhi Nath Kuti, Mehrauli, Vasant Kunj", "phone": "09999011157", "website": "https://www.alpinesoftit.com/", "rating": 4.3, "review_count": "", "latitude": 28.515394399999998, "longitude": 77.16460359999999, "maps_url": "https://www.google.com/maps/place/?q=place_id:0x390ce3ad10000061:0xeff7e6017a22cce7"}, {"place_id": "0x390d1e22c54b039d:0xd5c0ccbe602708d", "name": "CEOITBOX | Mr. Sanjeev Jain - Best AI Business Automation Coach In India | AI & Tech Implementation Coach", "category": "Software company", "street": "293, Dhan Mill Rd", "city": "Chhatarpur Hills, Pocket D, Dr Ambedkar Colony, Chhatarpur", "phone": "08766362949", "website": "https://ceoitbox.com/", "rating": 4.7, "review_count": "", "latitude": 28.503270099999998, "longitude": 77.1838192, "maps_url": "https://www.google.com/maps/place/?q=place_id:0x390d1e22c54b039d:0xd5c0ccbe602708d"}, {"place_id": "0x390ce152fc857a93:0x2230795c34c7eca5", "name": "VR Tech Solutions", "category": "Computer support and services", "street": "B -168, IGNOU Rd", "city": "Maidan Garhi, SAKET", "phone": "09082636546", "website": "http://www.vrtech.co.in/", "rating": 4.8, "review_count": "", "latitude": 28.4986471, "longitude": 77.1967746, "maps_url": "https://www.google.com/maps/place/?q=place_id:0x390ce152fc857a93:0x2230795c34c7eca5"}, {"place_id": "0x390d1e186527b451:0x3d552630d3703e21", "name": "Inca Infotech Technologies Pvt Ltd", "category": "Computer support and services", "street": "D-23/405, UGF", "city": "100 Feet Rd", "phone": "18008891907", "website": "https://www.incainfotech.com/", "rating": 3.6, "review_count": "", "latitude": 28.506226899999998, "longitude": 77.1850521, "maps_url": "https://www.google.com/maps/place/?q=place_id:0x390d1e186527b451:0x3d552630d3703e21"}, {"place_id": "0x4c4f2ab74dacf91b:0x422ee5da7e75ec65", "name": "Panah Infosystem", "category": "Software company", "street": "C 520", "city": "JVTS Garden, Block C, Chhatarpur Extension, Chhatarpur", "phone": "09990799978", "website": "https://panahinfosystem.com/", "rating": 4.3, "review_count": "", "latitude": 28.4909283, "longitude": 77.17806829999999, "maps_url": "https://www.google.com/maps/place/?q=place_id:0x4c4f2ab74dacf91b:0x422ee5da7e75ec65"}, {"place_id": "0x390d1fdbb815caa3:0x39a39ff8352e09ac", "name": "Sun Techlink Pvt. Ltd.", "category": "Computer support and services", "street": "B-80, Chattarpur Enclave Phase 2", "city": "Phase 1, Chattarpur Enclave, Chhatarpur", "phone": "", "website": "http://www.suntechlink.in/", "rating": 5, "review_count": "", "latitude": 28.4994215, "longitude": 77.1904541, "maps_url": "https://www.google.com/maps/place/?q=place_id:0x390d1fdbb815caa3:0x39a39ff8352e09ac"}, {"place_id": "0x390ce1b9de54d101:0xc5184256693b27dd", "name": "LCK Technologies - Website designing development company South Delhi", "category": "Website designer", "street": "439 1st floor", "city": "438", "phone": "09891337955", "website": "https://lckdigitalmedia.in/", "rating": 4.9, "review_count": "", "latitude": 28.5089698, "longitude": 77.20114769999999, "maps_url": "https://www.google.com/maps/place/?q=place_id:0x390ce1b9de54d101:0xc5184256693b27dd"}, {"place_id": "0x390ce146ae64feef:0x1c8b9a25c218b845", "name": "Indian Apps Market", "category": "Software company", "street": "", "city": "", "phone": "", "website": "", "rating": 3.8, "review_count": "", "latitude": 26.732468599999997, "longitude": 77.0595484, "maps_url": "https://www.google.com/maps/place/?q=place_id:0x390ce146ae64feef:0x1c8b9a25c218b845"}, {"place_id": "0x4215c6da63b4b82f:0x794ba814a6ada964", "name": "Asha Tech | Website Design, App Development & IT Solutions Delhi", "category": "Software company", "street": "no 2", "city": "195, Lane No. 1", "phone": "07531080874", "website": "https://ashatech.co.in/", "rating": 4.7, "review_count": "", "latitude": 28.519994099999998, "longitude": 77.2008791, "maps_url": "https://www.google.com/maps/place/?q=place_id:0x4215c6da63b4b82f:0x794ba814a6ada964"}, {"place_id": "0x390d1b3f65981059:0x30e31a0b3adbe75", "name": "The CodeBlaster", "category": "Website designer", "street": "4th Floor", "city": "B-116/A, Extension", "phone": "08800488645", "website": "https://www.thecodeblaster.com/", "rating": 4.8, "review_count": "", "latitude": 28.4951829, "longitude": 77.1920433, "maps_url": "https://www.google.com/maps/place/?q=place_id:0x390d1b3f65981059:0x30e31a0b3adbe75"}, {"place_id": "0x390d1fb9b19cd7d7:0x2febfba590f33428", "name": "Corapana Technologies - Mobile App Development and Web Design Development Company Delhi", "category": "Software company", "street": "Ground floor", "city": "D-23", "phone": "08295242621", "website": "https://corapana.com/", "rating": 4.8, "review_count": "", "latitude": 28.496378999999997, "longitude": 77.17898, "maps_url": "https://www.google.com/maps/place/?q=place_id:0x390d1fb9b19cd7d7:0x2febfba590f33428"}, {"place_id": "0x4215c6da63b4b82f:0x794ba814a6ada964", "name": "Asha Tech | Website Design, App Development & IT Solutions Delhi", "category": "Software company", "street": "no 2", "city": "195, Lane No. 1", "phone": "07531080874", "website": "https://ashatech.co.in/", "rating": 4.7, "review_count": "", "latitude": 28.519994099999998, "longitude": 77.2008791, "maps_url": "https://www.google.com/maps/place/?q=place_id:0x4215c6da63b4b82f:0x794ba814a6ada964"}, {"place_id": "0x390d1e27a164760b:0x90c8dd9e2b4ef002", "name": "JS Infosoft", "category": "Software company", "street": "B-293, Maidan Garhi Rd", "city": "Maidan Gari Extension, Chhatarpur Extension, Chhatarpur", "phone": "08587891066", "website": "http://www.jsinfosoft.in/", "rating": 4.9, "review_count": "", "latitude": 28.4984474, "longitude": 77.1917429, "maps_url": "https://www.google.com/maps/place/?q=place_id:0x390d1e27a164760b:0x90c8dd9e2b4ef002"}, {"place_id": "0x390ce1d4d405afe9:0xb74a24bc34ddaac4", "name": "Zaid IT & Engineering Services", "category": "Software company", "street": "Khasra 913", "city": "Kharak Riwara", "phone": "", "website": "https://digitalkarigar.in/", "rating": 5, "review_count": "", "latitude": 28.467602399999997, "longitude": 77.2063491, "maps_url": "https://www.google.com/maps/place/?q=place_id:0x390ce1d4d405afe9:0xb74a24bc34ddaac4"}, {"place_id": "0x390d1b3f65981059:0x30e31a0b3adbe75", "name": "The CodeBlaster", "category": "Website designer", "street": "4th Floor", "city": "B-116/A, Extension", "phone": "08800488645", "website": "https://www.thecodeblaster.com/", "rating": 4.8, "review_count": "", "latitude": 28.4951829, "longitude": 77.1920433, "maps_url": "https://www.google.com/maps/place/?q=place_id:0x390d1b3f65981059:0x30e31a0b3adbe75"}, {"place_id": "0x390d1fb9b19cd7d7:0x2febfba590f33428", "name": "Corapana Technologies - Mobile App Development and Web Design Development Company Delhi", "category": "Software company", "street": "Ground floor", "city": "D-23", "phone": "08295242621", "website": "https://corapana.com/", "rating": 4.8, "review_count": "", "latitude": 28.496378999999997, "longitude": 77.17898, "maps_url": "https://www.google.com/maps/place/?q=place_id:0x390d1fb9b19cd7d7:0x2febfba590f33428"}, {"place_id": "0x390d1f43f6442193:0xa633a2795caaaf9a", "name": "iT EXPERT", "category": "Computer support and services", "street": "Plot No 165", "city": "near by C.R.C Building", "phone": "09643205555", "website": "https://it-expert.grexa.site/", "rating": 5, "review_count": "", "latitude": 28.496751, "longitude": 77.163401, "maps_url": "https://www.google.com/maps/place/?q=place_id:0x390d1f43f6442193:0xa633a2795caaaf9a"}, {"place_id": "0x390d1fb4a4f01d1f:0x55dd56ab7bce4d28", "name": "Give India Solution (Branch Office)", "category": "Website designer", "street": "PB no. 4 Rewai Farm", "city": "Phase 1, Chattarpur Enclave, Chhatarpur", "phone": "09511345112", "website": "https://www.giveind.in/", "rating": 5, "review_count": "", "latitude": 28.4980637, "longitude": 77.1885333, "maps_url": "https://www.google.com/maps/place/?q=place_id:0x390d1fb4a4f01d1f:0x55dd56ab7bce4d28"}, {"place_id": "0xa874db7c0cf54afd:0x145d6763c11b1cc4", "name": "Launchista - Best Digital Marketing Agency In Delhi NCR", "category": "Website designer", "street": "D Block, Rajpur Khurd Village, Chhatarpur", "city": "New Delhi, Delhi 110068", "phone": "06006427254", "website": "https://launchista.com/", "rating": 5, "review_count": "", "latitude": 28.4951291, "longitude": 77.1915786, "maps_url": "https://www.google.com/maps/place/?q=place_id:0xa874db7c0cf54afd:0x145d6763c11b1cc4"}, {"place_id": "0x390d1e2312208b29:0x53a52f1f241471d2", "name": "Logic That Works", "category": "Corporate office", "street": "D-49", "city": "Phase 1, Block A, Chattarpur Enclave, Chhatarpur", "phone": "", "website": "", "rating": 4, "review_count": "", "latitude": 28.4977216, "longitude": 77.1892189, "maps_url": "https://www.google.com/maps/place/?q=place_id:0x390d1e2312208b29:0x53a52f1f241471d2"}, {"place_id": "0x390d1fac30cef7fb:0xc1c50cd2272a5074", "name": "Vikram Kumar", "category": "Computer consultant", "street": "D-3", "city": "Mahavir Campus, Rajpur, Chhatarpur", "phone": "09811489470", "website": "", "rating": 5, "review_count": "", "latitude": 28.4923295, "longitude": 77.1908437, "maps_url": "https://www.google.com/maps/place/?q=place_id:0x390d1fac30cef7fb:0xc1c50cd2272a5074"}, {"place_id": "0x390d1fe8fb02c08b:0x2e16a59464dec8ff", "name": "Electrician TechnoSpark Systems", "category": "Electrician", "street": "A-132, Street Number 1", "city": "Maidan Gari Extension, Phase 1, Chattarpur Enclave, Chhatarpur", "phone": "09599072629", "website": "https://technosparksystem.vercel.app/", "rating": 4.9, "review_count": "", "latitude": 28.497959299999998, "longitude": 77.1918444, "maps_url": "https://www.google.com/maps/place/?q=place_id:0x390d1fe8fb02c08b:0x2e16a59464dec8ff"}, {"place_id": "0x390d1e271a7fa01d:0xecdbd0e625e7cc57", "name": "Eldus Computers", "category": "Computer support and services", "street": "K", "city": "69/4, Maidan Garhi Rd", "phone": "08010102277", "website": "", "rating": 5, "review_count": "", "latitude": 28.4984875, "longitude": 77.1925986, "maps_url": "https://www.google.com/maps/place/?q=place_id:0x390d1e271a7fa01d:0xecdbd0e625e7cc57"}, {"place_id": "0x390d1f5abfb25fe1:0x7d9c4d5e159f2955", "name": "Jaimru Technology Pvt Ltd", "category": "Software company", "street": "WARD NO. 2", "city": "Plot No. 178 M 33 A/1", "phone": "07838153420", "website": "https://www.jaimru.com/", "rating": 4.9, "review_count": "", "latitude": 28.524347499999998, "longitude": 77.1731889, "maps_url": "https://www.google.com/maps/place/?q=place_id:0x390d1f5abfb25fe1:0x7d9c4d5e159f2955"}, {"place_id": "0x390ce5fdcc79e755:0x309ce99251b84ef6", "name": "Optyminds IT Solutions - Top AI and IT company I Best Digital agency in Noida | Delhi NCR | India", "category": "Software company", "street": "1st Floor", "city": "B-70", "phone": "08929075975", "website": "https://optyminds.com/", "rating": 4.9, "review_count": "", "latitude": 28.584679599999998, "longitude": 77.3135042, "maps_url": "https://www.google.com/maps/place/?q=place_id:0x390ce5fdcc79e755:0x309ce99251b84ef6"}, {"place_id": "0x390ce1e9a7083cb7:0xe2a6861849a12032", "name": "Manish Gupta", "category": "Computer consultant", "street": "On", "city": "P1A 246 (D-14 Neb Valley", "phone": "09810207228", "website": "", "rating": 4.2, "review_count": "", "latitude": 28.5105653, "longitude": 77.2097086, "maps_url": "https://www.google.com/maps/place/?q=place_id:0x390ce1e9a7083cb7:0xe2a6861849a12032"}, {"place_id": "0x390ce17e9b4fe0e5:0x9db7c1bcdca780dd", "name": "ATS Technologies", "category": "Computer support and services", "street": "Swastik Apartment", "city": "75/1 302-303", "phone": "09311258404", "website": "", "rating": "", "review_count": "", "latitude": 28.498602899999998, "longitude": 77.1949102, "maps_url": "https://www.google.com/maps/place/?q=place_id:0x390ce17e9b4fe0e5:0x9db7c1bcdca780dd"}, {"place_id": "0x390d1df568f315cf:0x7270b12078e018d9", "name": "COD STUDIO", "category": "Website designer", "street": "A-367-A", "city": "Main, Maidan Garhi Rd", "phone": "09310813239", "website": "https://www.codstudio.com/", "rating": 4.8, "review_count": "", "latitude": 28.4993947, "longitude": 77.188433, "maps_url": "https://www.google.com/maps/place/?q=place_id:0x390d1df568f315cf:0x7270b12078e018d9"}, {"place_id": "0x390ce15ae643ba27:0xdeb8c8cc03da00cd", "name": "Vk services", "category": "Security system installation service", "street": "Kuber building", "city": "Maidan Garhi, Chhatarpur", "phone": "08826247765", "website": "", "rating": 5, "review_count": "", "latitude": 28.499910399999997, "longitude": 77.1967386, "maps_url": "https://www.google.com/maps/place/?q=place_id:0x390ce15ae643ba27:0xdeb8c8cc03da00cd"}, {"place_id": "0x41ddcb5488aa4703:0x5290c64921de1a5b", "name": "Bloatware IT Software Development Company | Game Development | Software Company in delhi", "category": "Software company", "street": "SILVER OAK FARMS", "city": "660, Mehrauli-Gurgaon Rd", "phone": "", "website": "https://bloatwareitsolutions.com/", "rating": 5, "review_count": "", "latitude": 28.4911034, "longitude": 77.1432663, "maps_url": "https://www.google.com/maps/place/?q=place_id:0x41ddcb5488aa4703:0x5290c64921de1a5b"}, {"place_id": "0x390d1e27185a270d:0xf1782cef8bfdd258", "name": "Nexera Group", "category": "Corporate office", "street": "plot no 103, Maidan Garhi Rd", "city": "opposite Phogat Lane", "phone": "01165426400", "website": "", "rating": 4.7, "review_count": "", "latitude": 28.498723799999997, "longitude": 77.19240119999999, "maps_url": "https://www.google.com/maps/place/?q=place_id:0x390d1e27185a270d:0xf1782cef8bfdd258"}, {"place_id": "0x390d1f62365e9347:0x1bd3353446e1760f", "name": "Get Bit Technologies", "category": "Software company", "street": "D 5/2, Main Rd", "city": "Dr Ambedkar Colony, chhattapur", "phone": "", "website": "", "rating": 4.7, "review_count": "", "latitude": 28.5003742, "longitude": 77.1841183, "maps_url": "https://www.google.com/maps/place/?q=place_id:0x390d1f62365e9347:0x1bd3353446e1760f"}, {"place_id": "0x8335ecf853715cbf:0x10d99fb1fba2b0a8", "name": "Oceonic IT Solution Pvt Ltd", "category": "Software company", "street": "C14 C Block", "city": "JVTS Garden, Block A1, Chhatarpur", "phone": "08874000083", "website": "https://www.oceonic.co/", "rating": 3, "review_count": "", "latitude": 28.496824699999998, "longitude": 77.1828704, "maps_url": "https://www.google.com/maps/place/?q=place_id:0x8335ecf853715cbf:0x10d99fb1fba2b0a8"}, {"place_id": "0x390d1f5b9ea2751d:0x253d28d6c1643b07", "name": "Sales Training | Soft Skills Training | Corporate Sales Training Programs | Best Sales Training Companies Delhi NCR", "category": "Business development service", "street": "A 16", "city": "Block A, Rajpur, Chhatarpur", "phone": "09884623854", "website": "https://www.dishahconsultants.com/sales-training-in-delhi", "rating": 4.9, "review_count": "", "latitude": 28.497561599999997, "longitude": 77.1877729, "maps_url": "https://www.google.com/maps/place/?q=place_id:0x390d1f5b9ea2751d:0x253d28d6c1643b07"}, {"place_id": "0x390d1f7c90574dbf:0xda9c0293e4c6ce9e", "name": "Mango computer & IT solutions Pvt. Ltd.", "category": "Computer repair service", "street": "near bank of india", "city": "Chhatarpur Village, Block A1, Chhatarpur", "phone": "09997342702", "website": "", "rating": "", "review_count": "", "latitude": 28.4986967, "longitude": 77.1843006, "maps_url": "https://www.google.com/maps/place/?q=place_id:0x390d1f7c90574dbf:0xda9c0293e4c6ce9e"}, {"place_id": "0x390d1e468f7d999f:0x51b6337f3c5de23e", "name": "Smartechedu", "category": "Educational institution", "street": "135, IGNOU Rd", "city": "near HDFC bank", "phone": "", "website": "https://shareandaware.com/", "rating": 4.8, "review_count": "", "latitude": 28.506852799999997, "longitude": 77.19993579999999, "maps_url": "https://www.google.com/maps/place/?q=place_id:0x390d1e468f7d999f:0x51b6337f3c5de23e"}, {"place_id": "0xa3f7b500ba6bee9b:0xbf6f44de92b28de", "name": "Yuvocreations Private Limited ( \u092f\u0941\u0935\u094b\u0915\u094d\u0930\u093f\u090f\u0936\u0928\u094d\u0938 \u092a\u094d\u0930\u093e\u0907\u0935\u0947\u091f \u0932\u093f\u092e\u093f\u091f\u0947\u0921 ) - Website Designing & Digital Marketing Agency", "category": "Software company", "street": "Lane no.4", "city": "Khasra no. 258, Westend Marg", "phone": "07042123166", "website": "https://yuvocreations.com/", "rating": 5, "review_count": "", "latitude": 28.5169774, "longitude": 77.19925789999999, "maps_url": "https://www.google.com/maps/place/?q=place_id:0xa3f7b500ba6bee9b:0xbf6f44de92b28de"}, {"place_id": "0x390ce1bb59907baf:0xb87d87cbd87f8648", "name": "Stansler", "category": "Real Estate Builders & Construction Company", "street": "Plot Number 25", "city": "Subba Farm", "phone": "09899382999", "website": "https://stansler.com/", "rating": 4.6, "review_count": "", "latitude": 28.497315399999998, "longitude": 77.1868379, "maps_url": "https://www.google.com/maps/place/?q=place_id:0x390ce1bb59907baf:0xb87d87cbd87f8648"}, {"place_id": "0x390ce1d17c41aa1f:0xff23cf5cc8e126a9", "name": "NAVEL STUDIO ( DIGITAL MARKETING COMPANY )", "category": "Advertising agency", "street": "C45, first floor", "city": "Chattarpur Enclave, phase 2", "phone": "08684990313", "website": "http://www.navelstudio.com/", "rating": 5, "review_count": "", "latitude": 28.5025332, "longitude": 77.2022994, "maps_url": "https://www.google.com/maps/place/?q=place_id:0x390ce1d17c41aa1f:0xff23cf5cc8e126a9"}, {"place_id": "0x390d1e236b821581:0x6f57adbc5a636f6e", "name": "SoftElixir InfoTech (P) Ltd", "category": "Software company", "street": "12 B, Block D, Chatter Pur Chattarpur", "city": "Phase 1, Chattarpur Enclave", "phone": "01165091333", "website": "http://softelixir.com/", "rating": 5, "review_count": "", "latitude": 28.5010507, "longitude": 77.18479529999999, "maps_url": "https://www.google.com/maps/place/?q=place_id:0x390d1e236b821581:0x6f57adbc5a636f6e"}, {"place_id": "0x390d1f87cbf94051:0xb80138a0b5743650", "name": "TECH HUT IT SOLUTION", "category": "Computer store", "street": "Shop No 5 Chattarpur Enclave Phase 2", "city": "Road", "phone": "08449336343", "website": "", "rating": 5, "review_count": "", "latitude": 28.4984558, "longitude": 77.1917259, "maps_url": "https://www.google.com/maps/place/?q=place_id:0x390d1f87cbf94051:0xb80138a0b5743650"}, {"place_id": "0x390d1e26c6f070ed:0x69a4ce2d53fc3cb2", "name": "Tec Digital Solution", "category": "Business to business service", "street": "B-105, Ground floor", "city": "Chattarpur Enclave Phase 2", "phone": "09625931556", "website": "https://www.tecdigitalsolution.com/", "rating": 5, "review_count": "", "latitude": 28.499422799999998, "longitude": 77.1904496, "maps_url": "https://www.google.com/maps/place/?q=place_id:0x390d1e26c6f070ed:0x69a4ce2d53fc3cb2"}, {"place_id": "0x390ce14c65a17973:0x43b6359955274f5c", "name": "Kamal gupta Associate", "category": "Real Estate Builders & Construction Company", "street": "A 43, Chattarpur Enclave Phase 2", "city": "Phase 1, Chattarpur Enclave, Chhatarpur", "phone": "09810482507", "website": "", "rating": 5, "review_count": "", "latitude": 28.4994211, "longitude": 77.1904553, "maps_url": "https://www.google.com/maps/place/?q=place_id:0x390ce14c65a17973:0x43b6359955274f5c"}, {"place_id": "0x390d1f57330a7a3d:0xb912e2474a28ad6b", "name": "Big Celebrity Management", "category": "Event management company", "street": "3rd floor", "city": "C-29A, Street No. 10", "phone": "", "website": "http://www.bigcelebritymanagement.com/", "rating": 4.8, "review_count": "", "latitude": 28.5031112, "longitude": 77.1897936, "maps_url": "https://www.google.com/maps/place/?q=place_id:0x390d1f57330a7a3d:0xb912e2474a28ad6b"}, {"place_id": "0x390d1ed3c6e9f579:0x322eccdb00f350d2", "name": "Techjockey", "category": "Software company", "street": "Ground floor, Habitat India", "city": "C-3", "phone": "01142213003", "website": "https://www.techjockey.com/", "rating": 4, "review_count": "", "latitude": 28.536615299999998, "longitude": 77.1902978, "maps_url": "https://www.google.com/maps/place/?q=place_id:0x390d1ed3c6e9f579:0x322eccdb00f350d2"}, {"place_id": "0x390d1fb111a9ca93:0x6a84471f299eff03", "name": "Shiv Infotech (IT Services)", "category": "Software company", "street": "Hargovind Enclave", "city": "Rajpur, Chhatarpur", "phone": "06306855517", "website": "http://www.shivinfotech.net/", "rating": "", "review_count": "", "latitude": 28.4901678, "longitude": 77.18786589999999, "maps_url": "https://www.google.com/maps/place/?q=place_id:0x390d1fb111a9ca93:0x6a84471f299eff03"}, {"place_id": "0x390d1fd66b2b983f:0x22de8b6dc643ea46", "name": "PackEscape", "category": "Travel agency", "street": "Flat No:-301", "city": "Plot No:-102, Phogat Ln", "phone": "", "website": "https://www.packescape.com/", "rating": 5, "review_count": "", "latitude": 28.4989161, "longitude": 77.1932211, "maps_url": "https://www.google.com/maps/place/?q=place_id:0x390d1fd66b2b983f:0x22de8b6dc643ea46"}, {"place_id": "0x390d1fe168142b7d:0x4d4a8e16dae8d42", "name": "Savvytree - Digital Marketing Company", "category": "Marketing agency", "street": "Savvytree 280, Mandi Rd", "city": "opposite Tata Sky", "phone": "08700354352", "website": "https://savvytree.in/", "rating": 4.7, "review_count": "", "latitude": 28.5026725, "longitude": 77.1722109, "maps_url": "https://www.google.com/maps/place/?q=place_id:0x390d1fe168142b7d:0x4d4a8e16dae8d42"}, {"place_id": "0x390cfcad1f155555:0x91d9e69cc05617cd", "name": "Shinetech Labs pvt ltd", "category": "Corporate office", "street": "D-85, 1st Floor", "city": "Chattarpur Enclave Phase 2", "phone": "09999026044", "website": "", "rating": 4.5, "review_count": "", "latitude": 28.500172, "longitude": 77.1857438, "maps_url": "https://www.google.com/maps/place/?q=place_id:0x390cfcad1f155555:0x91d9e69cc05617cd"}, {"place_id": "0x390d1f3edb6b58a1:0xfd678cd7c8585a57", "name": "SONU YADAV", "category": "Computer support and services", "street": "124 L G F KH NO 13", "city": "Rajpur, Chhatarpur", "phone": "", "website": "", "rating": "", "review_count": "", "latitude": 28.4953921, "longitude": 77.1907415, "maps_url": "https://www.google.com/maps/place/?q=place_id:0x390d1f3edb6b58a1:0xfd678cd7c8585a57"}, {"place_id": "0x390ce1de34b1d8cb:0xf0883e184791145e", "name": "Paper Wristband", "category": "Manufacturer", "street": "B-165,Maidangarhi extension", "city": "Chattarpur", "phone": "09953399053", "website": "", "rating": 4.9, "review_count": "", "latitude": 28.499237899999997, "longitude": 77.19837009999999, "maps_url": "https://www.google.com/maps/place/?q=place_id:0x390ce1de34b1d8cb:0xf0883e184791145e"}, {"place_id": "0xa3f7b500ba6bee9b:0xbf6f44de92b28de", "name": "Yuvocreations Private Limited ( \u092f\u0941\u0935\u094b\u0915\u094d\u0930\u093f\u090f\u0936\u0928\u094d\u0938 \u092a\u094d\u0930\u093e\u0907\u0935\u0947\u091f \u0932\u093f\u092e\u093f\u091f\u0947\u0921 ) - Website Designing & Digital Marketing Agency", "category": "Software company", "street": "Lane no.4", "city": "Khasra no. 258, Westend Marg", "phone": "07042123166", "website": "https://yuvocreations.com/", "rating": 5, "review_count": "", "latitude": 28.5169774, "longitude": 77.19925789999999, "maps_url": "https://www.google.com/maps/place/?q=place_id:0xa3f7b500ba6bee9b:0xbf6f44de92b28de"}, {"place_id": "0x390ce1bb59907baf:0xb87d87cbd87f8648", "name": "Stansler", "category": "Real Estate Builders & Construction Company", "street": "Plot Number 25", "city": "Subba Farm", "phone": "09899382999", "website": "https://stansler.com/", "rating": 4.6, "review_count": "", "latitude": 28.497315399999998, "longitude": 77.1868379, "maps_url": "https://www.google.com/maps/place/?q=place_id:0x390ce1bb59907baf:0xb87d87cbd87f8648"}, {"place_id": "0x390ce1d17c41aa1f:0xff23cf5cc8e126a9", "name": "NAVEL STUDIO ( DIGITAL MARKETING COMPANY )", "category": "Advertising agency", "street": "C45, first floor", "city": "Chattarpur Enclave, phase 2", "phone": "08684990313", "website": "http://www.navelstudio.com/", "rating": 5, "review_count": "", "latitude": 28.5025332, "longitude": 77.2022994, "maps_url": "https://www.google.com/maps/place/?q=place_id:0x390ce1d17c41aa1f:0xff23cf5cc8e126a9"}, {"place_id": "0x390d1f87cbf94051:0xb80138a0b5743650", "name": "TECH HUT IT SOLUTION", "category": "Computer store", "street": "Shop No 5 Chattarpur Enclave Phase 2", "city": "Road", "phone": "08449336343", "website": "", "rating": 5, "review_count": "", "latitude": 28.4984558, "longitude": 77.1917259, "maps_url": "https://www.google.com/maps/place/?q=place_id:0x390d1f87cbf94051:0xb80138a0b5743650"}, {"place_id": "0x390d1f01bf364b8b:0xd0893d99f5f7d112", "name": "App Developer", "category": "Software company", "street": "Dr Ambedkar Colony, Chhatarpur", "city": "New Delhi, Delhi 110074", "phone": "09582595097", "website": "", "rating": "", "review_count": "", "latitude": 28.502619799999998, "longitude": 77.1802617, "maps_url": "https://www.google.com/maps/place/?q=place_id:0x390d1f01bf364b8b:0xd0893d99f5f7d112"}, {"place_id": "0x390d1e26c6f070ed:0x69a4ce2d53fc3cb2", "name": "Tec Digital Solution", "category": "Business to business service", "street": "B-105, Ground floor", "city": "Chattarpur Enclave Phase 2", "phone": "09625931556", "website": "https://www.tecdigitalsolution.com/", "rating": 5, "review_count": "", "latitude": 28.499422799999998, "longitude": 77.1904496, "maps_url": "https://www.google.com/maps/place/?q=place_id:0x390d1e26c6f070ed:0x69a4ce2d53fc3cb2"}, {"place_id": "0x390ce14c65a17973:0x43b6359955274f5c", "name": "Kamal gupta Associate", "category": "Real Estate Builders & Construction Company", "street": "A 43, Chattarpur Enclave Phase 2", "city": "Phase 1, Chattarpur Enclave, Chhatarpur", "phone": "09810482507", "website": "", "rating": 5, "review_count": "", "latitude": 28.4994211, "longitude": 77.1904553, "maps_url": "https://www.google.com/maps/place/?q=place_id:0x390ce14c65a17973:0x43b6359955274f5c"}, {"place_id": "0x390d1f57330a7a3d:0xb912e2474a28ad6b", "name": "Big Celebrity Management", "category": "Event management company", "street": "3rd floor", "city": "C-29A, Street No. 10", "phone": "", "website": "http://www.bigcelebritymanagement.com/", "rating": 4.8, "review_count": "", "latitude": 28.5031112, "longitude": 77.1897936, "maps_url": "https://www.google.com/maps/place/?q=place_id:0x390d1f57330a7a3d:0xb912e2474a28ad6b"}, {"place_id": "0x390d1ed3c6e9f579:0x322eccdb00f350d2", "name": "Techjockey", "category": "Software company", "street": "Ground floor, Habitat India", "city": "C-3", "phone": "01142213003", "website": "https://www.techjockey.com/", "rating": 4, "review_count": "", "latitude": 28.536615299999998, "longitude": 77.1902978, "maps_url": "https://www.google.com/maps/place/?q=place_id:0x390d1ed3c6e9f579:0x322eccdb00f350d2"}, {"place_id": "0x390d1fb111a9ca93:0x6a84471f299eff03", "name": "Shiv Infotech (IT Services)", "category": "Software company", "street": "Hargovind Enclave", "city": "Rajpur, Chhatarpur", "phone": "06306855517", "website": "http://www.shivinfotech.net/", "rating": "", "review_count": "", "latitude": 28.4901678, "longitude": 77.18786589999999, "maps_url": "https://www.google.com/maps/place/?q=place_id:0x390d1fb111a9ca93:0x6a84471f299eff03"}, {"place_id": "0x390d1fd66b2b983f:0x22de8b6dc643ea46", "name": "PackEscape", "category": "Travel agency", "street": "Flat No:-301", "city": "Plot No:-102, Phogat Ln", "phone": "", "website": "https://www.packescape.com/", "rating": 5, "review_count": "", "latitude": 28.4989161, "longitude": 77.1932211, "maps_url": "https://www.google.com/maps/place/?q=place_id:0x390d1fd66b2b983f:0x22de8b6dc643ea46"}, {"place_id": "0x390d1fe168142b7d:0x4d4a8e16dae8d42", "name": "Savvytree - Digital Marketing Company", "category": "Marketing agency", "street": "Savvytree 280, Mandi Rd", "city": "opposite Tata Sky", "phone": "08700354352", "website": "https://savvytree.in/", "rating": 4.7, "review_count": "", "latitude": 28.5026725, "longitude": 77.1722109, "maps_url": "https://www.google.com/maps/place/?q=place_id:0x390d1fe168142b7d:0x4d4a8e16dae8d42"}, {"place_id": "0x390cfcad1f155555:0x91d9e69cc05617cd", "name": "Shinetech Labs pvt ltd", "category": "Corporate office", "street": "D-85, 1st Floor", "city": "Chattarpur Enclave Phase 2", "phone": "09999026044", "website": "", "rating": 4.5, "review_count": "", "latitude": 28.500172, "longitude": 77.1857438, "maps_url": "https://www.google.com/maps/place/?q=place_id:0x390cfcad1f155555:0x91d9e69cc05617cd"}, {"place_id": "0x390d1f3edb6b58a1:0xfd678cd7c8585a57", "name": "SONU YADAV", "category": "Computer support and services", "street": "124 L G F KH NO 13", "city": "Rajpur, Chhatarpur", "phone": "", "website": "", "rating": "", "review_count": "", "latitude": 28.4953921, "longitude": 77.1907415, "maps_url": "https://www.google.com/maps/place/?q=place_id:0x390d1f3edb6b58a1:0xfd678cd7c8585a57"}, {"place_id": "0x390ce1de34b1d8cb:0xf0883e184791145e", "name": "Paper Wristband", "category": "Manufacturer", "street": "B-165,Maidangarhi extension", "city": "Chattarpur", "phone": "09953399053", "website": "", "rating": 4.9, "review_count": "", "latitude": 28.499237899999997, "longitude": 77.19837009999999, "maps_url": "https://www.google.com/maps/place/?q=place_id:0x390ce1de34b1d8cb:0xf0883e184791145e"}, {"place_id": "0x390ce19d6aaaaaab:0x322f66cd91e8f6cd", "name": "Vikas Gupta Web Developer", "category": "Website designer", "street": "A-454 Dakshinpuri", "city": "New Delhi, Delhi 110062", "phone": "09643269244", "website": "https://itcrafterhub.com/website-developer-delhi/", "rating": 5, "review_count": "", "latitude": 28.522017599999998, "longitude": 77.2366923, "maps_url": "https://www.google.com/maps/place/?q=place_id:0x390ce19d6aaaaaab:0x322f66cd91e8f6cd"}, {"place_id": "0x390d1f996e2bd89d:0x62102760ea144bfe", "name": "Classic Maintenance Services - Your Trusted Cleaning and Maintenance Partner", "category": "Cleaning Services", "street": "c", "city": "145, Chattarpur Enclave Phase 2", "phone": "09873414834", "website": "https://www.classicmaintenance.in/", "rating": 4.5, "review_count": "", "latitude": 28.499422799999998, "longitude": 77.1904495, "maps_url": "https://www.google.com/maps/place/?q=place_id:0x390d1f996e2bd89d:0x62102760ea144bfe"}, {"place_id": "0x390d1f4bf0e7609b:0x197952c5d8052dab", "name": "ANSH cyber cafe & Photocopy", "category": "Print shop", "street": "Gali Number 1", "city": "near by Baba Dairy", "phone": "08285907255", "website": "http://tatkaaldelivery.in/", "rating": 5, "review_count": "", "latitude": 28.4959837, "longitude": 77.1915069, "maps_url": "https://www.google.com/maps/place/?q=place_id:0x390d1f4bf0e7609b:0x197952c5d8052dab"}, {"place_id": "0x390ce1db87a55681:0x3ed43e2a189abcb9", "name": "Wisdom Techseal Private Limited", "category": "Civil engineering company", "street": "Freedom Fighter Cultural Center", "city": "B-1 (GF, IGNOU Rd", "phone": "07011673568", "website": "http://wisdomtechseal.com/", "rating": 3.7, "review_count": "", "latitude": 28.5103755, "longitude": 77.2011216, "maps_url": "https://www.google.com/maps/place/?q=place_id:0x390ce1db87a55681:0x3ed43e2a189abcb9"}, {"place_id": "0x390ce121dad3debd:0xb8ded69dd5c71ce9", "name": "National Removals Ltd", "category": "Packaging company", "street": "B-46 Khasra No.458, 2nd Floor", "city": "IGNOU Rd", "phone": "09090608070", "website": "https://www.nationalremovals.in/", "rating": 4.7, "review_count": "", "latitude": 28.501214599999997, "longitude": 77.20264399999999, "maps_url": "https://www.google.com/maps/place/?q=place_id:0x390ce121dad3debd:0xb8ded69dd5c71ce9"}, {"place_id": "0x390ce17b01e1a187:0x586fa6002747476d", "name": "OneTap AI Solutions", "category": "Software company", "street": "FIRST FLOOR", "city": "HOLI CHOWK", "phone": "07859935902", "website": "https://onetapaisolutions.com/", "rating": 5, "review_count": "", "latitude": 28.5011396, "longitude": 77.2343595, "maps_url": "https://www.google.com/maps/place/?q=place_id:0x390ce17b01e1a187:0x586fa6002747476d"}, {"place_id": "0x390d1f835b0b8c31:0x8bc64ef763f6f076", "name": "Beyond Merchandising & Mfg. Co", "category": "Uniform store", "street": "opposite lavnya hospital", "city": "Maidan Gari Extension, Phase 1, Chattarpur Enclave, Chhatarpur", "phone": "08816060020", "website": "", "rating": 4.9, "review_count": "", "latitude": 28.4979661, "longitude": 77.1919638, "maps_url": "https://www.google.com/maps/place/?q=place_id:0x390d1f835b0b8c31:0x8bc64ef763f6f076"}, {"place_id": "0x390d1f37537b3b4f:0x234de10b49c6e3a4", "name": "The Chakki Co.", "category": "Flour mill", "street": "shop, upper ground no 2", "city": "Plot no 1, SSN Marg", "phone": "09311540299", "website": "http://thechakkico.com/", "rating": 4.8, "review_count": "", "latitude": 28.497163399999998, "longitude": 77.1852421, "maps_url": "https://www.google.com/maps/place/?q=place_id:0x390d1f37537b3b4f:0x234de10b49c6e3a4"}, {"place_id": "0x390d1f0e31ad38c7:0x25d61d8a14f45155", "name": "Triply", "category": "Travel agency", "street": "KH.NO-641, R/S", "city": "New A-256, S/Floor", "phone": "07011179194", "website": "https://www.triply.co.in/", "rating": 4.9, "review_count": "", "latitude": 28.4970222, "longitude": 77.1889071, "maps_url": "https://www.google.com/maps/place/?q=place_id:0x390d1f0e31ad38c7:0x25d61d8a14f45155"}, {"place_id": "0x390d1e748ef61961:0x754ceb660996cfdb", "name": "ACS System Solutions", "category": "Software company", "street": "Kishangarh, Kishangarh Village, Vasant Kunj", "city": "New Delhi, Delhi 110070", "phone": "01149858620", "website": "http://acssystem.in/", "rating": 3.4, "review_count": "", "latitude": 28.522178699999998, "longitude": 77.1692609, "maps_url": "https://www.google.com/maps/place/?q=place_id:0x390d1e748ef61961:0x754ceb660996cfdb"}, {"place_id": "0x390d1dcc98a0092f:0xab3a0fca3e26d087", "name": "Retake Studios - Video Production and Corporate Film Company in Delhi NCR", "category": "Video production service", "street": "UG-3", "city": "D112/A", "phone": "07053738831", "website": "", "rating": 5, "review_count": "", "latitude": 28.5071905, "longitude": 77.1967669, "maps_url": "https://www.google.com/maps/place/?q=place_id:0x390d1dcc98a0092f:0xab3a0fca3e26d087"}, {"place_id": "0x390cfd309eebed77:0xaceeaaa8aa371679", "name": "Allied Infoline Pvt. Ltd", "category": "Business to business service", "street": "Metro Pillar Number 51", "city": "Building 90, Near", "phone": "09999511882", "website": "https://www.alliedinfoline.com/", "rating": 4, "review_count": "", "latitude": 28.5015412, "longitude": 77.1673411, "maps_url": "https://www.google.com/maps/place/?q=place_id:0x390cfd309eebed77:0xaceeaaa8aa371679"}, {"place_id": "0x390d1f182621c1b7:0xe4ca0dd003108176", "name": "Reba Solar", "category": "Solar Energy Company", "street": "farm house", "city": "Rajpur Khurd Village, Chhatarpur", "phone": "", "website": "", "rating": 5, "review_count": "", "latitude": 28.4957943, "longitude": 77.1849127, "maps_url": "https://www.google.com/maps/place/?q=place_id:0x390d1f182621c1b7:0xe4ca0dd003108176"}, {"place_id": "0x390ce21c24e85b2f:0xf80cd35fedbc3cea", "name": "Cyberspace Networking Systems (P) Ltd.", "category": "Website designer", "street": "NIL-36C, Shvalik, DDA Flats, Malviya Nagar", "city": "New Delhi, Delhi 110017", "phone": "01141892901", "website": "http://www.cyberspace.in/", "rating": 3.9, "review_count": "", "latitude": 28.534816, "longitude": 77.21120789999999, "maps_url": "https://www.google.com/maps/place/?q=place_id:0x390ce21c24e85b2f:0xf80cd35fedbc3cea"}, {"place_id": "0x390d1e3a16317c85:0x3d0008eca94f4550", "name": "eschoolcampus", "category": "Software company", "street": "B-150/1", "city": "Chhatarpur Farms, Chhatarpur", "phone": "08384071182", "website": "https://ggsoftsolutions.com/", "rating": "", "review_count": "", "latitude": 28.4778889, "longitude": 77.1792407, "maps_url": "https://www.google.com/maps/place/?q=place_id:0x390d1e3a16317c85:0x3d0008eca94f4550"}, {"place_id": "0x390d1f24826c42b9:0xd1f86bf4cdfd98dd", "name": "C.Jena & Company", "category": "Corporate office", "street": "Hargovind Enclave", "city": "S 58, A/2", "phone": "", "website": "", "rating": 5, "review_count": "", "latitude": 28.4892355, "longitude": 77.1875945, "maps_url": "https://www.google.com/maps/place/?q=place_id:0x390d1f24826c42b9:0xd1f86bf4cdfd98dd"}, {"place_id": "0x390d1fa09c1d9f23:0xa6e67cfeed14ae6b", "name": "CHILLFLIX", "category": "Cafe", "street": "Ground Floor", "city": "638, Maidan Garhi Rd", "phone": "09289869370", "website": "", "rating": 4.9, "review_count": "", "latitude": 28.498515299999998, "longitude": 77.1892232, "maps_url": "https://www.google.com/maps/place/?q=place_id:0x390d1fa09c1d9f23:0xa6e67cfeed14ae6b"}, {"place_id": "0x390d1f9c9ee56e89:0xcac5a4e04c2d2ab1", "name": "Digitally Crowd", "category": "Marketing agency", "street": "", "city": "", "phone": "08307270673", "website": "https://digitallycrowd.com/", "rating": 5, "review_count": "", "latitude": 28.550378199999997, "longitude": 77.2065926, "maps_url": "https://www.google.com/maps/place/?q=place_id:0x390d1f9c9ee56e89:0xcac5a4e04c2d2ab1"}, {"place_id": "0x390d1ff274b13125:0x3d30719e7960b4ea", "name": "HairForever", "category": "Hair extensions supplier", "street": "A-65", "city": "F/F, Chattarpur Enclave Phase 2", "phone": "09310192591", "website": "", "rating": 5, "review_count": "", "latitude": 28.499422799999998, "longitude": 77.1904495, "maps_url": "https://www.google.com/maps/place/?q=place_id:0x390d1ff274b13125:0x3d30719e7960b4ea"}, {"place_id": "0x390ce1a073b3cf8b:0xcababb5e3b4564ca", "name": "Stellar Predictions", "category": "Astrologer", "street": "Ishwasyam 348", "city": "Maidan Garhi", "phone": "", "website": "", "rating": 5, "review_count": "", "latitude": 28.499609, "longitude": 77.19833799999999, "maps_url": "https://www.google.com/maps/place/?q=place_id:0x390ce1a073b3cf8b:0xcababb5e3b4564ca"}, {"place_id": "0x390cfb4bf15a6733:0xaf50e6f3c5fb7641", "name": "Digitals Daddy: Web & App Development Company", "category": "Software company", "street": "Metro Gate No. 2", "city": "Nearest Sikandarpur", "phone": "09818286609", "website": "https://www.digitalsdaddy.com/", "rating": 4.9, "review_count": "", "latitude": 28.4847884, "longitude": 77.0922192, "maps_url": "https://www.google.com/maps/place/?q=place_id:0x390cfb4bf15a6733:0xaf50e6f3c5fb7641"}, {"place_id": "0x390d1f0df92e353d:0x54e79553d987073c", "name": "Zombie Marketers | Performance Marketing | Digital Marketing | Website development company in Delhi | SEO company in Delhi", "category": "Marketing agency", "street": "89/9 Mamman House B Block 4th Floor", "city": "Kishangarh Village, Vasant Kunj", "phone": "08527273938", "website": "", "rating": 4.4, "review_count": "", "latitude": 28.5189249, "longitude": 77.1646754, "maps_url": "https://www.google.com/maps/place/?q=place_id:0x390d1f0df92e353d:0x54e79553d987073c"}, {"place_id": "0x390d1f62bd99d6c5:0x6b347874c5692e6e", "name": "Techdigimind IT Solutions", "category": "Software company", "street": "374, Mehrauli-Gurgaon Rd", "city": "Westend DLF Chattarpur Farms, Sultanpur", "phone": "07762029981", "website": "https://www.techdigimind.com/", "rating": "", "review_count": "", "latitude": 28.496887299999997, "longitude": 77.1574073, "maps_url": "https://www.google.com/maps/place/?q=place_id:0x390d1f62bd99d6c5:0x6b347874c5692e6e"}, {"place_id": "0x390d1ff03e85addf:0x901dd2bdb86bbe59", "name": "Express Packers And Movers Chattarpur", "category": "Moving service", "street": "Shop No-C24, Phase", "city": "2", "phone": "09773940082", "website": "https://expresspackersmovers.co.in/", "rating": 4.9, "review_count": "", "latitude": 28.4986836, "longitude": 77.1872319, "maps_url": "https://www.google.com/maps/place/?q=place_id:0x390d1ff03e85addf:0x901dd2bdb86bbe59"}, {"place_id": "0x390d1fddd0f1d537:0x3c476e4debe52231", "name": "Ambika RO Repair and Service", "category": "Water purification company", "street": "F5WQ+8P7", "city": "2nd St", "phone": "09821721277", "website": "https://ambika-ro-repair.grexa.site/", "rating": 4.7, "review_count": "", "latitude": 28.495827499999997, "longitude": 77.1893127, "maps_url": "https://www.google.com/maps/place/?q=place_id:0x390d1fddd0f1d537:0x3c476e4debe52231"}]}