[{"place_id": "ChIJA6KtL5kCDTkR7wFe_OSD2bE", "name": "Omniscient IT Solutions Pvt. Ltd", "street": "4, 28, Saraswati Marg, Block 15A, WEA, Karol Bagh, New Delhi, Delhi, 110005, India", "phone": "+91 98110 27310", "rating": "4.6", "review_count": "", "website": "https://www.omniscientitsolutions.com/", "latitude": 28.646959, "longitude": 77.1882229, "maps_url": "https://www.google.com/maps/search/?api=1&query=Omniscient%20IT%20Solutions%20Pvt.%20Ltd&query_place_id=ChIJA6KtL5kCDTkR7wFe_OSD2bE"}, {"place_id": "ChIJL4BtX1wdDTkRIiNTpELCuuM", "name": "Nobilitas Infotech Pvt. Ltd. - IT Solutions Company", "street": "Padma Tower II, 210, Rajendra Place, New Delhi, Delhi 110005, India", "phone": "+91 84483 84926", "rating": "5", "review_count": "", "website": "https://www.nobilitasinfotech.com/", "latitude": 28.6451836, "longitude": 77.1780375, "maps_url": "https://www.google.com/maps/search/?api=1&query=Nobilitas%20Infotech%20Pvt.%20Ltd.%20-%20IT%20Solutions%20Company&query_place_id=ChIJL4BtX1wdDTkRIiNTpELCuuM"}, {"place_id": "ChIJUX61TOUCDTkRPmeqyd2Pcps", "name": "IT Solutions & Services (ITSS)", "street": "T–2425 Street Number 21, Baljeet Nagar, West Patel Nagar, New Delhi, Delhi 110008, India", "phone": "+91 88004 19462", "rating": "4.7", "review_count": "", "website": "https://www.itssin.com/", "latitude": 28.6576111, "longitude": 77.160708, "maps_url": "https://www.google.com/maps/search/?api=1&query=IT%20Solutions%20%26%20Services%20%28ITSS%29&query_place_id=ChIJUX61TOUCDTkRPmeqyd2Pcps"}, {"place_id": "ChIJFeXlTZkCDTkRNw2aQAO8CNk", "name": "Himalayan IT Solutions | Best Website Designing Company in Delhi | SEO/Digital Marketing Company in Delhi NCR, India", "street": "61/4255, Padam Singh Rd, Block 29, Block 1, Regar Pura, Karol Bagh, Delhi, 110005, India", "phone": "+91 98990 98509", "rating": "3.9", "review_count": "", "website": "http://www.himalayanitsolutions.com/", "latitude": 28.649673999999997, "longitude": 77.186599, "maps_url": "https://www.google.com/maps/search/?api=1&query=Himalayan%20IT%20Solutions%20%7C%20Best%20Website%20Designing%20Company%20in%20Delhi%20%7C%20SEO/Digital%20Marketing%20Company%20in%20Delhi%20NCR%2C%20India&query_place_id=ChIJFeXlTZkCDTkRNw2aQAO8CNk"}, {"place_id": "ChIJmehuOv8DDTkRExCAn5zYVfM", "name": "Esafe Hi-Tech Solutions Pvt. Ltd.", "street": "4/52 , 3rd Floor, Shankar Road, Old Rajinder Nagar, New Delhi, Delhi 110060, India", "phone": "+91 88000 15155", "rating": "5", "review_count": "", "website": "https://esafesolutions.org/", "latitude": 28.6378399, "longitude": 77.1810955, "maps_url": "https://www.google.com/maps/search/?api=1&query=Esafe%20Hi-Tech%20Solutions%20Pvt.%20Ltd.&query_place_id=ChIJmehuOv8DDTkRExCAn5zYVfM"}, {"place_id": "ChIJ__9zXrcCDTkRqWbdTyXbaqA", "name": "Comparic Solution (Opc) Private Limited", "street": "NO-348, H-348, Central, Pocket H, Double Storey II, New Rajinder Nagar, New Delhi, Delhi, 110060, India", "phone": "", "rating": "4.1", "review_count": "", "website": "", "latitude": 28.636433999999998, "longitude": 77.1792846, "maps_url": "https://www.google.com/maps/search/?api=1&query=Comparic%20Solution%20%28Opc%29%20Private%20Limited&query_place_id=ChIJ__9zXrcCDTkRqWbdTyXbaqA"}, {"place_id": "ChIJMVVVVaICDTkRcpp6yI4DHDY", "name": "A To Z IT Solutions", "street": "Shop No. 26/17 Basement, Old Rajinder Nagar, New Delhi, Delhi 110060, India", "phone": "+91 97739 45751", "rating": "4.2", "review_count": "", "website": "", "latitude": 28.6396427, "longitude": 77.1839646, "maps_url": "https://www.google.com/maps/search/?api=1&query=A%20To%20Z%20IT%20Solutions&query_place_id=ChIJMVVVVaICDTkRcpp6yI4DHDY"}, {"place_id": "ChIJ8Z6QjLwCDTkR8BPoFXi8IZA", "name": "Bhash Software Labs", "street": "5/46, Shankar Rd, Block 5, Old Rajinder Nagar, Rajinder Nagar, Delhi, 110060, India", "phone": "+91 95439 27979", "rating": "3.9", "review_count": "", "website": "http://bhashsms.com/", "latitude": 28.638373599999998, "longitude": 77.18055749999999, "maps_url": "https://www.google.com/maps/search/?api=1&query=Bhash%20Software%20Labs&query_place_id=ChIJ8Z6QjLwCDTkR8BPoFXi8IZA"}, {"place_id": "ChIJ63KKlqQCDTkRqPofyw9JaEA", "name": "Shavsi Global Services", "street": "2/59 Basment, Rajinder Nagar, Delhi, 110060, India", "phone": "+91 98738 23236", "rating": "4.7", "review_count": "", "website": "http://www.shavsiglobalservices.com/", "latitude": 28.6364731, "longitude": 77.1846157, "maps_url": "https://www.google.com/maps/search/?api=1&query=Shavsi%20Global%20Services&query_place_id=ChIJ63KKlqQCDTkRqPofyw9JaEA"}, {"place_id": "ChIJ1wcOGbsDDTkRbvXao6unnfU", "name": "Fixholics", "street": "47/4 First Floor, Old Rajinder Nagar, Rajinder Nagar, New Delhi, Delhi, 110060, India", "phone": "+91 84008 37805", "rating": "5", "review_count": "", "website": "http://www.fixholics.in/", "latitude": 28.640416499999997, "longitude": 77.18585209999999, "maps_url": "https://www.google.com/maps/search/?api=1&query=Fixholics&query_place_id=ChIJ1wcOGbsDDTkRbvXao6unnfU"}, {"place_id": "ChIJBw5LmrwCDTkRVK8BF-VaWGw", "name": "Graphline Computers Private LImited", "street": "4B/52 1ST FLOOR, near Shankar Road Market, Old Rajinder Nagar, Delhi 110060, India", "phone": "+91 93124 35677", "rating": "4.3", "review_count": "", "website": "http://www.graphlinecomputers.com/", "latitude": 28.638063799999998, "longitude": 77.1811439, "maps_url": "https://www.google.com/maps/search/?api=1&query=Graphline%20Computers%20Private%20LImited&query_place_id=ChIJBw5LmrwCDTkRVK8BF-VaWGw"}, {"place_id": "ChIJ633_IaMCDTkRS3a9PwdP26E", "name": "GSK COMPUTER SYSTEMS", "street": "26/17 Basement, Bada Bazar Rd, near Ratan Dairy, Block 26, Old Rajinder Nagar, Rajinder Nagar, New Delhi, Delhi, 110060, India", "phone": "+91 99582 25323", "rating": "4.6", "review_count": "", "website": "", "latitude": 28.639589899999997, "longitude": 77.1839171, "maps_url": "https://www.google.com/maps/search/?api=1&query=GSK%20COMPUTER%20SYSTEMS&query_place_id=ChIJ633_IaMCDTkRS3a9PwdP26E"}, {"place_id": "ChIJMfUhj6MCDTkRJt8S8UuVKMU", "name": "Wear It Loud", "street": "25, 23, Old Rajinder Nagar, Rajinder Nagar, New Delhi, Delhi, 110060, India", "phone": "", "rating": "2.3", "review_count": "", "website": "", "latitude": 28.6380864, "longitude": 77.186776, "maps_url": "https://www.google.com/maps/search/?api=1&query=Wear%20It%20Loud&query_place_id=ChIJMfUhj6MCDTkRJt8S8UuVKMU"}, {"place_id": "ChIJAQAAAKMCDTkR0GDwSGp5PxA", "name": "Services International Pvt. Ltd.", "street": "25/8, Old Rajinder Nagar, Rajinder Nagar, New Delhi, Delhi, 110060, India", "phone": "+91 11 4105 0560", "rating": "4.5", "review_count": "", "website": "http://www.india-travelpackages.com/", "latitude": 28.6398218, "longitude": 77.1843093, "maps_url": "https://www.google.com/maps/search/?api=1&query=Services%20International%20Pvt.%20Ltd.&query_place_id=ChIJAQAAAKMCDTkR0GDwSGp5PxA"}, {"place_id": "ChIJ____XIT9DDkRTh0Zai1y3yg", "name": "Holy-Land Marketing", "street": "D, 154, Rajender Nagar, New Rajinder Nagar, New Delhi, Delhi 110060, India", "phone": "+91 11 4125 5444", "rating": "4.8", "review_count": "", "website": "https://www.holylandgroup.org/", "latitude": 28.637186099999997, "longitude": 77.1819719, "maps_url": "https://www.google.com/maps/search/?api=1&query=Holy-Land%20Marketing&query_place_id=ChIJ____XIT9DDkRTh0Zai1y3yg"}, {"place_id": "ChIJF_Aio5rp0UgRxDyhcrYS5Uo", "name": "SalesMagna", "street": "35/8, Shankar Rd, Block 37, Rajendra Park, Rajinder Nagar, Delhi, New Delhi, Delhi 110060, India", "phone": "+91 72900 04444", "rating": "4.5", "review_count": "", "website": "http://salesmagna.com/", "latitude": 28.639595, "longitude": 77.178252, "maps_url": "https://www.google.com/maps/search/?api=1&query=SalesMagna&query_place_id=ChIJF_Aio5rp0UgRxDyhcrYS5Uo"}, {"place_id": "ChIJh5_jkfcDDTkRwKCh6o1C8FI", "name": "Liveware Computers", "street": "Shop No-1, 18/5, Old Rajinder Nagar, New Delhi, Delhi 110060, India", "phone": "+91 98185 33633", "rating": "5", "review_count": "", "website": "", "latitude": 28.6395298, "longitude": 77.1835091, "maps_url": "https://www.google.com/maps/search/?api=1&query=Liveware%20Computers&query_place_id=ChIJh5_jkfcDDTkRwKCh6o1C8FI"}, {"place_id": "ChIJR2vd6L0CDTkRJZbwqoUymoU", "name": "Amit Arora", "street": "21 Rajendra Park Second Floor, Rajindra Park Road, Shankar Rd, New Delhi, Delhi 110060, India", "phone": "", "rating": "5", "review_count": "", "website": "", "latitude": 28.6414893, "longitude": 77.17811569999999, "maps_url": "https://www.google.com/maps/search/?api=1&query=Amit%20Arora&query_place_id=ChIJR2vd6L0CDTkRJZbwqoUymoU"}, {"place_id": "ChIJm4VQC0wDDTkRcXsrBXsHCQI", "name": "Winzid Technologies", "street": "4/62, 4, Old Rajinder Nagar, Rajinder Nagar, New Delhi, Delhi, 110060, India", "phone": "+91 98999 96839", "rating": "4", "review_count": "", "website": "http://www.winzid.com/", "latitude": 28.6410335, "longitude": 77.1879099, "maps_url": "https://www.google.com/maps/search/?api=1&query=Winzid%20Technologies&query_place_id=ChIJm4VQC0wDDTkRcXsrBXsHCQI"}, {"place_id": "ChIJDSmBfV0EDTkR_UoO0pAlp5M", "name": "Supertech Equipments Pvt Ltd(CANON Premium Partner)", "street": "E-10 & E-6, LGF,DDA MARKET, New Rajinder Nagar, New Delhi, Delhi 110060, India", "phone": "+91 85959 52131", "rating": "4.8", "review_count": "", "website": "http://www.indiamart.com/supertechequipmentpvtltd/", "latitude": 28.6363362, "longitude": 77.17785289999999, "maps_url": "https://www.google.com/maps/search/?api=1&query=Supertech%20Equipments%20Pvt%20Ltd%28CANON%20Premium%20Partner%29&query_place_id=ChIJDSmBfV0EDTkR_UoO0pAlp5M"}, {"place_id": "ChIJz9bYFOwCDTkREj8LirH5MbU", "name": "Astrokidz Inc", "street": "gate no 4, metro station, Ashoka chambers, Plot no B5,flat, A10, Pusa Rd, near Rajindra place, Rajendra Park, Delhi 110060, India", "phone": "+91 80 4803 4014", "rating": "4.1", "review_count": "", "website": "https://www.astrokidz.net/", "latitude": 28.641913199999998, "longitude": 77.177094, "maps_url": "https://www.google.com/maps/search/?api=1&query=Astrokidz%20Inc&query_place_id=ChIJz9bYFOwCDTkREj8LirH5MbU"}, {"place_id": "ChIJXQ2VyXwBDTkR_52c260Pnsc", "name": "Aska Equipments Private Limited", "street": "R-482, Shankar Rd, Block R ,Rajendra Nagar, Rajender Nagar Part 1, New Rajinder Nagar, New Delhi, Delhi 110060, India", "phone": "+91 1800 123 8611", "rating": "4.6", "review_count": "", "website": "http://askagroup.com/", "latitude": 28.635312199999998, "longitude": 77.1854318, "maps_url": "https://www.google.com/maps/search/?api=1&query=Aska%20Equipments%20Private%20Limited&query_place_id=ChIJXQ2VyXwBDTkR_52c260Pnsc"}, {"place_id": "ChIJB21vxb0DDTkRwpX4J7pZ3DI", "name": "HP World - Shankar Road", "street": "Ground floor, No 4/52, Shankar Road, Old Rajinder Nagar, New Delhi, Delhi 110060, India", "phone": "+91 96194 76457", "rating": "4.6", "review_count": "", "website": "https://www.hpworldstores.in/ground-floor-shankar-road-old-rajinder-nagar-opposite-axis-bank/Home", "latitude": 28.6377322, "longitude": 77.181741, "maps_url": "https://www.google.com/maps/search/?api=1&query=HP%20World%20-%20Shankar%20Road&query_place_id=ChIJB21vxb0DDTkRwpX4J7pZ3DI"}, {"place_id": "ChIJl3sYCPoCDTkR0sy4l1Cc8fI", "name": "RELEVANT SEARCH MEDIA", "street": "", "phone": "+91 20 2609 6641", "rating": "4.7", "review_count": "", "website": "http://relevantsearchmedia.com/", "latitude": 9.374110199999999, "longitude": -74.9524576, "maps_url": "https://www.google.com/maps/search/?api=1&query=RELEVANT%20SEARCH%20MEDIA&query_place_id=ChIJl3sYCPoCDTkR0sy4l1Cc8fI"}, {"place_id": "ChIJOZd2wWIDDTkRMdyNCdCtCIQ", "name": "Groot Infotech", "street": "Padma Tower II, 502, Rajendra Place, New Delhi, Delhi 110005, India", "phone": "+91 85273 53508", "rating": "", "review_count": "", "website": "https://www.grootinfotech.com/", "latitude": 28.6451836, "longitude": 77.1780375, "maps_url": "https://www.google.com/maps/search/?api=1&query=Groot%20Infotech&query_place_id=ChIJOZd2wWIDDTkRMdyNCdCtCIQ"}, {"place_id": "ChIJB1i5musDDTkRR201ZBYajGM", "name": "Global Business Connects", "street": "R546, Shankar Rd, R-Block, Pocket R, Rajender Nagar Part 2, Rajinder Nagar, New Delhi, Delhi 110060, India", "phone": "+91 11 4520 2020", "rating": "5", "review_count": "", "website": "https://ourglobalgroup.com/", "latitude": 28.639675399999998, "longitude": 77.1777403, "maps_url": "https://www.google.com/maps/search/?api=1&query=Global%20Business%20Connects&query_place_id=ChIJB1i5musDDTkRR201ZBYajGM"}, {"place_id": "ChIJ3XCtatYDDTkRPt7G2rYw9rE", "name": "One Click Communication", "street": "131, Shankar Rd Market, Block E, Rajender Nagar Part 2, New Rajinder Nagar, New Delhi, Delhi, 110060, India", "phone": "+91 98117 78972", "rating": "4", "review_count": "", "website": "http://oneclickcommunication.com/", "latitude": 28.6381749, "longitude": 77.1799751, "maps_url": "https://www.google.com/maps/search/?api=1&query=One%20Click%20Communication&query_place_id=ChIJ3XCtatYDDTkRPt7G2rYw9rE"}, {"place_id": "ChIJIUwMub4CDTkRWAyWbWHOCPg", "name": "Magic Wand Labs", "street": "B-20, Lower Ground Floor, LSC at 2,4,20 MOR Land, New Rajinder Nagar, New Delhi, Delhi 110060, India", "phone": "", "rating": "5", "review_count": "", "website": "http://www.magicwandlabs.com/", "latitude": 28.637118899999997, "longitude": 77.1773303, "maps_url": "https://www.google.com/maps/search/?api=1&query=Magic%20Wand%20Labs&query_place_id=ChIJIUwMub4CDTkRWAyWbWHOCPg"}]