[{"place_id": "ChIJM-ZDIOXiDDkRHNlL6nlN1D4", "name": "Wirecto", "street": "Triloki Colony, C-49, South Extension I, Mahaveer Nagar, Kotla Mubarakpur, New Delhi, Delhi 110003, India", "phone": "+91 97166 70074", "rating": "5", "review_count": "", "website": "https://wirecto.app/", "latitude": 28.575404799999998, "longitude": 77.2250054, "maps_url": "https://www.google.com/maps/search/?api=1&query=Wirecto&query_place_id=ChIJM-ZDIOXiDDkRHNlL6nlN1D4"}, {"place_id": "ChIJXSmB5VniDDkRXgG_CYFQtzE", "name": "Extrieve Technologies", "street": "Arjun Nagar, 805, Bhishma Pitamah Marg, South Extension I, Arjun Nagar, Kotla Mubarakpur, New Delhi, Delhi 110003, India", "phone": "+91 11 4012 2131", "rating": "4", "review_count": "", "website": "http://www.extrieve.com/", "latitude": 28.5737635, "longitude": 77.22831359999999, "maps_url": "https://www.google.com/maps/search/?api=1&query=Extrieve%20Technologies&query_place_id=ChIJXSmB5VniDDkRXgG_CYFQtzE"}, {"place_id": "ChIJEZi4U8HjDDkRyul3V2h5ouc", "name": "IT Company", "street": "A-14, near iskcon temple, Block A, APB Garhi, Vasant Vihar, New Delhi, Delhi 110065, India", "phone": "", "rating": "3", "review_count": "", "website": "http://www.opuswiz.com/", "latitude": 28.557167, "longitude": 77.25424819999999, "maps_url": "https://www.google.com/maps/search/?api=1&query=IT%20Company&query_place_id=ChIJEZi4U8HjDDkRyul3V2h5ouc"}, {"place_id": "ChIJ6xG0sw-c-DkRWHWbfpc_R74", "name": "Kbeatech - Digital Solutions Company", "street": "1893, 1st Floor, Uday Chand Marg, South Extension I, Kotla Mubarakpur, New Delhi, Delhi 110049, India", "phone": "", "rating": "4.9", "review_count": "", "website": "https://kbeatech.in/", "latitude": 28.571338299999997, "longitude": 77.2228884, "maps_url": "https://www.google.com/maps/search/?api=1&query=Kbeatech%20-%20Digital%20Solutions%20Company&query_place_id=ChIJ6xG0sw-c-DkRWHWbfpc_R74"}, {"place_id": "ChIJVVVVgV7iDDkRR38SUjV3P_k", "name": "SANEKT SOFTWARE SOLUTION", "street": "Top floor, H 11, South Extension, Block H, New Delhi, Delhi 110049, India", "phone": "+91 11 4158 9565", "rating": "5", "review_count": "", "website": "http://sanekt.com/", "latitude": 28.571361, "longitude": 77.221733, "maps_url": "https://www.google.com/maps/search/?api=1&query=SANEKT%20SOFTWARE%20SOLUTION&query_place_id=ChIJVVVVgV7iDDkRR38SUjV3P_k"}, {"place_id": "ChIJI8eBDIbjDDkRPmqowEMO9cU", "name": "Nextr Technology", "street": "2nd Floor, 1483/A-1, South Extension I, Wazir Nagar, New Delhi, Delhi 110003, India", "phone": "+91 99117 51575", "rating": "4.9", "review_count": "", "website": "http://www.nextr.in/", "latitude": 28.574374, "longitude": 77.224284, "maps_url": "https://www.google.com/maps/search/?api=1&query=Nextr%20Technology&query_place_id=ChIJI8eBDIbjDDkRPmqowEMO9cU"}, {"place_id": "ChIJVyHXkVfiDDkRT5GSB4yKE6w", "name": "iValue Infosolutions Pvt Ltd", "street": "A-243, Bhishma Pitamah Marg, Block A, Defence Colony, New Delhi, Delhi 110003, India", "phone": "", "rating": "4.3", "review_count": "", "website": "", "latitude": 28.576886499999997, "longitude": 77.229715, "maps_url": "https://www.google.com/maps/search/?api=1&query=iValue%20Infosolutions%20Pvt%20Ltd&query_place_id=ChIJVyHXkVfiDDkRT5GSB4yKE6w"}, {"place_id": "ChIJEWC-3RDjDDkRlaR-qGzH5yk", "name": "DigiTecholic Private Limited", "street": "1st Floor, H-11, near Bengali Sweet Center, South Extension I, Block H, New Delhi, Delhi 110049, India", "phone": "+91 77008 40888", "rating": "5", "review_count": "", "website": "https://www.digitecholic.com/", "latitude": 28.5713112, "longitude": 77.2219863, "maps_url": "https://www.google.com/maps/search/?api=1&query=DigiTecholic%20Private%20Limited&query_place_id=ChIJEWC-3RDjDDkRlaR-qGzH5yk"}, {"place_id": "ChIJ52PVhVfiDDkR6c41WCmgsVU", "name": "Network Nuts", "street": "A, 184, Bhishma Pitamah Marg, opp. Defence Colony, South Extension I, Arjun Nagar, Kotla Mubarakpur, New Delhi, Delhi 110003, India", "phone": "+91 98180 40117", "rating": "4.8", "review_count": "", "website": "https://networknuts.net/", "latitude": 28.5740236, "longitude": 77.2284724, "maps_url": "https://www.google.com/maps/search/?api=1&query=Network%20Nuts&query_place_id=ChIJ52PVhVfiDDkR6c41WCmgsVU"}, {"place_id": "ChIJVed5zP3lDDkR9k64UZLpnDA", "name": "Optyminds IT Solutions - Top AI and IT company I Best Digital agency in Noida | Delhi NCR | India", "street": "1st Floor, B-70, B Block, Sector 2, Noida, Uttar Pradesh 201301, India", "phone": "+91 89290 75975", "rating": "4.9", "review_count": "", "website": "https://optyminds.com/", "latitude": 28.584679599999998, "longitude": 77.3135042, "maps_url": "https://www.google.com/maps/search/?api=1&query=Optyminds%20IT%20Solutions%20-%20Top%20AI%20and%20IT%20company%20I%20Best%20Digital%20agency%20in%20Noida%20%7C%20Delhi%20NCR%20%7C%20India&query_place_id=ChIJVed5zP3lDDkR9k64UZLpnDA"}, {"place_id": "ChIJ7xPJBtbjDDkRrSzrMVa9RtI", "name": "Delvetech", "street": "87A/1, 3rd Floor, Opp. Block N-115, G.K-1, Near Moolchand Merto, Block B, Zamrudpur, Greater Kailash, New Delhi, Delhi 110048, India", "phone": "+91 98738 95154", "rating": "4.1", "review_count": "", "website": "http://www.delvetech.co.in/", "latitude": 28.5570597, "longitude": 77.2356981, "maps_url": "https://www.google.com/maps/search/?api=1&query=Delvetech&query_place_id=ChIJ7xPJBtbjDDkRrSzrMVa9RtI"}, {"place_id": "ChIJAQAAwLfjDDkRN9kC5Q7Y3UY", "name": "Amtrak Technologies Private Limited", "street": "6, Community Centre, East of Kailash, New Delhi, Delhi 110065, India", "phone": "+91 11 2644 8000", "rating": "4.4", "review_count": "", "website": "https://amtrak.co.in/", "latitude": 28.558434899999998, "longitude": 77.2463302, "maps_url": "https://www.google.com/maps/search/?api=1&query=Amtrak%20Technologies%20Private%20Limited&query_place_id=ChIJAQAAwLfjDDkRN9kC5Q7Y3UY"}, {"place_id": "ChIJtz5d-FbiDDkR0dXO23rDDek", "name": "Legitquest - AI Legal Tech", "street": "A-149, Block A, Defence Colony, New Delhi, Delhi 110024, India", "phone": "+91 11 4171 7030", "rating": "3.6", "review_count": "", "website": "https://www.legitquest.com/", "latitude": 28.5759173, "longitude": 77.2323894, "maps_url": "https://www.google.com/maps/search/?api=1&query=Legitquest%20-%20AI%20Legal%20Tech&query_place_id=ChIJtz5d-FbiDDkR0dXO23rDDek"}, {"place_id": "ChIJNUB7Y1fiDDkRtIua0gbgpCE", "name": "Unicorn, Apple Premium Reseller", "street": "A-270, near Arya Samaj Mandir, Block A, Defence Colony, New Delhi, Delhi 110003, India", "phone": "+91 95999 74035", "rating": "4.5", "review_count": "", "website": "https://shop.unicornstore.in/", "latitude": 28.5748827, "longitude": 77.2293925, "maps_url": "https://www.google.com/maps/search/?api=1&query=Unicorn%2C%20Apple%20Premium%20Reseller&query_place_id=ChIJNUB7Y1fiDDkRtIua0gbgpCE"}, {"place_id": "ChIJRdSD-rHjDDkR0s8cg6FOXxA", "name": "m/s cadplus infosys pvt. ltd.", "street": "BLOCK A Basement, A-323, 49, Block A, Defence Colony, New Delhi, Delhi, 110024, India", "phone": "+91 98111 64900", "rating": "4", "review_count": "", "website": "https://www.cadplus.co.in/", "latitude": 28.5738462, "longitude": 77.2291997, "maps_url": "https://www.google.com/maps/search/?api=1&query=m/s%20cadplus%20infosys%20pvt.%20ltd.&query_place_id=ChIJRdSD-rHjDDkR0s8cg6FOXxA"}, {"place_id": "ChIJaeB_XpgEDTkRH6flgedI1U4", "name": "Dignitas Digital", "street": "C 323, Block C, Defence Colony, New Delhi, Delhi 110024, India", "phone": "+91 11 4550 1210", "rating": "3.9", "review_count": "", "website": "https://www.dignitasdigital.com/", "latitude": 28.5700126, "longitude": 77.2328721, "maps_url": "https://www.google.com/maps/search/?api=1&query=Dignitas%20Digital&query_place_id=ChIJaeB_XpgEDTkRH6flgedI1U4"}, {"place_id": "ChIJ33NB7__jDDkR9vbUSyTF5m8", "name": "Eytick", "street": "Kotla Mubarakpur, Sewa Nagar, New Delhi, Delhi 110003, India", "phone": "", "rating": "5", "review_count": "", "website": "https://www.eytick.com/", "latitude": 28.575577199999998, "longitude": 77.2273546, "maps_url": "https://www.google.com/maps/search/?api=1&query=Eytick&query_place_id=ChIJ33NB7__jDDkR9vbUSyTF5m8"}, {"place_id": "ChIJMfUq1aTjDDkRaU9vhmSHiaQ", "name": "Glorich India Pvt Ltd", "street": "DSIDC Complex, 87, Kotla Mubarakpur, New Delhi, Delhi 110003, India", "phone": "+91 87500 43197", "rating": "", "review_count": "", "website": "https://www.glorichindia.com/", "latitude": 28.5755032, "longitude": 77.2273707, "maps_url": "https://www.google.com/maps/search/?api=1&query=Glorich%20India%20Pvt%20Ltd&query_place_id=ChIJMfUq1aTjDDkRaU9vhmSHiaQ"}, {"place_id": "ChIJzwI9A8njDDkRSzAmOVus8wA", "name": "Unicorn, Apple Authorised Service Provider", "street": "A-270 basement, 110024, opposite arya samaj mandir, Block A, Defence Colony, New Delhi, Delhi, 110003, India", "phone": "+91 95999 67714", "rating": "4.7", "review_count": "", "website": "https://getsupport.apple.com/repair-locations?storeId=17664013", "latitude": 28.5748972, "longitude": 77.2293485, "maps_url": "https://www.google.com/maps/search/?api=1&query=Unicorn%2C%20Apple%20Authorised%20Service%20Provider&query_place_id=ChIJzwI9A8njDDkRSzAmOVus8wA"}, {"place_id": "ChIJL7i0Y9rGFUIRZKmtphSoS3k", "name": "Asha Tech | Website Designing | App Development | IT Company in Delhi", "street": "no 2, 195, Lane No. 1, Westend Marg, near Saket Metro Gate, Saidulajab, Saket, Delhi 110030, India", "phone": "+91 75310 80874", "rating": "4.7", "review_count": "", "website": "https://ashatech.co.in/", "latitude": 28.519994099999998, "longitude": 77.2008791, "maps_url": "https://www.google.com/maps/search/?api=1&query=Asha%20Tech%20%7C%20Website%20Designing%20%7C%20App%20Development%20%7C%20IT%20Company%20in%20Delhi&query_place_id=ChIJL7i0Y9rGFUIRZKmtphSoS3k"}, {"place_id": "ChIJ6wQV6c_jDDkR1yOSSVxsNFU", "name": "CCS Computers Private Limited", "street": "2nd-3rd Floor Skipper House, Nehru Place, New Delhi, Delhi 110019, India", "phone": "+91 11 2646 3959", "rating": "4", "review_count": "", "website": "http://www.ccscomputers.co.in/", "latitude": 28.550090599999997, "longitude": 77.2537834, "maps_url": "https://www.google.com/maps/search/?api=1&query=CCS%20Computers%20Private%20Limited&query_place_id=ChIJ6wQV6c_jDDkR1yOSSVxsNFU"}, {"place_id": "ChIJXc_8A57jDDkRA7Hn-SNhoGw", "name": "MNB DIGITAL SOLUTIONS PVT LTD.", "street": "Ground Floor, gyani bazar, 1798-b, prasadi gali, Kotla Mubarakpur, Sewa Nagar, New Delhi, Delhi 110003, India", "phone": "+91 98106 02364", "rating": "5", "review_count": "", "website": "http://mnbdigitalsolution.com/", "latitude": 28.5755771, "longitude": 77.2273541, "maps_url": "https://www.google.com/maps/search/?api=1&query=MNB%20DIGITAL%20SOLUTIONS%20PVT%20LTD.&query_place_id=ChIJXc_8A57jDDkRA7Hn-SNhoGw"}, {"place_id": "ChIJdcj2IeDjDDkRqQo1ycoz2Fc", "name": "Device Life", "street": "Building No.3, A-block 407, Mahipalpur, Defence Colony, New Delhi, Delhi 110003, India", "phone": "", "rating": "4.3", "review_count": "", "website": "http://www.devicelife.in/", "latitude": 28.5744841, "longitude": 77.2294115, "maps_url": "https://www.google.com/maps/search/?api=1&query=Device%20Life&query_place_id=ChIJdcj2IeDjDDkRqQo1ycoz2Fc"}, {"place_id": "ChIJLdVRgKnjDDkRapiKVhDTzdU", "name": "iPeople Legal Law Firm", "street": "Post office, A - 154 LG Floor, near Defence Colony, Defence Colony, New Delhi, Delhi 110024, India", "phone": "+91 93581 44181", "rating": "5", "review_count": "", "website": "https://www.ipeoplelegal.in/", "latitude": 28.5763097, "longitude": 77.2323791, "maps_url": "https://www.google.com/maps/search/?api=1&query=iPeople%20Legal%20Law%20Firm&query_place_id=ChIJLdVRgKnjDDkRapiKVhDTzdU"}, {"place_id": "ChIJq6qqmq3jDDkRmEOhwyhvHc0", "name": "Team Building Pro - Corporate Team Building Company in Delhi NCR", "street": "1st-Floor, B-94, Block B, Lajpat Nagar I, Lajpat Nagar, New Delhi, Delhi 110024, India", "phone": "+91 98710 30465", "rating": "4.9", "review_count": "", "website": "https://teambuildingpro.in/", "latitude": 28.5744208, "longitude": 77.23969579999999, "maps_url": "https://www.google.com/maps/search/?api=1&query=Team%20Building%20Pro%20-%20Corporate%20Team%20Building%20Company%20in%20Delhi%20NCR&query_place_id=ChIJq6qqmq3jDDkRmEOhwyhvHc0"}, {"place_id": "ChIJ1656XXrjDDkRG3ymJVTGQSE", "name": "Online Narender | Digital Marketing Consultant Service and Virtual Assistance", "street": "791/5/1 Ground Floor, near South Extension I, Sukhdev Nagar, Arjun Nagar, Kotla Mubarakpur, New Delhi, Delhi 110003, India", "phone": "", "rating": "5", "review_count": "", "website": "", "latitude": 28.5747079, "longitude": 77.227374, "maps_url": "https://www.google.com/maps/search/?api=1&query=Online%20Narender%20%7C%20Digital%20Marketing%20Consultant%20Service%20and%20Virtual%20Assistance&query_place_id=ChIJ1656XXrjDDkRG3ymJVTGQSE"}, {"place_id": "ChIJee8tMTL9DDkRHRTl6NMPyx8", "name": "Canam Consultants", "street": "1st Floor, A-265, Bhishma Pitamah Marg, Block A, Defence Colony, New Delhi, Delhi 110003, India", "phone": "+91 73470 28030", "rating": "4.6", "review_count": "", "website": "https://www.canamgroup.com/", "latitude": 28.5752873, "longitude": 77.22965219999999, "maps_url": "https://www.google.com/maps/search/?api=1&query=Canam%20Consultants&query_place_id=ChIJee8tMTL9DDkRHRTl6NMPyx8"}, {"place_id": "ChIJ_R_A8FniDDkRIEPThXof3uo", "name": "JBA Concrete Solution P.Ltd.", "street": "135, Bhishma Pitamah Marg, South Extension I, Arjun Nagar, Kotla Mubarakpur, New Delhi, Delhi 110003, India", "phone": "+91 11 4155 3830", "rating": "4", "review_count": "", "website": "http://www.jbaindia.com/", "latitude": 28.573305899999998, "longitude": 77.2281299, "maps_url": "https://www.google.com/maps/search/?api=1&query=JBA%20Concrete%20Solution%20P.Ltd.&query_place_id=ChIJ_R_A8FniDDkRIEPThXof3uo"}, {"place_id": "ChIJeTnmxGviDDkRSxQ4iKAXRxo", "name": "Ikigai Law", "street": "D-295, Lower Ground Floor, Shiniwas Puri, Block D, Defence Colony, New Delhi, Delhi 110024, India", "phone": "+91 11 4283 1840", "rating": "4.5", "review_count": "", "website": "http://www.ikigailaw.com/", "latitude": 28.5726116, "longitude": 77.2349026, "maps_url": "https://www.google.com/maps/search/?api=1&query=Ikigai%20Law&query_place_id=ChIJeTnmxGviDDkRSxQ4iKAXRxo"}, {"place_id": "ChIJe69FX63jDDkRNIxV8bibYQ8", "name": "RAG Scores", "street": "A-193, Block A, Defence Colony, New Delhi, Delhi 110003, India", "phone": "+91 98733 83242", "rating": "5", "review_count": "", "website": "https://ragscores.com/", "latitude": 28.5777158, "longitude": 77.23077339999999, "maps_url": "https://www.google.com/maps/search/?api=1&query=RAG%20Scores&query_place_id=ChIJe69FX63jDDkRNIxV8bibYQ8"}, {"place_id": "ChIJf0b6fKXjDDkRvyczXwx8hfs", "name": "Northville Consulting Group", "street": "A-151, Block A, Defence Colony, New Delhi, Delhi 110024, India", "phone": "+91 76785 58902", "rating": "5", "review_count": "", "website": "https://www.northvilleconsultinggroup.com/", "latitude": 28.576072099999998, "longitude": 77.2323766, "maps_url": "https://www.google.com/maps/search/?api=1&query=Northville%20Consulting%20Group&query_place_id=ChIJf0b6fKXjDDkRvyczXwx8hfs"}, {"place_id": "ChIJp9rtT7HjDDkRNra7e7ElS2c", "name": "Epic Solutions – Event Planner & Decor Expert", "street": "971/9, Sukhdev Nagar, Arjun Nagar, Kotla Mubarakpur, New Delhi, Delhi 110003, India", "phone": "", "rating": "5", "review_count": "", "website": "", "latitude": 28.5748052, "longitude": 77.2279684, "maps_url": "https://www.google.com/maps/search/?api=1&query=Epic%20Solutions%20%E2%80%93%20Event%20Planner%20%26%20Decor%20Expert&query_place_id=ChIJp9rtT7HjDDkRNra7e7ElS2c"}, {"place_id": "ChIJX_D1pVniDDkRCYtf_LqePaY", "name": "Alfa Electronics", "street": "K-53, Gurudwara Rd, near Gurudwara, South Extension I, Mahaveer Nagar, Kotla Mubarakpur, Delhi, New Delhi, Delhi 110003, India", "phone": "+91 93122 24726", "rating": "4.1", "review_count": "", "website": "", "latitude": 28.574959, "longitude": 77.226721, "maps_url": "https://www.google.com/maps/search/?api=1&query=Alfa%20Electronics&query_place_id=ChIJX_D1pVniDDkRCYtf_LqePaY"}, {"place_id": "ChIJgTxk5lniDDkRgPxTbL81wIg", "name": "Fast Track courier service.", "street": "Lower G.F, Sukhdev Market, A-180, Bhishma Pitamah Marg, South Extension I, Arjun Nagar, Kotla Mubarakpur, New Delhi, Delhi 110003, India", "phone": "+91 97185 10918", "rating": "4.8", "review_count": "", "website": "http://www.overnitenet.com/", "latitude": 28.574381199999998, "longitude": 77.2287746, "maps_url": "https://www.google.com/maps/search/?api=1&query=Fast%20Track%20courier%20service.&query_place_id=ChIJgTxk5lniDDkRgPxTbL81wIg"}, {"place_id": "ChIJM0_PPs4DDTkRo2Hxm_aXvv0", "name": "Inxus Events Pvt. Ltd.", "street": "A 178 Second Floor Saini Bhawan Bhisham, Bhishma Pitamah Marg, Kotla Mubarakpur, New Delhi, Delhi 110003, India", "phone": "+91 11 4706 3674", "rating": "4.8", "review_count": "", "website": "http://www.inxus.in/", "latitude": 28.5743108, "longitude": 77.22845559999999, "maps_url": "https://www.google.com/maps/search/?api=1&query=Inxus%20Events%20Pvt.%20Ltd.&query_place_id=ChIJM0_PPs4DDTkRo2Hxm_aXvv0"}, {"place_id": "ChIJnSs9bl_iDDkRm_Ull_yg81c", "name": "YATRA POINT TOURISM COMPANY INDIA", "street": "OFFICE NO-7, BULDING NO N-1, LGF, 4, near BANSALI JEWLLERS L, South Extension I, New Delhi, Delhi 110003, India", "phone": "+91 88600 16982", "rating": "4.9", "review_count": "", "website": "", "latitude": 28.574078, "longitude": 77.219089, "maps_url": "https://www.google.com/maps/search/?api=1&query=YATRA%20POINT%20TOURISM%20COMPANY%20INDIA&query_place_id=ChIJnSs9bl_iDDkRm_Ull_yg81c"}, {"place_id": "ChIJZRaY6bXjDDkRPL7VkG-R024", "name": "Netsoft Consulting Services", "street": "24, IInd Floor, Community Center, East Of Kailash, behind Sapna Cinema, New Delhi, Delhi 110065, India", "phone": "+91 11 4533 0000", "rating": "3.5", "review_count": "", "website": "https://netsoftit.com/contact-us/", "latitude": 28.5583678, "longitude": 77.24568579999999, "maps_url": "https://www.google.com/maps/search/?api=1&query=Netsoft%20Consulting%20Services&query_place_id=ChIJZRaY6bXjDDkRPL7VkG-R024"}, {"place_id": "ChIJh_C0fJTjDDkReHc8xEVtsA4", "name": "INTELIA LAW OFFICES (Advocates & Legal Advisors)", "street": "LGF, A-105, Block A, Defence Colony, New Delhi, Delhi 110024, India", "phone": "+91 11 4167 1010", "rating": "4.7", "review_count": "", "website": "http://www.intelialawoffices.com/home/", "latitude": 28.5771084, "longitude": 77.232889, "maps_url": "https://www.google.com/maps/search/?api=1&query=INTELIA%20LAW%20OFFICES%20%28Advocates%20%26%20Legal%20Advisors%29&query_place_id=ChIJh_C0fJTjDDkReHc8xEVtsA4"}, {"place_id": "ChIJawGtqlDiDDkR22heoESeVz8", "name": "MSAG SKILL INDIA LLP (MSAGSI)", "street": "313, A Block, Block A, Defence Colony, New Delhi, Delhi 110024, India", "phone": "+91 11 4654 0244", "rating": "3.5", "review_count": "", "website": "http://msagsi.com/", "latitude": 28.573961599999997, "longitude": 77.2292626, "maps_url": "https://www.google.com/maps/search/?api=1&query=MSAG%20SKILL%20INDIA%20LLP%20%28MSAGSI%29&query_place_id=ChIJawGtqlDiDDkR22heoESeVz8"}, {"place_id": "ChIJlfxVP1HiDDkRoIde0nL1TYo", "name": "India Estates", "street": "169, Block C, Defence Colony, New Delhi, Delhi 110024, India", "phone": "+91 98991 78902", "rating": "4.8", "review_count": "", "website": "https://india-estates.com/best_estate_agent_defence_colony.php", "latitude": 28.572155199999997, "longitude": 77.23331999999999, "maps_url": "https://www.google.com/maps/search/?api=1&query=India%20Estates&query_place_id=ChIJlfxVP1HiDDkRoIde0nL1TYo"}, {"place_id": "ChIJWTpbbFbiDDkRwd3A3o0fkOE", "name": "Access Legal Group: Top Law Firm in Delhi/NCR", "street": "A-22, Block A, Defence Colony, New Delhi, Delhi 110024, India", "phone": "+91 98680 18764", "rating": "4.8", "review_count": "", "website": "http://www.accesslegalgroup.in/", "latitude": 28.577393299999997, "longitude": 77.2338096, "maps_url": "https://www.google.com/maps/search/?api=1&query=Access%20Legal%20Group%3A%20Top%20Law%20Firm%20in%20Delhi/NCR&query_place_id=ChIJWTpbbFbiDDkRwd3A3o0fkOE"}, {"place_id": "ChIJ94iqcVDjDDkRKKxM3g9cHGs", "name": "CAAQ Consultancy - Company Registration & Compliance Consultant Delhi", "street": "S/F, Bhaskar Bhavan, 1882/A, South Extension I, Kotla Mubarakpur, New Delhi, Delhi 110003, India", "phone": "", "rating": "4.1", "review_count": "", "website": "https://caaq.in/", "latitude": 28.570666, "longitude": 77.2222604, "maps_url": "https://www.google.com/maps/search/?api=1&query=CAAQ%20Consultancy%20-%20Company%20Registration%20%26%20Compliance%20Consultant%20Delhi&query_place_id=ChIJ94iqcVDjDDkRKKxM3g9cHGs"}, {"place_id": "ChIJIZW4JJrjDDkRqQX9KF5siG4", "name": "Cloude Data Delhi | Best Cloud Service Provider company in India", "street": "First Floor, A 212, Okhla Phase 3 Rd, near by hdfc bank, Okhla Phase III, Okhla Industrial Estate, New Delhi, Delhi 110020, India", "phone": "+91 88823 53612", "rating": "4.7", "review_count": "", "website": "https://cloudedata.com/", "latitude": 28.548515, "longitude": 77.2712834, "maps_url": "https://www.google.com/maps/search/?api=1&query=Cloude%20Data%20Delhi%20%7C%20Best%20Cloud%20Service%20Provider%20company%20in%20India&query_place_id=ChIJIZW4JJrjDDkRqQX9KF5siG4"}, {"place_id": "ChIJyykPKFDkDDkRZq_KFF971rE", "name": "L.B. Bonafide Private Limited", "street": "1513, Fourth Floor Wazir Nagar, opp. B1 Defence Colony, Kotla Mubarakpur, New Delhi, Delhi 110003, India", "phone": "+91 92122 41110", "rating": "4.3", "review_count": "", "website": "https://www.lbbonafide.com/", "latitude": 28.568518599999997, "longitude": 77.2253946, "maps_url": "https://www.google.com/maps/search/?api=1&query=L.B.%20Bonafide%20Private%20Limited&query_place_id=ChIJyykPKFDkDDkRZq_KFF971rE"}, {"place_id": "ChIJ74NUvF7iDDkRcSiHYje_h6Y", "name": "Khandelwal Luggage", "street": "489, Gurudwara Rd, South Extension I, Shiv Nagar, Kotla Mubarakpur, New Delhi, Delhi 110003, India", "phone": "+91 85859 09018", "rating": "3.6", "review_count": "", "website": "", "latitude": 28.5739883, "longitude": 77.2261128, "maps_url": "https://www.google.com/maps/search/?api=1&query=Khandelwal%20Luggage&query_place_id=ChIJ74NUvF7iDDkRcSiHYje_h6Y"}, {"place_id": "ChIJ72GmAanjDDkR8J6R-n8iCcg", "name": "Aura THAI TRADITIONAL SPA", "street": "A-264, Bhishma Pitamah Marg, Block A, Defence Colony, New Delhi, Delhi 110003, India", "phone": "+91 99101 52835", "rating": "5", "review_count": "", "website": "http://www.aurathaispadc.com/", "latitude": 28.5752341, "longitude": 77.2296159, "maps_url": "https://www.google.com/maps/search/?api=1&query=Aura%20THAI%20TRADITIONAL%20SPA&query_place_id=ChIJ72GmAanjDDkR8J6R-n8iCcg"}, {"place_id": "ChIJM7bCPlfiDDkRVMxhg4JdaYE", "name": "AKU’S - The Burger Co. | Defence Colony", "street": "Shop No 35, Main Market, Block A, Defence Colony, New Delhi, Delhi 110024, India", "phone": "+91 88266 69279", "rating": "4.6", "review_count": "", "website": "http://www.akus.in/", "latitude": 28.573777, "longitude": 77.2305765, "maps_url": "https://www.google.com/maps/search/?api=1&query=AKU%E2%80%99S%20-%20The%20Burger%20Co.%20%7C%20Defence%20Colony&query_place_id=ChIJM7bCPlfiDDkRVMxhg4JdaYE"}, {"place_id": "ChIJjcPrTQTjDDkR8HZMDXyx6y8", "name": "MAY & CO.", "street": "1899-B, South Extension I, G/F, Kotla Mubarakpur, New Delhi, Delhi 110049, India", "phone": "+91 72178 34405", "rating": "4.3", "review_count": "", "website": "https://mayandco.in/", "latitude": 28.5716008, "longitude": 77.2217416, "maps_url": "https://www.google.com/maps/search/?api=1&query=MAY%20%26%20CO.&query_place_id=ChIJjcPrTQTjDDkR8HZMDXyx6y8"}, {"place_id": "ChIJuU0cho7jDDkRQSC_i1MTshg", "name": "Corporate Gift by What A Shop - Corporate Gift Company in Delhi | Pharma & Events gift | Employee Joining Kit | Diwali Gifts", "street": "826, South Extension I, Arjun Nagar, Kotla Mubarakpur, New Delhi, Delhi 110003, India", "phone": "+91 99904 06003", "rating": "5", "review_count": "", "website": "https://www.whatashop.in/", "latitude": 28.5730045, "longitude": 77.2274676, "maps_url": "https://www.google.com/maps/search/?api=1&query=Corporate%20Gift%20by%20What%20A%20Shop%20-%20Corporate%20Gift%20Company%20in%20Delhi%20%7C%20Pharma%20%26%20Events%20gift%20%7C%20Employee%20Joining%20Kit%20%7C%20Diwali%20Gifts&query_place_id=ChIJuU0cho7jDDkRQSC_i1MTshg"}, {"place_id": "ChIJBVbctFniDDkR5FeL63U-12Q", "name": "FishEye Vision", "street": "1898B First Floor, South Extension I, Kotla Mubarakpur, Sewa Nagar, New Delhi, Delhi 110003, India", "phone": "+91 85878 34456", "rating": "5", "review_count": "", "website": "http://www.fisheyevision.in/", "latitude": 28.5755771, "longitude": 77.2273541, "maps_url": "https://www.google.com/maps/search/?api=1&query=FishEye%20Vision&query_place_id=ChIJBVbctFniDDkR5FeL63U-12Q"}, {"place_id": "ChIJ4QyQblriDDkRtjxGyrL-loE", "name": "Whorv", "street": "B -30, Block B, Defence Colony, New Delhi, Delhi 110024, India", "phone": "+91 98110 70747", "rating": "4.9", "review_count": "", "website": "http://whorv.com/", "latitude": 28.5708845, "longitude": 77.2282142, "maps_url": "https://www.google.com/maps/search/?api=1&query=Whorv&query_place_id=ChIJ4QyQblriDDkRtjxGyrL-loE"}, {"place_id": "ChIJ66Hh_FriDDkRDZUEiepmJhE", "name": "Jyoti Group", "street": "B-79, Block B, Defence Colony, New Delhi, Delhi 110024, India", "phone": "+91 11 2433 7662", "rating": "3.8", "review_count": "", "website": "http://www.jtcindia.com/", "latitude": 28.5692663, "longitude": 77.2263239, "maps_url": "https://www.google.com/maps/search/?api=1&query=Jyoti%20Group&query_place_id=ChIJ66Hh_FriDDkRDZUEiepmJhE"}, {"place_id": "ChIJz2GuYFfiDDkRt7BVRtm1KjE", "name": "SPN Legal", "street": "177, A Block, Block A, Defence Colony, New Delhi, Delhi 110003, India", "phone": "+91 11 4980 0000", "rating": "4.5", "review_count": "", "website": "https://www.spnlegal.com/", "latitude": 28.577032799999998, "longitude": 77.2315587, "maps_url": "https://www.google.com/maps/search/?api=1&query=SPN%20Legal&query_place_id=ChIJz2GuYFfiDDkRt7BVRtm1KjE"}, {"place_id": "ChIJ1WnUxFniDDkRHtrBAPG3ijo", "name": "VIBGYOR STUDIOS", "street": "752B, Flat No-G, 2nd Floor, Sukhdev Nagar Kotla Mubarakpur, Near:, Defence Colony, New Delhi, Delhi 110003, India", "phone": "+91 98991 89159", "rating": "4.8", "review_count": "", "website": "https://www.vibgyorstudios.com/", "latitude": 28.5747432, "longitude": 77.2277697, "maps_url": "https://www.google.com/maps/search/?api=1&query=VIBGYOR%20STUDIOS&query_place_id=ChIJ1WnUxFniDDkRHtrBAPG3ijo"}, {"place_id": "ChIJp49ihIXjDDkRzmwE8r6TA-Y", "name": "EMKAY TRADING CO.", "street": "A-46, South Extension I, Bapu Park, Kotla Mubarakpur, New Delhi, Delhi 110003, India", "phone": "", "rating": "4.3", "review_count": "", "website": "", "latitude": 28.5750176, "longitude": 77.2209108, "maps_url": "https://www.google.com/maps/search/?api=1&query=EMKAY%20TRADING%20CO.&query_place_id=ChIJp49ihIXjDDkRzmwE8r6TA-Y"}, {"place_id": "ChIJbT9k81viDDkRPZlxS_ycafE", "name": "Fireball Securitas | Security Guards Service | Top security services | Delhi India", "street": "1899, Uday Chand Marg, South Extension I, Kotla Mubarakpur, New Delhi, Delhi 110049, India", "phone": "+91 85869 77224", "rating": "4.6", "review_count": "", "website": "http://www.fireballindia.com/", "latitude": 28.5719329, "longitude": 77.221848, "maps_url": "https://www.google.com/maps/search/?api=1&query=Fireball%20Securitas%20%7C%20Security%20Guards%20Service%20%7C%20Top%20security%20services%20%7C%20Delhi%20India&query_place_id=ChIJbT9k81viDDkRPZlxS_ycafE"}, {"place_id": "ChIJQ2mdyrvjDDkR4e-YcFNZ2BQ", "name": "Delhivery Courier Service", "street": "178 Sukhdev Market, near Muthoot finance, Kotla Mubarakpur, Delhi 110003, India", "phone": "", "rating": "1.3", "review_count": "", "website": "https://www.delhivery.com/", "latitude": 28.574251999999998, "longitude": 77.22859679999999, "maps_url": "https://www.google.com/maps/search/?api=1&query=Delhivery%20Courier%20Service&query_place_id=ChIJQ2mdyrvjDDkR4e-YcFNZ2BQ"}, {"place_id": "ChIJt5gQWl_iDDkRCYVptlwqBPQ", "name": "Tayal Hardware Collection Pvt. Ltd.", "street": "Timber Mkt, A-179, Bhishma Pitamah Marg, South Extension I, Arjun Nagar, Opp:, Defence Colony, New Delhi, Delhi 110003, India", "phone": "+91 99996 69686", "rating": "4.1", "review_count": "", "website": "", "latitude": 28.573968999999998, "longitude": 77.228461, "maps_url": "https://www.google.com/maps/search/?api=1&query=Tayal%20Hardware%20Collection%20Pvt.%20Ltd.&query_place_id=ChIJt5gQWl_iDDkRCYVptlwqBPQ"}, {"place_id": "ChIJC5n6KQrjDDkR91TM2oifAIc", "name": "SPA TIME | Kotla", "street": "806 2nd floor, South Extension I, Arjun Nagar, Kotla Mubarakpur, New Delhi, Delhi 110003, India", "phone": "+91 98734 25270", "rating": "4.8", "review_count": "", "website": "https://www.spatime.co.in/", "latitude": 28.5738922, "longitude": 77.22838159999999, "maps_url": "https://www.google.com/maps/search/?api=1&query=SPA%20TIME%20%7C%20Kotla&query_place_id=ChIJC5n6KQrjDDkR91TM2oifAIc"}, {"place_id": "ChIJ53Cv2g3jDDkRrsjtGC0_l3s", "name": "Masstige Solutions - Website Design Company, Digital Marketing, SEO, PPC", "street": "Block N, N-4, South Extension I, Block H, New Delhi, Delhi 110049, India", "phone": "", "rating": "5", "review_count": "", "website": "https://masstigesolutions.com/", "latitude": 28.571444699999997, "longitude": 77.22144159999999, "maps_url": "https://www.google.com/maps/search/?api=1&query=Masstige%20Solutions%20-%20Website%20Design%20Company%2C%20Digital%20Marketing%2C%20SEO%2C%20PPC&query_place_id=ChIJ53Cv2g3jDDkRrsjtGC0_l3s"}, {"place_id": "ChIJ9dfQJjPjDDkRz9UxVYMf51c", "name": "Visaxpress", "street": "A181/6, 2nd Floor, Bhishma Pitamah Marg, opp. Defence Colony, South Extension I, Arjun Nagar, Kotla Mubarakpur, Defence Colony, New Delhi, Delhi 110003, India", "phone": "+91 11 4059 0039", "rating": "5", "review_count": "", "website": "https://www.visaxpress.in/", "latitude": 28.574166199999997, "longitude": 77.2285586, "maps_url": "https://www.google.com/maps/search/?api=1&query=Visaxpress&query_place_id=ChIJ9dfQJjPjDDkRz9UxVYMf51c"}, {"place_id": "ChIJb7huWlbiDDkResoink1VBrA", "name": "Murari Tiwari & Associates", "street": "A, 141, 110024, Block A, Defence Colony, New Delhi, Delhi 110024, India", "phone": "+91 98111 25857", "rating": "4.7", "review_count": "", "website": "https://www.muraritiwariandassociates.com/", "latitude": 28.5765551, "longitude": 77.23267659999999, "maps_url": "https://www.google.com/maps/search/?api=1&query=Murari%20Tiwari%20%26%20Associates&query_place_id=ChIJb7huWlbiDDkResoink1VBrA"}, {"place_id": "ChIJVVWlf2f9DDkRHDmtLKmw-dE", "name": "Aegis Legal LLP, Advocates", "street": "A-420, LGF, Block A, Defence Colony, New Delhi, Delhi 110024, India", "phone": "+91 98105 15155", "rating": "4.8", "review_count": "", "website": "http://www.aegislegalllp.com/", "latitude": 28.57546, "longitude": 77.23241399999999, "maps_url": "https://www.google.com/maps/search/?api=1&query=Aegis%20Legal%20LLP%2C%20Advocates&query_place_id=ChIJVVWlf2f9DDkRHDmtLKmw-dE"}, {"place_id": "ChIJIYasYFfiDDkR_lmSgmenxNc", "name": "Leges Juris Associates (Law Firm)", "street": "62, Block A, Defence Colony, New Delhi, Delhi 110024, India", "phone": "+91 11 4051 3913", "rating": "4.7", "review_count": "", "website": "http://www.legesjurisassociates.com/", "latitude": 28.576895, "longitude": 77.234059, "maps_url": "https://www.google.com/maps/search/?api=1&query=Leges%20Juris%20Associates%20%28Law%20Firm%29&query_place_id=ChIJIYasYFfiDDkR_lmSgmenxNc"}, {"place_id": "ChIJk7iRfy_jDDkRAvUpt36-wvc", "name": "Digital marketing Company, website Designing Company ( Logo Designing Company ) ( Online Marketplace )", "street": "120-G, Hari Nagar Ashram, New Delhi, Delhi 110065, India", "phone": "+91 89201 38925", "rating": "5", "review_count": "", "website": "https://royalcruiselimos.com/", "latitude": 28.5718902, "longitude": 77.2559809, "maps_url": "https://www.google.com/maps/search/?api=1&query=Digital%20marketing%20Company%2C%20website%20Designing%20Company%20%28%20Logo%20Designing%20Company%20%29%20%28%20Online%20Marketplace%20%29&query_place_id=ChIJk7iRfy_jDDkRAvUpt36-wvc"}, {"place_id": "ChIJBRcyP6fjDDkRedmus4pvYq0", "name": "Buddha Spa", "street": "A 267, First Floor, Block A, Defence Colony, Delhi, New Delhi, Delhi 110003, India", "phone": "+91 80763 87749", "rating": "4.8", "review_count": "", "website": "http://spa-center.co.in/buddha-spa-center/", "latitude": 28.5749513, "longitude": 77.2295651, "maps_url": "https://www.google.com/maps/search/?api=1&query=Buddha%20Spa&query_place_id=ChIJBRcyP6fjDDkRedmus4pvYq0"}, {"place_id": "ChIJh6VxGFX7DDkRfmvdv54mLPI", "name": "V.K.SINGH & CO.LAW FIRM", "street": "A-62, Block A, Defence Colony, New Delhi, Delhi 110024, India", "phone": "+91 98116 45002", "rating": "4.5", "review_count": "23", "website": "http://www.vksnco.com/", "latitude": 28.576895, "longitude": 77.234059, "maps_url": "https://www.google.com/maps/search/?api=1&query=V.K.SINGH%20%26%20CO.LAW%20FIRM&query_place_id=ChIJh6VxGFX7DDkRfmvdv54mLPI"}, {"place_id": "ChIJe69FX63jDDkRijELTdxqrFc", "name": "EduAmerica", "street": "A-260, Block A, Defence Colony, New Delhi, Delhi 110003, India", "phone": "+91 81303 01234", "rating": "4.9", "review_count": "", "website": "https://www.eduamerica.com/", "latitude": 28.575888499999998, "longitude": 77.2297799, "maps_url": "https://www.google.com/maps/search/?api=1&query=EduAmerica&query_place_id=ChIJe69FX63jDDkRijELTdxqrFc"}, {"place_id": "ChIJi-5u2zD9DDkRZzM2Wv9El0s", "name": "Sarthak Chaturvedi & Co.", "street": "A - 154, Market, near Defence Colony, Block A, Defence Colony, New Delhi, Delhi 110024, India", "phone": "+91 98102 63001", "rating": "4.9", "review_count": "", "website": "https://www.sarthakchaturvedi.co.in/", "latitude": 28.5763103, "longitude": 77.2323715, "maps_url": "https://www.google.com/maps/search/?api=1&query=Sarthak%20Chaturvedi%20%26%20Co.&query_place_id=ChIJi-5u2zD9DDkRZzM2Wv9El0s"}, {"place_id": "ChIJszNya1riDDkR8vOq5WlBkYw", "name": "Rajbir Singh Bal & Co", "street": "B-27, Block B, Defence Colony, New Delhi, Delhi 110024, India", "phone": "+91 99103 99327", "rating": "5", "review_count": "94", "website": "https://rsblaw.in/", "latitude": 28.571113099999998, "longitude": 77.2278001, "maps_url": "https://www.google.com/maps/search/?api=1&query=Rajbir%20Singh%20Bal%20%26%20Co&query_place_id=ChIJszNya1riDDkR8vOq5WlBkYw"}, {"place_id": "ChIJ-0jIbWXjDDkRWx9qAzO-auk", "name": "Forever living product india", "street": "H6GH+327, South Extension I, Arjun Nagar, Kotla Mubarakpur, New Delhi, Delhi 110003, India", "phone": "", "rating": "4.2", "review_count": "", "website": "", "latitude": 28.575172799999997, "longitude": 77.2275343, "maps_url": "https://www.google.com/maps/search/?api=1&query=Forever%20living%20product%20india&query_place_id=ChIJ-0jIbWXjDDkRWx9qAzO-auk"}, {"place_id": "ChIJQW8CD1PjDDkRi0jadoBkWlw", "name": "Advocate Vaibhav Tyagi", "street": "Basement, A-247, 24, Defence Colony, New Delhi, Delhi 110003, India", "phone": "+91 97110 07680", "rating": "5", "review_count": "", "website": "", "latitude": 28.5763274, "longitude": 77.2300103, "maps_url": "https://www.google.com/maps/search/?api=1&query=Advocate%20Vaibhav%20Tyagi&query_place_id=ChIJQW8CD1PjDDkRi0jadoBkWlw"}, {"place_id": "ChIJZQuT5_niDDkR8NlJWwjDfE0", "name": "MultiCare Surgical Products Corporation", "street": "Tower No. 944, Arjun Nagar, Nehru Rd, opp. Defence Colony, South Extension I, Arjun Nagar, Kotla Mubarakpur, New Delhi, Delhi 110003, India", "phone": "+91 80 6809 3681", "rating": "3.8", "review_count": "", "website": "http://www.multicaresurgical.com/", "latitude": 28.5737635, "longitude": 77.22831359999999, "maps_url": "https://www.google.com/maps/search/?api=1&query=MultiCare%20Surgical%20Products%20Corporation&query_place_id=ChIJZQuT5_niDDkR8NlJWwjDfE0"}, {"place_id": "ChIJuSlg7T3jDDkR8VLPI0WUIZA", "name": "Weatherseal by Asian Paints", "street": "A 268 First Floor, Block A, Defence Colony, New Delhi, Delhi 110003, India", "phone": "+91 76765 19999", "rating": "4.8", "review_count": "", "website": "https://weatherseal.com/upvc-windows-delhi/", "latitude": 28.576696899999998, "longitude": 77.231175, "maps_url": "https://www.google.com/maps/search/?api=1&query=Weatherseal%20by%20Asian%20Paints&query_place_id=ChIJuSlg7T3jDDkR8VLPI0WUIZA"}, {"place_id": "ChIJoYfpBFPiDDkR0IxobFyQg5g", "name": "Mayank Chopra & Company, Chartered Accountants", "street": "ground floor, B-23, Lajpat Nagar I, New Delhi, Delhi 110024, India", "phone": "+91 97111 87962", "rating": "5", "review_count": "", "website": "https://youtube.com/channel/UCQQSRyllGpD3_ikSvGjfwRw", "latitude": 28.5744381, "longitude": 77.2399812, "maps_url": "https://www.google.com/maps/search/?api=1&query=Mayank%20Chopra%20%26%20Company%2C%20Chartered%20Accountants&query_place_id=ChIJoYfpBFPiDDkR0IxobFyQg5g"}, {"place_id": "ChIJp8bFql3iDDkRxH_07xofJWI", "name": "Nitin Mittal & Co.", "street": "C 21b, South Extension I, Block C, New Delhi, Delhi 110049, India", "phone": "+91 98101 47514", "rating": "4.7", "review_count": "", "website": "http://nmcindia.net/", "latitude": 28.572980899999997, "longitude": 77.2193036, "maps_url": "https://www.google.com/maps/search/?api=1&query=Nitin%20Mittal%20%26%20Co.&query_place_id=ChIJp8bFql3iDDkRxH_07xofJWI"}, {"place_id": "ChIJl5EsOBnjDDkRI3x7kGo4opU", "name": "CEAT Shoppe, Bombay Wheels", "street": "Ground Floor, Sukhdev Market, 808/19, Plot No 2, Kotla Mubarakpur, New Delhi, Delhi 110003, India", "phone": "+91 91674 60175", "rating": "4.6", "review_count": "", "website": "https://tyreshop.ceat.com/ceat-shoppe-bombay-wheels-bombay-wheels-tyre-shop-kotla-mubarakpur-new-delhi-82145/Home?utm_source=locator&utm_medium=googleplaces", "latitude": 28.5750152, "longitude": 77.22795909999999, "maps_url": "https://www.google.com/maps/search/?api=1&query=CEAT%20Shoppe%2C%20Bombay%20Wheels&query_place_id=ChIJl5EsOBnjDDkRI3x7kGo4opU"}, {"place_id": "ChIJKwYzRVbiDDkRv7wFBP_CqF0", "name": "Bijender Singh Associates", "street": "A-140, Block A, Defence Colony, New Delhi, Delhi 110024, India", "phone": "", "rating": "4.7", "review_count": "", "website": "http://www.bsalegalfirm.com/", "latitude": 28.576805, "longitude": 77.2327327, "maps_url": "https://www.google.com/maps/search/?api=1&query=Bijender%20Singh%20Associates&query_place_id=ChIJKwYzRVbiDDkRv7wFBP_CqF0"}, {"place_id": "ChIJj5hdpuHjDDkRcaQdsnP6Vpk", "name": "IIFL Gold Loan", "street": "SN T/806/C4, PN A177, GF, Bhishma Pitamah Marg, near Indusind Bank, Sukhdev Nagar, Arjun Nagar, Kotla Mubarakpur, New Delhi, Delhi 110003, India", "phone": "+91 22 7107 3615", "rating": "4.9", "review_count": "", "website": "https://locate-us.iifl.com/apply-for-gold-loan/iifl-gold-loan-kotla-mubarakpur-loan-agency-kotla-mubarakpur-new-delhi-66812/Home?utm_source=locator&utm_medium=googleplaces", "latitude": 28.574455699999998, "longitude": 77.2286785, "maps_url": "https://www.google.com/maps/search/?api=1&query=IIFL%20Gold%20Loan&query_place_id=ChIJj5hdpuHjDDkRcaQdsnP6Vpk"}, {"place_id": "ChIJh8khqrHjDDkRA4YRFP4NwRg", "name": "WC Securities Pvt. Ltd.", "street": "A-54 A, Lala Lajpat Rai Rd, near Lajpat Nagar Metro Station, Block A, Lajpat Nagar II, Lajpat Nagar, New Delhi, Delhi 110024, India", "phone": "+91 98101 84368", "rating": "4.9", "review_count": "", "website": "https://www.wealthcareindia.com/", "latitude": 28.5710645, "longitude": 77.2379076, "maps_url": "https://www.google.com/maps/search/?api=1&query=WC%20Securities%20Pvt.%20Ltd.&query_place_id=ChIJh8khqrHjDDkRA4YRFP4NwRg"}, {"place_id": "ChIJsQ9n0bHjDDkRRTP63-_szw8", "name": "JKGA Law Chambers", "street": "A 200, Block A, Defence Colony, New Delhi, Delhi 110003, India", "phone": "", "rating": "4.7", "review_count": "", "website": "", "latitude": 28.5772065, "longitude": 77.2304083, "maps_url": "https://www.google.com/maps/search/?api=1&query=JKGA%20Law%20Chambers&query_place_id=ChIJsQ9n0bHjDDkRRTP63-_szw8"}, {"place_id": "ChIJ4XSKhkfjDDkRXu-tnMUPXrA", "name": "Corporate Law Office", "street": "165 (2nd Floor, Block A, Defence Colony, New Delhi, Delhi 110003, India", "phone": "", "rating": "4", "review_count": "", "website": "", "latitude": 28.5774683, "longitude": 77.23188569999999, "maps_url": "https://www.google.com/maps/search/?api=1&query=Corporate%20Law%20Office&query_place_id=ChIJ4XSKhkfjDDkRXu-tnMUPXrA"}, {"place_id": "ChIJRei73FniDDkRc-wwgj7zzkE", "name": "JK Tyre Steel Wheels, Bombay Wheels", "street": "Sukhdev Market, No T/807/8, Kotla Mubarakpur, New Delhi, Delhi 110003, India", "phone": "+91 91679 94037", "rating": "3.9", "review_count": "", "website": "https://brandshops.jktyre.com/jk-tyre-steel-wheels-bombay-wheels-tyre-shop-kotla-mubarakpur-new-delhi-84912/Home?utm_source=locator&utm_medium=googleplaces", "latitude": 28.574885899999998, "longitude": 77.2278801, "maps_url": "https://www.google.com/maps/search/?api=1&query=JK%20Tyre%20Steel%20Wheels%2C%20Bombay%20Wheels&query_place_id=ChIJRei73FniDDkRc-wwgj7zzkE"}, {"place_id": "ChIJV5b4yDX9DDkRdJwaZgRwvK0", "name": "Sterco Digitex Pvt Limited", "street": "2nd Floor, 72, Janpath Rd, Atul Grove Road, Janpath, Connaught Place, New Delhi, Delhi 110001, India", "phone": "+91 120 485 7333", "rating": "4.1", "review_count": "", "website": "https://www.stercodigitex.com/", "latitude": 28.628133, "longitude": 77.21985099999999, "maps_url": "https://www.google.com/maps/search/?api=1&query=Sterco%20Digitex%20Pvt%20Limited&query_place_id=ChIJV5b4yDX9DDkRdJwaZgRwvK0"}, {"place_id": "ChIJG5c2QKLjDDkRH31MYHyrHYE", "name": "E-print Service", "street": "H-10, South Extension I, Block H, New Delhi, Delhi 110049, India", "phone": "+91 79823 21369", "rating": "5", "review_count": "", "website": "https://e-print.in/", "latitude": 28.5713768, "longitude": 77.2217694, "maps_url": "https://www.google.com/maps/search/?api=1&query=E-print%20Service&query_place_id=ChIJG5c2QKLjDDkRH31MYHyrHYE"}, {"place_id": "ChIJVVVVwGriDDkRmOMG28lk6KE", "name": "MIND LEGAL", "street": "Lower Ground Floor, A-165, Block A, Defence Colony, New Delhi, Delhi 110003, India", "phone": "", "rating": "4.8", "review_count": "", "website": "http://mindlegal.in/", "latitude": 28.577595499999997, "longitude": 77.2319026, "maps_url": "https://www.google.com/maps/search/?api=1&query=MIND%20LEGAL&query_place_id=ChIJVVVVwGriDDkRmOMG28lk6KE"}, {"place_id": "ChIJFfroyRIDDTkRqexa-4CS5dg", "name": "WWICS Immigration Company", "street": "3rd Floor, Metro Gate, Blue Line, 410, BK Dutt Market, J2/7, above IDFC First Bank, near Rajouri Garden, Rajouri Garden, New Delhi, Delhi 110027, India", "phone": "+91 79 6901 6306", "rating": "4.1", "review_count": "", "website": "http://www.wwicsgroup.com/", "latitude": 28.570076399999998, "longitude": 77.23922809999999, "maps_url": "https://www.google.com/maps/search/?api=1&query=WWICS%20Immigration%20Company&query_place_id=ChIJFfroyRIDDTkRqexa-4CS5dg"}, {"place_id": "ChIJdVXgNtLjDDkRyA47WVnxjh0", "name": "Chaitram Cators", "street": "Wz-57, Krishna Gali, South Extension I, Shiv Nagar, Kotla Mubarakpur, New Delhi, Delhi 110003, India", "phone": "+91 98737 84975", "rating": "4", "review_count": "", "website": "", "latitude": 28.574478, "longitude": 77.2260433, "maps_url": "https://www.google.com/maps/search/?api=1&query=Chaitram%20Cators&query_place_id=ChIJdVXgNtLjDDkRyA47WVnxjh0"}, {"place_id": "ChIJgQf52A3jDDkRgKnZuXw6kP8", "name": "First Coffee | Defence Colony", "street": "Shop 3, Ground Floor, Front Portion, Main Market, Block A, Defence Colony, New Delhi, Delhi 110024, India", "phone": "+91 92201 41409", "rating": "4.2", "review_count": "", "website": "https://nearme.firstcoffee.co.in/first-coffee-defence-colony-42989/home", "latitude": 28.574083299999998, "longitude": 77.2302443, "maps_url": "https://www.google.com/maps/search/?api=1&query=First%20Coffee%20%7C%20Defence%20Colony&query_place_id=ChIJgQf52A3jDDkRgKnZuXw6kP8"}, {"place_id": "ChIJ-QDoP1biDDkRvuaHYnL4U0U", "name": "South Delhi Floors", "street": "A-67, Amber Vithi Rd, Block A, Defence Colony, New Delhi, Delhi 110024, India", "phone": "+91 99990 04511", "rating": "4.9", "review_count": "", "website": "http://www.southdelhifloors.com/", "latitude": 28.577728, "longitude": 77.233246, "maps_url": "https://www.google.com/maps/search/?api=1&query=South%20Delhi%20Floors&query_place_id=ChIJ-QDoP1biDDkRvuaHYnL4U0U"}, {"place_id": "ChIJc4la59TjDDkRL3df2Tv4Eus", "name": "Chambers of Sameer Dawar", "street": "A, 218, Ratan Lal Sahdev Marg, Block A, Defence Colony, New Delhi, Delhi 110003, India", "phone": "", "rating": "5", "review_count": "", "website": "", "latitude": 28.5774196, "longitude": 77.2302677, "maps_url": "https://www.google.com/maps/search/?api=1&query=Chambers%20of%20Sameer%20Dawar&query_place_id=ChIJc4la59TjDDkRL3df2Tv4Eus"}, {"place_id": "ChIJhYJE_PDiDDkRMIvKGIb_GYs", "name": "guneet virdi", "street": "A-264, above sbi bank, Block A, Defence Colony, New Delhi, Delhi 110003, India", "phone": "+91 99992 03333", "rating": "4.1", "review_count": "", "website": "https://guneetvirdi.com/", "latitude": 28.5753889, "longitude": 77.2296156, "maps_url": "https://www.google.com/maps/search/?api=1&query=guneet%20virdi&query_place_id=ChIJhYJE_PDiDDkRMIvKGIb_GYs"}, {"place_id": "ChIJu5Pj3mFFgyER4MI4KxY843o", "name": "KloudIT Global Pvt. Ltd.", "street": "", "phone": "+91 99102 99046", "rating": "", "review_count": "", "website": "https://www.klouditglobal.com/", "latitude": 21.0680074, "longitude": 82.7525294, "maps_url": "https://www.google.com/maps/search/?api=1&query=KloudIT%20Global%20Pvt.%20Ltd.&query_place_id=ChIJu5Pj3mFFgyER4MI4KxY843o"}, {"place_id": "ChIJBVbctFniDDkR0ac0Wpn86oA", "name": "Alpha1 IT Solutions and Consulting Pvt Ltd,", "street": "1505, Lane No.3, LGF Wazirnagar, Kotla Mubarakpur, Sewa Nagar, New Delhi, Delhi 110003, India", "phone": "+91 95992 58534", "rating": "5", "review_count": "", "website": "", "latitude": 28.5755771, "longitude": 77.2273541, "maps_url": "https://www.google.com/maps/search/?api=1&query=Alpha1%20IT%20Solutions%20and%20Consulting%20Pvt%20Ltd%2C&query_place_id=ChIJBVbctFniDDkR0ac0Wpn86oA"}, {"place_id": "ChIJOVhh40fjDDkRISV-xU66H2g", "name": "JLJ Law Offices", "street": "3rd Floor, A-163, Block A, Defence Colony, New Delhi, Delhi 110003, India", "phone": "+91 88105 28241", "rating": "4.6", "review_count": "", "website": "http://www.jljlawoffices.com/", "latitude": 28.5769123, "longitude": 77.2312154, "maps_url": "https://www.google.com/maps/search/?api=1&query=JLJ%20Law%20Offices&query_place_id=ChIJOVhh40fjDDkRISV-xU66H2g"}, {"place_id": "ChIJVVVVFVHiDDkRp94uIZnDUgk", "name": "Red Cube Marketing Solutions Private Limited", "street": "No. A-266, 2nd Floor, Defence Colony, Delhi - 110 024, India, New Delhi, Delhi 110024, India", "phone": "+91 97183 90390", "rating": "2.4", "review_count": "", "website": "", "latitude": 28.5776079, "longitude": 77.23303849999999, "maps_url": "https://www.google.com/maps/search/?api=1&query=Red%20Cube%20Marketing%20Solutions%20Private%20Limited&query_place_id=ChIJVVVVFVHiDDkRp94uIZnDUgk"}, {"place_id": "ChIJPa-Qkn3jDDkRRwPbesouB6k", "name": "Labelrmoffical", "street": "South Extension I, Kotla Mubarakpur, Sewa Nagar, New Delhi, Delhi 110003, India", "phone": "+91 74284 80114", "rating": "", "review_count": "", "website": "https://instagram.com/labelrmofficial?igshid=YmMyMTA2M2Y=", "latitude": 28.5755771, "longitude": 77.2273541, "maps_url": "https://www.google.com/maps/search/?api=1&query=Labelrmoffical&query_place_id=ChIJPa-Qkn3jDDkRRwPbesouB6k"}]