[{"place_id": "ChIJZ9iFbGj9DDkRlLk8I7muWsc", "name": "JTH Computers", "street": "BG-21, R.G. Complex, Paharganj, near HDFC Bank, New Delhi, Delhi 110055, India", "phone": "+91 11 4283 8363", "rating": "5", "review_count": "", "website": "", "latitude": 28.646907, "longitude": 77.207065, "maps_url": "https://www.google.com/maps/search/?api=1&query=JTH%20Computers&query_place_id=ChIJZ9iFbGj9DDkRlLk8I7muWsc"}, {"place_id": "ChIJl-_HJ2b9DDkR3iyQPVydtfU", "name": "Luna InfoTech - Luna Creatives Private Limited", "street": "51, Rani Jhansi Rd, Motia Khan, Sadar Bazaar, New Delhi, Delhi 110055, India", "phone": "+91 90152 47523", "rating": "4", "review_count": "", "website": "https://www.lunainfotech.com/", "latitude": 28.6490059, "longitude": 77.2058175, "maps_url": "https://www.google.com/maps/search/?api=1&query=Luna%20InfoTech%20-%20Luna%20Creatives%20Private%20Limited&query_place_id=ChIJl-_HJ2b9DDkR3iyQPVydtfU"}, {"place_id": "ChIJO4sr49IDDTkRALZaeWsr-oI", "name": "Iraitech | Software Development Company", "street": "Central Square Complex 3, Unit No-1051, 1st Floor, Near Filmistan, DCM chowk, Bara Hindu Rao, Kishan Ganj, Delhi, 110006, India", "phone": "+91 81301 04108", "rating": "4.1", "review_count": "", "website": "https://www.iraitech.com/", "latitude": 28.6631951, "longitude": 77.20308639999999, "maps_url": "https://www.google.com/maps/search/?api=1&query=Iraitech%20%7C%20Software%20Development%20Company&query_place_id=ChIJO4sr49IDDTkRALZaeWsr-oI"}, {"place_id": "ChIJ8bD3oe-1bTkRhQOwVrfg-vw", "name": "One Aim IT Solutions", "street": "2/41/2 , 1st Floor, Sadar Bazar , Moradabad Pahari ,TO.Delhi Cantt, Distt:, South West, New Delhi, Delhi 110006, India", "phone": "+91 89552 49714", "rating": "5", "review_count": "", "website": "https://theoneaim.in/", "latitude": 28.6580968, "longitude": 77.2124735, "maps_url": "https://www.google.com/maps/search/?api=1&query=One%20Aim%20IT%20Solutions&query_place_id=ChIJ8bD3oe-1bTkRhQOwVrfg-vw"}, {"place_id": "ChIJ4WZhiWj9DDkR14GuAmf5LJM", "name": "D. Sign Softech Private Limited", "street": "RG Complex, C-202, Second Floor, Desh Bandhu Gupta Rd, above HDFC Bank, Motia Khan, Paharganj, New Delhi, Delhi 110055, India", "phone": "+91 11 4350 3600", "rating": "4.4", "review_count": "", "website": "https://store.dsignsoftech.com/", "latitude": 28.6466003, "longitude": 77.2068283, "maps_url": "https://www.google.com/maps/search/?api=1&query=D.%20Sign%20Softech%20Private%20Limited&query_place_id=ChIJ4WZhiWj9DDkR14GuAmf5LJM"}, {"place_id": "ChIJEeEztHD9DDkR-3Ga-fthgow", "name": "Mobile Skin Software", "street": "47, Rani Jhansi Rd, Motia Khan, Jhandewalan, New Delhi, Delhi 110055, India", "phone": "+91 95552 63344", "rating": "4.7", "review_count": "", "website": "http://mobileskinsoftware.com/", "latitude": 28.649371199999997, "longitude": 77.2056171, "maps_url": "https://www.google.com/maps/search/?api=1&query=Mobile%20Skin%20Software&query_place_id=ChIJEeEztHD9DDkR-3Ga-fthgow"}, {"place_id": "ChIJve_HJ2b9DDkRzJphaUssbtE", "name": "Manu Info Solutions", "street": "51, Rani Jhansi Rd, Motia Khan, Paharganj, New Delhi, Delhi 110055, India", "phone": "+91 87001 32566", "rating": "5", "review_count": "", "website": "http://www.manuinfosolutions.com/", "latitude": 28.6490059, "longitude": 77.2058175, "maps_url": "https://www.google.com/maps/search/?api=1&query=Manu%20Info%20Solutions&query_place_id=ChIJve_HJ2b9DDkRzJphaUssbtE"}, {"place_id": "ChIJC3MN3zb9DDkR-JxtEG9cQg0", "name": "I. T. Solutions", "street": "Gate No. 8, A-6, 1st Floor, Inner Circle, Above Post office, near ICICI Bank, Bon Ton and Metro, Connaught Place, New Delhi, Delhi 110001, India", "phone": "+91 11 4152 3242", "rating": "4.9", "review_count": "", "website": "http://www.itsolutioncp.com/", "latitude": 28.6324367, "longitude": 77.2183441, "maps_url": "https://www.google.com/maps/search/?api=1&query=I.%20T.%20Solutions&query_place_id=ChIJC3MN3zb9DDkR-JxtEG9cQg0"}, {"place_id": "ChIJLTcYNGb9DDkRuBu0MDvZnOs", "name": "HARDICON Limited ( State PSU)", "street": "Flatted Factory Complex, D-28, Block E, Jhandewalan Extension, Jhandewalan, New Delhi, Delhi 110055, India", "phone": "+91 11 2363 6224", "rating": "4.2", "review_count": "", "website": "http://hardicon.org/", "latitude": 28.6479251, "longitude": 77.20497739999999, "maps_url": "https://www.google.com/maps/search/?api=1&query=HARDICON%20Limited%20%28%20State%20PSU%29&query_place_id=ChIJLTcYNGb9DDkRuBu0MDvZnOs"}, {"place_id": "ChIJkY0EKFr9DDkRZqzk9oUw6GQ", "name": "CCTV INSTALLATION &REPAIRING, & NETWORKING Installation Rectification", "street": "9702, Gali No.10, Multani Dhanda, Paharganj, New Delhi, Delhi, 110055, India", "phone": "+91 88827 46425", "rating": "5", "review_count": "", "website": "", "latitude": 28.6480532, "longitude": 77.21031529999999, "maps_url": "https://www.google.com/maps/search/?api=1&query=CCTV%20INSTALLATION%20%26REPAIRING%2C%20%26%20NETWORKING%20Installation%20Rectification&query_place_id=ChIJkY0EKFr9DDkRZqzk9oUw6GQ"}, {"place_id": "ChIJreB62mb9DDkRjBtP-RT-9MY", "name": "Sellonboard", "street": "RG Complex, C-202, Second Floor, Desh Bandhu Gupta Rd, Motia Khan, Paharganj, New Delhi, Delhi 110055, India", "phone": "+91 99686 35587", "rating": "4.3", "review_count": "", "website": "http://sellonboard.com/", "latitude": 28.6468453, "longitude": 77.2068589, "maps_url": "https://www.google.com/maps/search/?api=1&query=Sellonboard&query_place_id=ChIJreB62mb9DDkRjBtP-RT-9MY"}, {"place_id": "ChIJq6rackD9DDkRniUh2gZdGAk", "name": "Mothers Infotech (Computer & Laptop Repairing Centre)", "street": "Ground Floor G2, Motia Khan, Paharganj, New Delhi, Delhi 110055, India", "phone": "+91 99907 18636", "rating": "5", "review_count": "", "website": "", "latitude": 28.6467939, "longitude": 77.2077533, "maps_url": "https://www.google.com/maps/search/?api=1&query=Mothers%20Infotech%20%28Computer%20%26%20Laptop%20Repairing%20Centre%29&query_place_id=ChIJq6rackD9DDkRniUh2gZdGAk"}, {"place_id": "ChIJeXkmR4L9DDkRGzxLpx_3iJM", "name": "Simnet Technologies Private Ltd.", "street": "Unit No 318-319, Desh Bandhu Gupta Rd, Motia Khan, Paharganj, New Delhi, Delhi 110055, India", "phone": "+91 98711 53738", "rating": "", "review_count": "", "website": "https://www.simnettechnologies.com/", "latitude": 28.646692599999998, "longitude": 77.20786559999999, "maps_url": "https://www.google.com/maps/search/?api=1&query=Simnet%20Technologies%20Private%20Ltd.&query_place_id=ChIJeXkmR4L9DDkRGzxLpx_3iJM"}, {"place_id": "ChIJq0PpJ1ziDDkRlMc-J3wA8yo", "name": "Unnayati Private Limited", "street": "E-3, Rani Jhansi Rd, Block E 4, Jhandewalan Extension, Jhandewalan, Estate, New Delhi, Delhi 110055, India", "phone": "+91 88008 68850", "rating": "4.2", "review_count": "", "website": "http://www.unnayati.co.in/", "latitude": 28.645948399999998, "longitude": 77.2043503, "maps_url": "https://www.google.com/maps/search/?api=1&query=Unnayati%20Private%20Limited&query_place_id=ChIJq0PpJ1ziDDkRlMc-J3wA8yo"}, {"place_id": "ChIJo4YhUTT9DDkRs3zYBMtkfTg", "name": "Corporate Solutions", "street": "B-9, Block E, Jhandewalan Extension, Jhandewalan, New Delhi, Delhi 110055, India", "phone": "", "rating": "2.1", "review_count": "", "website": "", "latitude": 28.647176499999997, "longitude": 77.2052356, "maps_url": "https://www.google.com/maps/search/?api=1&query=Corporate%20Solutions&query_place_id=ChIJo4YhUTT9DDkRs3zYBMtkfTg"}, {"place_id": "ChIJYT-ZrGj9DDkRaH2yOv_kLks", "name": "JMS Information Services Pvt. ltd.", "street": "5-E, 2nd Floor, Rani Jhansi Road, Jhandewalan, New Delhi, Jhandewalan, Delhi, 110055, India", "phone": "+91 98112 84947", "rating": "", "review_count": "", "website": "http://www.jmsinfo.co.in/", "latitude": 28.645743, "longitude": 77.204428, "maps_url": "https://www.google.com/maps/search/?api=1&query=JMS%20Information%20Services%20Pvt.%20ltd.&query_place_id=ChIJYT-ZrGj9DDkRaH2yOv_kLks"}, {"place_id": "ChIJsf0ChrP9DDkRxPByUKG8F1o", "name": "Mobiquel", "street": "91springboard, Block E 4, Jhandewalan Extension, Jhandewalan, New Delhi, Delhi 110055, India", "phone": "+91 99994 23173", "rating": "", "review_count": "", "website": "https://www.mobiquel.com/", "latitude": 28.6482165, "longitude": 77.2038905, "maps_url": "https://www.google.com/maps/search/?api=1&query=Mobiquel&query_place_id=ChIJsf0ChrP9DDkRxPByUKG8F1o"}, {"place_id": "ChIJ07xmmEv9DDkRypr0Tptlleg", "name": "MyDigiRecords (MDR) | Digital Healthcare Solutions", "street": "A-56, Bridge, Jhandewalan Flatted Factory Complex, near Paharganj, Paharganj, New Delhi, Delhi 110055, India", "phone": "+91 95999 03773", "rating": "5", "review_count": "", "website": "https://mydigirecords.ai/", "latitude": 28.647913499999998, "longitude": 77.2049966, "maps_url": "https://www.google.com/maps/search/?api=1&query=MyDigiRecords%20%28MDR%29%20%7C%20Digital%20Healthcare%20Solutions&query_place_id=ChIJ07xmmEv9DDkRypr0Tptlleg"}, {"place_id": "ChIJf_GPBmf9DDkR-EyK3aivCjA", "name": "ScanBulk Business Solution", "street": "176, 1st floor, Cycle Market, Block E 4, Jhandewalan Extension, Jhandewalan, New Delhi, Delhi 110055, India", "phone": "+91 88793 81599", "rating": "5", "review_count": "", "website": "http://www.scanbulk.co.in//", "latitude": 28.6461734, "longitude": 77.2033424, "maps_url": "https://www.google.com/maps/search/?api=1&query=ScanBulk%20Business%20Solution&query_place_id=ChIJf_GPBmf9DDkR-EyK3aivCjA"}, {"place_id": "ChIJCa3hOGj9DDkRpRtdyEoes44", "name": "A S N & COMPANY, Chartered Accountants", "street": "A-209 RG, City Centre, DDA COMMUNITY CENTRE, A-305, A-306, Plot No 4, Desh Bandhu Gupta Rd, adjacent to Novotel Hotel, Paharganj, New Delhi, Delhi 110055, India", "phone": "+91 11 4356 2313", "rating": "4.7", "review_count": "", "website": "http://asnandco.com/", "latitude": 28.646611699999998, "longitude": 77.2077482, "maps_url": "https://www.google.com/maps/search/?api=1&query=A%20S%20N%20%26%20COMPANY%2C%20Chartered%20Accountants&query_place_id=ChIJCa3hOGj9DDkRpRtdyEoes44"}, {"place_id": "ChIJ_6PLQ2b9DDkRS9aAH6ywyFs", "name": "SAI CARGO FORWARDERS", "street": "Mandir, 62, Rani Jhansi Rd, opp. Flatted Factory Complex, near Jhandewalan, Motia Khan, Paharganj, New Delhi, Delhi 110055, India", "phone": "+91 93113 93467", "rating": "4.6", "review_count": "", "website": "http://saicargoforwarders.com/", "latitude": 28.6473168, "longitude": 77.2058607, "maps_url": "https://www.google.com/maps/search/?api=1&query=SAI%20CARGO%20FORWARDERS&query_place_id=ChIJ_6PLQ2b9DDkRS9aAH6ywyFs"}, {"place_id": "ChIJcfMLWwD9DDkR2Kcn1VmYlS4", "name": "STEMpedia | Agilo Research Pvt. Ltd. | PictoBlox - Codeavour - Quarky - evive", "street": "2nd Floor, 47, Rani Jhansi Rd, Motia Khan, Jhandewalan, New Delhi, Delhi 110055, India", "phone": "", "rating": "5", "review_count": "", "website": "", "latitude": 28.6493656, "longitude": 77.205597, "maps_url": "https://www.google.com/maps/search/?api=1&query=STEMpedia%20%7C%20Agilo%20Research%20Pvt.%20Ltd.%20%7C%20PictoBlox%20-%20Codeavour%20-%20Quarky%20-%20evive&query_place_id=ChIJcfMLWwD9DDkR2Kcn1VmYlS4"}, {"place_id": "ChIJn-yHlV39DDkRX8_XYS09O90", "name": "Trading Odds Pvt. Ltd. - Wealth Management Company", "street": "3rd Floor, RG Complex, B-305, Plot no 2, Desh Bandhu Gupta Rd, Paharganj, New Delhi, Delhi 110055, India", "phone": "+91 92103 60731", "rating": "4.9", "review_count": "", "website": "", "latitude": 28.646861899999998, "longitude": 77.2070715, "maps_url": "https://www.google.com/maps/search/?api=1&query=Trading%20Odds%20Pvt.%20Ltd.%20-%20Wealth%20Management%20Company&query_place_id=ChIJn-yHlV39DDkRX8_XYS09O90"}, {"place_id": "ChIJXx24hS39DDkRWqFK9nhE8d4", "name": "Compliance4U", "street": "RG COMPLEX, B-212, Motia Khan, Paharganj, New Delhi, Delhi 110055, India", "phone": "", "rating": "5", "review_count": "", "website": "https://www.compliance4u.in/", "latitude": 28.6469886, "longitude": 77.2070707, "maps_url": "https://www.google.com/maps/search/?api=1&query=Compliance4U&query_place_id=ChIJXx24hS39DDkRWqFK9nhE8d4"}, {"place_id": "ChIJ28mlS2b9DDkROhaHyIlBq8g", "name": "Anmol Enterprises", "street": "B 11, Block E, Jhandewalan Extension, Jhandewalan, New Delhi, Delhi 110055, India", "phone": "+91 11 4011 5176", "rating": "4.7", "review_count": "", "website": "https://anmolent.in/", "latitude": 28.647574, "longitude": 77.2049011, "maps_url": "https://www.google.com/maps/search/?api=1&query=Anmol%20Enterprises&query_place_id=ChIJ28mlS2b9DDkROhaHyIlBq8g"}, {"place_id": "ChIJAQAAAG_9DDkRHe8T6B7G5Lc", "name": "Ms Chugh Pen Company", "street": "D-6 Ground floor, Block D, Desh Bandhu Gupta Rd, Block E, Jhandewalan Extension, Karol Bagh, New Delhi, Delhi 110055, India", "phone": "+91 11 4703 6969", "rating": "4.8", "review_count": "", "website": "http://www.ministryofpens.com/", "latitude": 28.647973399999998, "longitude": 77.2051184, "maps_url": "https://www.google.com/maps/search/?api=1&query=Ms%20Chugh%20Pen%20Company&query_place_id=ChIJAQAAAG_9DDkRHe8T6B7G5Lc"}, {"place_id": "ChIJmTVIuOfjDDkReho6Fu2f5qk", "name": "Indiamart", "street": "First Floor, 1-E/3, Jhandewalan, Delhi 110055, India", "phone": "+91 98992 50619", "rating": "4.3", "review_count": "", "website": "", "latitude": 28.648062499999998, "longitude": 77.2035326, "maps_url": "https://www.google.com/maps/search/?api=1&query=Indiamart&query_place_id=ChIJmTVIuOfjDDkReho6Fu2f5qk"}, {"place_id": "ChIJZ1VVFVcGDTkRlvrMVamqerY", "name": "ANGEL BROKING STOCK MARKET", "street": "3rd floor, police station, 325, opposite paharganj, New Delhi, Delhi 110055, India", "phone": "+91 96505 41082", "rating": "4.9", "review_count": "", "website": "", "latitude": 28.6467939, "longitude": 77.2077533, "maps_url": "https://www.google.com/maps/search/?api=1&query=ANGEL%20BROKING%20STOCK%20MARKET&query_place_id=ChIJZ1VVFVcGDTkRlvrMVamqerY"}, {"place_id": "ChIJq6qq6mj9DDkROnDc9w9TXJQ", "name": "Uplift Tourism Private Limited", "street": "B-218,219,220, RG City Centre, Desh Bandhu Gupta Rd, Motia Khan, Paharganj, New Delhi, Delhi 110055, India", "phone": "", "rating": "4.9", "review_count": "", "website": "http://www.visabazar.com/", "latitude": 28.646565, "longitude": 77.2077558, "maps_url": "https://www.google.com/maps/search/?api=1&query=Uplift%20Tourism%20Private%20Limited&query_place_id=ChIJq6qq6mj9DDkROnDc9w9TXJQ"}, {"place_id": "ChIJWxlGMCLlDDkRLRHtBcjrOQ4", "name": "Frisky Global - Corporate Gifts Supplier in Delhi/NCR, Noida, Ghaziabad, Gurgaon / Gurugram, Bangalore & Mumbai", "street": "A-54, Flatted Factory Complex, Jhandewalan, New Delhi, New, Delhi, 110055, India", "phone": "+91 95994 24284", "rating": "4.9", "review_count": "", "website": "https://www.friskyglobal.com/", "latitude": 28.6471488, "longitude": 77.2043164, "maps_url": "https://www.google.com/maps/search/?api=1&query=Frisky%20Global%20-%20Corporate%20Gifts%20Supplier%20in%20Delhi/NCR%2C%20Noida%2C%20Ghaziabad%2C%20Gurgaon%20/%20Gurugram%2C%20Bangalore%20%26%20Mumbai&query_place_id=ChIJWxlGMCLlDDkRLRHtBcjrOQ4"}, {"place_id": "ChIJnaq6nWf9DDkRG8-CY0SpqSA", "name": "Fundkarts Investment", "street": "Cycle Market, 268, Jhandewalan Extension, Delhi 110055, India", "phone": "+91 97114 15122", "rating": "5", "review_count": "", "website": "https://www.fundkarts.com/", "latitude": 28.6458965, "longitude": 77.20328409999999, "maps_url": "https://www.google.com/maps/search/?api=1&query=Fundkarts%20Investment&query_place_id=ChIJnaq6nWf9DDkRG8-CY0SpqSA"}, {"place_id": "ChIJN8OD8mf9DDkRsTbdqUdXCA0", "name": "Aviana Technologies Delhi India", "street": "Aviana Technologies- IT and Software Consultant Co., Building No 59, Business empire Centre,level # 3, Office No 8 & 9, MM Road, Rani Jhansi Road, Delhi 110055, India", "phone": "+91 95555 28734", "rating": "", "review_count": "", "website": "", "latitude": 28.647302099999997, "longitude": 77.205923, "maps_url": "https://www.google.com/maps/search/?api=1&query=Aviana%20Technologies%20Delhi%20India&query_place_id=ChIJN8OD8mf9DDkRsTbdqUdXCA0"}, {"place_id": "ChIJy5nFAXv9DDkRywqLJ4TPLYE", "name": "Naresh Pen Company", "street": "B-15, Block B, Flatted Factory Complex, Jhandewalan, New Delhi, Delhi 110055, India", "phone": "+91 11 4355 4998", "rating": "4.7", "review_count": "", "website": "http://www.nareshpen.com/", "latitude": 28.647913499999998, "longitude": 77.2049966, "maps_url": "https://www.google.com/maps/search/?api=1&query=Naresh%20Pen%20Company&query_place_id=ChIJy5nFAXv9DDkRywqLJ4TPLYE"}, {"place_id": "ChIJkQB4BU79DDkRI8EsX5ORKHg", "name": "NOVOTEL NEW DELHI CITY CENTRE", "street": "Plot 1, Community Centre, Desh Bandhu Gupta Rd, Motia Khan, Sadar Bazaar, New Delhi, Delhi 110055, India", "phone": "+91 11 4242 6161", "rating": "4.7", "review_count": "", "website": "https://all.accor.com/lien_externe.svlt?goto=fiche_hotel&code_hotel=6972&merchantid=seo-maps-India-6972&sourceid=aw-cen&utm_medium=seo%20maps&utm_source=google%20Maps&utm_campaign=seo%20maps", "latitude": 28.647184, "longitude": 77.206291, "maps_url": "https://www.google.com/maps/search/?api=1&query=NOVOTEL%20NEW%20DELHI%20CITY%20CENTRE&query_place_id=ChIJkQB4BU79DDkRI8EsX5ORKHg"}, {"place_id": "ChIJ__8_hET9DDkRcBmlpZ8dWQQ", "name": "IT Tech Solution", "street": "OBC Building, Near R.K. Ashram Metro Station, Gate No.-2, Pahar Ganj Main Market, New Delhi, Delhi 110001, India", "phone": "+91 93506 44652", "rating": "5", "review_count": "", "website": "", "latitude": 28.639267699999998, "longitude": 77.2084496, "maps_url": "https://www.google.com/maps/search/?api=1&query=IT%20Tech%20Solution&query_place_id=ChIJ__8_hET9DDkRcBmlpZ8dWQQ"}, {"place_id": "ChIJM9r7u0r9DDkRiUvt7zjjpRM", "name": "IT Executive vivek", "street": "22, Vijay Ghat, Raj Ghat, New Delhi, Delhi, 110006, India", "phone": "", "rating": "", "review_count": "", "website": "https://itexecuitive.com/", "latitude": 28.6584512, "longitude": 77.2449233, "maps_url": "https://www.google.com/maps/search/?api=1&query=IT%20Executive%20vivek&query_place_id=ChIJM9r7u0r9DDkRiUvt7zjjpRM"}]