{"timestamp": 1773731457.5481963, "keyword": "IT company", "location": "delhi", "cell_idx": 423, "results": [{"place_id": "0x390ce3c153b89811:0xe7a279685777e9ca", "name": "IT Company", "category": "Automation company", "street": "A-14", "city": "near iskcon temple", "phone": "", "website": "http://www.opuswiz.com/", "rating": 3, "review_count": "", "latitude": 28.557167, "longitude": 77.25424819999999, "maps_url": "https://www.google.com/maps/place/?q=place_id:0x390ce3c153b89811:0xe7a279685777e9ca"}, {"place_id": "0x390ce458d0000001:0xf2123bd299ec4501", "name": "IT Company India", "category": "Software company", "street": "D56", "city": "D Block, Sector 10", "phone": "09999244854", "website": "https://www.itcompanyindia.in/", "rating": 4.7, "review_count": "", "latitude": 28.589917699999997, "longitude": 77.3351153, "maps_url": "https://www.google.com/maps/place/?q=place_id:0x390ce458d0000001:0xf2123bd299ec4501"}, {"place_id": "0x390ce2e52043e633:0x3ed44d79ea4bd91c", "name": "Wirecto", "category": "Software company", "street": "Triloki Colony", "city": "C-49", "phone": "09716670074", "website": "https://wirecto.app/", "rating": 5, "review_count": "", "latitude": 28.575404799999998, "longitude": 77.2250054, "maps_url": "https://www.google.com/maps/place/?q=place_id:0x390ce2e52043e633:0x3ed44d79ea4bd91c"}, {"place_id": "0x390ce36a4ffc3e03:0x4f06119c818b9842", "name": "H IT 360 SOLUTION", "category": "Computer support and services", "street": "Building No.2, First Floor", "city": "Market", "phone": "09013073767", "website": "https://hit360solution.com/", "rating": 3.8, "review_count": "", "latitude": 28.5895117, "longitude": 77.24498179999999, "maps_url": "https://www.google.com/maps/place/?q=place_id:0x390ce36a4ffc3e03:0x4f06119c818b9842"}, {"place_id": "0x390ce1597b5509e5:0xfd8209b937b44d3c", "name": "IT Solutions India Private Limited", "category": "Software company", "street": "D-88/5", "city": "Pocket D, Okhla Phase I, Okhla Industrial Estate", "phone": "09810017429", "website": "https://www.itsipl.com/", "rating": 4.2, "review_count": "", "latitude": 28.520146, "longitude": 77.280431, "maps_url": "https://www.google.com/maps/place/?q=place_id:0x390ce1597b5509e5:0xfd8209b937b44d3c"}, {"place_id": "0x390ce307bcb22a5d:0x9ccc7b5165fafc25", "name": "EDGISS IT SERVICES INC.", "category": "Software company", "street": "40, Jangpura Rd", "city": "Bhogal", "phone": "07982001184", "website": "https://www.edgiss.in/", "rating": 5, "review_count": "", "latitude": 28.582393699999997, "longitude": 77.24992309999999, "maps_url": "https://www.google.com/maps/place/?q=place_id:0x390ce307bcb22a5d:0x9ccc7b5165fafc25"}, {"place_id": "0x39f89c0fb3b411eb:0xbe473f977e9b7558", "name": "Kbeatech - Digital Solutions Company", "category": "Software company", "street": "1893, 1st Floor", "city": "Uday Chand Marg", "phone": "", "website": "https://kbeatech.in/", "rating": 4.9, "review_count": "", "latitude": 28.571338299999997, "longitude": 77.2228884, "maps_url": "https://www.google.com/maps/place/?q=place_id:0x39f89c0fb3b411eb:0xbe473f977e9b7558"}, {"place_id": "0x390ce2efcccbe48b:0xa6efc994be8d2ec6", "name": "REC Limited", "category": "Financial institution", "street": "Core - 4", "city": "SCOPE Complex", "phone": "01143091500", "website": "https://www.recindia.nic.in/", "rating": 4.1, "review_count": "", "latitude": 28.5863482, "longitude": 77.23826749999999, "maps_url": "https://www.google.com/maps/place/?q=place_id:0x390ce2efcccbe48b:0xa6efc994be8d2ec6"}, {"place_id": "0x390ce3512b42e945:0xe8ce9b06e1651251", "name": "Instant IT services - Best Hardware & Software Related Services", "category": "Computer support and services", "street": "koli camp", "city": "69B", "phone": "09804836325", "website": "", "rating": 4.7, "review_count": "", "latitude": 28.5758728, "longitude": 77.2565554, "maps_url": "https://www.google.com/maps/place/?q=place_id:0x390ce3512b42e945:0xe8ce9b06e1651251"}, {"place_id": "0x390ce3a1fa7275f1:0x2c792339bc369536", "name": "Ezeetech Solutions", "category": "Software company", "street": "149-A, 1st Floor", "city": "Baba House Complex", "phone": "01149901562", "website": "https://ezeetechonline.com/", "rating": 4.9, "review_count": "", "latitude": 28.576534199999998, "longitude": 77.26283029999999, "maps_url": "https://www.google.com/maps/place/?q=place_id:0x390ce3a1fa7275f1:0x2c792339bc369536"}, {"place_id": "0x390ce3c7b85554e5:0x34e439c15e247631", "name": "HAUT IT Solutions Pvt. Ltd", "category": "Software company", "street": "390", "city": "Sant Nagar, East of Kailash", "phone": "09934753003", "website": "http://www.hautitsolutions.com/", "rating": 4.3, "review_count": "", "latitude": 28.554910099999997, "longitude": 77.25111249999999, "maps_url": "https://www.google.com/maps/place/?q=place_id:0x390ce3c7b85554e5:0x34e439c15e247631"}, {"place_id": "0x390ce38e774eb0bf:0x2f5ed7313a2111d2", "name": "INSTAGEEKS SOFTWARE PRIVATE LIMITED - Certified Tally Partner", "category": "Software company", "street": "H-187/4 1st Floor", "city": "Kilokri, Maharani Bagh, Sunlight Colony", "phone": "09582510996", "website": "https://instageeks.in/", "rating": 4.9, "review_count": "", "latitude": 28.5769919, "longitude": 77.26242169999999, "maps_url": "https://www.google.com/maps/place/?q=place_id:0x390ce38e774eb0bf:0x2f5ed7313a2111d2"}, {"place_id": "0x390ce307ed502cff:0xec88748010ec599", "name": "Netens Technologies", "category": "Web hosting company", "street": "A-11", "city": "Block C, Jangpura B", "phone": "09868700010", "website": "https://www.netens.com/", "rating": 4.6, "review_count": "", "latitude": 28.581017, "longitude": 77.2526029, "maps_url": "https://www.google.com/maps/place/?q=place_id:0x390ce307ed502cff:0xec88748010ec599"}, {"place_id": "0x390ce3b48e27a563:0x4ec8ae3c524366b", "name": "iSOFT INDIA TECHNOLOGIES", "category": "Software company", "street": "E-168|169, Amar Colony, Lajpat Nagar", "city": "New Delhi, Delhi 110024", "phone": "09717978320", "website": "", "rating": 4.9, "review_count": "", "latitude": 28.5657368, "longitude": 77.23946029999999, "maps_url": "https://www.google.com/maps/place/?q=place_id:0x390ce3b48e27a563:0x4ec8ae3c524366b"}, {"place_id": "0x390ce3c82e868651:0x57e3b53d1a0e88e2", "name": "Corporate infotech private limited", "category": "Corporate office", "street": "A-16", "city": "Jangpura Rd", "phone": "", "website": "https://cipl.org.in/", "rating": 4, "review_count": "", "latitude": 28.579667299999997, "longitude": 77.2491711, "maps_url": "https://www.google.com/maps/place/?q=place_id:0x390ce3c82e868651:0x57e3b53d1a0e88e2"}, {"place_id": "0x390ce5fdcc79e755:0x309ce99251b84ef6", "name": "Optyminds IT Solutions - Top AI and IT company I Best Digital agency in Noida | Delhi NCR | India", "category": "Software company", "street": "1st Floor", "city": "B-70", "phone": "08929075975", "website": "https://optyminds.com/", "rating": 4.9, "review_count": "", "latitude": 28.584679599999998, "longitude": 77.3135042, "maps_url": "https://www.google.com/maps/place/?q=place_id:0x390ce5fdcc79e755:0x309ce99251b84ef6"}, {"place_id": "0x390cefdcd70b1b4b:0xef72aa58bfc41075", "name": "Devkant Infotech Solutions | Software Company in Noida | Top IT Company In Noida", "category": "Software company", "street": "office No. A", "city": "1601 Nx One T3 Gaur Chowk", "phone": "07428685050", "website": "https://dkinfotech.in/", "rating": 4.9, "review_count": "", "latitude": 28.601201399999997, "longitude": 77.4323665, "maps_url": "https://www.google.com/maps/place/?q=place_id:0x390cefdcd70b1b4b:0xef72aa58bfc41075"}, {"place_id": "0x390ce3a2021e9897:0x28bf52d36a7d0c19", "name": "It Softtech - Website Designing and Development Company in Delhi, India", "category": "Internet marketing service", "street": "149, Ring Rd", "city": "opp. Maharani Bagh", "phone": "09810056177", "website": "", "rating": 5, "review_count": "", "latitude": 28.5763395, "longitude": 77.2640869, "maps_url": "https://www.google.com/maps/place/?q=place_id:0x390ce3a2021e9897:0x28bf52d36a7d0c19"}, {"place_id": "0x4ebf586dbe4d7c09:0x968455c83bf5226c", "name": "Anchor IT Solutions- App Development | Website Development | Digital Marketing", "category": "Software company", "street": "4", "city": "Vinoba Puri, Lajpat Nagar II, Lajpat Nagar", "phone": "07678658584", "website": "", "rating": 4.8, "review_count": "", "latitude": 28.566371399999998, "longitude": 77.2486924, "maps_url": "https://www.google.com/maps/place/?q=place_id:0x4ebf586dbe4d7c09:0x968455c83bf5226c"}, {"place_id": "0x390ce44609d8fd9b:0x9c680f27679610f6", "name": "Crestech Software", "category": "Software company", "street": "Plot No. D, Vyapar Marg", "city": "D Block, Sector 2", "phone": "08826666755", "website": "https://www.crestechsoftware.com/", "rating": 3.6, "review_count": "", "latitude": 28.5836924, "longitude": 77.3166213, "maps_url": "https://www.google.com/maps/place/?q=place_id:0x390ce44609d8fd9b:0x9c680f27679610f6"}, {"place_id": "0x390d1d86a4f12173:0x3a6b42ea6f4b8260", "name": "Softvanz Technologies Private Limited", "category": "Software company", "street": "Somdutt Chamber 1", "city": "BT-22/9", "phone": "", "website": "https://softvanz.com/", "rating": 5, "review_count": "", "latitude": 28.567948899999998, "longitude": 77.1889269, "maps_url": "https://www.google.com/maps/place/?q=place_id:0x390d1d86a4f12173:0x3a6b42ea6f4b8260"}, {"place_id": "0x390d02994de5e515:0xd908bc03409a0d37", "name": "Himalayan IT Solutions | Best Website Designing Company in Delhi | SEO/Digital Marketing Company in Delhi NCR, India", "category": "Website designer", "street": "61/4255, Padam Singh Rd", "city": "Block 29, Block 1, Regar Pura, Karol Bagh", "phone": "09899098509", "website": "http://www.himalayanitsolutions.com/", "rating": 3.9, "review_count": "", "latitude": 28.649673999999997, "longitude": 77.186599, "maps_url": "https://www.google.com/maps/place/?q=place_id:0x390d02994de5e515:0xd908bc03409a0d37"}, {"place_id": "0x390ce3c01bba0cab:0x1eccf984c25a8172", "name": "Digital India Corporation", "category": "Government office", "street": "Electronics Niketan", "city": "6", "phone": "", "website": "https://dic.gov.in/", "rating": 4.9, "review_count": "", "latitude": 28.5864795, "longitude": 77.2400907, "maps_url": "https://www.google.com/maps/place/?q=place_id:0x390ce3c01bba0cab:0x1eccf984c25a8172"}, {"place_id": "0x390ce50c09caefe1:0x3a09394e1e92ef97", "name": "AVIERON TECH PRIVATE LIMITED", "category": "Software company", "street": "Building No 2/10 3rd Floor", "city": "Crown Plaza", "phone": "", "website": "https://www.avierontech.com/", "rating": 4.7, "review_count": "", "latitude": 28.560064999999998, "longitude": 77.27176399999999, "maps_url": "https://www.google.com/maps/place/?q=place_id:0x390ce50c09caefe1:0x3a09394e1e92ef97"}, {"place_id": "0x390ce3860c81c723:0xc5f50e43c0a86a3e", "name": "Nextr Technology", "category": "E-commerce service", "street": "2nd Floor", "city": "1483/A-1", "phone": "09911751575", "website": "http://www.nextr.in/", "rating": 4.9, "review_count": "", "latitude": 28.574374, "longitude": 77.224284, "maps_url": "https://www.google.com/maps/place/?q=place_id:0x390ce3860c81c723:0xc5f50e43c0a86a3e"}, {"place_id": "0x390ce3003fffffe3:0x1dd892a28603e769", "name": "Corporate Infotech Pvt Ltd.", "category": "Corporate office", "street": "E-81", "city": "E Block, Sector 6", "phone": "1800116474", "website": "https://cipl.org.in/", "rating": 4.4, "review_count": "", "latitude": 28.5937284, "longitude": 77.3206974, "maps_url": "https://www.google.com/maps/place/?q=place_id:0x390ce3003fffffe3:0x1dd892a28603e769"}, {"place_id": "0x390feda4c4f56aed:0x2277b287e38fc0ec", "name": "Dizivan IT Solutions Pvt Ltd- App Development & Digital Marketing Company", "category": "Software company", "street": "near Metro Station New Ashok Nagar", "city": "Block B, New Ashok Nagar", "phone": "09142092979", "website": "https://dizivan.com/", "rating": 5, "review_count": "", "latitude": 28.5891575, "longitude": 77.3020624, "maps_url": "https://www.google.com/maps/place/?q=place_id:0x390feda4c4f56aed:0x2277b287e38fc0ec"}, {"place_id": "0x390ce3932eaaaaab:0xb308d9aae0d93852", "name": "Al Hadaf Technologies\u2013 ERP, CRM, HRM, Hospital, School, Billing Software Development Company in Delhi NCR", "category": "Software company", "street": "96, Gate No-2", "city": "opp. Escort Hospital", "phone": "08586972994", "website": "https://www.alhadaftech.com/", "rating": 4.9, "review_count": "", "latitude": 28.5562397, "longitude": 77.2762099, "maps_url": "https://www.google.com/maps/place/?q=place_id:0x390ce3932eaaaaab:0xb308d9aae0d93852"}, {"place_id": "0x2a72b8b69d7b6493:0x11251466d4d34cac", "name": "WebZonal IT Company", "category": "Website designer", "street": "Wz-258/2-3, D Block Rd", "city": "Khazan Basti, Nangal Raya, Janakpuri", "phone": "09811170903", "website": "http://webzonal.com/", "rating": 5, "review_count": "", "latitude": 28.6122102, "longitude": 77.11159549999999, "maps_url": "https://www.google.com/maps/place/?q=place_id:0x2a72b8b69d7b6493:0x11251466d4d34cac"}, {"place_id": "0x390cfcad2d191127:0x83c805201ec0a98e", "name": "IT Nucleus", "category": "Website designer", "street": "310, 3rd Floor, S-524, Aggarwal House Opp-Metro Pillar 27", "city": "School Block shakarpur, Laxmi Nagar", "phone": "01143001828", "website": "http://www.itnucleus.com/", "rating": 4.9, "review_count": "", "latitude": 28.629542599999997, "longitude": 77.2766257, "maps_url": "https://www.google.com/maps/place/?q=place_id:0x390cfcad2d191127:0x83c805201ec0a98e"}, {"place_id": "0x390cfcd5693382a9:0x7d163441e68be0fd", "name": "OCIO Technology", "category": "Software company", "street": "316, 3rd Floor", "city": "Pratap Bhawan", "phone": "09999220359", "website": "http://ociotechnology.com/", "rating": 4.9, "review_count": "", "latitude": 28.627443399999997, "longitude": 77.241478, "maps_url": "https://www.google.com/maps/place/?q=place_id:0x390cfcd5693382a9:0x7d163441e68be0fd"}, {"place_id": "0x390ce3b7c0000001:0x46ddd80ee502d937", "name": "Amtrak Technologies Private Limited", "category": "Computer support and services", "street": "6, Community Centre", "city": "East of Kailash", "phone": "01126448000", "website": "https://amtrak.co.in/", "rating": 4.4, "review_count": "", "latitude": 28.558434899999998, "longitude": 77.2463302, "maps_url": "https://www.google.com/maps/place/?q=place_id:0x390ce3b7c0000001:0x46ddd80ee502d937"}, {"place_id": "0x390ce45bcd61048f:0x5f6a5602f4155df7", "name": "JK Technosoft Limited", "category": "Software company", "street": "F", "city": "3", "phone": "01204606300", "website": "https://jktech.com/", "rating": 4.2, "review_count": "", "latitude": 28.5802509, "longitude": 77.31793329999999, "maps_url": "https://www.google.com/maps/place/?q=place_id:0x390ce45bcd61048f:0x5f6a5602f4155df7"}, {"place_id": "0x390ce3c8e5555555:0xc908f703f65324ea", "name": "Vinayak Compserve Pvt.Ltd", "category": "Computer Hardware Company", "street": "220", "city": "Sant Nagar, East of Kailash", "phone": "01126430397", "website": "https://vinayakit.com/", "rating": 3.7, "review_count": "", "latitude": 28.5536721, "longitude": 77.2494229, "maps_url": "https://www.google.com/maps/place/?q=place_id:0x390ce3c8e5555555:0xc908f703f65324ea"}, {"place_id": "0x390ce3cfe91504eb:0x55346c5c499223d7", "name": "CCS Computers Private Limited", "category": "Computer support and services", "street": "2nd-3rd Floor Skipper House", "city": "Nehru Place", "phone": "01126463959", "website": "http://www.ccscomputers.co.in/", "rating": 4, "review_count": "", "latitude": 28.550090599999997, "longitude": 77.2537834, "maps_url": "https://www.google.com/maps/place/?q=place_id:0x390ce3cfe91504eb:0x55346c5c499223d7"}, {"place_id": "0x390ce15795555555:0xe20081bbea66cd0d", "name": "KATHLEHO ELEVATORS", "category": "Elevator Manufacturer", "street": "3rd Floor", "city": "F-29/4, Okhla", "phone": "07292091059", "website": "https://kathlehoelevators.com/", "rating": 4.3, "review_count": "", "latitude": 28.5864007, "longitude": 77.2435081, "maps_url": "https://www.google.com/maps/place/?q=place_id:0x390ce15795555555:0xe20081bbea66cd0d"}, {"place_id": "0x390ce25e35e99b33:0xf443abe69b4e8fcc", "name": "Synapse Valuetech Private Limited", "category": "Software company", "street": "Lower Ground Floor", "city": "221", "phone": "01146628882", "website": "https://www.synapsevaluetech.com/", "rating": 4.3, "review_count": "", "latitude": 28.558165, "longitude": 77.2592385, "maps_url": "https://www.google.com/maps/place/?q=place_id:0x390ce25e35e99b33:0xf443abe69b4e8fcc"}, {"place_id": "0x390ce30f4c4ed777:0x3a7c5e032ce51ce5", "name": "Appextech Software Solutions", "category": "Software company", "street": "Second Floor", "city": "Mohan Cooperative Industrial Estate", "phone": "09911432451", "website": "https://www.appextech.com/", "rating": 4.9, "review_count": "", "latitude": 28.502260099999997, "longitude": 77.28519, "maps_url": "https://www.google.com/maps/place/?q=place_id:0x390ce30f4c4ed777:0x3a7c5e032ce51ce5"}, {"place_id": "0x390ce2fc33a36129:0x9c7b72ab65c283f5", "name": "Ntpc Ltd", "category": "Corporate office", "street": "H6PP+CXM", "city": "CGO Complex, Pragati Vihar", "phone": "", "website": "", "rating": 4.6, "review_count": "", "latitude": 28.5860807, "longitude": 77.2374111, "maps_url": "https://www.google.com/maps/place/?q=place_id:0x390ce2fc33a36129:0x9c7b72ab65c283f5"}, {"place_id": "0x390ce3b4ef43469d:0xd3da1ec65f5511ec", "name": "Pointer Soft | Website Designing Company Delhi", "category": "Website designer", "street": "321", "city": "harinagar, ashram", "phone": "09958768130", "website": "http://www.pointersoft.in/", "rating": 4.6, "review_count": "", "latitude": 28.571133999999997, "longitude": 77.2796537, "maps_url": "https://www.google.com/maps/place/?q=place_id:0x390ce3b4ef43469d:0xd3da1ec65f5511ec"}, {"place_id": "0x390ce31d66595dab:0x7df7f9ba1430554c", "name": "Balmer Lawrie & Co Ltd", "category": "Travel agency", "street": "Core 8, Ground Floor", "city": "SCOPE Complex", "phone": "01124360535", "website": "http://www.balmerlawrie.com/", "rating": 3.6, "review_count": "", "latitude": 28.586250999999997, "longitude": 77.237292, "maps_url": "https://www.google.com/maps/place/?q=place_id:0x390ce31d66595dab:0x7df7f9ba1430554c"}, {"place_id": "0x390ce3ea3fb39ced:0x8b9f74c98dfbe23e", "name": "StudioKrew : Game development company and App Development Studio India", "category": "Software company", "street": "2, Shambhu Dayal Marg", "city": "opp. Okhla Phase 3", "phone": "08826617711", "website": "https://studiokrew.com/", "rating": 4.4, "review_count": "", "latitude": 28.554599999999997, "longitude": 77.265056, "maps_url": "https://www.google.com/maps/place/?q=place_id:0x390ce3ea3fb39ced:0x8b9f74c98dfbe23e"}, {"place_id": "0x390ce3001bfd51c7:0x43ad1c18c320f5e6", "name": "APPSYFY IT SOLUTIONS PVT LTD", "category": "Software company", "street": "211, Okhla Phase 3 Rd", "city": "Okhla Phase III, Okhla Industrial Estate", "phone": "", "website": "https://appsyfy.com/", "rating": 5, "review_count": "", "latitude": 28.5484191, "longitude": 77.27131729999999, "maps_url": "https://www.google.com/maps/place/?q=place_id:0x390ce3001bfd51c7:0x43ad1c18c320f5e6"}, {"place_id": "0x390cfd35391deb71:0xdbdd1388c7dc51b6", "name": "Jak Software Pvt Ltd", "category": "Software company", "street": "52 Janpath", "city": "New Delhi, Delhi 110001", "phone": "07827249056", "website": "http://www.jaksoftware.co.in/", "rating": 4.4, "review_count": "", "latitude": 28.627537999999998, "longitude": 77.21878989999999, "maps_url": "https://www.google.com/maps/place/?q=place_id:0x390cfd35391deb71:0xdbdd1388c7dc51b6"}, {"place_id": "0x390cfb43c23bbc19:0x89dc367093b552e1", "name": "Hermain Media", "category": "Photographer", "street": "C-9 Basement", "city": "Block C, Nizamuddin West", "phone": "09818786068", "website": "http://hermainmedia.com/", "rating": 3.6, "review_count": "", "latitude": 28.589208, "longitude": 77.24364419999999, "maps_url": "https://www.google.com/maps/place/?q=place_id:0x390cfb43c23bbc19:0x89dc367093b552e1"}, {"place_id": "0x390ce307dde31609:0xb6ebdf0aba720a33", "name": "casansaar web solutions", "category": "Website designer", "street": "H6MX+J9H", "city": "Jangpura, Bhogal", "phone": "", "website": "http://www.casansaar.com/", "rating": 4.3, "review_count": "", "latitude": 28.584061, "longitude": 77.2484759, "maps_url": "https://www.google.com/maps/place/?q=place_id:0x390ce307dde31609:0xb6ebdf0aba720a33"}, {"place_id": "0x390ce44efef427e7:0x4d0a10522519f65e", "name": "Omnie Solutions (I) Pvt Ltd", "category": "Software company", "street": "D-108", "city": "Sector 2, D Block, Sector 2", "phone": "09266754671", "website": "https://www.omniesolutions.com/", "rating": 3.4, "review_count": "", "latitude": 28.583485, "longitude": 77.316155, "maps_url": "https://www.google.com/maps/place/?q=place_id:0x390ce44efef427e7:0x4d0a10522519f65e"}, {"place_id": "0x390ce307ab3362a7:0x4b9b19885a7ce93f", "name": "Hindustan E-waste Management Pvt. Ltd.", "category": "Waste management service", "street": "8, Central Rd", "city": "Jangpura, Bhogal", "phone": "01141553113", "website": "http://www.hindustanewaste.com/", "rating": 4.8, "review_count": "", "latitude": 28.583346, "longitude": 77.24938499999999, "maps_url": "https://www.google.com/maps/place/?q=place_id:0x390ce307ab3362a7:0x4b9b19885a7ce93f"}, {"place_id": "0x390ce31d14dc7051:0xc337a2120dd03c62", "name": "NBCC Bhawan", "category": "Real Estate Builders & Construction Company", "street": "H6RP+PMV", "city": "NBCC Bhawan", "phone": "01124367314", "website": "http://www.nbccindia.com/", "rating": 4.3, "review_count": "", "latitude": 28.5918663, "longitude": 77.23666999999999, "maps_url": "https://www.google.com/maps/place/?q=place_id:0x390ce31d14dc7051:0xc337a2120dd03c62"}, {"place_id": "0x390ce3083df185df:0xcff0bc07ace98fca", "name": "Dwitty & Company", "category": "Internet marketing service", "street": "B-109", "city": "Block D, Jangpura B", "phone": "07011273521", "website": "", "rating": 5, "review_count": "", "latitude": 28.581945599999997, "longitude": 77.2534653, "maps_url": "https://www.google.com/maps/place/?q=place_id:0x390ce3083df185df:0xcff0bc07ace98fca"}, {"place_id": "0x390ce395b9b5b411:0x9057c3ba07156393", "name": "IntelliSmart Infrastructure Pvt. Ltd.", "category": "Corporate office", "street": "First Floor", "city": "Lodhi Rd", "phone": "01244710330", "website": "https://intellismartinfra.in/", "rating": 4.2, "review_count": "", "latitude": 28.586567, "longitude": 77.2307502, "maps_url": "https://www.google.com/maps/place/?q=place_id:0x390ce395b9b5b411:0x9057c3ba07156393"}, {"place_id": "0x390ce36a7e34fe59:0x1acced1d65a73707", "name": "i-softinc - Mobile App Development Company in Delhi", "category": "Software company", "street": "165 3rd Floor", "city": "Sarai Jullena, New Friends Colony", "phone": "08929570664", "website": "https://i-softinc.com/", "rating": 5, "review_count": "", "latitude": 28.5600456, "longitude": 77.2717803, "maps_url": "https://www.google.com/maps/place/?q=place_id:0x390ce36a7e34fe59:0x1acced1d65a73707"}, {"place_id": "0x390ce3062907e185:0xa2da653cd28de6b", "name": "DIGIPRO", "category": "Printing equipment supplier", "street": "5/26-A", "city": "Jangpura, Block C, Jangpura B", "phone": "09999686179", "website": "http://www.digipro.co.in/", "rating": 4.7, "review_count": "", "latitude": 28.5855003, "longitude": 77.24970569999999, "maps_url": "https://www.google.com/maps/place/?q=place_id:0x390ce3062907e185:0xa2da653cd28de6b"}, {"place_id": "0x390ce33d21a0b897:0x64d4f69a9c1c58c9", "name": "AZURA MEDIA EVENT PVT.LTD", "category": "Event management company", "street": "2", "city": "Block B, Nizamuddin West", "phone": "09313107616", "website": "", "rating": 5, "review_count": "", "latitude": 28.590906999999998, "longitude": 77.24439699999999, "maps_url": "https://www.google.com/maps/place/?q=place_id:0x390ce33d21a0b897:0x64d4f69a9c1c58c9"}, {"place_id": "0x390ce3002bede169:0x46bb2a22901f4f19", "name": "Genesis Media Pvt. Ltd. \u23d0 Best Video Production House in Delhi", "category": "Corporate office", "street": "C 7", "city": "Block C, Nizamuddin West", "phone": "09810221212", "website": "https://genesismedia.in/", "rating": 5, "review_count": "", "latitude": 28.5892733, "longitude": 77.2438766, "maps_url": "https://www.google.com/maps/place/?q=place_id:0x390ce3002bede169:0x46bb2a22901f4f19"}, {"place_id": "0x390ce3642b8e64b3:0x4f6befb8c7de4ad5", "name": "BRPL Rajdhani Nizamuddin CHD", "category": "Electric utility company", "street": "A22", "city": "Block A, Jangpura A, Nizamuddin West", "phone": "", "website": "", "rating": 4.6, "review_count": "", "latitude": 28.5898386, "longitude": 77.24562809999999, "maps_url": "https://www.google.com/maps/place/?q=place_id:0x390ce3642b8e64b3:0x4f6befb8c7de4ad5"}, {"place_id": "0x390ce3c577996141:0x6f0e309d0c4c2de1", "name": "Eagle Information Systems Pvt. Ltd.", "category": "Computer support and services", "street": "Madhuban Building", "city": "705", "phone": "09818188012", "website": "http://www.eagle.in/", "rating": 4.5, "review_count": "", "latitude": 28.5486501, "longitude": 77.2520914, "maps_url": "https://www.google.com/maps/place/?q=place_id:0x390ce3c577996141:0x6f0e309d0c4c2de1"}, {"place_id": "0x390ce459e2a3a42f:0xdda2e042090c2c72", "name": "InfiCare Technologies Pvt. Ltd", "category": "Software company", "street": "D-92 Second/Third floor", "city": "Sector 2", "phone": "09711265591", "website": "http://www.inficaretech.com/", "rating": 3.9, "review_count": "", "latitude": 28.582936099999998, "longitude": 77.3175146, "maps_url": "https://www.google.com/maps/place/?q=place_id:0x390ce459e2a3a42f:0xdda2e042090c2c72"}, {"place_id": "0x390cfd355ca0fea9:0x1f2be0f1ef6dbdcf", "name": "Vayam Technologies Ltd.", "category": "Corporate office", "street": "Thapar House", "city": "124, Janpath Ln", "phone": "01147101200", "website": "https://www.vayamtech.com/", "rating": 3.8, "review_count": "", "latitude": 28.624508, "longitude": 77.21805499999999, "maps_url": "https://www.google.com/maps/place/?q=place_id:0x390cfd355ca0fea9:0x1f2be0f1ef6dbdcf"}, {"place_id": "0x390ce3b28911a5e9:0x3b26ce22fdc2a721", "name": "Mac Apple Service Centre || Uco Computer Services", "category": "Computer repair service", "street": "Shop", "city": "C 108", "phone": "07217818671", "website": "http://www.ucocomputer.in/", "rating": 4.9, "review_count": "", "latitude": 28.5724071, "longitude": 77.2392563, "maps_url": "https://www.google.com/maps/place/?q=place_id:0x390ce3b28911a5e9:0x3b26ce22fdc2a721"}, {"place_id": "0x390ce303a8babe61:0x113ec50e9b24fb5d", "name": "growX ventures", "category": "Investment company", "street": "C 19", "city": "Block C, Nizamuddin West", "phone": "01146074000", "website": "https://growx.vc/", "rating": 3.7, "review_count": "", "latitude": 28.5883917, "longitude": 77.2440562, "maps_url": "https://www.google.com/maps/place/?q=place_id:0x390ce303a8babe61:0x113ec50e9b24fb5d"}, {"place_id": "0x390ce3fa30cb5c19:0xc2b9c3fe8db1dd54", "name": "KIREN SMART SERVICES", "category": "Marketing agency", "street": "D-196, New", "city": "G/F, Lajpat Nagar I, Lajpat Nagar", "phone": "09873907360", "website": "https://kirensmartservices.com/", "rating": 4.1, "review_count": "", "latitude": 28.5785903, "longitude": 77.2423422, "maps_url": "https://www.google.com/maps/place/?q=place_id:0x390ce3fa30cb5c19:0xc2b9c3fe8db1dd54"}, {"place_id": "0x390ce3cd86ff1fbb:0x25bbbf6f4c1b8ac6", "name": "National Company Law Appellate Tribunal", "category": "Government office", "street": "2nd & 3rd Floor of Mahanagar Doorsanchar Sadan (M.T.N.L. Building), 9", "city": "Lodhi Rd", "phone": "01124306834", "website": "http://www.nclat.nic.in/", "rating": 4.4, "review_count": "", "latitude": 28.5845354, "longitude": 77.23733519999999, "maps_url": "https://www.google.com/maps/place/?q=place_id:0x390ce3cd86ff1fbb:0x25bbbf6f4c1b8ac6"}, {"place_id": "0x390ce363f1a38537:0x1323196e318840f6", "name": "Courier Medicines International Services", "category": "Courier service", "street": "Shop No.7, 1st Floor", "city": "Market", "phone": "08882691919", "website": "https://www.couriermedicines.com/", "rating": 4.9, "review_count": "", "latitude": 28.5894537, "longitude": 77.2452916, "maps_url": "https://www.google.com/maps/place/?q=place_id:0x390ce363f1a38537:0x1323196e318840f6"}, {"place_id": "0x390ce39a3aaaaaef:0xca57821ce7ee09b0", "name": "Smart IT Technologies", "category": "Website designer", "street": "Saroj Sadan", "city": "100", "phone": "08840274824", "website": "https://smartittechnologies.com/", "rating": 5, "review_count": "", "latitude": 28.5697218, "longitude": 77.2680354, "maps_url": "https://www.google.com/maps/place/?q=place_id:0x390ce39a3aaaaaef:0xca57821ce7ee09b0"}, {"place_id": "0x390cfcaeb83ea64b:0xe96c763de8b271ad", "name": "Premium Softwares", "category": "Software company", "street": "F-17, Office No. 102, Harsha Complex, Subhash Chowk, Laxmi Nagar", "city": "New Delhi, Delhi 110092", "phone": "08010835859", "website": "https://www.premiumsoftwares.com/", "rating": 4.5, "review_count": "", "latitude": 28.6343587, "longitude": 77.279979, "maps_url": "https://www.google.com/maps/place/?q=place_id:0x390cfcaeb83ea64b:0xe96c763de8b271ad"}, {"place_id": "0x390ce3a8ca99bf91:0xa1a618c130439ab8", "name": "National Company Law Tribunal", "category": "City courthouse", "street": "Ground, 6th, 7th Floor & 8th C", "city": "G.O. Complex", "phone": "01124363679", "website": "http://www.nclt.gov.in/", "rating": 4.1, "review_count": "", "latitude": 28.5909525, "longitude": 77.2355694, "maps_url": "https://www.google.com/maps/place/?q=place_id:0x390ce3a8ca99bf91:0xa1a618c130439ab8"}, {"place_id": "0x390ce23eeab015ab:0x92d6a7e8dbc46e1a", "name": "Odyssey Website Development Company", "category": "Website designer", "street": "B-59", "city": "Block B, Soami Nagar South, Soami Nagar", "phone": "09654486464", "website": "http://odysseyin.com/?utm_source=GMB&utm_medium=Organic&utm_term=Odyssey&utm_content=Listing&utm_campaign=GMB1", "rating": 3.6, "review_count": "", "latitude": 28.541823599999997, "longitude": 77.2262008, "maps_url": "https://www.google.com/maps/place/?q=place_id:0x390ce23eeab015ab:0x92d6a7e8dbc46e1a"}, {"place_id": "0x390ce39a24b89521:0x6e886c5e28fd05a9", "name": "Cloude Data Delhi | Best Cloud Service Provider company in India", "category": "Web hosting company", "street": "First Floor", "city": "A 212, Okhla Phase 3 Rd", "phone": "08882353612", "website": "https://cloudedata.com/", "rating": 4.4, "review_count": "", "latitude": 28.548515, "longitude": 77.2712834, "maps_url": "https://www.google.com/maps/place/?q=place_id:0x390ce39a24b89521:0x6e886c5e28fd05a9"}, {"place_id": "0x390ce307c858845f:0x502848c25123ea85", "name": "Al Hassan Group | Global Leaders in Exports and Imports", "category": "Import export company", "street": "14/746", "city": "14/746, NH-19", "phone": "09555510115", "website": "http://www.alhassangroup.in/", "rating": 4.7, "review_count": "", "latitude": 28.582683099999997, "longitude": 77.2510777, "maps_url": "https://www.google.com/maps/place/?q=place_id:0x390ce307c858845f:0x502848c25123ea85"}, {"place_id": "0x390ce32f7f91b893:0xf7c2be7eb729f502", "name": "Digital marketing Company, website Designing Company ( Logo Designing Company ) ( Online Marketplace )", "category": "Website designer", "street": "120-G", "city": "Hari Nagar Ashram", "phone": "08920138925", "website": "https://royalcruiselimos.com/", "rating": 5, "review_count": "", "latitude": 28.5718902, "longitude": 77.2559809, "maps_url": "https://www.google.com/maps/place/?q=place_id:0x390ce32f7f91b893:0xf7c2be7eb729f502"}, {"place_id": "0x390cdda0937a36df:0x350a8716d5f40b92", "name": "VS Square Info Solutions", "category": "Computer support and services", "street": "Govardhan Building", "city": "Nehru Place", "phone": "09319173336", "website": "http://www.vssquareinfo.com/", "rating": 4.9, "review_count": "", "latitude": 28.5490526, "longitude": 77.251606, "maps_url": "https://www.google.com/maps/place/?q=place_id:0x390cdda0937a36df:0x350a8716d5f40b92"}, {"place_id": "0x390ce45f5d8d2cc9:0xac5279d4e420a2c7", "name": "HCL Corporation Private Limited", "category": "Corporate office", "street": "A9", "city": "Block A, Noida Sector 3", "phone": "", "website": "https://www.hcltech.com/geo-presence/india", "rating": 4.3, "review_count": "", "latitude": 28.579234399999997, "longitude": 77.3172951, "maps_url": "https://www.google.com/maps/place/?q=place_id:0x390ce45f5d8d2cc9:0xac5279d4e420a2c7"}, {"place_id": "0x390ce300bfffffff:0xe1356f6e89808ee9", "name": "Skylark Elevator Company", "category": "Elevator Manufacturer", "street": "208, Defence Colony Flyover", "city": "Block M, Jungpura Extension, Market", "phone": "09953667500", "website": "https://www.skylarkelevator.com/", "rating": 2.6, "review_count": "", "latitude": 28.5801894, "longitude": 77.238514, "maps_url": "https://www.google.com/maps/place/?q=place_id:0x390ce300bfffffff:0xe1356f6e89808ee9"}, {"place_id": "0x390ce3f196e661cd:0xb93590a7b326ab75", "name": "Langar Khana Mian Ali Mohammad Khan Sahab r.a, Basti Hazrat Nizamuddin", "category": "Corporate office", "street": "Nizamuddin, Nizammudin West Slum, Nizamuddin West", "city": "New Delhi, Delhi 110013", "phone": "", "website": "", "rating": 4.6, "review_count": "", "latitude": 28.590533699999998, "longitude": 77.24253829999999, "maps_url": "https://www.google.com/maps/place/?q=place_id:0x390ce3f196e661cd:0xb93590a7b326ab75"}, {"place_id": "0x390ce2e32431cd6d:0xf9aaeda1cd6ccd1f", "name": "BHEL Industry Sector", "category": "Electrical equipment supplier", "street": "157, Lodhi Rd", "city": "CGO Complex, Pragati Vihar", "phone": "01141793243", "website": "", "rating": 4.7, "review_count": "", "latitude": 28.5916017, "longitude": 77.2371, "maps_url": "https://www.google.com/maps/place/?q=place_id:0x390ce2e32431cd6d:0xf9aaeda1cd6ccd1f"}, {"place_id": "0x390cfda47ea481f5:0x49778f8bc2d0cfe7", "name": "Pro Innovative Software", "category": "Software company", "street": "104 Wadhwa complex Laxmi Nagy near metro station gate", "city": "Gali No. 1", "phone": "09717274866", "website": "http://proinnovativesoftware.com/", "rating": 5, "review_count": "", "latitude": 28.631063599999997, "longitude": 77.2774999, "maps_url": "https://www.google.com/maps/place/?q=place_id:0x390cfda47ea481f5:0x49778f8bc2d0cfe7"}, {"place_id": "0x390ce15795555555:0x9bb8a801d00d7573", "name": "DreamSoft Infotech - Website Development Company in India", "category": "Software company", "street": "A-75 Third Floor", "city": "A Block, Sector 5", "phone": "01204380622", "website": "https://dreamsoftinfotech.com/", "rating": 3.4, "review_count": "", "latitude": 28.591018899999998, "longitude": 77.32201529999999, "maps_url": "https://www.google.com/maps/place/?q=place_id:0x390ce15795555555:0x9bb8a801d00d7573"}, {"place_id": "0x390ce2fda1df6ac3:0x6b2c822af3049c84", "name": "Central Bureau Of Investigation", "category": "Central Government Office", "street": "6th Floor,Lodhi Road", "city": "Plot No. 5-B, Jawaharlal Nehru Stadium Marg", "phone": "01124360213", "website": "http://www.cbi.gov.in/", "rating": 4.3, "review_count": "", "latitude": 28.5877625, "longitude": 77.23897219999999, "maps_url": "https://www.google.com/maps/place/?q=place_id:0x390ce2fda1df6ac3:0x6b2c822af3049c84"}, {"place_id": "0x390ce3039825705f:0xd5eec004aea9a138", "name": "Aatika manzar", "category": "Architecture firm", "street": "D", "city": "9", "phone": "09899022772", "website": "", "rating": 4.9, "review_count": "", "latitude": 28.5880609, "longitude": 77.2445903, "maps_url": "https://www.google.com/maps/place/?q=place_id:0x390ce3039825705f:0xd5eec004aea9a138"}, {"place_id": "0x390cfd3396f99f65:0xd97f147f067ace15", "name": "Shilpi Computers Private Limited", "category": "Corporate office", "street": "501-502", "city": "7, Tolstoy Rd", "phone": "01143500600", "website": "https://shilpisoft.com/", "rating": 3.9, "review_count": "", "latitude": 28.627693899999997, "longitude": 77.2244393, "maps_url": "https://www.google.com/maps/place/?q=place_id:0x390cfd3396f99f65:0xd97f147f067ace15"}, {"place_id": "0x390ce10972701b43:0x88fbfcfafdaf00f3", "name": "SearchingYard Group Corporate HQ", "category": "Software company", "street": "Tower 1st Floor, A", "city": "Nagpal Business", "phone": "", "website": "http://www.searchingyard.com/", "rating": 1.7, "review_count": "", "latitude": 28.538387699999998, "longitude": 77.27080029999999, "maps_url": "https://www.google.com/maps/place/?q=place_id:0x390ce10972701b43:0x88fbfcfafdaf00f3"}, {"place_id": "0x390ce6e09163a731:0xe4aefd556bfea022", "name": "Rehbar Overseas, Hing Supplier in Delhi, Asafoetida in India, Hing Importer, Hing Wholesaler in India", "category": "Import export company", "street": "21/B, Masjid Rd", "city": "near Shahi Masjid \u0645\u0633\u062c\u062f \u0634\u0627\u06be\u06cc", "phone": "09990926302", "website": "https://rehbaroverseas.com/", "rating": 4.8, "review_count": "", "latitude": 28.5827638, "longitude": 77.2467975, "maps_url": "https://www.google.com/maps/place/?q=place_id:0x390ce6e09163a731:0xe4aefd556bfea022"}, {"place_id": "0x390ce3df29e0b9d3:0xb1fe3d50d8f28dbc", "name": "CATALYST LAW FIRM", "category": "Legal services", "street": "6, Birbal Rd", "city": "UGF, Jungpura Extension", "phone": "09899827669", "website": "", "rating": 5, "review_count": "", "latitude": 28.583703999999997, "longitude": 77.2442001, "maps_url": "https://www.google.com/maps/place/?q=place_id:0x390ce3df29e0b9d3:0xb1fe3d50d8f28dbc"}, {"place_id": "0x390ce3f196e661cd:0xb93590a7b326ab75", "name": "Langar Khana Mian Ali Mohammad Khan Sahab r.a, Basti Hazrat Nizamuddin", "category": "Corporate office", "street": "Nizamuddin, Nizammudin West Slum, Nizamuddin West", "city": "New Delhi, Delhi 110013", "phone": "", "website": "", "rating": 4.6, "review_count": "", "latitude": 28.590533699999998, "longitude": 77.24253829999999, "maps_url": "https://www.google.com/maps/place/?q=place_id:0x390ce3f196e661cd:0xb93590a7b326ab75"}, {"place_id": "0x390ce30e857eb92d:0xbd2c4bc589176c9", "name": "Ajmal Perfumes - Exclusive Showroom", "category": "Perfume store", "street": "Shop No7, Ground Floor", "city": "Nizamuddin West Market", "phone": "09871155901", "website": "https://in-stores.ajmalperfume.com/ajmal-perfumes-exclusive-showroom-nizamuddin-shop-delhi-perfume-store-nizamuddin-west-new-delhi-517095/Home", "rating": 4.3, "review_count": "", "latitude": 28.5894929, "longitude": 77.24531429999999, "maps_url": "https://www.google.com/maps/place/?q=place_id:0x390ce30e857eb92d:0xbd2c4bc589176c9"}, {"place_id": "0x390ce3a733fc5b79:0x1d51963b79b1399", "name": "Brand invent", "category": "Human resource consulting", "street": "Bhagwan Nagar, Pocket C, Hari Nagar Ashram", "city": "New Delhi, Delhi 110014", "phone": "08860306389", "website": "https://brandinvent.org/", "rating": 4.6, "review_count": "", "latitude": 28.5793032, "longitude": 77.25746529999999, "maps_url": "https://www.google.com/maps/place/?q=place_id:0x390ce3a733fc5b79:0x1d51963b79b1399"}, {"place_id": "0x390ce3033dd08e2d:0xf06ced4fcbce19b8", "name": "BSES Office nizamuddin", "category": "Electric utility company", "street": "Nizamuddin E Ln", "city": "Nizamuddin, Block A, Nizamuddin West", "phone": "", "website": "http://www.bsesdelhi.com/", "rating": 3.3, "review_count": "", "latitude": 28.5899373, "longitude": 77.2456697, "maps_url": "https://www.google.com/maps/place/?q=place_id:0x390ce3033dd08e2d:0xf06ced4fcbce19b8"}, {"place_id": "0x390ce3059f45a9ad:0xd5a511790eb0c0a2", "name": "DMD Advocates", "category": "Law firm", "street": "Jaipur Estate,Rahim Khan marg Nizamuddin East New delhi", "city": "Jaipur Estate", "phone": "01147194400", "website": "https://www.dmd.law/", "rating": 4.5, "review_count": "", "latitude": 28.5878677, "longitude": 77.2495193, "maps_url": "https://www.google.com/maps/place/?q=place_id:0x390ce3059f45a9ad:0xd5a511790eb0c0a2"}, {"place_id": "0x44410b48618716b:0x7d0c5e38d0253ca9", "name": "WENGS SOLUTIONS LLP", "category": "Website designer", "street": "", "city": "", "phone": "09999537998", "website": "https://www.wengs.co.in/", "rating": 4.9, "review_count": "", "latitude": 13.4222866, "longitude": 142.1078416, "maps_url": "https://www.google.com/maps/place/?q=place_id:0x44410b48618716b:0x7d0c5e38d0253ca9"}, {"place_id": "0x390ce304bc715c25:0x5b631328fed17cd0", "name": "Industrial Training Institute New Delhi", "category": "Training center", "street": "Police Station", "city": "Nizamuddin E Ln", "phone": "01124359531", "website": "", "rating": 4.2, "review_count": "", "latitude": 28.590838599999998, "longitude": 77.2466848, "maps_url": "https://www.google.com/maps/place/?q=place_id:0x390ce304bc715c25:0x5b631328fed17cd0"}, {"place_id": "0x390ce25f6e3d2b9d:0x57f3a0fc9725f59b", "name": "YATRA POINT TOURISM COMPANY INDIA", "category": "Travel agency", "street": "OFFICE NO-7", "city": "BULDING NO N-1, LGF", "phone": "08860016982", "website": "", "rating": 4.9, "review_count": "", "latitude": 28.574078, "longitude": 77.219089, "maps_url": "https://www.google.com/maps/place/?q=place_id:0x390ce25f6e3d2b9d:0x57f3a0fc9725f59b"}, {"place_id": "0xd1516b679f60d2f:0x9458c47d907b59a8", "name": "MarkTech Company", "category": "Marketing agency", "street": "INA, Laxmi Bai Nagar", "city": "New Delhi, Delhi 110023", "phone": "08527880385", "website": "https://markteches.com/", "rating": 3.9, "review_count": "", "latitude": 28.5754463, "longitude": 77.2077127, "maps_url": "https://www.google.com/maps/place/?q=place_id:0xd1516b679f60d2f:0x9458c47d907b59a8"}, {"place_id": "0x390ce30273b7a343:0xe77e1ffddb4f1ee7", "name": "IndianOil", "category": "Petrol Pump", "street": "Link Rd", "city": "Jangpura, Nizamuddin West", "phone": "09599047411", "website": "https://locator.iocl.com/indianoil-ioc-coco-jungpura-petrol-pump-jungpura-new-delhi-102639/Home?utm_source=locator&utm_medium=googleplaces", "rating": 4.7, "review_count": "", "latitude": 28.5870565, "longitude": 77.2413746, "maps_url": "https://www.google.com/maps/place/?q=place_id:0x390ce30273b7a343:0xe77e1ffddb4f1ee7"}, {"place_id": "0x390ce550ac43f535:0x7efd3596bc8722ed", "name": "DataMetricks Consulting Private Limited- Best Digital Marketing & Web Development Company in Noida", "category": "Internet marketing service", "street": "12th Floor, TOWER-C", "city": "ITHUM TOWER", "phone": "07303946657", "website": "http://www.datametricks.com/", "rating": 5, "review_count": "", "latitude": 28.626568, "longitude": 77.37237549999999, "maps_url": "https://www.google.com/maps/place/?q=place_id:0x390ce550ac43f535:0x7efd3596bc8722ed"}, {"place_id": "0x390cfd35c8f89657:0xadbc7004661a9c74", "name": "Sterco Digitex Pvt Limited", "category": "Website designer", "street": "2nd Floor", "city": "72, Janpath Rd", "phone": "01204857333", "website": "https://www.stercodigitex.com/", "rating": 4.1, "review_count": "", "latitude": 28.628133, "longitude": 77.21985099999999, "maps_url": "https://www.google.com/maps/place/?q=place_id:0x390cfd35c8f89657:0xadbc7004661a9c74"}, {"place_id": "0x390ce300be302507:0xf1e755ca5979d96c", "name": "KARAN BINDRA", "category": "Legal services", "street": "I-44, Basement", "city": "Block I, Jungpura Extension", "phone": "09810408400", "website": "http://www.kiaa.co.in/", "rating": 4.9, "review_count": "", "latitude": 28.5832166, "longitude": 77.243271, "maps_url": "https://www.google.com/maps/place/?q=place_id:0x390ce300be302507:0xf1e755ca5979d96c"}, {"place_id": "0x390ce3ae51f1a9b1:0x861ca498c5cbd6a9", "name": "Equinest Solutions LLP", "category": "Consultant", "street": "E-3/7", "city": "Basement area, Malviya Nagar", "phone": "", "website": "", "rating": 5, "review_count": "", "latitude": 28.583658999999997, "longitude": 77.2450999, "maps_url": "https://www.google.com/maps/place/?q=place_id:0x390ce3ae51f1a9b1:0x861ca498c5cbd6a9"}, {"place_id": "0x390ce3032bc0a421:0x7a84b4144c7750f2", "name": "Zam Zam Perfumers", "category": "Perfume store", "street": "4/1", "city": "Nizamuddin, Nizammudin West Slum, Nizamuddin West", "phone": "09999230008", "website": "https://zamzamperfumers.com/", "rating": 4.6, "review_count": "", "latitude": 28.5912631, "longitude": 77.2437329, "maps_url": "https://www.google.com/maps/place/?q=place_id:0x390ce3032bc0a421:0x7a84b4144c7750f2"}, {"place_id": "0x390ce300bfffffff:0x814585d0f4a21531", "name": "Dark Eye - Road safety products, barricades, traffic safety products in India", "category": "Safety equipment supplier", "street": "3, Masjid Rd", "city": "Jangpura, Bhogal", "phone": "09313476024", "website": "http://www.darkeye.in/", "rating": 5, "review_count": "", "latitude": 28.583216099999998, "longitude": 77.246438, "maps_url": "https://www.google.com/maps/place/?q=place_id:0x390ce300bfffffff:0x814585d0f4a21531"}, {"place_id": "0x390ce3032bc0a421:0x7a84b4144c7750f2", "name": "Zam Zam Perfumers", "category": "Perfume store", "street": "4/1", "city": "Nizamuddin, Nizammudin West Slum, Nizamuddin West", "phone": "09999230008", "website": "https://zamzamperfumers.com/", "rating": 4.6, "review_count": "", "latitude": 28.5912631, "longitude": 77.2437329, "maps_url": "https://www.google.com/maps/place/?q=place_id:0x390ce3032bc0a421:0x7a84b4144c7750f2"}, {"place_id": "0x390ce300bfffffff:0x814585d0f4a21531", "name": "Dark Eye - Road safety products, barricades, traffic safety products in India", "category": "Safety equipment supplier", "street": "3, Masjid Rd", "city": "Jangpura, Bhogal", "phone": "09313476024", "website": "http://www.darkeye.in/", "rating": 5, "review_count": "", "latitude": 28.583216099999998, "longitude": 77.246438, "maps_url": "https://www.google.com/maps/place/?q=place_id:0x390ce300bfffffff:0x814585d0f4a21531"}, {"place_id": "0x390ce3e8b5d047a5:0xf0f966924550c2f6", "name": "Office Syed Anis Nizami, Sajjada Nashin & Incharge Hazrat Nizamuddin Aulia Dargah", "category": "Religious organization", "street": "Office Syed Anis Nizami, Incharge Hazrat Nizamuddin Aulia Dargah", "city": "New Delhi, Delhi 110013", "phone": "09999804670", "website": "https://dargahsharif.org/", "rating": 5, "review_count": 114, "latitude": 28.591614, "longitude": 77.2421147, "maps_url": "https://www.google.com/maps/place/?q=place_id:0x390ce3e8b5d047a5:0xf0f966924550c2f6"}, {"place_id": "0x390ce3036e3cfa0b:0xf84e93fbabb5da61", "name": "Clove Dental Clinic - Nizamuddin West, Delhi", "category": "Dental clinic", "street": "Main Market", "city": "near State Bank of India", "phone": "01169271077", "website": "https://clovedental.in/dentist-near-me/delhi/nizamuddin-west?utm_source=website&utm_medium=gmb&utm_campaign=Nizamuddin_West_GMB", "rating": 4.9, "review_count": "", "latitude": 28.5894819, "longitude": 77.2452524, "maps_url": "https://www.google.com/maps/place/?q=place_id:0x390ce3036e3cfa0b:0xf84e93fbabb5da61"}, {"place_id": "0x390ce2ee34aba50d:0xf9f9d1d297d678c", "name": "The Lodhi", "category": "Hotel", "street": "Lodhi Rd", "city": "CGO Complex, Pragati Vihar", "phone": "01143633333", "website": "https://www.thelodhi.com/", "rating": 4.6, "review_count": "", "latitude": 28.591834, "longitude": 77.2381782, "maps_url": "https://www.google.com/maps/place/?q=place_id:0x390ce2ee34aba50d:0xf9f9d1d297d678c"}, {"place_id": "0x3be7c21b5901e181:0x7fe794585addc1f6", "name": "Smartinfologiks - Software Development Company in India | IT Solutions", "category": "Software company", "street": "Hilton Center", "city": "514", "phone": "07400064691", "website": "https://www.smartinfologiks.com/", "rating": 4.6, "review_count": "", "latitude": 19.0139592, "longitude": 73.0382705, "maps_url": "https://www.google.com/maps/place/?q=place_id:0x3be7c21b5901e181:0x7fe794585addc1f6"}, {"place_id": "0x390ce31b00000001:0xd38c3a314df1e423", "name": "AR Tour & Travels", "category": "Travel agency", "street": "Shop no-1, 20/1", "city": "Mogra House", "phone": "09711752604", "website": "http://www.artravels.in/", "rating": 4.7, "review_count": "", "latitude": 28.590298999999998, "longitude": 77.2439467, "maps_url": "https://www.google.com/maps/place/?q=place_id:0x390ce31b00000001:0xd38c3a314df1e423"}, {"place_id": "0x3bc2becdc35b6937:0x515ac559c349eee3", "name": "Thinkitive Technologies Private Limited", "category": "Software company", "street": "4th Floor", "city": "ABIL IMPERIAL COMMERCIAL SPACES", "phone": "08956467327", "website": "https://www.thinkitive.com/", "rating": 3.9, "review_count": "", "latitude": 18.5563888, "longitude": 73.7729748, "maps_url": "https://www.google.com/maps/place/?q=place_id:0x3bc2becdc35b6937:0x515ac559c349eee3"}, {"place_id": "0x390ce5a33cd2518d:0x3244b9b13b227b75", "name": "Value Innovation Labs", "category": "Corporate office", "street": "A-51", "city": "A Block, Sector 16", "phone": "08826028999", "website": "https://www.valueinnovationlabs.com/", "rating": 4.6, "review_count": "", "latitude": 28.579780099999997, "longitude": 77.31397539999999, "maps_url": "https://www.google.com/maps/place/?q=place_id:0x390ce5a33cd2518d:0x3244b9b13b227b75"}, {"place_id": "0x28effb83bc7c375b:0xa4962d1fb36db92", "name": "G1 Technologies", "category": "Software company", "street": "", "city": "", "phone": "", "website": "https://g1technologies.online/", "rating": "", "review_count": "", "latitude": 13.4698446, "longitude": -19.4984273, "maps_url": "https://www.google.com/maps/place/?q=place_id:0x28effb83bc7c375b:0xa4962d1fb36db92"}, {"place_id": "0x390ce5d24b7fefdb:0x9ea90202ad717ba6", "name": "CODEBRIGHT TECHNOLOGIES PVT LTD", "category": "Software company", "street": "Gali No. 8", "city": "Phase 1, Shashi Garden, Mayur Vihar", "phone": "07217766185", "website": "http://codebright.in/", "rating": 5, "review_count": "", "latitude": 28.6101389, "longitude": 77.2946752, "maps_url": "https://www.google.com/maps/place/?q=place_id:0x390ce5d24b7fefdb:0x9ea90202ad717ba6"}, {"place_id": "0x390ce31cd8fe0933:0xd97ae2f87a5ed04b", "name": "Scribble Design Studio", "category": "Design agency", "street": "Nizamuddin, Nizammudin West Slum, Nizamuddin West", "city": "New Delhi, Delhi 110013", "phone": "", "website": "https://www.thescribbledesign.com/", "rating": 3.6, "review_count": "", "latitude": 28.5892618, "longitude": 77.2428699, "maps_url": "https://www.google.com/maps/place/?q=place_id:0x390ce31cd8fe0933:0xd97ae2f87a5ed04b"}, {"place_id": "0x390ce5f84816548b:0x34fd67a4a6c1f171", "name": "Code decoder Developer", "category": "Software company", "street": "Block", "city": "A Block, Sector 15", "phone": "09084284435", "website": "", "rating": 4.1, "review_count": "", "latitude": 28.583513, "longitude": 77.3116299, "maps_url": "https://www.google.com/maps/place/?q=place_id:0x390ce5f84816548b:0x34fd67a4a6c1f171"}, {"place_id": "0x390ce3ab16b2b597:0x2c38561daa14bda7", "name": "Novel holidaytrip", "category": "Tour agency", "street": "H6RV+3HX", "city": "Nizamuddin, Nizammudin West Slum, Hazard", "phone": "", "website": "https://novelholidaytrip.mystrikingly.com/", "rating": 4.6, "review_count": "", "latitude": 28.5902452, "longitude": 77.24398459999999, "maps_url": "https://www.google.com/maps/place/?q=place_id:0x390ce3ab16b2b597:0x2c38561daa14bda7"}, {"place_id": "0x390ce33f45fc3b45:0xbe4284606c6ad46a", "name": "Bhu Kombucha", "category": "Brewery", "street": "1st floor, Shop", "city": "20", "phone": "08287529887", "website": "https://www.bhukombucha.com/", "rating": 5, "review_count": "", "latitude": 28.589166, "longitude": 77.245235, "maps_url": "https://www.google.com/maps/place/?q=place_id:0x390ce33f45fc3b45:0xbe4284606c6ad46a"}]}