[{"place_id": "ChIJh-VQ2Gn9DDkRZP2G-33ZtI0", "name": "Disha Infotech ( Website Promotion Company)", "street": "2nd Floor, Himgiri Building, 19, Rani Jhansi Rd, Near, Jhandewalan, New Delhi, Delhi 110055, India", "phone": "+91 98915 37905", "rating": "4.9", "review_count": "", "website": "https://dishainfotech.co.in/", "latitude": 28.651118699999998, "longitude": 77.2064209, "maps_url": "https://www.google.com/maps/search/?api=1&query=Disha%20Infotech%20%28%20Website%20Promotion%20Company%29&query_place_id=ChIJh-VQ2Gn9DDkRZP2G-33ZtI0"}, {"place_id": "ChIJO4sr49IDDTkRALZaeWsr-oI", "name": "Iraitech | Software Development Company", "street": "Central Square Complex 3, Unit No-1051, 1st Floor, Near Filmistan, DCM chowk, Bara Hindu Rao, Kishan Ganj, Delhi, 110006, India", "phone": "+91 81301 04108", "rating": "4.1", "review_count": "", "website": "https://www.iraitech.com/", "latitude": 28.6631951, "longitude": 77.20308639999999, "maps_url": "https://www.google.com/maps/search/?api=1&query=Iraitech%20%7C%20Software%20Development%20Company&query_place_id=ChIJO4sr49IDDTkRALZaeWsr-oI"}, {"place_id": "ChIJ8bD3oe-1bTkRhQOwVrfg-vw", "name": "One Aim IT Solutions", "street": "2/41/2 , 1st Floor, Sadar Bazar , Moradabad Pahari ,TO.Delhi Cantt, Distt:, South West, New Delhi, Delhi 110006, India", "phone": "+91 89552 49714", "rating": "5", "review_count": "", "website": "https://theoneaim.in/", "latitude": 28.6580968, "longitude": 77.2124735, "maps_url": "https://www.google.com/maps/search/?api=1&query=One%20Aim%20IT%20Solutions&query_place_id=ChIJ8bD3oe-1bTkRhQOwVrfg-vw"}, {"place_id": "ChIJCXUND2b9DDkRUKIg_QDxGEM", "name": "Delhi Modi Express Transport Co", "street": "25, Rani Jhansi Road, Ram Kumar Marg, Motia Khan, New Delhi, Delhi 110055, India", "phone": "+91 98112 06706", "rating": "4.2", "review_count": "", "website": "https://www.delhimodi.in/", "latitude": 28.652214299999997, "longitude": 77.2070894, "maps_url": "https://www.google.com/maps/search/?api=1&query=Delhi%20Modi%20Express%20Transport%20Co&query_place_id=ChIJCXUND2b9DDkRUKIg_QDxGEM"}, {"place_id": "ChIJu1u78279DDkR5Zm9fMlxRAI", "name": "Fly Logistics packers and movers", "street": "H.no.3641, Singhara Chowk, G.P.O, Idgah Rd, Nabi Karim, Sadar Bazaar, Delhi, 110055, India", "phone": "+91 95556 60606", "rating": "4", "review_count": "", "website": "https://flylogisticspackersandmovers.in/", "latitude": 28.653783699999998, "longitude": 77.2147497, "maps_url": "https://www.google.com/maps/search/?api=1&query=Fly%20Logistics%20packers%20and%20movers&query_place_id=ChIJu1u78279DDkR5Zm9fMlxRAI"}, {"place_id": "ChIJEeEztHD9DDkR-3Ga-fthgow", "name": "Mobile Skin Software", "street": "47, Rani Jhansi Rd, Motia Khan, Jhandewalan, New Delhi, Delhi 110055, India", "phone": "+91 95552 63344", "rating": "4.7", "review_count": "", "website": "http://mobileskinsoftware.com/", "latitude": 28.649371199999997, "longitude": 77.2056171, "maps_url": "https://www.google.com/maps/search/?api=1&query=Mobile%20Skin%20Software&query_place_id=ChIJEeEztHD9DDkR-3Ga-fthgow"}, {"place_id": "ChIJl-_HJ2b9DDkR3iyQPVydtfU", "name": "Luna InfoTech - Luna Creatives Private Limited", "street": "51, Rani Jhansi Rd, Motia Khan, Sadar Bazaar, New Delhi, Delhi 110055, India", "phone": "+91 90152 47523", "rating": "4", "review_count": "", "website": "https://www.lunainfotech.com/", "latitude": 28.6490059, "longitude": 77.2058175, "maps_url": "https://www.google.com/maps/search/?api=1&query=Luna%20InfoTech%20-%20Luna%20Creatives%20Private%20Limited&query_place_id=ChIJl-_HJ2b9DDkR3iyQPVydtfU"}, {"place_id": "ChIJl0O_Kun9DDkRRG0USQH2Kuk", "name": "AHLAN TRADER COMPANY", "street": "AHLAN TRADER,BB-115,First Floor Bagrian Basti, Nabi Karim, Paharganj, New Delhi, Delhi 110055, India", "phone": "+91 70422 50150", "rating": "5", "review_count": "", "website": "", "latitude": 28.650358699999998, "longitude": 77.2149998, "maps_url": "https://www.google.com/maps/search/?api=1&query=AHLAN%20TRADER%20COMPANY&query_place_id=ChIJl0O_Kun9DDkRRG0USQH2Kuk"}, {"place_id": "ChIJt7qRlHL9DDkRNpYwUkr5IvE", "name": "New Mahaveer Transport Co. All India", "street": "7207 , Nabi Karim, Qutab Rd, near Yatrika Hotel, Delhi, 110055, India", "phone": "", "rating": "1.8", "review_count": "", "website": "http://www.nmtcindia.com/", "latitude": 28.6510811, "longitude": 77.2170988, "maps_url": "https://www.google.com/maps/search/?api=1&query=New%20Mahaveer%20Transport%20Co.%20All%20India&query_place_id=ChIJt7qRlHL9DDkRNpYwUkr5IvE"}, {"place_id": "ChIJ51Peew4DDTkR-JiASpJGrqM", "name": "Computerbabaji.com", "street": "Shop no.21, Gali Number 14, Rani Jhansi Rd, Block A, Beadonpura, market, New Delhi, Delhi 110055, India", "phone": "+91 97164 56532", "rating": "5", "review_count": "", "website": "", "latitude": 28.649925399999997, "longitude": 77.2050794, "maps_url": "https://www.google.com/maps/search/?api=1&query=Computerbabaji.com&query_place_id=ChIJ51Peew4DDTkR-JiASpJGrqM"}, {"place_id": "ChIJz56Ft_39DDkRU7_TN0eNVXg", "name": "Visicom Systems LLP", "street": "6, Rani Jhansi Rd, Block A, Motia Khan, Sadar Bazaar, New Delhi, Delhi 110055, India", "phone": "+91 98180 81250", "rating": "4.3", "review_count": "", "website": "https://www.visicom.in/", "latitude": 28.650279899999997, "longitude": 77.2052002, "maps_url": "https://www.google.com/maps/search/?api=1&query=Visicom%20Systems%20LLP&query_place_id=ChIJz56Ft_39DDkRU7_TN0eNVXg"}, {"place_id": "ChIJzV-p5C_9DDkRGWIkHjtBIIY", "name": "Aman Gupta - Best Website Developer in Delhi | Best Digital Marketer, SEO & Social Media Marketer in Paharganj, Delhi", "street": "Swami Ram Tirth Nagar S.O, 6573, Nabi Karim, New Delhi, Delhi 110055, India", "phone": "+91 78276 27545", "rating": "5", "review_count": "", "website": "https://marketingwizard.in/", "latitude": 28.6524017, "longitude": 77.2139287, "maps_url": "https://www.google.com/maps/search/?api=1&query=Aman%20Gupta%20-%20Best%20Website%20Developer%20in%20Delhi%20%7C%20Best%20Digital%20Marketer%2C%20SEO%20%26%20Social%20Media%20Marketer%20in%20Paharganj%2C%20Delhi&query_place_id=ChIJzV-p5C_9DDkRGWIkHjtBIIY"}, {"place_id": "ChIJTwbQB0L9DDkReXXIWTtuNpk", "name": "RC TRADING COMPANY", "street": "Amar Puri, Aram Nagar, Paharganj, New Delhi, Delhi 110055, India", "phone": "+91 99902 38080", "rating": "4.3", "review_count": "", "website": "", "latitude": 28.6499015, "longitude": 77.21546239999999, "maps_url": "https://www.google.com/maps/search/?api=1&query=RC%20TRADING%20COMPANY&query_place_id=ChIJTwbQB0L9DDkReXXIWTtuNpk"}, {"place_id": "ChIJZbNQImb9DDkRSxM1I_TmWbw", "name": "EEZY OFFICE SYSTEMS PVT. LTD.", "street": "44, Rani Jhansi Rd, Motia Khan, Jhandewalan, New Delhi, Delhi 110055, India", "phone": "+91 98100 90740", "rating": "4.8", "review_count": "", "website": "http://eezyofficesystem.com/", "latitude": 28.649896299999998, "longitude": 77.20551309999999, "maps_url": "https://www.google.com/maps/search/?api=1&query=EEZY%20OFFICE%20SYSTEMS%20PVT.%20LTD.&query_place_id=ChIJZbNQImb9DDkRSxM1I_TmWbw"}, {"place_id": "ChIJf4Qr-WX9DDkRcl7LWoZap6Y", "name": "CMS Info System", "street": "33, Mezznine Floor, Rani Jhansi Road, Ram Kumar Marg, Motia Khan, New Delhi, Delhi 110055, India", "phone": "+91 11 3047 0300", "rating": "2.8", "review_count": "", "website": "http://www.cms.com/", "latitude": 28.651303, "longitude": 77.20582399999999, "maps_url": "https://www.google.com/maps/search/?api=1&query=CMS%20Info%20System&query_place_id=ChIJf4Qr-WX9DDkRcl7LWoZap6Y"}, {"place_id": "ChIJAQAAAG_9DDkRWDTKa3dQWKk", "name": "Ganpati Trading Co.", "street": "10625, Jhandewalan Road, Jhandewalen Extn., Nabi Karim Rd, near Hanuman Mandir, Nabi Karim, Sadar Bazaar, New Delhi, Delhi, 110055, India", "phone": "+91 11 2325 0317", "rating": "1.8", "review_count": "", "website": "", "latitude": 28.6509979, "longitude": 77.2156584, "maps_url": "https://www.google.com/maps/search/?api=1&query=Ganpati%20Trading%20Co.&query_place_id=ChIJAQAAAG_9DDkRWDTKa3dQWKk"}, {"place_id": "ChIJve_HJ2b9DDkRzJphaUssbtE", "name": "Manu Info Solutions", "street": "51, Rani Jhansi Rd, Motia Khan, Paharganj, New Delhi, Delhi 110055, India", "phone": "+91 87001 32566", "rating": "5", "review_count": "", "website": "http://www.manuinfosolutions.com/", "latitude": 28.6490059, "longitude": 77.2058175, "maps_url": "https://www.google.com/maps/search/?api=1&query=Manu%20Info%20Solutions&query_place_id=ChIJve_HJ2b9DDkRzJphaUssbtE"}, {"place_id": "ChIJtxohEAD9DDkRabPhzxz9Jps", "name": "Danish Print Shop", "street": "Krishna Basti, A-460/2, near Bismillah Hotel, Amar Puri, Nabi Karim, Paharganj, New Delhi, Delhi 110055, India", "phone": "", "rating": "4.8", "review_count": "", "website": "https://sites.google.com/view/danishprintshop/home", "latitude": 28.649136, "longitude": 77.214843, "maps_url": "https://www.google.com/maps/search/?api=1&query=Danish%20Print%20Shop&query_place_id=ChIJtxohEAD9DDkRabPhzxz9Jps"}, {"place_id": "ChIJX9eDUEX9DDkRoR6efKRhUnw", "name": "Anu & Company", "street": "2nd Floor, 10703, Jhandewalan Rd, Nabi Karim, Paharganj, New Delhi, Delhi, 110055, India", "phone": "+91 87004 80022", "rating": "4.8", "review_count": "", "website": "https://anucompany.in/", "latitude": 28.651619699999998, "longitude": 77.2130291, "maps_url": "https://www.google.com/maps/search/?api=1&query=Anu%20%26%20Company&query_place_id=ChIJX9eDUEX9DDkRoR6efKRhUnw"}, {"place_id": "ChIJv67Iyuz9DDkRgw28Q1VwvUU", "name": "Ayzon Enterprises", "street": "A-316, Gali Number 2, Amar Puri, Nabi Karim, Paharganj, New Delhi, Delhi, 110055, India", "phone": "+91 89202 55448", "rating": "5", "review_count": "", "website": "http://www.ayzonbags.com/", "latitude": 28.649128299999997, "longitude": 77.21706549999999, "maps_url": "https://www.google.com/maps/search/?api=1&query=Ayzon%20Enterprises&query_place_id=ChIJv67Iyuz9DDkRgw28Q1VwvUU"}, {"place_id": "ChIJjYOr8J79DDkRr1zPpU0prNg", "name": "SR Corporate And Gifting", "street": "Idgah Rd, Ahata Kidara, Sadar Bazaar, New Delhi, Delhi, 110055, India", "phone": "+91 95999 20842", "rating": "5", "review_count": "", "website": "", "latitude": 28.653796999999997, "longitude": 77.2100273, "maps_url": "https://www.google.com/maps/search/?api=1&query=SR%20Corporate%20And%20Gifting&query_place_id=ChIJjYOr8J79DDkRr1zPpU0prNg"}, {"place_id": "ChIJ2fh96Gz9DDkRYvkah4RlFrM", "name": "Hi Speed Bags", "street": "3645 F/F Shankar Building Chowk Singhara, Nabi Karim Rd, New Delhi, Delhi 110055, India", "phone": "+91 98714 60090", "rating": "4.5", "review_count": "", "website": "http://hi-speedbags.com/", "latitude": 28.6505355, "longitude": 77.2136464, "maps_url": "https://www.google.com/maps/search/?api=1&query=Hi%20Speed%20Bags&query_place_id=ChIJ2fh96Gz9DDkRYvkah4RlFrM"}, {"place_id": "ChIJG8rmtIz9DDkR1UFG65kfR2Q", "name": "Parnami & co", "street": "5903/7, Ground floor, Shankar Market, Central, Nabi Karim, Paharganj, New Delhi, Delhi, 110055, India", "phone": "+91 98116 06083", "rating": "4.7", "review_count": "", "website": "", "latitude": 28.6525924, "longitude": 77.2136395, "maps_url": "https://www.google.com/maps/search/?api=1&query=Parnami%20%26%20co&query_place_id=ChIJG8rmtIz9DDkR1UFG65kfR2Q"}, {"place_id": "ChIJq6oa-2v9DDkRDsHT7NRg9tA", "name": "Kohinoor Printing Ink Co", "street": "10625, Jhandewalan Rd, Nabi Karim, Sadar Bazaar, New Delhi, Delhi, 110055, India", "phone": "+91 80 4877 6290", "rating": "4.5", "review_count": "", "website": "http://www.kohinoorinks.in/", "latitude": 28.650965199999998, "longitude": 77.2122674, "maps_url": "https://www.google.com/maps/search/?api=1&query=Kohinoor%20Printing%20Ink%20Co&query_place_id=ChIJq6oa-2v9DDkRDsHT7NRg9tA"}, {"place_id": "ChIJtwiKXUf9DDkRTMzgUb-R27g", "name": "AIRPRO VENTURES", "street": "5892, Gali No. 15, near Shankar Piau, Nabi Karim, Paharganj, New Delhi, Delhi, 110055, India", "phone": "+91 97592 12889", "rating": "4.9", "review_count": "", "website": "", "latitude": 28.652514399999998, "longitude": 77.21411429999999, "maps_url": "https://www.google.com/maps/search/?api=1&query=AIRPRO%20VENTURES&query_place_id=ChIJtwiKXUf9DDkRTMzgUb-R27g"}, {"place_id": "ChIJ1ZTgq3f9DDkRuV1hEbIBw3g", "name": "New Golden Furnishers Co.", "street": "Mandir, 52A, Rani Jhansi Rd, opp. Jhandewala Mata Marg, Block A, Motia Khan, Paharganj, New Delhi, Delhi 110055, India", "phone": "+91 98100 39951", "rating": "4.5", "review_count": "", "website": "https://www.schoolfurnitureindia.com/", "latitude": 28.6486372, "longitude": 77.2057347, "maps_url": "https://www.google.com/maps/search/?api=1&query=New%20Golden%20Furnishers%20Co.&query_place_id=ChIJ1ZTgq3f9DDkRuV1hEbIBw3g"}, {"place_id": "ChIJLSYpyUn9DDkR6qgeeusxh7s", "name": "SIGMA CORP INDIA", "street": "5554, Sadar Thana Rd, Basti Harphool Singh, Ahata Kidara, Sadar Bazaar, Delhi, 110006, India", "phone": "+91 76785 77494", "rating": "", "review_count": "", "website": "", "latitude": 28.6548746, "longitude": 77.2104634, "maps_url": "https://www.google.com/maps/search/?api=1&query=SIGMA%20CORP%20INDIA&query_place_id=ChIJLSYpyUn9DDkR6qgeeusxh7s"}, {"place_id": "ChIJjyu3G2b9DDkRtjLbb4a_mnQ", "name": "Royal Safe Company", "street": "53, Rani Jhansi Rd, Motia Khan, Paharganj, New Delhi, Delhi 110055, India", "phone": "+91 99102 68888", "rating": "5", "review_count": "", "website": "https://royalsafeco.in/", "latitude": 28.6487227, "longitude": 77.20574429999999, "maps_url": "https://www.google.com/maps/search/?api=1&query=Royal%20Safe%20Company&query_place_id=ChIJjyu3G2b9DDkRtjLbb4a_mnQ"}, {"place_id": "ChIJA4YFOHf9DDkR_Urt5JspH50", "name": "Brite Safe Co.", "street": "Temple, 51, Rani Jhansi Rd, opposite Jhandewalan, Block A, Motia Khan, Jhandewalan, New Delhi, Delhi 110055, India", "phone": "+91 98100 41842", "rating": "4.9", "review_count": "", "website": "", "latitude": 28.649283699999998, "longitude": 77.20564209999999, "maps_url": "https://www.google.com/maps/search/?api=1&query=Brite%20Safe%20Co.&query_place_id=ChIJA4YFOHf9DDkR_Urt5JspH50"}, {"place_id": "ChIJ-X-CQHL9DDkRxYYdG5g72Eo", "name": "YR DOCUMENTATION", "street": "5754, 66, Sadar Thana Rd, behind MCD, Basti Harphool Singh, Ahata Kidara, Sadar Bazaar, Delhi, 110006, India", "phone": "+91 87997 27821", "rating": "4.9", "review_count": "", "website": "", "latitude": 28.6545234, "longitude": 77.21009939999999, "maps_url": "https://www.google.com/maps/search/?api=1&query=YR%20DOCUMENTATION&query_place_id=ChIJ-X-CQHL9DDkRxYYdG5g72Eo"}, {"place_id": "ChIJ6750cE0uXIgRPpj00kno5DA", "name": "The IT Company", "street": "16 Emory Pl STE 100, Knoxville, TN 37917", "phone": "(865) 392-9200", "rating": "4.8", "review_count": "", "website": "https://theitcompany.com/?utm_source=google&utm_medium=organic&utm_campaign=Google+Business+Profile", "latitude": 35.974151899999995, "longitude": -83.922608, "maps_url": "https://www.google.com/maps/search/?api=1&query=The%20IT%20Company&query_place_id=ChIJ6750cE0uXIgRPpj00kno5DA"}, {"place_id": "ChIJodw0Em39DDkRqctFFhCK7xw", "name": "Gee Enterprises", "street": "GATE NO. -3, 3443, GALI LALLU MISSAR, opp. CAR PARKING, Sadar Bazaar, New Delhi, Delhi 110006, India", "phone": "+91 80 4876 2778", "rating": "4.4", "review_count": "", "website": "https://geeenterprises.in/", "latitude": 28.6554219, "longitude": 77.2154391, "maps_url": "https://www.google.com/maps/search/?api=1&query=Gee%20Enterprises&query_place_id=ChIJodw0Em39DDkRqctFFhCK7xw"}, {"place_id": "ChIJdQUg-Jmq5EARyWV7sjtsAas", "name": "Track Seal Waterproofing", "street": "6904, Nabi Karim Rd, Aram Nagar, Paharganj, Delhi, New Delhi, Delhi 110055, India", "phone": "+91 99901 73355", "rating": "4.9", "review_count": "", "website": "https://tracksealwaterproofing.com/", "latitude": 28.650071399999998, "longitude": 77.21332079999999, "maps_url": "https://www.google.com/maps/search/?api=1&query=Track%20Seal%20Waterproofing&query_place_id=ChIJdQUg-Jmq5EARyWV7sjtsAas"}, {"place_id": "ChIJAap6OGr9DDkRrgGzFdC806A", "name": "ACD, ACCURATE COMPUTER DIRECTORY", "street": "", "phone": "+91 98717 89858", "rating": "5", "review_count": "", "website": "http://www.azhar542.wordpress.com/", "latitude": 28.6454925, "longitude": 77.2096425, "maps_url": "https://www.google.com/maps/search/?api=1&query=ACD%2C%20ACCURATE%20COMPUTER%20DIRECTORY&query_place_id=ChIJAap6OGr9DDkRrgGzFdC806A"}, {"place_id": "ChIJvS8s1Wf9DDkRnwo5B73VETg", "name": "Website Designing Services in Delhi", "street": "2nd Floor, 76-A, Rani Jhansi Rd, near Jhandewalan Mandir, Block A, Mukharjee Market, Karol Bagh, New Delhi, Delhi 110055, India", "phone": "+91 99998 64418", "rating": "4.5", "review_count": "", "website": "http://www.barahamiitservices.com/", "latitude": 28.650288699999997, "longitude": 77.2048521, "maps_url": "https://www.google.com/maps/search/?api=1&query=Website%20Designing%20Services%20in%20Delhi&query_place_id=ChIJvS8s1Wf9DDkRnwo5B73VETg"}, {"place_id": "ChIJM9r7u0r9DDkRiUvt7zjjpRM", "name": "IT Executive vivek", "street": "22, Vijay Ghat, Raj Ghat, New Delhi, Delhi, 110006, India", "phone": "", "rating": "", "review_count": "", "website": "https://itexecuitive.com/", "latitude": 28.6584512, "longitude": 77.2449233, "maps_url": "https://www.google.com/maps/search/?api=1&query=IT%20Executive%20vivek&query_place_id=ChIJM9r7u0r9DDkRiUvt7zjjpRM"}]