{"timestamp": 1773734969.5665097, "keyword": "IT company", "location": "Indore", "cell_idx": 132, "results": [{"place_id": "0x3962fd6d5c629411:0x1d5537feb843f85e", "name": "WebCraft IT", "category": "Software company", "street": "96-FB, Sch.94, Near Pipliyahana Square", "city": "Eastern Ring Rd", "phone": "07314959456", "website": "https://webcraft.co.in/", "rating": 4.3, "review_count": "", "latitude": 22.712849199999997, "longitude": 75.9063407, "maps_url": "https://www.google.com/maps/place/?q=place_id:0x3962fd6d5c629411:0x1d5537feb843f85e"}, {"place_id": "0x39631d62557ed507:0x5dc2b67a2ba7971a", "name": "Royal IT Service - IT Company in Indore", "category": "Software company", "street": "426 Scheme No. 114 Part 2", "city": "Anurag Nagar Ln", "phone": "09285192850", "website": "http://royalitservice.com/", "rating": 4.3, "review_count": "", "latitude": 22.7622528, "longitude": 75.9022899, "maps_url": "https://www.google.com/maps/place/?q=place_id:0x39631d62557ed507:0x5dc2b67a2ba7971a"}, {"place_id": "0x39631da0239602ff:0xa13448656bdbfa7a", "name": "Softsnare Technologies | IT Company | Software Company in Indore", "category": "Software company", "street": "R-353", "city": "Sector R, Mahalaxmi Nagar", "phone": "06264741175", "website": "http://www.softsnare.com/", "rating": 4.6, "review_count": "", "latitude": 22.758209299999997, "longitude": 75.9096251, "maps_url": "https://www.google.com/maps/place/?q=place_id:0x39631da0239602ff:0xa13448656bdbfa7a"}, {"place_id": "0x39631d50a1dac501:0x6812a9e44b9f710a", "name": "Codizant IT Solutions", "category": "Software company", "street": "138 D", "city": "Scheme 134, Nipania", "phone": "09407553364", "website": "https://www.codizant.com/", "rating": 4.8, "review_count": "", "latitude": 22.7469036, "longitude": 75.9238661, "maps_url": "https://www.google.com/maps/place/?q=place_id:0x39631d50a1dac501:0x6812a9e44b9f710a"}, {"place_id": "0x3962e35a406f4051:0x73250245ff2a3e50", "name": "TekIT Software Solutions - An IT Staff Augmentation & Managed Services Company", "category": "Corporate office", "street": "Samradhi Park 5", "city": "Chauhan Nagar", "phone": "09685308585", "website": "https://tekitsolution.com/", "rating": 4.5, "review_count": "", "latitude": 22.7024133, "longitude": 75.9094243, "maps_url": "https://www.google.com/maps/place/?q=place_id:0x3962e35a406f4051:0x73250245ff2a3e50"}, {"place_id": "0x3963179ba819d679:0x97d67928bba81e05", "name": "ITGeeks Technologies Pvt. Ltd.", "category": "Software company", "street": "ITGeeks Technologies Pvt. Ltd", "city": "02, Yamuna nagar", "phone": "09179880603", "website": "http://www.itgeeks.com/", "rating": 4.6, "review_count": "", "latitude": 22.9538781, "longitude": 76.03808699999999, "maps_url": "https://www.google.com/maps/place/?q=place_id:0x3963179ba819d679:0x97d67928bba81e05"}, {"place_id": "0x3962fce2f55ec489:0x92b2a8119dc6c125", "name": "MINDIII Systems Pvt. Ltd", "category": "Software company", "street": "501-504, Fifth Floor", "city": "Krishna tower", "phone": "09165613316", "website": "https://www.mindiii.com/", "rating": 4, "review_count": "", "latitude": 22.7051394, "longitude": 75.9090727, "maps_url": "https://www.google.com/maps/place/?q=place_id:0x3962fce2f55ec489:0x92b2a8119dc6c125"}, {"place_id": "0x3962fda75f312d11:0xaa420a7ff1712711", "name": "We2Code Technology Private Limited", "category": "Software company", "street": "2nd Floor", "city": "Krishna Tower", "phone": "09685013001", "website": "https://www.we2code.com/", "rating": 4.7, "review_count": "", "latitude": 22.7414651, "longitude": 75.9004597, "maps_url": "https://www.google.com/maps/place/?q=place_id:0x3962fda75f312d11:0xaa420a7ff1712711"}, {"place_id": "0x3963179ca584a047:0xba87fc574f813753", "name": "Xlligent Softwares Pvt Ltd", "category": "Software company", "street": "111", "city": "near front of DCB Bank", "phone": "06261900209", "website": "https://www.xlligent-softwares.com/", "rating": 4.9, "review_count": "", "latitude": 22.9666632, "longitude": 76.0492101, "maps_url": "https://www.google.com/maps/place/?q=place_id:0x3963179ca584a047:0xba87fc574f813753"}, {"place_id": "0x3963171787e17b59:0x307a92533e921d11", "name": "Edithtech Softwares", "category": "Software company", "street": "44", "city": "Shourya Complex", "phone": "09109260321", "website": "https://edithtechsoftwares.com/", "rating": 4.8, "review_count": "", "latitude": 22.9547074, "longitude": 76.0365456, "maps_url": "https://www.google.com/maps/place/?q=place_id:0x3963171787e17b59:0x307a92533e921d11"}, {"place_id": "0x3962fd4a4404a3b1:0x7872c7444e47039f", "name": "IBR Infotech", "category": "Software company", "street": "IBR Infotech, Second Floor, A-Square ED-153, Scheme no.94, Sector D, ring road", "city": "near Khajrana square", "phone": "07400699956", "website": "https://www.ibrinfotech.com/", "rating": 4.4, "review_count": "", "latitude": 22.735993999999998, "longitude": 75.9025678, "maps_url": "https://www.google.com/maps/place/?q=place_id:0x3962fd4a4404a3b1:0x7872c7444e47039f"}, {"place_id": "0x39631780e5eb3c53:0xfc15871ccdfd3ccb", "name": "PebblePot Technologies Private Limited", "category": "Software company", "street": "04 Harshal Manglik Bhawan", "city": "AB Rd", "phone": "07898661161", "website": "https://www.pebblepot.in/", "rating": 4.7, "review_count": "", "latitude": 22.966351799999998, "longitude": 76.0499313, "maps_url": "https://www.google.com/maps/place/?q=place_id:0x39631780e5eb3c53:0xfc15871ccdfd3ccb"}, {"place_id": "0x3962e2c37bfc1963:0xcce9c811de4e0e73", "name": "Bhanusha InfoSoft", "category": "Software company", "street": "Kanadia Main Rd", "city": "Sanchar Nagar Ext, Sanchar Nagar Extension", "phone": "07999816848", "website": "https://bhanushainfosoft.com/?utm_source=google&utm_medium=my%20business", "rating": 4.9, "review_count": "", "latitude": 22.724666199999998, "longitude": 75.9188678, "maps_url": "https://www.google.com/maps/place/?q=place_id:0x3962e2c37bfc1963:0xcce9c811de4e0e73"}, {"place_id": "0x3962fd558b664649:0x8d0acd9f8082bfa8", "name": "ABIT CORP", "category": "Software company", "street": "345,P Plaza Square, Kanadia Bypass", "city": "Main Rd", "phone": "09893298123", "website": "https://www.abitcorp.com/", "rating": 4.5, "review_count": "", "latitude": 22.7245807, "longitude": 75.92063499999999, "maps_url": "https://www.google.com/maps/place/?q=place_id:0x3962fd558b664649:0x8d0acd9f8082bfa8"}, {"place_id": "0x3962e2ce8d0c8e49:0xdc163b3f996ee4c", "name": "NWAY Technologies Pvt. Ltd. | Best ERP Software in Indore | ERP Software in Indore | Construction ERP Software in India", "category": "Software company", "street": "Solitaire Park", "city": "298", "phone": "", "website": "https://www.nwayerp.com/", "rating": 4.5, "review_count": "", "latitude": 22.7593633, "longitude": 75.9380312, "maps_url": "https://www.google.com/maps/place/?q=place_id:0x3962e2ce8d0c8e49:0xdc163b3f996ee4c"}, {"place_id": "0x3962e3aeea0083fb:0xf7292b9dab3b34f", "name": "Ixora Infotech Private Limited", "category": "Software company", "street": "2nd Floor", "city": "Amma Complex", "phone": "08770148013", "website": "https://ixorainfotech.com/", "rating": 4.3, "review_count": "", "latitude": 22.7207307, "longitude": 75.9003184, "maps_url": "https://www.google.com/maps/place/?q=place_id:0x3962e3aeea0083fb:0xf7292b9dab3b34f"}, {"place_id": "0x3962e33891dad18d:0x44e48ed8b1c4bbe5", "name": "Impetus Technologies", "category": "Software company", "street": "Vidyasagar School", "city": "Impetus IT Park SEZ, Survey no. 291 Badiya Keema, Bicholi Mardana", "phone": "07314743600", "website": "https://www.impetus.com/", "rating": 4.7, "review_count": "", "latitude": 22.704584399999998, "longitude": 75.9645136, "maps_url": "https://www.google.com/maps/place/?q=place_id:0x3962e33891dad18d:0x44e48ed8b1c4bbe5"}, {"place_id": "0x3962fd40a62b9225:0x1dcbe63ab6cdfa6b", "name": "ThirdEssential IT Solutions Pvt. Ltd.", "category": "Software company", "street": "SR Villa", "city": "155, MR-1", "phone": "09993344255", "website": "http://www.thirdessential.com/", "rating": 4.2, "review_count": "", "latitude": 22.7540998, "longitude": 75.9129564, "maps_url": "https://www.google.com/maps/place/?q=place_id:0x3962fd40a62b9225:0x1dcbe63ab6cdfa6b"}, {"place_id": "0x3962fd40b4444e09:0x6fa9e625a51f8469", "name": "Pepcus Software Services Pvt. Ltd.", "category": "Software company", "street": "15-FM, Sector-F", "city": "Ring Rd", "phone": "09754550505", "website": "http://www.pepcus.com/", "rating": 4.7, "review_count": "", "latitude": 22.712385599999998, "longitude": 75.90638349999999, "maps_url": "https://www.google.com/maps/place/?q=place_id:0x3962fd40b4444e09:0x6fa9e625a51f8469"}, {"place_id": "0x3962fd3947eaaaab:0xb1bf95e1bf846118", "name": "Pixler IT Solution Pvt Ltd", "category": "Software company", "street": "1st Floor", "city": "Pipliyahana Rd", "phone": "07314022124", "website": "http://www.pixlritllc.com/", "rating": 3.8, "review_count": "", "latitude": 22.7079831, "longitude": 75.9133998, "maps_url": "https://www.google.com/maps/place/?q=place_id:0x3962fd3947eaaaab:0xb1bf95e1bf846118"}, {"place_id": "0x3962fd5005594b59:0x93702840653dd277", "name": "Infobyd Software Solutions Pvt. Ltd.", "category": "Software company", "street": "2nd Floor", "city": "Singhal Business Avenue Building", "phone": "09165990196", "website": "http://www.infobyd.com/", "rating": 4.3, "review_count": "", "latitude": 22.7719688, "longitude": 75.9001096, "maps_url": "https://www.google.com/maps/place/?q=place_id:0x3962fd5005594b59:0x93702840653dd277"}, {"place_id": "0x3962fd3947eaaaab:0xb1bf95e1bf846118", "name": "Pixler IT Solution Pvt Ltd", "category": "Software company", "street": "1st Floor", "city": "Pipliyahana Rd", "phone": "07314022124", "website": "http://www.pixlritllc.com/", "rating": 3.8, "review_count": "", "latitude": 22.7079831, "longitude": 75.9133998, "maps_url": "https://www.google.com/maps/place/?q=place_id:0x3962fd3947eaaaab:0xb1bf95e1bf846118"}, {"place_id": "0x39631772fb57fa4d:0x1aeaaccddfab1b64", "name": "ITWEBINFO", "category": "Software company", "street": "103", "city": "Shivaji Nagar, Moti Bunglow", "phone": "07582995555", "website": "http://itwebinfo.com/", "rating": 5, "review_count": "", "latitude": 22.9710605, "longitude": 76.0480532, "maps_url": "https://www.google.com/maps/place/?q=place_id:0x39631772fb57fa4d:0x1aeaaccddfab1b64"}, {"place_id": "0x3962fd40a62b9225:0x1dcbe63ab6cdfa6b", "name": "ThirdEssential IT Solutions Pvt. Ltd.", "category": "Software company", "street": "SR Villa", "city": "155, MR-1", "phone": "09993344255", "website": "http://www.thirdessential.com/", "rating": 4.2, "review_count": "", "latitude": 22.7540998, "longitude": 75.9129564, "maps_url": "https://www.google.com/maps/place/?q=place_id:0x3962fd40a62b9225:0x1dcbe63ab6cdfa6b"}, {"place_id": "0x3962e3f5fbe7df67:0x55cc7b3ea7d39c67", "name": "Lise Infotech Pvt Ltd", "category": "Software company", "street": "208-209, second floor , The Zodiac", "city": "Mall Main Road", "phone": "07314103111", "website": "http://www.liseinfotech.com/", "rating": 4.2, "review_count": "", "latitude": 22.7035834, "longitude": 75.91772999999999, "maps_url": "https://www.google.com/maps/place/?q=place_id:0x3962e3f5fbe7df67:0x55cc7b3ea7d39c67"}, {"place_id": "0x3962e2ce2f47899b:0x9f44070e6f8cca45", "name": "Techwave IT Solutions Pvt Ltd", "category": "Software company", "street": "Bhopal Motors JCB", "city": "near Panchvati", "phone": "09009155444", "website": "http://techwaveitsolutions.com/", "rating": 4.6, "review_count": "", "latitude": 22.7920648, "longitude": 75.9074073, "maps_url": "https://www.google.com/maps/place/?q=place_id:0x3962e2ce2f47899b:0x9f44070e6f8cca45"}, {"place_id": "0x3962fd4433e69369:0x2d2b7975bf30daec", "name": "Kritin Digital Solutions Pvt. Ltd.", "category": "Software company", "street": "Block NoJ", "city": "Gold Plaza", "phone": "07773004080", "website": "https://kritin.in/", "rating": 4.6, "review_count": "", "latitude": 22.7588811, "longitude": 75.9224916, "maps_url": "https://www.google.com/maps/place/?q=place_id:0x3962fd4433e69369:0x2d2b7975bf30daec"}, {"place_id": "0x3962e3b3831bb92f:0xe5d49ba9501da495", "name": "DISCOVER WEBSOFT - Website Designing Company Indore", "category": "Website designer", "street": "125", "city": "SECTOR- F, Scheme 134, Nipania", "phone": "09589708420", "website": "https://discoverwebsoft.com/", "rating": 4.9, "review_count": "", "latitude": 22.748476099999998, "longitude": 75.92160659999999, "maps_url": "https://www.google.com/maps/place/?q=place_id:0x3962e3b3831bb92f:0xe5d49ba9501da495"}, {"place_id": "0x3962fd3a65855555:0x6374d2fd9460384c", "name": "Dai Software Solution", "category": "Software company", "street": "Highlight House", "city": "507, MR-5", "phone": "09826356926", "website": "https://www.daisoftware.com/", "rating": 4, "review_count": "", "latitude": 22.7597479, "longitude": 75.9112177, "maps_url": "https://www.google.com/maps/place/?q=place_id:0x3962fd3a65855555:0x6374d2fd9460384c"}, {"place_id": "0x3963178ff220a477:0x51910ecd6deaed53", "name": "Cyber Elite Pvt Ltd.", "category": "Software company", "street": "226 LIG", "city": "Jawahar Nagar, Gomti Nagar", "phone": "07089899090", "website": "https://cyberelite.in/", "rating": 4.2, "review_count": "", "latitude": 22.953131199999998, "longitude": 76.0426221, "maps_url": "https://www.google.com/maps/place/?q=place_id:0x3963178ff220a477:0x51910ecd6deaed53"}, {"place_id": "0x396317226b2c42df:0x47098e396f961017", "name": "Expound Coderz Private Limited", "category": "Software company", "street": "267", "city": "Ram Nagar Extension, Mishrilal Nagar, Ganga Nagar", "phone": "07415752727", "website": "https://expoundcoderz.com/", "rating": 4.8, "review_count": "", "latitude": 22.9577816, "longitude": 76.0379663, "maps_url": "https://www.google.com/maps/place/?q=place_id:0x396317226b2c42df:0x47098e396f961017"}, {"place_id": "0x39631792ea7d9083:0xc90228718db1b1af", "name": "Sypnosis Technologies - IT Company.", "category": "Software company", "street": "2nd Floor", "city": "10", "phone": "09039239604", "website": "https://sypnosistechnologies.com/", "rating": "", "review_count": "", "latitude": 22.955443499999998, "longitude": 76.0369978, "maps_url": "https://www.google.com/maps/place/?q=place_id:0x39631792ea7d9083:0xc90228718db1b1af"}, {"place_id": "0x3962e35ea3dfcefd:0xd068be67f8b2afb8", "name": "Botmartz IT Solutions", "category": "Computer support and services", "street": "50", "city": "near Mayur hospital", "phone": "09730084626", "website": "https://www.botmartz.com/", "rating": 5, "review_count": "", "latitude": 22.726774799999998, "longitude": 75.9063354, "maps_url": "https://www.google.com/maps/place/?q=place_id:0x3962e35ea3dfcefd:0xd068be67f8b2afb8"}, {"place_id": "0x39631781f7b0a2a7:0xe3e4f6269a463f9d", "name": "Hostihelp", "category": "Software company", "street": "237 SunCity 1", "city": "AB Rd", "phone": "09755688860", "website": "http://hostihelpservices.epizy.com/", "rating": 4.9, "review_count": "", "latitude": 22.9460408, "longitude": 76.02948649999999, "maps_url": "https://www.google.com/maps/place/?q=place_id:0x39631781f7b0a2a7:0xe3e4f6269a463f9d"}, {"place_id": "0x39631d586940ba29:0xc9d0a564e32c6fce", "name": "WahInnovations Technologies", "category": "Software company", "street": "4th Floor", "city": "B ZONE BUSINESS SPACES", "phone": "09329911531", "website": "https://www.wahinnovations.com/", "rating": 4.6, "review_count": "", "latitude": 22.770793899999997, "longitude": 75.9103718, "maps_url": "https://www.google.com/maps/place/?q=place_id:0x39631d586940ba29:0xc9d0a564e32c6fce"}, {"place_id": "0x3962fd35e50c2933:0xcbf1bba2efe98bde", "name": "REDVision Global Technologies Pvt. Ltd.", "category": "Software company", "street": "REDVision Asia Center 45", "city": "behind Advanced Academy School", "phone": "09039822000", "website": "https://www.redvisiontechnologies.com/", "rating": 4.8, "review_count": "", "latitude": 22.751796499999998, "longitude": 75.9276734, "maps_url": "https://www.google.com/maps/place/?q=place_id:0x3962fd35e50c2933:0xcbf1bba2efe98bde"}, {"place_id": "0x39631d5891adfb65:0xea28a34c2ba3a5ab", "name": "MoreYeahs", "category": "Software company", "street": "4th Floor", "city": "B ZONE BUSINESS SPACES", "phone": "09329911531", "website": "https://www.moreyeahs.com/", "rating": 4.3, "review_count": "", "latitude": 22.7708004, "longitude": 75.9103715, "maps_url": "https://www.google.com/maps/place/?q=place_id:0x39631d5891adfb65:0xea28a34c2ba3a5ab"}, {"place_id": "0x3963178ff220a477:0x1f25eae0f1ef5a7d", "name": "Himanshu Softtech", "category": "Website designer", "street": "4-A , agroha nagar , AB road", "city": "Dewas, Madhya Pradesh 455001", "phone": "09425919122", "website": "http://www.himanshusofttech.com/", "rating": 4.7, "review_count": "", "latitude": 22.9619793, "longitude": 76.0464191, "maps_url": "https://www.google.com/maps/place/?q=place_id:0x3963178ff220a477:0x1f25eae0f1ef5a7d"}, {"place_id": "0x39631d7d94d5152d:0xdb9aab37e170d03f", "name": "THE IT TALENT", "category": "Software company", "street": "213 Landlord State Colony, Nipania Main Rd", "city": "Nipania", "phone": "09826819200", "website": "https://theittalent.com/", "rating": 5, "review_count": "", "latitude": 22.7652814, "longitude": 75.9240852, "maps_url": "https://www.google.com/maps/place/?q=place_id:0x39631d7d94d5152d:0xdb9aab37e170d03f"}, {"place_id": "0x39631d202d0b5f99:0x162bbcf189fa3a27", "name": "Adsali Technologies Pvt. Ltd.", "category": "Software company", "street": "2 C/A, Tulsi Nagar Rd", "city": "near R.R. Avenue", "phone": "09399559527", "website": "https://adsalitechnologies.com/", "rating": 5, "review_count": "", "latitude": 22.759201299999997, "longitude": 75.9184428, "maps_url": "https://www.google.com/maps/place/?q=place_id:0x39631d202d0b5f99:0x162bbcf189fa3a27"}, {"place_id": "0x39631736a0f7d871:0xf0f334accf365a3a", "name": "Ayat infotech", "category": "Website designer", "street": "51", "city": "Anand nagar, Itawa", "phone": "09589981295", "website": "http://ayatinfotech.com/", "rating": 5, "review_count": "", "latitude": 22.9726128, "longitude": 76.05058269999999, "maps_url": "https://www.google.com/maps/place/?q=place_id:0x39631736a0f7d871:0xf0f334accf365a3a"}, {"place_id": "0x3962fd47d3edc3d3:0x6be1a339e0c60500", "name": "Samosys Technologies Pvt. Ltd.", "category": "Software company", "street": "330, Kanadia Main Rd", "city": "opp. of Green Valley", "phone": "09753391000", "website": "https://samosys.com/", "rating": 3.9, "review_count": "", "latitude": 22.7262222, "longitude": 75.92212789999999, "maps_url": "https://www.google.com/maps/place/?q=place_id:0x3962fd47d3edc3d3:0x6be1a339e0c60500"}, {"place_id": "0x3963173c14b63e79:0x65b66e0752b01a8c", "name": "Techconqueror \u2013 Software & IT Services", "category": "Software company", "street": "528 EWS", "city": "Mukherjee Nagar, Anukul Nagar", "phone": "08982396663", "website": "https://techconqueror.com/", "rating": 4.9, "review_count": "", "latitude": 22.971609599999997, "longitude": 76.0386747, "maps_url": "https://www.google.com/maps/place/?q=place_id:0x3963173c14b63e79:0x65b66e0752b01a8c"}, {"place_id": "0x3962e2dfd82f826f:0x9ce083a7c01b2917", "name": "Tech Radix Pvt Ltd", "category": "Software company", "street": "104, Rituraj Business Center", "city": "behind UNO Business Park", "phone": "08989899596", "website": "http://tech-radix.com/", "rating": 5, "review_count": "", "latitude": 22.6859787, "longitude": 75.9236943, "maps_url": "https://www.google.com/maps/place/?q=place_id:0x3962e2dfd82f826f:0x9ce083a7c01b2917"}, {"place_id": "0x3962e3ca7898868b:0x1b17a3b5cbd4c8b1", "name": "TechnoTronixs", "category": "Software company", "street": "OFFICE NO. 102, 1st FLOOR", "city": "RITURAJ BUSINESS PARK", "phone": "07755991160", "website": "https://technotronixs.com/", "rating": 4.3, "review_count": "", "latitude": 22.6857026, "longitude": 75.9236339, "maps_url": "https://www.google.com/maps/place/?q=place_id:0x3962e3ca7898868b:0x1b17a3b5cbd4c8b1"}, {"place_id": "0x390ce458d0000001:0xf2123bd299ec4501", "name": "IT Company India", "category": "Software company", "street": "D56", "city": "D Block, Sector 10", "phone": "09999244854", "website": "https://www.itcompanyindia.in/", "rating": 4.7, "review_count": "", "latitude": 28.589917699999997, "longitude": 77.3351153, "maps_url": "https://www.google.com/maps/place/?q=place_id:0x390ce458d0000001:0xf2123bd299ec4501"}, {"place_id": "0x3962fdd668cadab1:0x31ff099098c86355", "name": "Shriffle Technologies Pvt. Ltd.", "category": "Software company", "street": "R.C.M 11", "city": "Behind Agarwal Public School, Scheme No 140", "phone": "07314004455", "website": "http://www.shriffle.com/", "rating": 3.4, "review_count": "", "latitude": 22.703870199999997, "longitude": 75.91646039999999, "maps_url": "https://www.google.com/maps/place/?q=place_id:0x3962fdd668cadab1:0x31ff099098c86355"}, {"place_id": "0x3962e2d0719bc2ad:0x4cb3ff6d1b5beee0", "name": "DexBytes Infotech Private Limited", "category": "Software company", "street": "The One 40", "city": "212", "phone": "07314287985", "website": "https://www.dexbytes.com/", "rating": 3.6, "review_count": "", "latitude": 22.7036421, "longitude": 75.9145228, "maps_url": "https://www.google.com/maps/place/?q=place_id:0x3962e2d0719bc2ad:0x4cb3ff6d1b5beee0"}, {"place_id": "0x3962e2d498f63cd5:0xd25e88812d9e2551", "name": "Vedik Cyber Technology Pvt Ltd", "category": "Software company", "street": "UNO Business Park Bypass Road", "city": "Madhya Pradesh 452016", "phone": "07314871004", "website": "https://www.vcybertech.com/", "rating": 5, "review_count": "", "latitude": 22.6859616, "longitude": 75.92381929999999, "maps_url": "https://www.google.com/maps/place/?q=place_id:0x3962e2d498f63cd5:0xd25e88812d9e2551"}, {"place_id": "0x3963177f0bb72c01:0x7dc0fc1caf36fcb", "name": "Adroit Technosoft", "category": "Software company", "street": "2nd floor, sri sawariya complex", "city": "AB Rd", "phone": "09713000193", "website": "https://adroittechnosoft.in/", "rating": 4.3, "review_count": "", "latitude": 22.9666878, "longitude": 76.0494731, "maps_url": "https://www.google.com/maps/place/?q=place_id:0x3963177f0bb72c01:0x7dc0fc1caf36fcb"}, {"place_id": "0x3962fd3f35699959:0x60a1ecf32851850a", "name": "Chapter247 Infotech", "category": "Software company", "street": "6th Floor", "city": "611-612-613", "phone": "07773077715", "website": "https://www.chapter247.com/", "rating": 3.8, "review_count": "", "latitude": 22.7592613, "longitude": 75.9238235, "maps_url": "https://www.google.com/maps/place/?q=place_id:0x3962fd3f35699959:0x60a1ecf32851850a"}, {"place_id": "0x3962fd5594a5981f:0xe44d7df8e141cec9", "name": "Genesis Technologies", "category": "Software company", "street": "EB-103 Scheme Number 94, Ring Road", "city": "Service Rd", "phone": "", "website": "http://genesistechnologies.in/", "rating": 3.8, "review_count": "", "latitude": 22.760212499999998, "longitude": 75.90659409999999, "maps_url": "https://www.google.com/maps/place/?q=place_id:0x3962fd5594a5981f:0xe44d7df8e141cec9"}, {"place_id": "0x3962fd541aaaaaab:0xab9f3d9481908f66", "name": "WOWIT DIGITAL", "category": "Marketing agency", "street": "02nd Floor, Shridatt", "city": "379, Kanadia Main Rd", "phone": "09755598940", "website": "https://wowit.tech/top-digital-marketing-company-indore/", "rating": 4.6, "review_count": "", "latitude": 22.7250086, "longitude": 75.9208699, "maps_url": "https://www.google.com/maps/place/?q=place_id:0x3962fd541aaaaaab:0xab9f3d9481908f66"}, {"place_id": "0x39630239f26f44ff:0x9990e42765534532", "name": "Hybrid Infotech Pvt Ltd", "category": "Software company", "street": "Forest colony, Shivaji Nagar, Moti Bunglow", "city": "Dewas, Madhya Pradesh 455001", "phone": "09993031042", "website": "http://hybridinfotech.com/", "rating": 5, "review_count": "", "latitude": 22.9662243, "longitude": 76.0484005, "maps_url": "https://www.google.com/maps/place/?q=place_id:0x39630239f26f44ff:0x9990e42765534532"}, {"place_id": "0x3962fd22b8203c13:0xf96a09f158b994b5", "name": "F5 Buddy Pvt. Ltd.", "category": "Software company", "street": "A3-301, Uno Business Park", "city": "By Pass Road", "phone": "09131599323", "website": "https://www.f5buddy.com/", "rating": 4.6, "review_count": "", "latitude": 22.6858531, "longitude": 75.9231908, "maps_url": "https://www.google.com/maps/place/?q=place_id:0x3962fd22b8203c13:0xf96a09f158b994b5"}, {"place_id": "0x8400fb6b5e13d345:0x8d32b33ad218496", "name": "Kodetri Technologies", "category": "Software company", "street": "", "city": "", "phone": "08817854361", "website": "https://kodetri.vercel.app/", "rating": 5, "review_count": "", "latitude": 21.0680074, "longitude": 82.7525294, "maps_url": "https://www.google.com/maps/place/?q=place_id:0x8400fb6b5e13d345:0x8d32b33ad218496"}, {"place_id": "0x3962e34a8fcd256d:0xb0153f4ca5a38996", "name": "Ruknovo InfoTech Solutions \u2013 Empowering Businesses with Smart IT Services", "category": "Software company", "street": "jaspal dhaba", "city": "Vaibhav luxmi nagar gali no. 5", "phone": "09617246882", "website": "https://ruknovo.vercel.app/", "rating": 4.4, "review_count": "", "latitude": 22.744614, "longitude": 75.9150983, "maps_url": "https://www.google.com/maps/place/?q=place_id:0x3962e34a8fcd256d:0xb0153f4ca5a38996"}, {"place_id": "0x396303b717951bb1:0x3b1772c366227c5f", "name": "Kanpai CMS | Best Web Development and IT Company in Indore| Best website design", "category": "Software company", "street": "6th floor, infront of Radisson blue hotel", "city": "c21 business park", "phone": "09229491675", "website": "https://kanpaiglobal.com/", "rating": 5, "review_count": "", "latitude": 22.7496594, "longitude": 75.90490299999999, "maps_url": "https://www.google.com/maps/place/?q=place_id:0x396303b717951bb1:0x3b1772c366227c5f"}, {"place_id": "0x39631d4ed3799567:0xb1872a34db30d86a", "name": "Algoitech information technologies", "category": "Software company", "street": "EA 65", "city": "Ring Rd", "phone": "07909469707", "website": "", "rating": 3.4, "review_count": "", "latitude": 22.7686256, "longitude": 75.9081769, "maps_url": "https://www.google.com/maps/place/?q=place_id:0x39631d4ed3799567:0xb1872a34db30d86a"}, {"place_id": "0x39631d15eaf61af3:0x5a65c8ad3e141da0", "name": "Aurasoft Digitech Pvt. Ltd.", "category": "Software company", "street": "301-T", "city": "Sunshine Corner", "phone": "07313581035", "website": "https://aurasoftdigitech.com/", "rating": 5, "review_count": "", "latitude": 22.753242, "longitude": 75.9152063, "maps_url": "https://www.google.com/maps/place/?q=place_id:0x39631d15eaf61af3:0x5a65c8ad3e141da0"}, {"place_id": "0x3962fdc27594b36f:0xf1f29e4d59089c17", "name": "Rubik Corner IT Services and Consultants", "category": "Computer support and services", "street": "5/1 Ramchandra Nagar Extension", "city": "Madhya Pradesh 455001", "phone": "09691665576", "website": "", "rating": 5, "review_count": "", "latitude": 22.945536999999998, "longitude": 76.0402613, "maps_url": "https://www.google.com/maps/place/?q=place_id:0x3962fdc27594b36f:0xf1f29e4d59089c17"}, {"place_id": "0x396317f6bce105ad:0x1b97ddd1edb96f8a", "name": "TechMac Digital Solutions", "category": "E - Commerce Agency", "street": "05 M.I.G, Ujjain Rd", "city": "near Water Tank", "phone": "08982878781", "website": "https://techmacdigital.com/", "rating": 4.7, "review_count": "", "latitude": 22.977732099999997, "longitude": 76.0322268, "maps_url": "https://www.google.com/maps/place/?q=place_id:0x396317f6bce105ad:0x1b97ddd1edb96f8a"}, {"place_id": "0x396302b514e2923d:0x490395bf2277d30f", "name": "IMAST", "category": "Software company", "street": "Imast House", "city": "1, Eastern Ring Rd", "phone": "08069081290", "website": "http://imast.in/", "rating": 4, "review_count": "", "latitude": 22.758934699999998, "longitude": 75.9045989, "maps_url": "https://www.google.com/maps/place/?q=place_id:0x396302b514e2923d:0x490395bf2277d30f"}, {"place_id": "0x396302bb7f8076a9:0xcc1aa7f851a9dd12", "name": "PURSHO", "category": "Software company", "street": "Level 7", "city": "1, Service Rd", "phone": "02269718150", "website": "https://www.pursho.com/", "rating": 5, "review_count": "", "latitude": 22.745717, "longitude": 75.90376959999999, "maps_url": "https://www.google.com/maps/place/?q=place_id:0x396302bb7f8076a9:0xcc1aa7f851a9dd12"}, {"place_id": "0x396320775632c687:0x83ecc0430ac04e1a", "name": "Eco Holiday Resorts", "category": "Resort hotel", "street": "kanadiya", "city": "road", "phone": "09109101761", "website": "http://www.ecoholidayresorts.com/", "rating": 3.8, "review_count": "", "latitude": 22.7751609, "longitude": 76.1206457, "maps_url": "https://www.google.com/maps/place/?q=place_id:0x396320775632c687:0x83ecc0430ac04e1a"}, {"place_id": "0x396317d794e16759:0x4060a0afc2cc5781", "name": "Webniya Infotech", "category": "Software company", "street": "", "city": "", "phone": "", "website": "https://www.webniya.tech/", "rating": 5, "review_count": "", "latitude": 21.0680074, "longitude": 82.7525294, "maps_url": "https://www.google.com/maps/place/?q=place_id:0x396317d794e16759:0x4060a0afc2cc5781"}, {"place_id": "0x3963179aa37da85d:0x9ad74f985a500d01", "name": "Webstrot Technology", "category": "Website designer", "street": "3rd Floor", "city": "Rathor Tower", "phone": "08827113366", "website": "https://www.webstrot.com/", "rating": 4.9, "review_count": "", "latitude": 22.960082, "longitude": 76.04385529999999, "maps_url": "https://www.google.com/maps/place/?q=place_id:0x3963179aa37da85d:0x9ad74f985a500d01"}, {"place_id": "0x396317edb498db2d:0x820ff94014864b5b", "name": "Active Now Tech", "category": "Software company", "street": "Mahalaxmi Nagar", "city": "09", "phone": "08839779337", "website": "https://activenow.in/", "rating": 5, "review_count": "", "latitude": 22.9575802, "longitude": 76.0409086, "maps_url": "https://www.google.com/maps/place/?q=place_id:0x396317edb498db2d:0x820ff94014864b5b"}, {"place_id": "0x3962e3a1f303ab4f:0xa640efe119bac6a3", "name": "RAMO PVT LTD", "category": "Software company", "street": "", "city": "", "phone": "", "website": "https://ramo.co.in/", "rating": 3.8, "review_count": "", "latitude": 21.0680074, "longitude": 82.7525294, "maps_url": "https://www.google.com/maps/place/?q=place_id:0x3962e3a1f303ab4f:0xa640efe119bac6a3"}, {"place_id": "0x396302aaf5500001:0xb7ca9e747df71628", "name": "Codingkart IT Services", "category": "Software company", "street": "", "city": "", "phone": "08349889628", "website": "http://www.codingkart.com/", "rating": 4.1, "review_count": "", "latitude": 21.0680074, "longitude": 82.7525294, "maps_url": "https://www.google.com/maps/place/?q=place_id:0x396302aaf5500001:0xb7ca9e747df71628"}, {"place_id": "0x39631d002aa18805:0xc3d4ec3d66c86ef6", "name": "TechnoGriff Solutions", "category": "Software company", "street": "Ward 36", "city": "40 A, Tirupati Palace, Zone 6", "phone": "", "website": "http://www.technogriffsolutions.com/", "rating": 4, "review_count": "", "latitude": 22.7658165, "longitude": 75.92879839999999, "maps_url": "https://www.google.com/maps/place/?q=place_id:0x39631d002aa18805:0xc3d4ec3d66c86ef6"}, {"place_id": "0x3962fd4b09abf9d3:0xea11b36c4bc38cc9", "name": "DigitalIndiaBiz - Digital Marketing Company In Indore | Google Ads Agency Indore | Social Media Agency Indore", "category": "Internet marketing service", "street": "Divine Greens", "city": "108 B, Main Road", "phone": "09302057620", "website": "http://digitalindiabiz.in/", "rating": 4.9, "review_count": "", "latitude": 22.757674299999998, "longitude": 75.9288512, "maps_url": "https://www.google.com/maps/place/?q=place_id:0x3962fd4b09abf9d3:0xea11b36c4bc38cc9"}, {"place_id": "0x39631d507c3c99db:0xefd5abf6d4d44ea4", "name": "Laxyo Limited", "category": "Engineering consultant", "street": "Laxyo House, Plot No. 2, County Park", "city": "Mahalaxmi Nagar", "phone": "07314043798", "website": "http://www.laxyo.com/", "rating": 4.4, "review_count": "", "latitude": 22.761871199999998, "longitude": 75.9133013, "maps_url": "https://www.google.com/maps/place/?q=place_id:0x39631d507c3c99db:0xefd5abf6d4d44ea4"}, {"place_id": "0x3962fd85ad4952fd:0x9626acd3096d6248", "name": "Tag X", "category": "Software company", "street": "840", "city": "Hare Krishna Vihar, Nipania", "phone": "09131920438", "website": "https://www.tagxdata.com/", "rating": 4, "review_count": "", "latitude": 22.753541, "longitude": 75.9319502, "maps_url": "https://www.google.com/maps/place/?q=place_id:0x3962fd85ad4952fd:0x9626acd3096d6248"}, {"place_id": "0x287cf0225a1c0f9:0x78c06e25e68f9246", "name": "Ivision Systech Private Limited", "category": "Design engineer", "street": "412", "city": "E.W.S., Mukherjee Nagar, Raja Ram Nagar", "phone": "08269897542", "website": "https://www.ivisionsystech.com/", "rating": 5, "review_count": "", "latitude": 22.9665379, "longitude": 76.0391159, "maps_url": "https://www.google.com/maps/place/?q=place_id:0x287cf0225a1c0f9:0x78c06e25e68f9246"}, {"place_id": "0x3962e3459cfd9a9b:0x9348e51ad6276e68", "name": "Upmarkup SEO Company Indore", "category": "Internet marketing service", "street": "G1", "city": "GANESH APARTMENT", "phone": "09424235596", "website": "http://ranking10x.com/", "rating": 5, "review_count": "", "latitude": 22.7159802, "longitude": 75.8999523, "maps_url": "https://www.google.com/maps/place/?q=place_id:0x3962e3459cfd9a9b:0x9348e51ad6276e68"}, {"place_id": "0x2d1fb13b66f9b3b9:0xd8d6782015bc63e4", "name": "Dharmdesigner IT Services", "category": "Internet marketing service", "street": "Silver Park", "city": "Balaji Nagar", "phone": "08120348239", "website": "https://dharmdesigner.com/", "rating": 5, "review_count": "", "latitude": 22.947556799999997, "longitude": 76.05479059999999, "maps_url": "https://www.google.com/maps/place/?q=place_id:0x2d1fb13b66f9b3b9:0xd8d6782015bc63e4"}, {"place_id": "0x3be7c21b5901e181:0x7fe794585addc1f6", "name": "Smartinfologiks - Software Development Company in India | IT Solutions", "category": "Software company", "street": "Hilton Center", "city": "514", "phone": "07400064691", "website": "https://www.smartinfologiks.com/", "rating": 4.6, "review_count": "", "latitude": 19.0139592, "longitude": 73.0382705, "maps_url": "https://www.google.com/maps/place/?q=place_id:0x3be7c21b5901e181:0x7fe794585addc1f6"}, {"place_id": "0x886bcda325d0f573:0x2675d75c96680ce3", "name": "Lupiv Technologies | Software Development & SEO Company", "category": "Website designer", "street": "", "city": "", "phone": "", "website": "https://lupivtech.com/", "rating": 5, "review_count": "", "latitude": 45.050399899999995, "longitude": -47.802320699999996, "maps_url": "https://www.google.com/maps/place/?q=place_id:0x886bcda325d0f573:0x2675d75c96680ce3"}, {"place_id": "0x3bc2becdc35b6937:0x515ac559c349eee3", "name": "Thinkitive Technologies Private Limited", "category": "Software company", "street": "4th Floor", "city": "ABIL IMPERIAL COMMERCIAL SPACES", "phone": "08956467327", "website": "https://www.thinkitive.com/", "rating": 3.9, "review_count": "", "latitude": 18.5563888, "longitude": 73.7729748, "maps_url": "https://www.google.com/maps/place/?q=place_id:0x3bc2becdc35b6937:0x515ac559c349eee3"}, {"place_id": "0x3be7c21b5901e181:0x7fe794585addc1f6", "name": "Smartinfologiks - Software Development Company in India | IT Solutions", "category": "Software company", "street": "Hilton Center", "city": "514", "phone": "07400064691", "website": "https://www.smartinfologiks.com/", "rating": 4.6, "review_count": "", "latitude": 19.0139592, "longitude": 73.0382705, "maps_url": "https://www.google.com/maps/place/?q=place_id:0x3be7c21b5901e181:0x7fe794585addc1f6"}, {"place_id": "0x3962e3e2960b98f7:0xe6edcca61da2f17d", "name": "Inspark Technologies", "category": "Marketing agency", "street": "101, Shree vinayak residency Bengali Square", "city": "Madhya Pradesh 452016", "phone": "09407116798", "website": "https://insparktechnologies.com/", "rating": 5, "review_count": "", "latitude": 22.7249613, "longitude": 75.9085673, "maps_url": "https://www.google.com/maps/place/?q=place_id:0x3962e3e2960b98f7:0xe6edcca61da2f17d"}, {"place_id": "0x3bc2becdc35b6937:0x515ac559c349eee3", "name": "Thinkitive Technologies Private Limited", "category": "Software company", "street": "4th Floor", "city": "ABIL IMPERIAL COMMERCIAL SPACES", "phone": "08956467327", "website": "https://www.thinkitive.com/", "rating": 3.9, "review_count": "", "latitude": 18.5563888, "longitude": 73.7729748, "maps_url": "https://www.google.com/maps/place/?q=place_id:0x3bc2becdc35b6937:0x515ac559c349eee3"}, {"place_id": "0x2bc24365ff52a955:0x6a060283e756ed53", "name": "KaalCyberSec", "category": "Software company", "street": "", "city": "", "phone": "09399667551", "website": "https://kaal-1-commit.github.io/KaalCyberSec/index.html", "rating": 5, "review_count": "", "latitude": 22.6947699, "longitude": 75.8674897, "maps_url": "https://www.google.com/maps/place/?q=place_id:0x2bc24365ff52a955:0x6a060283e756ed53"}, {"place_id": "0x3962fd767e473123:0xe7e0bd120f27d567", "name": "Bingage", "category": "Software company", "street": "1st Floor", "city": "107, MR-5", "phone": "07723014145", "website": "https://bingage.com/", "rating": 4, "review_count": "", "latitude": 22.7597493, "longitude": 75.9112244, "maps_url": "https://www.google.com/maps/place/?q=place_id:0x3962fd767e473123:0xe7e0bd120f27d567"}, {"place_id": "0x39631dbb2049dd65:0xb667eb306f1b92c5", "name": "IT Company", "category": "Information services", "street": "Chikitsak Nagar", "city": "Indore, Madhya Pradesh 452010", "phone": "", "website": "", "rating": 2, "review_count": "", "latitude": 22.7569083, "longitude": 75.9056753, "maps_url": "https://www.google.com/maps/place/?q=place_id:0x39631dbb2049dd65:0xb667eb306f1b92c5"}, {"place_id": "0x3962fd2c77808f53:0x50b6118a4ac0bcda", "name": "10XDigitals: Result Driven Digital Marketing Company in Indore", "category": "Marketing agency", "street": "c5", "city": "Sector A, Goyal Nagar", "phone": "07869285359", "website": "https://www.10xdigitals.com/?utm_source=Organic+&utm_medium=GBL+&utm_campaign=10XDigitals&utm_id=GBL_10XDigitals_Indore", "rating": 5, "review_count": "", "latitude": 22.7181338, "longitude": 75.9048686, "maps_url": "https://www.google.com/maps/place/?q=place_id:0x3962fd2c77808f53:0x50b6118a4ac0bcda"}, {"place_id": "0x396317cb7c6c3d3b:0x9f2bbbfa9937c9b", "name": "SOMTARA Infotech", "category": "Software company", "street": "TARA KUNJ 205", "city": "opp. Escort Junior College", "phone": "", "website": "https://www.somtarainfotech.com/", "rating": "", "review_count": "", "latitude": 22.954623599999998, "longitude": 76.0349313, "maps_url": "https://www.google.com/maps/place/?q=place_id:0x396317cb7c6c3d3b:0x9f2bbbfa9937c9b"}, {"place_id": "0x396317929f6eb6ff:0xd309788e3f800c63", "name": "Lumic technologies", "category": "Software company", "street": "28, Sardar Patel Marg", "city": "Sutar Bakhal, Old Town, Gomti Nagar", "phone": "07804920240", "website": "http://www.lumicsoft.com/", "rating": "", "review_count": "", "latitude": 22.9654703, "longitude": 76.0527128, "maps_url": "https://www.google.com/maps/place/?q=place_id:0x396317929f6eb6ff:0xd309788e3f800c63"}, {"place_id": "0x3962fd4ea23e1283:0x42e7f5add87adbcf", "name": "Startling Solar Pvt Ltd- Solar Company in Indore", "category": "Solar Energy Company", "street": "292,Sec C", "city": "near, Star Square", "phone": "09322658999", "website": "http://startlingsolar.com/", "rating": 5, "review_count": "", "latitude": 22.746141599999998, "longitude": 75.93037, "maps_url": "https://www.google.com/maps/place/?q=place_id:0x3962fd4ea23e1283:0x42e7f5add87adbcf"}, {"place_id": "0x39631d6f456d606d:0x49a3a80ac3ad9237", "name": "AricaGlobal Graphic Design Agency, Indore | Best Graphic Design Company in Indore |", "category": "Graphic designer", "street": "near DB City", "city": "Tulsi Nagar, Nipania", "phone": "07869270155", "website": "http://aricaglobalgraphics.com/", "rating": 4.7, "review_count": "", "latitude": 22.7575173, "longitude": 75.92083269999999, "maps_url": "https://www.google.com/maps/place/?q=place_id:0x39631d6f456d606d:0x49a3a80ac3ad9237"}, {"place_id": "0x3962e37b64b9370b:0x9e561b536c709b5", "name": "Rakuten Symphony", "category": "Corporate office", "street": "Pushp Vihar Colony, Scheme No 131", "city": "Indore, Madhya Pradesh 452010", "phone": "", "website": "https://symphony.rakuten.com/", "rating": 4.2, "review_count": "", "latitude": 22.750048, "longitude": 75.9052169, "maps_url": "https://www.google.com/maps/place/?q=place_id:0x3962e37b64b9370b:0x9e561b536c709b5"}, {"place_id": "0x3962fd4a214365a9:0x9cf182f5c16ebaca", "name": "Graphic360 (Graphic Design Services, Indore, MP, India)", "category": "Graphic designer", "street": "House no. 215", "city": "Alok Nagar Garden", "phone": "09669132203", "website": "http://graphic360.in/", "rating": 4.7, "review_count": "", "latitude": 22.7274839, "longitude": 75.9215816, "maps_url": "https://www.google.com/maps/place/?q=place_id:0x3962fd4a214365a9:0x9cf182f5c16ebaca"}, {"place_id": "0x773ac78f2d2d591:0xceaf1abf4cfd5dfe", "name": "Cerbosys Technologies Private Limited - IT and Marketing Company", "category": "Software company", "street": "", "city": "", "phone": "08839697183", "website": "https://www.cerbosys.com/", "rating": "", "review_count": "", "latitude": 2.7964412, "longitude": 75.3080562, "maps_url": "https://www.google.com/maps/place/?q=place_id:0x773ac78f2d2d591:0xceaf1abf4cfd5dfe"}, {"place_id": "0x3963179e783f3caf:0x370c4af9c04c7225", "name": "Satisfaction Web Solution Pvt. Ltd", "category": "Software company", "street": "146 Alkapuri", "city": "behind Shri Munisuvrat Swami Shwetambar Jain Mandir Dewas", "phone": "09826073695", "website": "http://www.satisfactionwebsolution.com/", "rating": 4.4, "review_count": "", "latitude": 22.967319, "longitude": 76.0412837, "maps_url": "https://www.google.com/maps/place/?q=place_id:0x3963179e783f3caf:0x370c4af9c04c7225"}, {"place_id": "0x3962fd35756525c5:0x4ef7c36dbf73c934", "name": "Offbeat Infotech Pvt.Ltd.", "category": "Software company", "street": "167, Goyal Vihar Phase 2", "city": "Khajrana", "phone": "09893202231", "website": "https://offbeatinfotech.com/", "rating": 5, "review_count": "", "latitude": 22.7283641, "longitude": 75.90725259999999, "maps_url": "https://www.google.com/maps/place/?q=place_id:0x3962fd35756525c5:0x4ef7c36dbf73c934"}, {"place_id": "0x39631d6ae4f42a97:0x83bc825e66f9983", "name": "Techwave IT Solutions Pvt Ltd | Software Development Company in Indore | Top IT Company in Indore | India", "category": "Software company", "street": "Bhopal Motors JCB", "city": "near Panchvati", "phone": "09009155444", "website": "http://techwaveitsolutions.com/", "rating": "", "review_count": "", "latitude": 22.792078399999998, "longitude": 75.90735409999999, "maps_url": "https://www.google.com/maps/place/?q=place_id:0x39631d6ae4f42a97:0x83bc825e66f9983"}, {"place_id": "0x3962fd40c07ee73b:0x5271af736aa80192", "name": "Avalanche Infotech Pvt. Ltd", "category": "Software company", "street": "Shine diamond", "city": "201", "phone": "09770097770", "website": "http://www.avalancheinfotech.com/", "rating": 4.1, "review_count": "", "latitude": 22.702973, "longitude": 75.91366099999999, "maps_url": "https://www.google.com/maps/place/?q=place_id:0x3962fd40c07ee73b:0x5271af736aa80192"}, {"place_id": "0x396317170221cccd:0xdc916aeffd9100ea", "name": "Webaashi Technologies", "category": "Software company", "street": "C 82, AB Rd", "city": "Kalani Bagh, Agroha Nagar, Gomti Nagar", "phone": "", "website": "http://webaashi.com/", "rating": 4.9, "review_count": "", "latitude": 22.9586091, "longitude": 76.0484482, "maps_url": "https://www.google.com/maps/place/?q=place_id:0x396317170221cccd:0xdc916aeffd9100ea"}, {"place_id": "0x3962e1dbbf1060d5:0x3487b9facc141252", "name": "Dr Asclepius", "category": "Pharmaceutical company", "street": "Semliya Chau", "city": "Indore, Madhya Pradesh 452016", "phone": "", "website": "http://www.drasclepius.in/", "rating": 4.8, "review_count": "", "latitude": 22.764845599999997, "longitude": 76.07323989999999, "maps_url": "https://www.google.com/maps/place/?q=place_id:0x3962e1dbbf1060d5:0x3487b9facc141252"}, {"place_id": "0x396317170221cccd:0xdc916aeffd9100ea", "name": "Webaashi Technologies", "category": "Software company", "street": "C 82, AB Rd", "city": "Kalani Bagh, Agroha Nagar, Gomti Nagar", "phone": "", "website": "http://webaashi.com/", "rating": 4.9, "review_count": "", "latitude": 22.9586091, "longitude": 76.0484482, "maps_url": "https://www.google.com/maps/place/?q=place_id:0x396317170221cccd:0xdc916aeffd9100ea"}, {"place_id": "0x3963194c0a91d77d:0xc0227c345ba30719", "name": "Gabriel India Limited", "category": "Corporate office", "street": "Industrial Area No.2", "city": "Dewas, Madhya Pradesh 455001", "phone": "", "website": "", "rating": 4.1, "review_count": "", "latitude": 22.929257399999997, "longitude": 76.0389397, "maps_url": "https://www.google.com/maps/place/?q=place_id:0x3963194c0a91d77d:0xc0227c345ba30719"}, {"place_id": "0x3962fd4a214365a9:0x9cf182f5c16ebaca", "name": "Graphic360 (Graphic Design Services, Indore, MP, India)", "category": "Graphic designer", "street": "House no. 215", "city": "Alok Nagar Garden", "phone": "09669132203", "website": "http://graphic360.in/", "rating": 4.7, "review_count": "", "latitude": 22.7274839, "longitude": 75.9215816, "maps_url": "https://www.google.com/maps/place/?q=place_id:0x3962fd4a214365a9:0x9cf182f5c16ebaca"}, {"place_id": "0x39631d41e8e5a72f:0x7651855ebf3129df", "name": "PickRenew Energy Pvt. Ltd. | Solar Company | Solar Panel | Commercial & Industrial Solar Rooftop Installation", "category": "Solar Energy Company", "street": "Plot no. 613", "city": "near Anurag nagar", "phone": "08223003888", "website": "https://pickrenew.com/", "rating": 4.9, "review_count": "", "latitude": 22.764121799999998, "longitude": 75.9036452, "maps_url": "https://www.google.com/maps/place/?q=place_id:0x39631d41e8e5a72f:0x7651855ebf3129df"}, {"place_id": "0x3962e37b64b9370b:0x9e561b536c709b5", "name": "Rakuten Symphony", "category": "Corporate office", "street": "Pushp Vihar Colony, Scheme No 131", "city": "Indore, Madhya Pradesh 452010", "phone": "", "website": "https://symphony.rakuten.com/", "rating": 4.2, "review_count": "", "latitude": 22.750048, "longitude": 75.9052169, "maps_url": "https://www.google.com/maps/place/?q=place_id:0x3962e37b64b9370b:0x9e561b536c709b5"}, {"place_id": "0x3962fd2216aaaaab:0x42f58207e972cf84", "name": "Click Inc - Digital Marketing & SEO Company", "category": "Internet marketing service", "street": "506", "city": "Gold Plaza", "phone": "07869995989", "website": "http://www.click-inc.in/", "rating": 4.9, "review_count": "", "latitude": 22.7590793, "longitude": 75.923087, "maps_url": "https://www.google.com/maps/place/?q=place_id:0x3962fd2216aaaaab:0x42f58207e972cf84"}, {"place_id": "0x3962fd40c07ee73b:0x5271af736aa80192", "name": "Avalanche Infotech Pvt. Ltd", "category": "Software company", "street": "Shine diamond", "city": "201", "phone": "09770097770", "website": "http://www.avalancheinfotech.com/", "rating": 4.1, "review_count": "", "latitude": 22.702973, "longitude": 75.91366099999999, "maps_url": "https://www.google.com/maps/place/?q=place_id:0x3962fd40c07ee73b:0x5271af736aa80192"}, {"place_id": "0x3962e355c5c7f6c9:0xf5ecfffee73fe701", "name": "DigitalShri - The SEO Company", "category": "Internet marketing service", "street": "88", "city": "near Malviya Petrol Pump", "phone": "07225850165", "website": "https://digitalshri.com/", "rating": 5, "review_count": "", "latitude": 22.7463755, "longitude": 75.90603829999999, "maps_url": "https://www.google.com/maps/place/?q=place_id:0x3962e355c5c7f6c9:0xf5ecfffee73fe701"}, {"place_id": "0x396318244daf11b5:0xc4a7dcfa7008013d", "name": "Bappa Creation India : Video Advertising Company", "category": "Video production service", "street": "Balgarh, balaji nagar, Industrial Area No.2, Dewas, Madhya Pradesh 455111", "city": "Dewas, Madhya Pradesh 455001", "phone": "08602895443", "website": "https://bappacreationindia.wixsite.com/bappacreationindia", "rating": 5, "review_count": "", "latitude": 22.9429922, "longitude": 76.05390899999999, "maps_url": "https://www.google.com/maps/place/?q=place_id:0x396318244daf11b5:0xc4a7dcfa7008013d"}, {"place_id": "0x3962fd2c77808f53:0x50b6118a4ac0bcda", "name": "10XDigitals: Result Driven Digital Marketing Company in Indore", "category": "Marketing agency", "street": "c5", "city": "Sector A, Goyal Nagar", "phone": "07869285359", "website": "https://www.10xdigitals.com/?utm_source=Organic+&utm_medium=GBL+&utm_campaign=10XDigitals&utm_id=GBL_10XDigitals_Indore", "rating": 5, "review_count": "", "latitude": 22.7181338, "longitude": 75.9048686, "maps_url": "https://www.google.com/maps/place/?q=place_id:0x3962fd2c77808f53:0x50b6118a4ac0bcda"}, {"place_id": "0x396319e845555555:0x1b3842080da83c8a", "name": "Dewas Metal Sections Ltd.", "category": "Manufacturer", "street": "W2C5+HGF", "city": "AB Rd", "phone": "08435501485", "website": "https://www.dmsl.co.in/", "rating": 4.4, "review_count": "", "latitude": 22.9224118, "longitude": 76.0073221, "maps_url": "https://www.google.com/maps/place/?q=place_id:0x396319e845555555:0x1b3842080da83c8a"}, {"place_id": "0x396317d7b9fce5ed:0x76f34aad91692f9e", "name": "Cyber Veins", "category": "Software company", "street": "", "city": "", "phone": "08085747661", "website": "http://cyber-veins.in/", "rating": 5, "review_count": "", "latitude": 14.157641199999999, "longitude": -16.7424939, "maps_url": "https://www.google.com/maps/place/?q=place_id:0x396317d7b9fce5ed:0x76f34aad91692f9e"}, {"place_id": "0x3962e1dbbf1060d5:0x3487b9facc141252", "name": "Dr Asclepius", "category": "Pharmaceutical company", "street": "Semliya Chau", "city": "Indore, Madhya Pradesh 452016", "phone": "", "website": "http://www.drasclepius.in/", "rating": 4.8, "review_count": "", "latitude": 22.764845599999997, "longitude": 76.07323989999999, "maps_url": "https://www.google.com/maps/place/?q=place_id:0x3962e1dbbf1060d5:0x3487b9facc141252"}, {"place_id": "0x3962e2c8b661e3cd:0xc761b7784b672eb2", "name": "Techiasm IT Company", "category": "Software company", "street": "near Bengali square", "city": "Ashish Nagar", "phone": "", "website": "", "rating": "", "review_count": "", "latitude": 22.7227757, "longitude": 75.9102118, "maps_url": "https://www.google.com/maps/place/?q=place_id:0x3962e2c8b661e3cd:0xc761b7784b672eb2"}, {"place_id": "0x39631d521e337c17:0xa5bc2ee3552e83a8", "name": "Webmuse Technology", "category": "Software company", "street": "vasant vihar", "city": "41 C, Bombay Hospital Service Rd", "phone": "07000602982", "website": "", "rating": 5, "review_count": "", "latitude": 22.7613783, "longitude": 75.9055698, "maps_url": "https://www.google.com/maps/place/?q=place_id:0x39631d521e337c17:0xa5bc2ee3552e83a8"}, {"place_id": "0x3962e3ce3dd2a77b:0xca74f84b93609f2c", "name": "Made By Sparky | Digital Marketing Company Indore", "category": "Marketing agency", "street": "309, Work Vistar", "city": "The Zodiac Mall", "phone": "07999586236", "website": "http://www.madebysparky.com/", "rating": 5, "review_count": "", "latitude": 22.703511199999998, "longitude": 75.9178094, "maps_url": "https://www.google.com/maps/place/?q=place_id:0x3962e3ce3dd2a77b:0xca74f84b93609f2c"}, {"place_id": "0x39632175d5276949:0xd5b03e1a9c90d433", "name": "Goyal Studio Online Centre", "category": "Computer support and services", "street": "Front Of Cm Raice Shcool", "city": "Road", "phone": "07225086746", "website": "", "rating": "", "review_count": "", "latitude": 22.7838834, "longitude": 76.12345979999999, "maps_url": "https://www.google.com/maps/place/?q=place_id:0x39632175d5276949:0xd5b03e1a9c90d433"}, {"place_id": "0x396317bd43c6cae9:0x93e7d2a1d33dd13f", "name": "Anahcra Infotech Private Limited", "category": "Marketing agency", "street": "81, Khari Bawadi Road", "city": "Old Town, Hanuman Bakhal", "phone": "07987071323", "website": "", "rating": 5, "review_count": "", "latitude": 22.9622605, "longitude": 76.0569897, "maps_url": "https://www.google.com/maps/place/?q=place_id:0x396317bd43c6cae9:0x93e7d2a1d33dd13f"}]}