{"timestamp": 1773730573.3425004, "keyword": "IT company", "location": "delhi", "cell_idx": 260, "results": [{"place_id": "0x390d1c154aba0acd:0xc90313ce54cb43e9", "name": "Midas IT Services India Pvt Ltd", "category": "Software company", "street": "L", "city": "42", "phone": "", "website": "http://www.midaswebtech.com/", "rating": 4.6, "review_count": "", "latitude": 28.545162299999998, "longitude": 77.12531, "maps_url": "https://www.google.com/maps/place/?q=place_id:0x390d1c154aba0acd:0xc90313ce54cb43e9"}, {"place_id": "0x390d1c3fadaf436b:0x7da80df34b6cc628", "name": "Acelema It Solutions Pvt. Ltd", "category": "Software company", "street": "L 357, 1st Floor", "city": "Gurgaon - Delhi Expy", "phone": "09015904466", "website": "https://www.acelema.com/", "rating": 5, "review_count": "", "latitude": 28.5456917, "longitude": 77.1231365, "maps_url": "https://www.google.com/maps/place/?q=place_id:0x390d1c3fadaf436b:0x7da80df34b6cc628"}, {"place_id": "0x390d1be7f1a44f95:0x84524a5425f8930d", "name": "InfraDost Technologies Pvt Ltd.- Microsoft Adobe Corel Draw & Security Solution Provider", "category": "Computer support and services", "street": "Gurgaon - Delhi Expy", "city": "Block B, Mahipalpur Village, Mahipalpur", "phone": "08287792542", "website": "http://www.infradost.com/", "rating": 4.6, "review_count": "", "latitude": 28.5485743, "longitude": 77.1264697, "maps_url": "https://www.google.com/maps/place/?q=place_id:0x390d1be7f1a44f95:0x84524a5425f8930d"}, {"place_id": "0x390d1c476b256351:0xef85ae31922329ae", "name": "Iris Global Services Pvt Ltd", "category": "Information services", "street": "G4XM+552", "city": "1, Bypass Rd", "phone": "08448344355", "website": "http://www.irisworld.net/", "rating": 4.2, "review_count": "", "latitude": 28.5467381, "longitude": 77.13300129999999, "maps_url": "https://www.google.com/maps/place/?q=place_id:0x390d1c476b256351:0xef85ae31922329ae"}, {"place_id": "0x390d1c40d524777d:0xd85e96cc2f3481a0", "name": "Callmate India Pvt. Ltd.", "category": "Electronics Company", "street": "A-187, Street No. 11", "city": "Rd Number 4", "phone": "08527600022", "website": "http://www.callmateindia.com/", "rating": 4.1, "review_count": "", "latitude": 28.5498586, "longitude": 77.131142, "maps_url": "https://www.google.com/maps/place/?q=place_id:0x390d1c40d524777d:0xd85e96cc2f3481a0"}, {"place_id": "0x390d1c414956fc47:0x2fafa9846ecd49aa", "name": "Inckah Infrastructure Technologies Private Limited", "category": "Road Contractor", "street": "A-254, Road No. 6", "city": "Block RZ, Mahipalpur Village, Mahipalpur", "phone": "01126785033", "website": "http://www.inckah.com/", "rating": 4.5, "review_count": "", "latitude": 28.5509004, "longitude": 77.13089149999999, "maps_url": "https://www.google.com/maps/place/?q=place_id:0x390d1c414956fc47:0x2fafa9846ecd49aa"}, {"place_id": "0x390d1c32a16c2629:0xa37e7b027558a29e", "name": "Avalon Information Systems Pvt. Ltd.", "category": "Software company", "street": "Plot No. 7, Institutional Area Phase II, 3rd Floor", "city": "Vasant Kunj", "phone": "09319391086", "website": "https://www.avaloninfosys.com/", "rating": 3.7, "review_count": "", "latitude": 28.5431746, "longitude": 77.146245, "maps_url": "https://www.google.com/maps/place/?q=place_id:0x390d1c32a16c2629:0xa37e7b027558a29e"}, {"place_id": "0x390ce458d0000001:0xf2123bd299ec4501", "name": "IT Company India", "category": "Software company", "street": "D56", "city": "D Block, Sector 10", "phone": "09999244854", "website": "https://www.itcompanyindia.in/", "rating": 4.7, "review_count": "", "latitude": 28.589917699999997, "longitude": 77.3351153, "maps_url": "https://www.google.com/maps/place/?q=place_id:0x390ce458d0000001:0xf2123bd299ec4501"}, {"place_id": "0x390d1db569206289:0x61df389e970baa34", "name": "Brilyant IT Solutions", "category": "Warehouse", "street": "Road No. 6", "city": "Block RZ, Mahipalpur Village, Mahipalpur", "phone": "08948250154", "website": "http://www.brilyant.com/", "rating": 5, "review_count": "", "latitude": 28.5513758, "longitude": 77.1314483, "maps_url": "https://www.google.com/maps/place/?q=place_id:0x390d1db569206289:0x61df389e970baa34"}, {"place_id": "0x390d1d36ad5bb8f1:0x521103d9a7d23f38", "name": "SYRIX TECHNOLOGIES", "category": "Computer store", "street": "K-810 1st Floor", "city": "Vasant Kunj Rd", "phone": "08700934605", "website": "https://syrix-technologies.grexa.site/", "rating": 4.9, "review_count": "", "latitude": 28.5415939, "longitude": 77.12751519999999, "maps_url": "https://www.google.com/maps/place/?q=place_id:0x390d1d36ad5bb8f1:0x521103d9a7d23f38"}, {"place_id": "0x390d1d925cb370f5:0x9e5f79cffe269b7a", "name": "Techshades IT Consultants \u2013 Digital Marketing Agency", "category": "Software company", "street": "Office No-215, 1st Floor", "city": "Sukhma Tower", "phone": "", "website": "https://techshades.in/", "rating": 5, "review_count": "", "latitude": 28.5432161, "longitude": 77.1238233, "maps_url": "https://www.google.com/maps/place/?q=place_id:0x390d1d925cb370f5:0x9e5f79cffe269b7a"}, {"place_id": "0x390d1d9ce0eaada3:0xc5a1a0a2458099e3", "name": "CODENCREATIVE TECH PVT LTD", "category": "Software company", "street": "DDA Flat", "city": "RBI Officers Colony, Vasant Vihar", "phone": "09717047610", "website": "https://codencreative.com/", "rating": 4.9, "review_count": "", "latitude": 28.563302099999998, "longitude": 77.1519732, "maps_url": "https://www.google.com/maps/place/?q=place_id:0x390d1d9ce0eaada3:0xc5a1a0a2458099e3"}, {"place_id": "0x390d1c403c9c5a9d:0xefb576c41460d21a", "name": "MND TECH", "category": "Computer support and services", "street": "A-18, Rd Number 2", "city": "Block B, Mahipalpur Extension, Mahipalpur", "phone": "09304454694", "website": "http://mndtechsolutions.com/", "rating": 4.8, "review_count": "", "latitude": 28.547701, "longitude": 77.126262, "maps_url": "https://www.google.com/maps/place/?q=place_id:0x390d1c403c9c5a9d:0xefb576c41460d21a"}, {"place_id": "0x390d1c46c94576b3:0x486c267a4cfe3126", "name": "It Floor Services Pvt Ltd", "category": "Computer repair service", "street": "First Floor", "city": "Block a", "phone": "", "website": "", "rating": 5, "review_count": "", "latitude": 28.550338, "longitude": 77.13167299999999, "maps_url": "https://www.google.com/maps/place/?q=place_id:0x390d1c46c94576b3:0x486c267a4cfe3126"}, {"place_id": "0x390ce3c153b89811:0xe7a279685777e9ca", "name": "IT Company", "category": "Automation company", "street": "A-14", "city": "near iskcon temple", "phone": "", "website": "http://www.opuswiz.com/", "rating": 3, "review_count": "", "latitude": 28.557167, "longitude": 77.25424819999999, "maps_url": "https://www.google.com/maps/place/?q=place_id:0x390ce3c153b89811:0xe7a279685777e9ca"}, {"place_id": "0x390d1daf5bbb6d71:0xd493e8d457a28388", "name": "DPM IT SOLUTIONS", "category": "Software company", "street": "2nd floor, madangiri", "city": "111, E-2", "phone": "09650413450", "website": "https://dpmitsolutions.com/", "rating": 5, "review_count": "", "latitude": 28.565620799999998, "longitude": 77.16005679999999, "maps_url": "https://www.google.com/maps/place/?q=place_id:0x390d1daf5bbb6d71:0xd493e8d457a28388"}, {"place_id": "0x390d1d86a4f12173:0x3a6b42ea6f4b8260", "name": "Softvanz Technologies Private Limited", "category": "Software company", "street": "Somdutt Chamber 1", "city": "BT-22/9", "phone": "", "website": "https://softvanz.com/", "rating": 5, "review_count": "", "latitude": 28.567948899999998, "longitude": 77.1889269, "maps_url": "https://www.google.com/maps/place/?q=place_id:0x390d1d86a4f12173:0x3a6b42ea6f4b8260"}, {"place_id": "0x390ce3ad10000061:0xeff7e6017a22cce7", "name": "Alpinesoft IT Solutions Authorized Google Workspace Reseller", "category": "Software company", "street": "162/9 Ist Floor, KIshangarh - Gaushala Marg", "city": "Lakhi Nath Kuti, Mehrauli, Vasant Kunj", "phone": "09999011157", "website": "https://www.alpinesoftit.com/", "rating": 4.3, "review_count": "", "latitude": 28.515394399999998, "longitude": 77.16460359999999, "maps_url": "https://www.google.com/maps/place/?q=place_id:0x390ce3ad10000061:0xeff7e6017a22cce7"}, {"place_id": "0x390d1db0320254cf:0x55622d8901ac1ec9", "name": "Vatech India", "category": "Dental radiology", "street": "2nd Floor", "city": "S.M. Plaza", "phone": "09599812206", "website": "http://vatechindia.in/", "rating": 4.3, "review_count": "", "latitude": 28.5480608, "longitude": 77.1331506, "maps_url": "https://www.google.com/maps/place/?q=place_id:0x390d1db0320254cf:0x55622d8901ac1ec9"}, {"place_id": "0x390cfad7fb251d4b:0xbbf83609d8e40cd3", "name": "India Assist Insights Pvt Ltd", "category": "Software company", "street": "Asset One, G1, Hyatt Andaz Residences", "city": "Aerocity", "phone": "09811664898", "website": "http://indiaassist.com/", "rating": 5, "review_count": "", "latitude": 28.5538229, "longitude": 77.12227899999999, "maps_url": "https://www.google.com/maps/place/?q=place_id:0x390cfad7fb251d4b:0xbbf83609d8e40cd3"}, {"place_id": "0x390d1ef42b9dcc7d:0xf63e70b61911afe3", "name": "Barsys India Private Limited", "category": "Home automation company", "street": "A244, First Floor Road No. 6, NH 8", "city": "Mahipalpur Extension", "phone": "08448399200", "website": "https://thebarsys.com/", "rating": 4.1, "review_count": "", "latitude": 28.550924799999997, "longitude": 77.13027249999999, "maps_url": "https://www.google.com/maps/place/?q=place_id:0x390d1ef42b9dcc7d:0xf63e70b61911afe3"}, {"place_id": "0x2a72b8b69d7b6493:0x11251466d4d34cac", "name": "WebZonal IT Company", "category": "Website designer", "street": "Wz-258/2-3, D Block Rd", "city": "Khazan Basti, Nangal Raya, Janakpuri", "phone": "09811170903", "website": "http://webzonal.com/", "rating": 5, "review_count": "", "latitude": 28.6122102, "longitude": 77.11159549999999, "maps_url": "https://www.google.com/maps/place/?q=place_id:0x2a72b8b69d7b6493:0x11251466d4d34cac"}, {"place_id": "0x390ce5fdcc79e755:0x309ce99251b84ef6", "name": "Optyminds IT Solutions - Top AI and IT company I Best Digital agency in Noida | Delhi NCR | India", "category": "Software company", "street": "1st Floor", "city": "B-70", "phone": "08929075975", "website": "https://optyminds.com/", "rating": 4.9, "review_count": "", "latitude": 28.584679599999998, "longitude": 77.3135042, "maps_url": "https://www.google.com/maps/place/?q=place_id:0x390ce5fdcc79e755:0x309ce99251b84ef6"}, {"place_id": "0x390d1c46d556aa5f:0x860f671b4ab95401", "name": "OverseasOne Business Solutions", "category": "Consultant", "street": "A-294, Road No. 6", "city": "NH-8, Block RZ, Mahipalpur Village, Mahipalpur", "phone": "09205816999", "website": "http://overseasone.com/", "rating": 3.8, "review_count": "", "latitude": 28.550951599999998, "longitude": 77.1300701, "maps_url": "https://www.google.com/maps/place/?q=place_id:0x390d1c46d556aa5f:0x860f671b4ab95401"}, {"place_id": "0x390d02994de5e515:0xd908bc03409a0d37", "name": "Himalayan IT Solutions | Best Website Designing Company in Delhi | SEO/Digital Marketing Company in Delhi NCR, India", "category": "Website designer", "street": "61/4255, Padam Singh Rd", "city": "Block 29, Block 1, Regar Pura, Karol Bagh", "phone": "09899098509", "website": "http://www.himalayanitsolutions.com/", "rating": 3.9, "review_count": "", "latitude": 28.649673999999997, "longitude": 77.186599, "maps_url": "https://www.google.com/maps/place/?q=place_id:0x390d02994de5e515:0xd908bc03409a0d37"}, {"place_id": "0x390d1df079759d1f:0x8bfa70033f6c672a", "name": "NR Technoserve Pvt. Ltd.", "category": "Software company", "street": "133, Katwaria Sarai", "city": "Phase-2, Qutab Institutional Area", "phone": "07289096762", "website": "http://www.nrtechnoserve.co.in/", "rating": 4.4, "review_count": "", "latitude": 28.5413306, "longitude": 77.18495519999999, "maps_url": "https://www.google.com/maps/place/?q=place_id:0x390d1df079759d1f:0x8bfa70033f6c672a"}, {"place_id": "0x390d1dd455555555:0xf0c0ae7cb8e85b43", "name": "AtoZ Group of Companies", "category": "Property management company", "street": "37/537, Vasant Kunj Rd", "city": "Block A, Mahipalpur Village, Mahipalpur", "phone": "09810818888", "website": "http://www.atozgroup.in/", "rating": 3.7, "review_count": "", "latitude": 28.5452659, "longitude": 77.128058, "maps_url": "https://www.google.com/maps/place/?q=place_id:0x390d1dd455555555:0xf0c0ae7cb8e85b43"}, {"place_id": "0x390d1f5abfb25fe1:0x7d9c4d5e159f2955", "name": "Jaimru Technology Pvt Ltd", "category": "Website designer", "street": "WARD NO. 2", "city": "Plot No. 178 M 33 A/1", "phone": "07838153420", "website": "https://www.jaimru.com/", "rating": 4.9, "review_count": "", "latitude": 28.524347499999998, "longitude": 77.1731889, "maps_url": "https://www.google.com/maps/place/?q=place_id:0x390d1f5abfb25fe1:0x7d9c4d5e159f2955"}, {"place_id": "0x390d1c6bcfd37a51:0xe65828997af7f8dd", "name": "Ernst and Young Global Limited", "category": "Business management consultant", "street": "3rd & 6th Floor, Wing A & B Worldmark-1 Indira Gandhi International Airport Hospitality", "city": "Opp Holiday Inn", "phone": "", "website": "http://ey.com/", "rating": 4.6, "review_count": "", "latitude": 28.5504197, "longitude": 77.1220802, "maps_url": "https://www.google.com/maps/place/?q=place_id:0x390d1c6bcfd37a51:0xe65828997af7f8dd"}, {"place_id": "0x390d1c3f9e96b4e7:0x1b34ca75e82038aa", "name": "M/S Sunrise Freight Forwarders (P.). Ltd", "category": "Corporate office", "street": "A-1023 Surya Bhawan, Road No 6", "city": "Village Mahipalpur", "phone": "01130672956", "website": "", "rating": 4.3, "review_count": "", "latitude": 28.549702999999997, "longitude": 77.13170509999999, "maps_url": "https://www.google.com/maps/place/?q=place_id:0x390d1c3f9e96b4e7:0x1b34ca75e82038aa"}, {"place_id": "0x390d1c414b51d9d3:0xea00e3996d2d7487", "name": "KGL Network Pvt Ltd ( New Location)", "category": "Corporate office", "street": "Plot No. 261-262, 2nd Floor, -6,", "city": "Road No. 6", "phone": "01145709700", "website": "https://kglindia.com/", "rating": 3.8, "review_count": "", "latitude": 28.5509572, "longitude": 77.13133119999999, "maps_url": "https://www.google.com/maps/place/?q=place_id:0x390d1c414b51d9d3:0xea00e3996d2d7487"}, {"place_id": "0x390d1b483d842a9d:0x77b1bfad79e590bd", "name": "Luxe Finalyzer India Pvt Ltd", "category": "Tax consultant", "street": "Vasant View Apartment", "city": "A 4, bypass Road", "phone": "09205292612", "website": "http://www.luxefinalyzer.com/", "rating": 3.7, "review_count": "", "latitude": 28.5479719, "longitude": 77.1331427, "maps_url": "https://www.google.com/maps/place/?q=place_id:0x390d1b483d842a9d:0x77b1bfad79e590bd"}, {"place_id": "0x390d1df83f2163ab:0x8bb92eb5cfdb3327", "name": "PR Webscrew India PVT Ltd | Best Website Designing and Development Company In New Delhi.", "category": "Website designer", "street": "A-275, 1st Floor", "city": "NH-8", "phone": "09953330769", "website": "https://webscrew.in/", "rating": 5, "review_count": "", "latitude": 28.5471477, "longitude": 77.1279022, "maps_url": "https://www.google.com/maps/place/?q=place_id:0x390d1df83f2163ab:0x8bb92eb5cfdb3327"}, {"place_id": "0x390d1c3fe1f2f66f:0xf5264899dab37b", "name": "H&C Logistics Services LLP", "category": "Freight Forwarding Agency", "street": "2nd Floor", "city": "A-197, Rd Number 4", "phone": "09999313395", "website": "http://hnclogistics.in/", "rating": 4.8, "review_count": "", "latitude": 28.548942699999998, "longitude": 77.1313279, "maps_url": "https://www.google.com/maps/place/?q=place_id:0x390d1c3fe1f2f66f:0xf5264899dab37b"}, {"place_id": "0x390d191598f48ef3:0x70991b4ff870f05d", "name": "Shree Partners LLC", "category": "Software company", "street": "1, Tower A, Building, Cyber City", "city": "Corporate Edge Level", "phone": "01246728815", "website": "https://www.shreepartners.com/", "rating": 4.3, "review_count": "", "latitude": 28.4936018, "longitude": 77.088325, "maps_url": "https://www.google.com/maps/place/?q=place_id:0x390d191598f48ef3:0x70991b4ff870f05d"}, {"place_id": "0x390d1c46d556aa5f:0xf9c9fc6349675968", "name": "Haiko Logistics", "category": "Freight Forwarding Agency", "street": ": A-133", "city": "Street Number 4", "phone": "08588805675", "website": "http://www.haikologistics.com/", "rating": 4.4, "review_count": "", "latitude": 28.547086699999998, "longitude": 77.132127, "maps_url": "https://www.google.com/maps/place/?q=place_id:0x390d1c46d556aa5f:0xf9c9fc6349675968"}, {"place_id": "0x390d1c4131e237ab:0xea3b3ca43fb06264", "name": "Logitrust Xpress Private Limited", "category": "Freight Forwarding Agency", "street": "Khasra No-415", "city": "A-Block Street", "phone": "", "website": "http://www.logitrust.in/", "rating": 4.6, "review_count": "", "latitude": 28.5499282, "longitude": 77.131289, "maps_url": "https://www.google.com/maps/place/?q=place_id:0x390d1c4131e237ab:0xea3b3ca43fb06264"}, {"place_id": "0x390d1e3009c5a033:0x54c4095fd0a00181", "name": "Direct Celebrity Management", "category": "Event management company", "street": "TOP FLOOR, A-222 FLAT NO,5 . KH NO,1024", "city": "Mahipalpur", "phone": "09555141310", "website": "https://directcelebritymanagement.com/", "rating": 5, "review_count": "", "latitude": 28.551602199999998, "longitude": 77.1324095, "maps_url": "https://www.google.com/maps/place/?q=place_id:0x390d1e3009c5a033:0x54c4095fd0a00181"}, {"place_id": "0x390ce3cf9aaaaaab:0xd6b130af854fe360", "name": "Safexpress Pvt. Ltd.", "category": "Logistics service", "street": "Safexpress Cargo Complex, National Highway", "city": "Street Number 8", "phone": "1800113113", "website": "https://www.safexpress.com/", "rating": 3.5, "review_count": "", "latitude": 28.5489639, "longitude": 77.12952489999999, "maps_url": "https://www.google.com/maps/place/?q=place_id:0x390ce3cf9aaaaaab:0xd6b130af854fe360"}, {"place_id": "0x390d1dd14d73af7d:0xd07041845e591c2e", "name": "ShipGlobal Corporate HQ", "category": "Logistics service", "street": "A-60", "city": "opp. Aerocity", "phone": "09906599065", "website": "https://shipglobal.in/", "rating": 3.7, "review_count": "", "latitude": 28.5493982, "longitude": 77.12816099999999, "maps_url": "https://www.google.com/maps/place/?q=place_id:0x390d1dd14d73af7d:0xd07041845e591c2e"}, {"place_id": "0x390d1c471da347db:0x2a2d85f7a5cec486", "name": "Hamari Pahchan NGO | Delhi", "category": "Non-profit organization", "street": "1st floor", "city": "H.no. 1121, Mahipalpur Bypass", "phone": "09911173557", "website": "https://hamaripahchan.org/", "rating": 4.9, "review_count": "", "latitude": 28.551477799999997, "longitude": 77.1331245, "maps_url": "https://www.google.com/maps/place/?q=place_id:0x390d1c471da347db:0x2a2d85f7a5cec486"}, {"place_id": "0x390d1c3f9e96b4e7:0xfb91f6edf4b3cd01", "name": "PMI | Plas-Mech Power Systems (I) Pvt. Ltd. : Best Emergency Lights & Exit Signages Manufacturer", "category": "Lighting manufacturer", "street": "A 194", "city": "Street No 10, Rd Number 4", "phone": "09868820425", "website": "https://www.plasmechdelhi.com/", "rating": 4.8, "review_count": "", "latitude": 28.5497491, "longitude": 77.1307145, "maps_url": "https://www.google.com/maps/place/?q=place_id:0x390d1c3f9e96b4e7:0xfb91f6edf4b3cd01"}, {"place_id": "0x390d1c4135d1b891:0xef99b538e61f0636", "name": "AVIAXPERT PRIVATE LIMITED", "category": "Wheelchair rental service", "street": "Khasra No. 505, 2nd Floor Building", "city": "Iris Global Tower", "phone": "01146778888", "website": "http://www.aviaxpert.net/", "rating": 3.9, "review_count": "", "latitude": 28.547809899999997, "longitude": 77.13298569999999, "maps_url": "https://www.google.com/maps/place/?q=place_id:0x390d1c4135d1b891:0xef99b538e61f0636"}, {"place_id": "0x390d195c26bfa369:0x69bd8efd2e3a31fe", "name": "Radical Minds Technologies Pvt. Ltd.", "category": "BPO Company", "street": "368", "city": "Phase II, Udyog Vihar, Sector 20", "phone": "01244338366", "website": "http://www.radicalminds.in/", "rating": 4.2, "review_count": "", "latitude": 28.506335099999998, "longitude": 77.0877546, "maps_url": "https://www.google.com/maps/place/?q=place_id:0x390d195c26bfa369:0x69bd8efd2e3a31fe"}, {"place_id": "0x390d1c46b3428343:0x3da0ce8ce9afd8ad", "name": "OVERSEAS LOGISTICS PVT. LTD.", "category": "Logistics service", "street": "A-260/1, Road No. 6", "city": "Block RZ, Mahipalpur Extension, Mahipalpur", "phone": "01147244444", "website": "https://www.overseaslogistic.com/", "rating": 3.6, "review_count": "", "latitude": 28.5506706, "longitude": 77.13114639999999, "maps_url": "https://www.google.com/maps/place/?q=place_id:0x390d1c46b3428343:0x3da0ce8ce9afd8ad"}, {"place_id": "0x390d1d6ea463421b:0x1a226c56d651994d", "name": "Logitrust Voyages Private Limited", "category": "Travel agency", "street": "A 197, 1st Floor, Road No 4, Street no 10", "city": "Mahipalpur Extension", "phone": "09871916151", "website": "https://www.logitrustvoyages.com/", "rating": 4.7, "review_count": "", "latitude": 28.548942699999998, "longitude": 77.1313279, "maps_url": "https://www.google.com/maps/place/?q=place_id:0x390d1d6ea463421b:0x1a226c56d651994d"}, {"place_id": "0x390d1960c2b8367f:0xd2d30e45ac71acea", "name": "Vorombetech Solutions - Top IT & Digitalization Service Company in Gurugram", "category": "Software company", "street": "249", "city": "Phase IV, Udyog Vihar, Sector 19", "phone": "", "website": "https://vorombetech.com/", "rating": 4.8, "review_count": "", "latitude": 28.4941475, "longitude": 77.0808448, "maps_url": "https://www.google.com/maps/place/?q=place_id:0x390d1960c2b8367f:0xd2d30e45ac71acea"}, {"place_id": "0x390d1da861a91593:0xf13b82e2876ca29a", "name": "Snehe Movers and Packers - Packers and Movers delhi", "category": "Packaging company", "street": "Flat no,T-4,4Th floor kh.No-518 Vill", "city": "Mahipalpur", "phone": "07557214179", "website": "https://snehemoversandpackers.com/", "rating": 4.6, "review_count": "", "latitude": 28.546400499999997, "longitude": 77.1319759, "maps_url": "https://www.google.com/maps/place/?q=place_id:0x390d1da861a91593:0xf13b82e2876ca29a"}, {"place_id": "0x390d1d5c8d2509fd:0x8a7a3d9fa420d161", "name": "Oriental Structural Engineers Private Limited", "category": "Civil engineering company", "street": "OSE Commercial Block, Asset 5B", "city": "Aerocity, Hospitality District, IGI Airport", "phone": "01146044604", "website": "http://www.orientalindia.com/", "rating": 4.4, "review_count": "", "latitude": 28.552685999999998, "longitude": 77.12369079999999, "maps_url": "https://www.google.com/maps/place/?q=place_id:0x390d1d5c8d2509fd:0x8a7a3d9fa420d161"}, {"place_id": "0x390d1dd2cdba8ce9:0x5f4327399af2cdc8", "name": "RoyalRahi Global Logistics Pvt Ltd", "category": "Logistics service", "street": "AB- 169, Gali no.8 Mahipalpur New Delhi- 110037", "city": "New Delhi, Delhi 110037", "phone": "09958695291", "website": "http://www.royalrahilogistics.com/", "rating": 4.3, "review_count": "", "latitude": 28.5490797, "longitude": 77.12991439999999, "maps_url": "https://www.google.com/maps/place/?q=place_id:0x390d1dd2cdba8ce9:0x5f4327399af2cdc8"}, {"place_id": "0x390d1d4687f82b83:0x6d5f837518a6b1e7", "name": "VIP Assist India", "category": "Airport", "street": "Mahipalpur Extension, Mahipalpur", "city": "Delhi, New Delhi, Delhi 110037", "phone": "09536896071", "website": "https://www.vipassistindia.com/", "rating": 5, "review_count": "", "latitude": 28.550348699999997, "longitude": 77.13249569999999, "maps_url": "https://www.google.com/maps/place/?q=place_id:0x390d1d4687f82b83:0x6d5f837518a6b1e7"}, {"place_id": "0x390d1d2b913124f9:0xdd0a795105f06165", "name": "BeeGreen Plaza", "category": "Manufacturer", "street": "1st Floor", "city": "Beegreen plaza", "phone": "09899507770", "website": "http://www.beegreenindia.com/", "rating": 4.9, "review_count": "", "latitude": 28.5483223, "longitude": 77.13307139999999, "maps_url": "https://www.google.com/maps/place/?q=place_id:0x390d1d2b913124f9:0xdd0a795105f06165"}, {"place_id": "0x390d1c412206c89f:0x4f7926b01c3d4fbc", "name": "Standill Private Limited", "category": "Apartment building", "street": "Flat No.101", "city": "Road No.4", "phone": "08802944021", "website": "", "rating": 5, "review_count": "", "latitude": 28.5484805, "longitude": 77.1312824, "maps_url": "https://www.google.com/maps/place/?q=place_id:0x390d1c412206c89f:0x4f7926b01c3d4fbc"}, {"place_id": "0x390d1d3f8670a53b:0x4a17192db580f4c7", "name": "Orangestar Logistics Pvt. Ltd.", "category": "Courier service", "street": "Building No 530", "city": "Khasra No 802", "phone": "09599306008", "website": "http://www.orangestar.co.in/", "rating": 4.9, "review_count": "", "latitude": 28.542710399999997, "longitude": 77.1285345, "maps_url": "https://www.google.com/maps/place/?q=place_id:0x390d1d3f8670a53b:0x4a17192db580f4c7"}, {"place_id": "0x390d1cfc1b9afb63:0x69887e21ff7fcf39", "name": "Robinsons Cargo And Logistics Pvt. Ltd.", "category": "Trucking company", "street": "249/1 & 250/1A, Ground Floor", "city": "Mahipalpur Extension, National Highway No.8", "phone": "01146603700", "website": "http://www.robinsonsindia.com/", "rating": 4.6, "review_count": "", "latitude": 28.5492146, "longitude": 77.1312137, "maps_url": "https://www.google.com/maps/place/?q=place_id:0x390d1cfc1b9afb63:0x69887e21ff7fcf39"}, {"place_id": "0x390d1c1375428d95:0x329a5350d2f550ec", "name": "Global India Express Pvt Ltd", "category": "Courier service", "street": "L-204, Street Number 7C", "city": "near Vijaya Bank", "phone": "09810497982", "website": "https://www.globalindiaexpress.com/", "rating": 4.6, "review_count": "", "latitude": 28.544389499999998, "longitude": 77.1232125, "maps_url": "https://www.google.com/maps/place/?q=place_id:0x390d1c1375428d95:0x329a5350d2f550ec"}, {"place_id": "0x390d1d75739a3c07:0xae6dfa05588e14e3", "name": "C S Construction Company Pvt. Ltd", "category": "Real Estate Builders & Construction Company", "street": "Plot No. 2, near HDFC bank, Local Shopping Complex", "city": "9", "phone": "01147169900", "website": "", "rating": 4.6, "review_count": "", "latitude": 28.5380695, "longitude": 77.1431051, "maps_url": "https://www.google.com/maps/place/?q=place_id:0x390d1d75739a3c07:0xae6dfa05588e14e3"}, {"place_id": "0x390d1e739ee80b41:0xc02476ae9957679c", "name": "JEETO BIOCOURIER", "category": "Courier service", "street": "landmark hotel almora", "city": "RZA-174/B, Gali Number 11", "phone": "09999329214", "website": "http://jeetobiocourier.com/", "rating": 4.9, "review_count": "", "latitude": 28.5495453, "longitude": 77.1310733, "maps_url": "https://www.google.com/maps/place/?q=place_id:0x390d1e739ee80b41:0xc02476ae9957679c"}, {"place_id": "0x390d1d8c3bc9c68d:0xf71204a70007ed24", "name": "Hitachi India Pvt. Ltd. & Hitachi Lift India Pvt Ltd", "category": "Manufacturer", "street": "H42C+6GH, Indira Gandhi International Airport", "city": "Tower B", "phone": "01140605252", "website": "http://www.hitachi.co.in/", "rating": 1.4, "review_count": "", "latitude": 28.550555499999998, "longitude": 77.1213703, "maps_url": "https://www.google.com/maps/place/?q=place_id:0x390d1d8c3bc9c68d:0xf71204a70007ed24"}, {"place_id": "0x390d1ed3c6e9f579:0x322eccdb00f350d2", "name": "Techjockey", "category": "Software company", "street": "Ground floor, Habitat India", "city": "C-3", "phone": "01142213003", "website": "https://www.techjockey.com/", "rating": 4, "review_count": "", "latitude": 28.536615299999998, "longitude": 77.1902978, "maps_url": "https://www.google.com/maps/place/?q=place_id:0x390d1ed3c6e9f579:0x322eccdb00f350d2"}, {"place_id": "0x390d1ed3c6e9f579:0x322eccdb00f350d2", "name": "Techjockey", "category": "Software company", "street": "Ground floor, Habitat India", "city": "C-3", "phone": "01142213003", "website": "https://www.techjockey.com/", "rating": 4, "review_count": "", "latitude": 28.536615299999998, "longitude": 77.1902978, "maps_url": "https://www.google.com/maps/place/?q=place_id:0x390d1ed3c6e9f579:0x322eccdb00f350d2"}, {"place_id": "0x390d05677ee3aecd:0xa51743b53fa39187", "name": "Weblife Infotech Pvt Ltd (Destech Media)", "category": "Software company", "street": "", "city": "", "phone": "07042569776", "website": "http://www.weblifeindia.in/", "rating": 2.9, "review_count": "", "latitude": 28.5273522, "longitude": 77.20898509999999, "maps_url": "https://www.google.com/maps/place/?q=place_id:0x390d05677ee3aecd:0xa51743b53fa39187"}, {"place_id": "0x390d1d0029bb025b:0x9bdcdd82fbd8065", "name": "MAHIPALPUR", "category": "Corporate office", "street": "1133, Gali Number 6", "city": "Mahipalpur Extension, Mahipalpur", "phone": "", "website": "", "rating": 5, "review_count": "", "latitude": 28.5512177, "longitude": 77.1333281, "maps_url": "https://www.google.com/maps/place/?q=place_id:0x390d1d0029bb025b:0x9bdcdd82fbd8065"}, {"place_id": "0x390d1db5354f9ced:0x9d2f785a267598f1", "name": "Medon Company", "category": "Air conditioning repair service", "street": "Shop NoL3", "city": "Street Number 1", "phone": "07303637086", "website": "http://www.medoncompany.shop/", "rating": 4.9, "review_count": "", "latitude": 28.545638699999998, "longitude": 77.1255825, "maps_url": "https://www.google.com/maps/place/?q=place_id:0x390d1db5354f9ced:0x9d2f785a267598f1"}, {"place_id": "0x390d195a774465b1:0x2b370d83f394dd79", "name": "Calibrated Healthcare Systems", "category": "Corporate office", "street": "Aerocity, Indira Gandhi International Airport", "city": "New Delhi, Delhi 110037", "phone": "01244171500", "website": "https://calibratedhealthcare.com/", "rating": 3.9, "review_count": "", "latitude": 28.5527721, "longitude": 77.1217217, "maps_url": "https://www.google.com/maps/place/?q=place_id:0x390d195a774465b1:0x2b370d83f394dd79"}, {"place_id": "0x390d1c46ed299d49:0x7e415ee13bb8be86", "name": "Unique Air Express, International Courier and Logistics", "category": "Courier service", "street": "S-1, Ground Floor, Property No. 1121 New Bypass Road", "city": "Mahipalpur", "phone": "18002091025", "website": "https://uniqueairexpress.com/", "rating": 4.6, "review_count": "", "latitude": 28.5507292, "longitude": 77.1332682, "maps_url": "https://www.google.com/maps/place/?q=place_id:0x390d1c46ed299d49:0x7e415ee13bb8be86"}, {"place_id": "0x390d1c440b32feab:0x5b76f8a222dcf249", "name": "Skyways Group", "category": "Logistics service", "street": "128 & 129-A, Mahipalpur Extension", "city": "Rd Number 4", "phone": "01145150500", "website": "http://www.skyways-group.com/", "rating": 4.5, "review_count": "", "latitude": 28.549280099999997, "longitude": 77.1280968, "maps_url": "https://www.google.com/maps/place/?q=place_id:0x390d1c440b32feab:0x5b76f8a222dcf249"}, {"place_id": "0x390d1c3c1f06b031:0x16298a20a465d65", "name": "Venture Supply Chain Pvt Ltd", "category": "Corporate office", "street": "Mahipalpur Village, Mahipalpur", "city": "New Delhi, Delhi 110037", "phone": "09811788769", "website": "", "rating": 4.2, "review_count": "", "latitude": 28.5403225, "longitude": 77.1298204, "maps_url": "https://www.google.com/maps/place/?q=place_id:0x390d1c3c1f06b031:0x16298a20a465d65"}, {"place_id": "0x390d1c4750000001:0x61709d01efa3986", "name": "Brainbadhao", "category": "", "street": "k285", "city": "4b", "phone": "08456020265", "website": "http://www.brainbadhao.com/", "rating": 5, "review_count": "", "latitude": 28.5470921, "longitude": 77.1319777, "maps_url": "https://www.google.com/maps/place/?q=place_id:0x390d1c4750000001:0x61709d01efa3986"}, {"place_id": "0x390d1d93a1789c4d:0xfd3c5eee9b3e5510", "name": "AFM Logistics | China Shipping Agent I Freight Forwarding Import and Export Agents in India, Export Shipping Company", "category": "Freight Forwarding Agency", "street": "A251F, 2nd Floor", "city": "Road No. 6", "phone": "09811931583", "website": "https://afm.net.in/", "rating": 4.6, "review_count": "", "latitude": 28.551185, "longitude": 77.1315497, "maps_url": "https://www.google.com/maps/place/?q=place_id:0x390d1d93a1789c4d:0xfd3c5eee9b3e5510"}, {"place_id": "0x390d193c3a36e523:0xe68f8d2568faeaad", "name": "Espire Infolabs Pvt. Ltd.", "category": "Software company", "street": "486 & 487", "city": "Phase III, Udyog Vihar III, Sector 20", "phone": "01247173000", "website": "http://www.espire.com/", "rating": 4.1, "review_count": "", "latitude": 28.5119516, "longitude": 77.0899661, "maps_url": "https://www.google.com/maps/place/?q=place_id:0x390d193c3a36e523:0xe68f8d2568faeaad"}, {"place_id": "0x390ce20d31604f8d:0x56acb4c77f323b25", "name": "MaxWholesale", "category": "FMCG Goods Wholesaler", "street": "99 Algorithms Private Limited 1031/1, Ground Floor, Mahipalpur", "city": "near Hotel Om Paradise", "phone": "08882119999", "website": "", "rating": 4.2, "review_count": "", "latitude": 28.5511627, "longitude": 77.13234949999999, "maps_url": "https://www.google.com/maps/place/?q=place_id:0x390ce20d31604f8d:0x56acb4c77f323b25"}, {"place_id": "0x390d1c6aa69c07bf:0x5d244b7abc026ac9", "name": "CG Logistics Pvt Ltd", "category": "Freight Forwarding Agency", "street": "A-5, Gaur Bhawan, Main Road", "city": "Abdul Gaffar Khan Marg", "phone": "01148588888", "website": "http://www.cglindia.net/", "rating": 3.9, "review_count": "", "latitude": 28.5466387, "longitude": 77.12519619999999, "maps_url": "https://www.google.com/maps/place/?q=place_id:0x390d1c6aa69c07bf:0x5d244b7abc026ac9"}, {"place_id": "0x390d1c403eb45e11:0x28bf7bd806a89c63", "name": "Zipex Global Logistics- Cargo Agent, Freight Forwarding Company in Haridwar, Delhi, Gurgaon, Noida", "category": "Freight Forwarding Agency", "street": "A-13, Rd Number 2", "city": "Block A, Mahipalpur Extension, Mahipalpur", "phone": "09811007329", "website": "http://zipex.co.in/", "rating": 4.8, "review_count": "", "latitude": 28.543314499999997, "longitude": 77.1277777, "maps_url": "https://www.google.com/maps/place/?q=place_id:0x390d1c403eb45e11:0x28bf7bd806a89c63"}, {"place_id": "0xac577056c2b5ff3d:0xaf00253141553d04", "name": "Devnotam | IT Company", "category": "Internet marketing service", "street": "", "city": "", "phone": "", "website": "https://devnotam.com/", "rating": 5, "review_count": "", "latitude": 28.692404999999997, "longitude": 77.090042, "maps_url": "https://www.google.com/maps/place/?q=place_id:0xac577056c2b5ff3d:0xaf00253141553d04"}, {"place_id": "0x390cfb4bf15a6733:0xaf50e6f3c5fb7641", "name": "Digitals Daddy: Web & App Development Company", "category": "Website designer", "street": "Metro Gate No. 2", "city": "Nearest Sikandarpur", "phone": "09818286609", "website": "https://www.digitalsdaddy.com/", "rating": 4.9, "review_count": "", "latitude": 28.4847884, "longitude": 77.0922192, "maps_url": "https://www.google.com/maps/place/?q=place_id:0x390cfb4bf15a6733:0xaf50e6f3c5fb7641"}, {"place_id": "0x390d1e748ef61961:0x754ceb660996cfdb", "name": "ACS System Solutions", "category": "Software company", "street": "Kishangarh, Kishangarh Village, Vasant Kunj", "city": "New Delhi, Delhi 110070", "phone": "01149858620", "website": "http://acssystem.in/", "rating": 3.4, "review_count": "", "latitude": 28.522178699999998, "longitude": 77.1692609, "maps_url": "https://www.google.com/maps/place/?q=place_id:0x390d1e748ef61961:0x754ceb660996cfdb"}, {"place_id": "0x390d1c41a9bbaaad:0xa707af7a46b94df6", "name": "E-Commerce Delivery | International Courier | E-Com Shipping Solutions Pvt Ltd", "category": "Courier service", "street": "A 60, Mahipalpur - Rangpuri Rd", "city": "Block B, Mahipalpur Village, Mahipalpur", "phone": "", "website": "", "rating": 3, "review_count": "", "latitude": 28.5494369, "longitude": 77.12811169999999, "maps_url": "https://www.google.com/maps/place/?q=place_id:0x390d1c41a9bbaaad:0xa707af7a46b94df6"}, {"place_id": "0x390d1daa01dcf9ad:0x445620e49df74fbb", "name": "KTC India - Luxury Car Rental Delhi", "category": "Car rental agency", "street": "RZ\u2013A/96, Road.6, Street No.9, Mahipalpur Extension", "city": "Block RZ, Mahipalpur Village, Mahipalpur", "phone": "01142588888", "website": "https://www.ktcindia.com/", "rating": 4.3, "review_count": "", "latitude": 28.550248999999997, "longitude": 77.130417, "maps_url": "https://www.google.com/maps/place/?q=place_id:0x390d1daa01dcf9ad:0x445620e49df74fbb"}, {"place_id": "0x390d19345bcdc4f3:0x61d5221ed2c17f35", "name": "Cognizant", "category": "Software company", "street": "Tower C, SEZ Building, Building No 6, 5th & 6th Floor DLF C yber City Rd W Block", "city": "Near Shankar Chowk", "phone": "", "website": "http://www.cognizant.com/india", "rating": 4.1, "review_count": "", "latitude": 28.4964521, "longitude": 77.096576, "maps_url": "https://www.google.com/maps/place/?q=place_id:0x390d19345bcdc4f3:0x61d5221ed2c17f35"}, {"place_id": "0x390d1c6aa4160419:0xa64809cd7235dac0", "name": "First Flight", "category": "Courier service", "street": "1026/17, NH8, Vasant Kunj-Mehrauli Road, Street No-6", "city": "Near Grand Saba Hotel, Mahipalpur Extension, Mahipalpur", "phone": "02239576666", "website": "", "rating": 1.9, "review_count": "", "latitude": 28.5502525, "longitude": 77.1312001, "maps_url": "https://www.google.com/maps/place/?q=place_id:0x390d1c6aa4160419:0xa64809cd7235dac0"}, {"place_id": "0x390d1b0010fc2321:0x12e9154c815cf007", "name": "Prashant Dwivedi IT company", "category": "Warehouse", "street": "G3P5+GVC", "city": "Nayak Pura, Bijwasan", "phone": "", "website": "", "rating": "", "review_count": "", "latitude": 28.536316, "longitude": 77.059649, "maps_url": "https://www.google.com/maps/place/?q=place_id:0x390d1b0010fc2321:0x12e9154c815cf007"}, {"place_id": "0x390d1c40477d8dcf:0x7fa58db6b2b58d5a", "name": "Orayan Logistics Private Limited", "category": "Freight Forwarding Agency", "street": "A-82/4, 1st Floor,", "city": "Rd Number 1", "phone": "01126788712", "website": "http://www.orayangroup.com/", "rating": 5, "review_count": "", "latitude": 28.546794799999997, "longitude": 77.1275589, "maps_url": "https://www.google.com/maps/place/?q=place_id:0x390d1c40477d8dcf:0x7fa58db6b2b58d5a"}, {"place_id": "0x390d1c40578f9275:0xb4bfe07c7a16e02", "name": "Ante Air Logistics", "category": "Logistics service", "street": "A-17, Road No. 2, Near Hotel Aeroporto", "city": "Block B, Mahipalpur Village", "phone": "01143084859", "website": "http://anteairlogistics.com/", "rating": 3.7, "review_count": "", "latitude": 28.548205399999997, "longitude": 77.1282707, "maps_url": "https://www.google.com/maps/place/?q=place_id:0x390d1c40578f9275:0xb4bfe07c7a16e02"}, {"place_id": "0x390d1da65ecca80f:0xae3870e34fde88f1", "name": "ZEPHYR MHP", "category": "Corporate office", "street": "126 Ground floor", "city": "Road No. 12", "phone": "08588884984", "website": "http://zephyrexpress.in/", "rating": 5, "review_count": "", "latitude": 28.5499704, "longitude": 77.1317593, "maps_url": "https://www.google.com/maps/place/?q=place_id:0x390d1da65ecca80f:0xae3870e34fde88f1"}, {"place_id": "0x390d1c408d3ae84b:0x7fa9ad597ca21125", "name": "Motley Logistics", "category": "Corporate office", "street": "88/7, Ground Floor", "city": "A", "phone": "01126782194", "website": "http://motley-logistics.com/", "rating": 5, "review_count": "", "latitude": 28.5474683, "longitude": 77.1289724, "maps_url": "https://www.google.com/maps/place/?q=place_id:0x390d1c408d3ae84b:0x7fa9ad597ca21125"}, {"place_id": "0x390d1c440b32feab:0x9468a11b9870b8e5", "name": "Spice Logistics Private Limited", "category": "Freight Forwarding Agency", "street": "Plot No. A-88/6, Road No. 2", "city": "NH-8", "phone": "01146062222", "website": "http://spicelogistics.com/", "rating": 3.6, "review_count": "", "latitude": 28.547692299999998, "longitude": 77.1271337, "maps_url": "https://www.google.com/maps/place/?q=place_id:0x390d1c440b32feab:0x9468a11b9870b8e5"}, {"place_id": "0x390d1c3f9e914acf:0xa49641252c8ea3d2", "name": "Right Logistics Private Limited - International freight forwarding companies in Delhi", "category": "Freight Forwarding Agency", "street": "Room No.107, A9/86, Road No.2 KH.No.386/2, A Block, Mahipalpur Extn, Delhi", "city": "Delhi, 110037", "phone": "", "website": "http://www.rightlogistics.com/", "rating": 4.5, "review_count": "", "latitude": 28.544869, "longitude": 77.128135, "maps_url": "https://www.google.com/maps/place/?q=place_id:0x390d1c3f9e914acf:0xa49641252c8ea3d2"}]}