{"timestamp": 1773729025.9773457, "keyword": "IT company", "location": "delhi", "cell_idx": 28, "results": [{"place_id": "0x390d1915f9809231:0xa531c2c82154188e", "name": "Cisco System India Pvt. Ltd.", "category": "Software company", "street": "Udyog Vihar Phase-IV Plot No 15 RMZ Infinity", "city": "Gurugram, Haryana 122015", "phone": "01244402000", "website": "https://www.cisco.com/c/en_in/index.html", "rating": 4.7, "review_count": "", "latitude": 28.490146199999998, "longitude": 77.07955919999999, "maps_url": "https://www.google.com/maps/place/?q=place_id:0x390d1915f9809231:0xa531c2c82154188e"}, {"place_id": "0x390d196f11f5d9f5:0xa1d47417957537a0", "name": "RSK Business Solutions Private Limited - Software Development Company", "category": "Software company", "street": "3rd floor", "city": "AIHP Millenium", "phone": "01244201376", "website": "https://www.rsk-bsl.com/", "rating": 4.5, "review_count": "", "latitude": 28.4922556, "longitude": 77.0801518, "maps_url": "https://www.google.com/maps/place/?q=place_id:0x390d196f11f5d9f5:0xa1d47417957537a0"}, {"place_id": "0x390d196aa65f2787:0x206eea180dde1151", "name": "Targus Technologies", "category": "Software company", "street": "S&A Tower First Floor, Plot 5", "city": "6 and 7", "phone": "01244742300", "website": "http://www.targustech.com/", "rating": 4.1, "review_count": "", "latitude": 28.4914788, "longitude": 77.07879179999999, "maps_url": "https://www.google.com/maps/place/?q=place_id:0x390d196aa65f2787:0x206eea180dde1151"}, {"place_id": "0x390d1923af5d91ed:0xbe103b16161f5631", "name": "Condeco Software Private Limited", "category": "Software company", "street": "Tower C", "city": "4th floor building 10", "phone": "01244760150", "website": "http://www.condecosoftware.com/apac", "rating": 4.3, "review_count": "", "latitude": 28.4940696, "longitude": 77.0885457, "maps_url": "https://www.google.com/maps/place/?q=place_id:0x390d1923af5d91ed:0xbe103b16161f5631"}, {"place_id": "0x390d195b233aaaab:0x416cb7b74c179f86", "name": "Trantor Software Pvt Ltd.", "category": "Corporate office", "street": "2nd floor, 91 Springboard, Business Hub Private Limited", "city": "Cabin 2", "phone": "06506467818", "website": "http://trantorinc.com/", "rating": 4.1, "review_count": "", "latitude": 28.486732399999998, "longitude": 77.0745902, "maps_url": "https://www.google.com/maps/place/?q=place_id:0x390d195b233aaaab:0x416cb7b74c179f86"}, {"place_id": "0x390ce1877a5ef8eb:0xd5abb94a30425144", "name": "Plusone Technologies Private Limited", "category": "Software company", "street": "Phase IV, Udyog Vihar, Sector 18", "city": "Gurugram, Haryana 122015", "phone": "09891387094", "website": "https://www.plusonetech.co/", "rating": 4.7, "review_count": "", "latitude": 28.4941475, "longitude": 77.0808448, "maps_url": "https://www.google.com/maps/place/?q=place_id:0x390ce1877a5ef8eb:0xd5abb94a30425144"}, {"place_id": "0x390d195669b14167:0xdc35ef304e38e313", "name": "DianApps- Top Mobile App Development Company in Gurgaon, India", "category": "Software company", "street": "2nd Floor, Plot No. 8&9", "city": "Phase IV, Sector 18", "phone": "09351584693", "website": "https://dianapps.com/", "rating": 4.6, "review_count": "", "latitude": 28.4909952, "longitude": 77.07843629999999, "maps_url": "https://www.google.com/maps/place/?q=place_id:0x390d195669b14167:0xdc35ef304e38e313"}, {"place_id": "0x390d192339c95cdf:0x48126251f4963f65", "name": "Srchout Software Mobile Application Development Company", "category": "Software company", "street": "Plot No. 8 & 9", "city": "Phase IV, Udyog Vihar, Sector 18", "phone": "08005282881", "website": "https://srchoutsoftware.com/", "rating": 3.7, "review_count": "", "latitude": 28.4909952, "longitude": 77.07843629999999, "maps_url": "https://www.google.com/maps/place/?q=place_id:0x390d192339c95cdf:0x48126251f4963f65"}, {"place_id": "0x390d1927c918c30d:0x77c4c1a35f67593b", "name": "Ajath Infotech | Mobile App Development Company", "category": "Software company", "street": "WeWork DLF Forum, Cybercity", "city": "Phase III", "phone": "07838518049", "website": "", "rating": 4.9, "review_count": "", "latitude": 28.4969054, "longitude": 77.0918947, "maps_url": "https://www.google.com/maps/place/?q=place_id:0x390d1927c918c30d:0x77c4c1a35f67593b"}, {"place_id": "0x390d192ead051335:0x1f45fb98e90cc397", "name": "Honeysha Technologies, Software Company in Gurgaon, Digital Marketing Agency in Gurgaon", "category": "Software company", "street": "Cyber City", "city": "U-79/18, Rd Number 79", "phone": "07692079000", "website": "https://honeyshatech.com/", "rating": 4.5, "review_count": "", "latitude": 28.4900566, "longitude": 77.09324459999999, "maps_url": "https://www.google.com/maps/place/?q=place_id:0x390d192ead051335:0x1f45fb98e90cc397"}, {"place_id": "0x390d1960c2b8367f:0xd2d30e45ac71acea", "name": "Vorombetech Solutions - Top IT & Digitalization Service Company in Gurugram", "category": "Software company", "street": "249", "city": "Phase IV, Udyog Vihar, Sector 19", "phone": "", "website": "https://vorombetech.com/", "rating": 4.8, "review_count": "", "latitude": 28.4941475, "longitude": 77.0808448, "maps_url": "https://www.google.com/maps/place/?q=place_id:0x390d1960c2b8367f:0xd2d30e45ac71acea"}, {"place_id": "0x390d1939ab5eed67:0xae2a9877515f2ac9", "name": "SSP India Private Limited", "category": "Software company", "street": "5th Floor Tower A, Building 10", "city": "Cowrks India Private Limited, DLF Phase 2", "phone": "", "website": "", "rating": 4, "review_count": "", "latitude": 28.4946509, "longitude": 77.0870061, "maps_url": "https://www.google.com/maps/place/?q=place_id:0x390d1939ab5eed67:0xae2a9877515f2ac9"}, {"place_id": "0x390d193e3496e041:0xdacae04ce23c8b2f", "name": "Incedo software Plot 109", "category": "Software company", "street": "Plot No. 109", "city": "Phase IV, Udyog Vihar, Sector 18", "phone": "", "website": "http://incedoinc.com/", "rating": 4.4, "review_count": "", "latitude": 28.4925768, "longitude": 77.08060619999999, "maps_url": "https://www.google.com/maps/place/?q=place_id:0x390d193e3496e041:0xdacae04ce23c8b2f"}, {"place_id": "0x390d191100000001:0x83e113ab96f792a6", "name": "Aithent Technologies Private Limited", "category": "Software company", "street": "Plot 8 & 9", "city": "Electronic City, Udyog Vihar, Sector 18", "phone": "01244514600", "website": "", "rating": 4.3, "review_count": "", "latitude": 28.4992287, "longitude": 77.0683609, "maps_url": "https://www.google.com/maps/place/?q=place_id:0x390d191100000001:0x83e113ab96f792a6"}, {"place_id": "0x390d1915fa5d766d:0x1d92c0eb013cd4f2", "name": "FIS Global Business Solutions India Pvt. Ltd.", "category": "Corporate office", "street": "402, I Park, Plot No. 15", "city": "Phase IV", "phone": "01243927500", "website": "https://www.fisglobal.com/", "rating": 4.1, "review_count": "", "latitude": 28.490092899999997, "longitude": 77.078841, "maps_url": "https://www.google.com/maps/place/?q=place_id:0x390d1915fa5d766d:0x1d92c0eb013cd4f2"}, {"place_id": "0x390d191598f48ef3:0x70991b4ff870f05d", "name": "Shree Partners LLC", "category": "Software company", "street": "1, Tower A, Building, Cyber City", "city": "Corporate Edge Level", "phone": "01246728815", "website": "https://www.shreepartners.com/", "rating": 4.3, "review_count": "", "latitude": 28.4936018, "longitude": 77.088325, "maps_url": "https://www.google.com/maps/place/?q=place_id:0x390d191598f48ef3:0x70991b4ff870f05d"}, {"place_id": "0x390ce58c7403e0a1:0x2a35ba3fcd3ecb95", "name": "Akhil Systems Pvt Ltd - Electronic Medical Records Software, Best Hospital Software India, Hospital Management Software", "category": "Software company", "street": "5th Floor", "city": "Incuspaze Building", "phone": "08448799453", "website": "https://akhilsystems.com/", "rating": 3.4, "review_count": "", "latitude": 28.4914019, "longitude": 77.0771321, "maps_url": "https://www.google.com/maps/place/?q=place_id:0x390ce58c7403e0a1:0x2a35ba3fcd3ecb95"}, {"place_id": "0x390d18eceeb9b6ed:0xac4b7b0eea6b7848", "name": "Indifi Technologies Private Limited", "category": "Business to business service", "street": "Plot 19", "city": "Sewa Towers", "phone": "09696555444", "website": "https://www.indifi.com/", "rating": 4, "review_count": "", "latitude": 28.492022799999997, "longitude": 77.07816989999999, "maps_url": "https://www.google.com/maps/place/?q=place_id:0x390d18eceeb9b6ed:0xac4b7b0eea6b7848"}, {"place_id": "0x390d198caa2aeed3:0x975227422f9dba10", "name": "Ethics Group of Companies", "category": "Warehouse", "street": "2nd & 8th Floor", "city": "Tag Tower", "phone": "02613530600", "website": "https://ethicsgroup.in/", "rating": 4.8, "review_count": "", "latitude": 28.491822799999998, "longitude": 77.0804185, "maps_url": "https://www.google.com/maps/place/?q=place_id:0x390d198caa2aeed3:0x975227422f9dba10"}, {"place_id": "0x390d1b130dafff9b:0x766056bbabbd78", "name": "Cyber Vision Infotech Pvt Ltd (formerly CV Infotech) \u2013 Gurugram & Noida", "category": "Software company", "street": "Plot No. 94B, Second Floor", "city": "Udyog Vihar Phase V Rd", "phone": "08766291838", "website": "https://www.cvinfotech.com/", "rating": 4.1, "review_count": "", "latitude": 28.499617599999997, "longitude": 77.0835913, "maps_url": "https://www.google.com/maps/place/?q=place_id:0x390d1b130dafff9b:0x766056bbabbd78"}, {"place_id": "0x390d19b16c22074d:0xb7aa66f4ef5dcc8b", "name": "Workido It Technologies | Best Software & Digital Marketing Company In Gurgaon", "category": "Software company", "street": "Shop No 3, Lover", "city": "MGF Metropolitan Mall", "phone": "09773532524", "website": "https://workidoittech.com/", "rating": 5, "review_count": "", "latitude": 28.478627099999997, "longitude": 77.08212, "maps_url": "https://www.google.com/maps/place/?q=place_id:0x390d19b16c22074d:0xb7aa66f4ef5dcc8b"}, {"place_id": "0x390d1910da46a7db:0x18c0a10a69f503f8", "name": "Coforge", "category": "Corporate office", "street": "5th & 6th Floor", "city": "Plot No-13", "phone": "02240103100", "website": "https://www.coforge.com/", "rating": 3.9, "review_count": "", "latitude": 28.4915973, "longitude": 77.07432709999999, "maps_url": "https://www.google.com/maps/place/?q=place_id:0x390d1910da46a7db:0x18c0a10a69f503f8"}, {"place_id": "0x390d190c870c17bd:0x4409f3685fd1baf3", "name": "ALITSO INDIA IT CONSULTING PVT LTD", "category": "Computer Hardware Company", "street": "Plot No. 76 D", "city": "Phase IV, Sector 18", "phone": "09168491495", "website": "http://www.alitso.com/", "rating": 5, "review_count": "", "latitude": 28.4851782, "longitude": 77.0657025, "maps_url": "https://www.google.com/maps/place/?q=place_id:0x390d190c870c17bd:0x4409f3685fd1baf3"}, {"place_id": "0x390d19370bc3f1f5:0x576e1f9f5215ce5e", "name": "iE3 Innovations Pvt. Ltd.", "category": "Software company", "street": "2nd Floor, Tower C", "city": "DLF Cyber Greens", "phone": "01244852920", "website": "https://www.ie3innovations.com/", "rating": 4.8, "review_count": "", "latitude": 28.4937342, "longitude": 77.09272039999999, "maps_url": "https://www.google.com/maps/place/?q=place_id:0x390d19370bc3f1f5:0x576e1f9f5215ce5e"}, {"place_id": "0x390d192f80e784d3:0x2c271ddf93d663b4", "name": "Tranciscolabs | Mobile App Development Company | Web Development Company", "category": "Software company", "street": "Park", "city": "RGREP", "phone": "09580174570", "website": "https://tranciscolabs.com/", "rating": 4.4, "review_count": "", "latitude": 28.4695091, "longitude": 77.06860209999999, "maps_url": "https://www.google.com/maps/place/?q=place_id:0x390d192f80e784d3:0x2c271ddf93d663b4"}, {"place_id": "0x390d1f4effffffff:0xcfc715ac63417946", "name": "Bechtel India Private Limited", "category": "Corporate office", "street": "244-245", "city": "Phase IV, Udyog Vihar, Knowledge Park", "phone": "01244098000", "website": "http://www.bechtel.com/", "rating": 4.4, "review_count": "", "latitude": 28.4956277, "longitude": 77.0839426, "maps_url": "https://www.google.com/maps/place/?q=place_id:0x390d1f4effffffff:0xcfc715ac63417946"}, {"place_id": "0x390d19883228ee03:0xf1d1cae5e949efb7", "name": "i-softinc Mobile App Development Company", "category": "Software company", "street": "House number 401, Karamveer building , Flat number 107 Behind Water Tank", "city": "Vikranth Shastri Marg", "phone": "09971731257", "website": "https://i-softinc.com/", "rating": 4.9, "review_count": "", "latitude": 28.4786851, "longitude": 77.0601162, "maps_url": "https://www.google.com/maps/place/?q=place_id:0x390d19883228ee03:0xf1d1cae5e949efb7"}, {"place_id": "0x390d194750e12601:0x35dc020ed851aa3c", "name": "Incedo Inc.", "category": "Software company", "street": "Plot No.-248", "city": "Phase IV, Udyog Vihar, Sector 18", "phone": "01244345901", "website": "http://www.incedoinc.com/", "rating": 4.1, "review_count": "", "latitude": 28.497866799999997, "longitude": 77.0821045, "maps_url": "https://www.google.com/maps/place/?q=place_id:0x390d194750e12601:0x35dc020ed851aa3c"}, {"place_id": "0x390d1916dea26217:0x8d2fae724048186e", "name": "Vihaan Networks Ltd", "category": "Corporate office", "street": "21", "city": "Phase IV, Udyog Vihar, Sector 18", "phone": "01242657600", "website": "http://www.vnl.in/", "rating": 4.3, "review_count": "", "latitude": 28.49243, "longitude": 77.0810065, "maps_url": "https://www.google.com/maps/place/?q=place_id:0x390d1916dea26217:0x8d2fae724048186e"}, {"place_id": "0x390d04dd5b5a36ef:0xc6294dd24c52409", "name": "XeliumTech Solutions - Best Mobile App Development Company", "category": "Software company", "street": "Xeliumtech Solutions - Mobile App Development Company", "city": "5, Tenon Ln", "phone": "08800464848", "website": "http://www.xeliumtech.com/", "rating": 4.3, "review_count": "", "latitude": 28.4991502, "longitude": 77.0675995, "maps_url": "https://www.google.com/maps/place/?q=place_id:0x390d04dd5b5a36ef:0xc6294dd24c52409"}, {"place_id": "0x390d193fc0000017:0xc3eec3841fe02192", "name": "Netrika Consulting India Pvt. Ltd.", "category": "Security service", "street": "Plot #2, Industrial Estate", "city": "Phase IV", "phone": "01244883000", "website": "https://www.netrika.com/", "rating": 4.1, "review_count": "", "latitude": 28.491956899999998, "longitude": 77.07919199999999, "maps_url": "https://www.google.com/maps/place/?q=place_id:0x390d193fc0000017:0xc3eec3841fe02192"}, {"place_id": "0x390d19be4ae5ef63:0xa4a7fcfb04a1e4cd", "name": "Teleperformance", "category": "Software company", "street": "96", "city": "Phase IV, Udyog Vihar, Sector 18", "phone": "01244221050", "website": "http://teleperformance.com/", "rating": 3.8, "review_count": "", "latitude": 28.492676699999997, "longitude": 77.0793487, "maps_url": "https://www.google.com/maps/place/?q=place_id:0x390d19be4ae5ef63:0xa4a7fcfb04a1e4cd"}, {"place_id": "0x390d19145ca96a51:0xb3afb1009960de39", "name": "Altius Infrastructure Investment Trust", "category": "Corporate office", "street": "Anant Marg Maruti Industrial Complex", "city": "Plot No. 14-A", "phone": "01244464000", "website": "", "rating": 4.2, "review_count": "", "latitude": 28.4913819, "longitude": 77.075169, "maps_url": "https://www.google.com/maps/place/?q=place_id:0x390d19145ca96a51:0xb3afb1009960de39"}, {"place_id": "0x390d1915a3ffffff:0x56efbafe5da69ebb", "name": "Business Online Solution", "category": "Computer support and services", "street": "76-D, 1st Floor", "city": "Plot No", "phone": "08181898902", "website": "http://www.bos.center/", "rating": 4.6, "review_count": "", "latitude": 28.492049899999998, "longitude": 77.077679, "maps_url": "https://www.google.com/maps/place/?q=place_id:0x390d1915a3ffffff:0x56efbafe5da69ebb"}, {"place_id": "0x390d19171c5769bd:0x39a2ac8ecb96bb9c", "name": "Genpact", "category": "Software company", "street": "PLOT 22", "city": "Udyog Vihar, Sector 18", "phone": "", "website": "http://www.genpact.com/", "rating": 4.1, "review_count": "", "latitude": 28.4867068, "longitude": 77.0760523, "maps_url": "https://www.google.com/maps/place/?q=place_id:0x390d19171c5769bd:0x39a2ac8ecb96bb9c"}, {"place_id": "0x390d19989035dd97:0xaf3b344419a9e0c", "name": "1K (Corporate Office)", "category": "Corporate office", "street": "Incuspaze, Plot No-17", "city": "Phase-4, Maruti Udyog, Sector 18", "phone": "", "website": "", "rating": 4.2, "review_count": "", "latitude": 28.492049899999998, "longitude": 77.07767919999999, "maps_url": "https://www.google.com/maps/place/?q=place_id:0x390d19989035dd97:0xaf3b344419a9e0c"}, {"place_id": "0x390d19316748a39b:0x427bebf40160d8ac", "name": "Construe IT Solutions Pvt. Ltd.", "category": "Software company", "street": "R # 3", "city": "56/10", "phone": "08130713756", "website": "http://www.construesol.com/", "rating": 4, "review_count": "", "latitude": 28.489741799999997, "longitude": 77.0963127, "maps_url": "https://www.google.com/maps/place/?q=place_id:0x390d19316748a39b:0x427bebf40160d8ac"}, {"place_id": "0x390d19386fffffff:0xd219ad1ec6982e53", "name": "Smec India Private Limited", "category": "Consultant", "street": "18, Sub. Major Laxmi Chand Rd", "city": "Phase-4, Maruti Udyog, Sector 18", "phone": "01244501100", "website": "", "rating": 4.5, "review_count": "", "latitude": 28.4915833, "longitude": 77.07760999999999, "maps_url": "https://www.google.com/maps/place/?q=place_id:0x390d19386fffffff:0xd219ad1ec6982e53"}, {"place_id": "0x390d18b4f787fb51:0xa55a99d13052e0e4", "name": "HW Infotech \u2013 Website & Mobile App Development | AI, Blockchain & SaaS Company", "category": "Software company", "street": "Cospaces Cowork Plot No 360", "city": "Golf Course Rd", "phone": "07678430274", "website": "https://www.hwinfotech.com/", "rating": 5, "review_count": "", "latitude": 28.4721168, "longitude": 77.0907581, "maps_url": "https://www.google.com/maps/place/?q=place_id:0x390d18b4f787fb51:0xa55a99d13052e0e4"}, {"place_id": "0x390ce458d0000001:0xf2123bd299ec4501", "name": "IT Company India", "category": "Software company", "street": "D56", "city": "D Block, Sector 10", "phone": "09999244854", "website": "https://www.itcompanyindia.in/", "rating": 4.7, "review_count": "", "latitude": 28.589917699999997, "longitude": 77.3351153, "maps_url": "https://www.google.com/maps/place/?q=place_id:0x390ce458d0000001:0xf2123bd299ec4501"}, {"place_id": "0x390d19386fffffff:0xd219ad1ec6982e53", "name": "Smec India Private Limited", "category": "Consultant", "street": "18, Sub. Major Laxmi Chand Rd", "city": "Phase-4, Maruti Udyog, Sector 18", "phone": "01244501100", "website": "", "rating": 4.5, "review_count": "", "latitude": 28.4915833, "longitude": 77.07760999999999, "maps_url": "https://www.google.com/maps/place/?q=place_id:0x390d19386fffffff:0xd219ad1ec6982e53"}, {"place_id": "0x390d19316748a39b:0x427bebf40160d8ac", "name": "Construe IT Solutions Pvt. Ltd.", "category": "Software company", "street": "R # 3", "city": "56/10", "phone": "08130713756", "website": "http://www.construesol.com/", "rating": 4, "review_count": "", "latitude": 28.489741799999997, "longitude": 77.0963127, "maps_url": "https://www.google.com/maps/place/?q=place_id:0x390d19316748a39b:0x427bebf40160d8ac"}, {"place_id": "0x390d196900000001:0xdec2b5484ee5736b", "name": "Beetel Teletech Limited", "category": "Corporate office", "street": "Ist Floor, Tower C", "city": "Beetel Corporate Centre", "phone": "01244823500", "website": "http://www.beetel.in/", "rating": 3.7, "review_count": "", "latitude": 28.4911589, "longitude": 77.08014759999999, "maps_url": "https://www.google.com/maps/place/?q=place_id:0x390d196900000001:0xdec2b5484ee5736b"}, {"place_id": "0x390d19cc04f0d6b9:0x754ecde06dc8e3f0", "name": "EMB Global", "category": "Business to business service", "street": "Incuspaze Plot No - 17", "city": "Phase-4, Maruti Udyog, Sector 18", "phone": "", "website": "https://emb.global/?utm_source=google&utm_medium=gmb&utm_campaign=gurgaon_hq", "rating": 4.4, "review_count": "", "latitude": 28.4910121, "longitude": 77.0768329, "maps_url": "https://www.google.com/maps/place/?q=place_id:0x390d19cc04f0d6b9:0x754ecde06dc8e3f0"}, {"place_id": "0x390d193e3a81c4cd:0xc11a35dc99a51a88", "name": "TAG Tower", "category": "Corporate office", "street": "17-18", "city": "Phase IV, Udyog Vihar, Sector 18", "phone": "01244241553", "website": "http://www.thearoragroup.in/", "rating": 4.1, "review_count": "", "latitude": 28.491822799999998, "longitude": 77.0804185, "maps_url": "https://www.google.com/maps/place/?q=place_id:0x390d193e3a81c4cd:0xc11a35dc99a51a88"}, {"place_id": "0x390d193f01506919:0x31d0724d97429753", "name": "3M India Limited", "category": "Corporate office", "street": "Ground Floor", "city": "RMZ Infinity Work", "phone": "", "website": "https://www.3mindia.in/3M/en_IN/company-in/", "rating": 4.4, "review_count": "", "latitude": 28.4901864, "longitude": 77.0796939, "maps_url": "https://www.google.com/maps/place/?q=place_id:0x390d193f01506919:0x31d0724d97429753"}, {"place_id": "0x390d18b4f787fb51:0xa55a99d13052e0e4", "name": "HW Infotech \u2013 Website & Mobile App Development | AI, Blockchain & SaaS Company", "category": "Software company", "street": "Cospaces Cowork Plot No 360", "city": "Golf Course Rd", "phone": "07678430274", "website": "https://www.hwinfotech.com/", "rating": 5, "review_count": "", "latitude": 28.4721168, "longitude": 77.0907581, "maps_url": "https://www.google.com/maps/place/?q=place_id:0x390d18b4f787fb51:0xa55a99d13052e0e4"}, {"place_id": "0x390d1951b5ecdcf3:0x947f0f50c2dc276c", "name": "Enser Communications Limited", "category": "Corporate office", "street": "104", "city": "Phase IV, Udyog Vihar, Sector 18", "phone": "", "website": "http://enser.co.in/", "rating": 4.3, "review_count": "", "latitude": 28.4933244, "longitude": 77.0800969, "maps_url": "https://www.google.com/maps/place/?q=place_id:0x390d1951b5ecdcf3:0x947f0f50c2dc276c"}, {"place_id": "0x390d185739b22a15:0x9f6748278ced78ed", "name": "TS Infotech India Pvt. Ltd.", "category": "Software company", "street": "Tower A, 5th Floor, Unit 517-522, 526, 527, 534", "city": "Park Centra, BPTP", "phone": "01244935903", "website": "", "rating": 4.7, "review_count": "", "latitude": 28.459949199999997, "longitude": 77.0515892, "maps_url": "https://www.google.com/maps/place/?q=place_id:0x390d185739b22a15:0x9f6748278ced78ed"}, {"place_id": "0x390d196dd8607a4f:0xa460bbf3857f56be", "name": "Premium Customer It Services Pvt. Ltd.", "category": "Corporate office", "street": "21", "city": "Phase IV, Udyog Vihar, Sector 18", "phone": "", "website": "", "rating": 5, "review_count": "", "latitude": 28.4924364, "longitude": 77.0810715, "maps_url": "https://www.google.com/maps/place/?q=place_id:0x390d196dd8607a4f:0xa460bbf3857f56be"}, {"place_id": "0x390ce18cddf14577:0x70314701f8d76d96", "name": "NMDSOFT SOFTWARE & NETWORK PVT LTD", "category": "Software company", "street": "55-56, Mehrauli-Gurgaon Rd", "city": "U Block, DLF Phase 3, Sector 24", "phone": "02240375751", "website": "https://www.nmdsoft.co.in/", "rating": 5, "review_count": "", "latitude": 28.4861491, "longitude": 77.0953779, "maps_url": "https://www.google.com/maps/place/?q=place_id:0x390ce18cddf14577:0x70314701f8d76d96"}, {"place_id": "0x390d1964921a1d9b:0x1fde406005cf8a72", "name": "Software Development Company in Gurgaon | Metafrone", "category": "Software company", "street": "M-45, First Floor", "city": "Mehrauli-Gurgaon Rd", "phone": "09811004471", "website": "http://www.insoftsys.com/", "rating": 5, "review_count": "", "latitude": 28.4693562, "longitude": 77.0441388, "maps_url": "https://www.google.com/maps/place/?q=place_id:0x390d1964921a1d9b:0x1fde406005cf8a72"}, {"place_id": "0x390d183a3846403b:0x8fd7c90645a11f72", "name": "Vashist IT Solutions Pvt Ltd", "category": "Software company", "street": "729", "city": "Islampur Village, Sector 38", "phone": "09718216517", "website": "https://vashist.tech/", "rating": 4.4, "review_count": "", "latitude": 28.4305924, "longitude": 77.0415957, "maps_url": "https://www.google.com/maps/place/?q=place_id:0x390d183a3846403b:0x8fd7c90645a11f72"}, {"place_id": "0x390d19a74e9e565b:0xedb966793c579ad7", "name": "CNH Industrial Gurgaon", "category": "Corporate office", "street": "Plot No", "city": "3rd Floor, ATC Tower", "phone": "01246659100", "website": "http://www.cnhindustrial.com/", "rating": 4.2, "review_count": "", "latitude": 28.4920188, "longitude": 77.0752547, "maps_url": "https://www.google.com/maps/place/?q=place_id:0x390d19a74e9e565b:0xedb966793c579ad7"}, {"place_id": "0x390ce458d0000001:0xf2123bd299ec4501", "name": "IT Company India", "category": "Software company", "street": "D56", "city": "D Block, Sector 10", "phone": "09999244854", "website": "https://www.itcompanyindia.in/", "rating": 4.7, "review_count": "", "latitude": 28.589917699999997, "longitude": 77.3351153, "maps_url": "https://www.google.com/maps/place/?q=place_id:0x390ce458d0000001:0xf2123bd299ec4501"}, {"place_id": "0x390d193e4d3425fd:0x5f1101bc5859a9f8", "name": "Cabin&co", "category": "Real estate developer", "street": "Plot 46", "city": "Phase IV, Udyog Vihar, Sector 18", "phone": "09910833099", "website": "http://cabinandco.in/", "rating": 4.8, "review_count": "", "latitude": 28.4929864, "longitude": 77.0819356, "maps_url": "https://www.google.com/maps/place/?q=place_id:0x390d193e4d3425fd:0x5f1101bc5859a9f8"}, {"place_id": "0x390cfb4bf15a6733:0xaf50e6f3c5fb7641", "name": "Digitals Daddy: Web & App Development Company", "category": "Software company", "street": "Metro Gate No. 2", "city": "Nearest Sikandarpur", "phone": "09818286609", "website": "https://www.digitalsdaddy.com/", "rating": 4.9, "review_count": "", "latitude": 28.4847884, "longitude": 77.0922192, "maps_url": "https://www.google.com/maps/place/?q=place_id:0x390cfb4bf15a6733:0xaf50e6f3c5fb7641"}, {"place_id": "0x390d19bc2b6ac25f:0x29d2f724b22d30c4", "name": "RMZ Infinity Work", "category": "Corporate office", "street": "NH8", "city": "Sector 18", "phone": "", "website": "", "rating": 4.4, "review_count": "", "latitude": 28.4897256, "longitude": 77.07940959999999, "maps_url": "https://www.google.com/maps/place/?q=place_id:0x390d19bc2b6ac25f:0x29d2f724b22d30c4"}, {"place_id": "0x390d1930ce6b42f9:0xb39219cee9e1d009", "name": "Intelli Vectra Technologies Pvt. Ltd.", "category": "Computer support and services", "street": "Intelli Vectra Technologies, Dynamic House Plot No. 29, Sub. Major Laxmi Chand Rd, Sector 18", "city": "Udyog Vihar, 4", "phone": "01244960635", "website": "https://www.intellivectra.tech/", "rating": 3.5, "review_count": "", "latitude": 28.490693, "longitude": 77.0743589, "maps_url": "https://www.google.com/maps/place/?q=place_id:0x390d1930ce6b42f9:0xb39219cee9e1d009"}, {"place_id": "0x390d1940f78c23cd:0x6228401c0ddf3d8c", "name": "Intellect Commerce", "category": "Software company", "street": "249, Rao Gajraj Singh Marg", "city": "Phase IV, Udyog Vihar, Sector 18", "phone": "01243916300", "website": "http://www.intellectcommerce.com/", "rating": 4, "review_count": "", "latitude": 28.4979142, "longitude": 77.0824324, "maps_url": "https://www.google.com/maps/place/?q=place_id:0x390d1940f78c23cd:0x6228401c0ddf3d8c"}, {"place_id": "0x390d1930ce6b42f9:0xb39219cee9e1d009", "name": "Intelli Vectra Technologies Pvt. Ltd.", "category": "Computer support and services", "street": "Intelli Vectra Technologies, Dynamic House Plot No. 29, Sub. Major Laxmi Chand Rd, Sector 18", "city": "Udyog Vihar, 4", "phone": "01244960635", "website": "https://www.intellivectra.tech/", "rating": 3.5, "review_count": "", "latitude": 28.490693, "longitude": 77.0743589, "maps_url": "https://www.google.com/maps/place/?q=place_id:0x390d1930ce6b42f9:0xb39219cee9e1d009"}, {"place_id": "0x390d1e78179e91b1:0x22d145b4609d73ee", "name": "GR Infraprojects Limited", "category": "Real Estate Builders & Construction Company", "street": "Maruti Industrial Complex", "city": "GR One", "phone": "01246435000", "website": "http://www.grinfra.com/", "rating": 4.5, "review_count": "", "latitude": 28.4916491, "longitude": 77.0776921, "maps_url": "https://www.google.com/maps/place/?q=place_id:0x390d1e78179e91b1:0x22d145b4609d73ee"}, {"place_id": "0x390d196900000001:0xa980dae09392b031", "name": "Pan India Consultant Pvt Ltd", "category": "Consultant", "street": "7, Delhi Gurgaon Road", "city": "Phase IV, Udyog Vihar, Sector 18", "phone": "01244300954", "website": "http://www.panindiagroup.com/", "rating": 4.1, "review_count": "", "latitude": 28.493190499999997, "longitude": 77.0799526, "maps_url": "https://www.google.com/maps/place/?q=place_id:0x390d196900000001:0xa980dae09392b031"}, {"place_id": "0x390d195d1d64ae23:0xdec38eeceb370b3c", "name": "Airtel Center, Sector 18, Gurugram", "category": "Corporate campus", "street": "Plot No. 16", "city": "Phase IV, Sector 18", "phone": "01141614690", "website": "http://www.brookfieldindiareit.in/airtel-center", "rating": 4.3, "review_count": "", "latitude": 28.491217799999998, "longitude": 77.0803009, "maps_url": "https://www.google.com/maps/place/?q=place_id:0x390d195d1d64ae23:0xdec38eeceb370b3c"}, {"place_id": "0x390d193c3a36fabd:0x8bd7aacd8793bdb7", "name": "Orange Business Services", "category": "Public relations firm", "street": "Infinity Tower 8, Tower B", "city": "DLF Cyber City, DLF Phase 2, Sector 25", "phone": "", "website": "http://www.orange-business.com/", "rating": 4.5, "review_count": "", "latitude": 28.495814199999998, "longitude": 77.0910088, "maps_url": "https://www.google.com/maps/place/?q=place_id:0x390d193c3a36fabd:0x8bd7aacd8793bdb7"}, {"place_id": "0x390cefbd2720ce25:0xa3d0b3f65168b520", "name": "Thesmilemedia Pvt. Ltd. | Website Designing & Development", "category": "Website designer", "street": "6th Floor, Cabin No", "city": "MM Tower", "phone": "08527131445", "website": "https://thesmilemedia.com/", "rating": 5, "review_count": "", "latitude": 28.490992199999997, "longitude": 77.0784656, "maps_url": "https://www.google.com/maps/place/?q=place_id:0x390cefbd2720ce25:0xa3d0b3f65168b520"}, {"place_id": "0x390d191ea0900001:0x8819dc9805e5bf34", "name": "Purple Sketch Digital", "category": "Internet marketing service", "street": "Floor - 2", "city": "Cube8", "phone": "09220490460", "website": "https://www.purplesketch.in/", "rating": 4.3, "review_count": "", "latitude": 28.491002299999998, "longitude": 77.0784671, "maps_url": "https://www.google.com/maps/place/?q=place_id:0x390d191ea0900001:0x8819dc9805e5bf34"}, {"place_id": "0x390d19bc2b6ac25f:0x29d2f724b22d30c4", "name": "RMZ Infinity Work", "category": "Corporate office", "street": "NH8", "city": "Sector 18", "phone": "", "website": "", "rating": 4.4, "review_count": "", "latitude": 28.4897256, "longitude": 77.07940959999999, "maps_url": "https://www.google.com/maps/place/?q=place_id:0x390d19bc2b6ac25f:0x29d2f724b22d30c4"}, {"place_id": "0x390d192409eb1411:0xbf1f68f4b2dd1d69", "name": "Appicia Technologies", "category": "Software company", "street": "Third floor", "city": "Ashirwad", "phone": "08076917265", "website": "https://appicia.com/", "rating": 5, "review_count": "", "latitude": 28.4885505, "longitude": 77.01963889999999, "maps_url": "https://www.google.com/maps/place/?q=place_id:0x390d192409eb1411:0xbf1f68f4b2dd1d69"}, {"place_id": "0x390d1915bb6a3afd:0xb27889ae68b8298e", "name": "Novus Tower", "category": "Business center", "street": "18, Sub. Major Laxmi Chand Rd", "city": "Phase-4, Phase IV, Maruti Udyog, Sector 18", "phone": "01244370390", "website": "", "rating": 4.4, "review_count": "", "latitude": 28.4919409, "longitude": 77.0776142, "maps_url": "https://www.google.com/maps/place/?q=place_id:0x390d1915bb6a3afd:0xb27889ae68b8298e"}, {"place_id": "0x484025b6488f98dd:0x648bed1c75013da8", "name": "Codevio Digital \u2013 IT & Software Company in Gurgaon", "category": "Software company", "street": "UNITECH CYBER PARK", "city": "Durga Colony, Sector 39", "phone": "07428036870", "website": "https://codevio.io/", "rating": 4.8, "review_count": "", "latitude": 28.443307899999997, "longitude": 77.0561005, "maps_url": "https://www.google.com/maps/place/?q=place_id:0x484025b6488f98dd:0x648bed1c75013da8"}, {"place_id": "0x390d19acddbfb739:0x8fd3aaafb0b4c0a9", "name": "Madbow Ventures Limited", "category": "Corporate office", "street": "72", "city": "near DLF", "phone": "07042514006", "website": "", "rating": 3.1, "review_count": "", "latitude": 28.4904723, "longitude": 77.0828344, "maps_url": "https://www.google.com/maps/place/?q=place_id:0x390d19acddbfb739:0x8fd3aaafb0b4c0a9"}, {"place_id": "0x390cddaa1531b279:0x46372208767a5dca", "name": "Woxa Technologies (P) Ltd.", "category": "Computer support and services", "street": "Plot number 568", "city": "Phase V, Udyog Vihar, Sector 19", "phone": "09310164954", "website": "", "rating": 3.4, "review_count": "", "latitude": 28.4972729, "longitude": 77.085078, "maps_url": "https://www.google.com/maps/place/?q=place_id:0x390cddaa1531b279:0x46372208767a5dca"}, {"place_id": "0x390d19fb0420003d:0x4f3fac7ce08dffa7", "name": "Incuspaze Gurgaon Campus 1", "category": "Coworking space", "street": "Plot no. 17", "city": "Phase-4, Maruti Udyog, Sector 18", "phone": "09930662621", "website": "https://www.incuspaze.com/gurugram/space-details/incuspaze-campus-1?utm_source=gmb&utm_medium=organic&utm_campaign=incuspaze&utm_content=gurgaon_Campus_1", "rating": 4.4, "review_count": "", "latitude": 28.4914019, "longitude": 77.0771321, "maps_url": "https://www.google.com/maps/place/?q=place_id:0x390d19fb0420003d:0x4f3fac7ce08dffa7"}, {"place_id": "0x390d191d0bb8a9db:0xf6295047e107a843", "name": "Robust Infotech - IT Services | Digital Transformation | Best Website/Software Development Company", "category": "Software company", "street": "90B, Delhi - Jaipur Expy", "city": "Nitin Vihar, Udyog Vihar, Sector 18", "phone": "07982914476", "website": "", "rating": 5, "review_count": "", "latitude": 28.441292299999997, "longitude": 77.0148859, "maps_url": "https://www.google.com/maps/place/?q=place_id:0x390d191d0bb8a9db:0xf6295047e107a843"}, {"place_id": "0x390d19061b8b49f3:0x6c34a2364eacf257", "name": "DigeeSell", "category": "Website designer", "street": "6th Floor MM Towers (Cube8) , Plot No. 8 & 9", "city": "Phase IV, Udyog Vihar, Sector 18", "phone": "07217701713", "website": "http://www.digeesell.com/", "rating": 4.6, "review_count": "", "latitude": 28.4911358, "longitude": 77.0782144, "maps_url": "https://www.google.com/maps/place/?q=place_id:0x390d19061b8b49f3:0x6c34a2364eacf257"}, {"place_id": "0x390d196afa4ef041:0xab97b1e2b11c55ff", "name": "Altudo", "category": "Internet marketing service", "street": "Plot 29", "city": "Sector 18", "phone": "01244951900", "website": "https://www.altudo.co/", "rating": 4, "review_count": "", "latitude": 28.4906328, "longitude": 77.07472949999999, "maps_url": "https://www.google.com/maps/place/?q=place_id:0x390d196afa4ef041:0xab97b1e2b11c55ff"}, {"place_id": "0x390d194f738e0271:0xc7f13a77ac1a8d65", "name": "Mohan Clothing Co Pvt ltd", "category": "Corporate office", "street": "58, Delhi - Jaipur Expy", "city": "Phase IV, Udyog Vihar, Sector 18", "phone": "", "website": "http://www.blackberrys.com/", "rating": 3.2, "review_count": "", "latitude": 28.493370799999997, "longitude": 77.0828815, "maps_url": "https://www.google.com/maps/place/?q=place_id:0x390d194f738e0271:0xc7f13a77ac1a8d65"}, {"place_id": "0x390d19a4c2efe971:0xfe658a338d577427", "name": "Blackberrys CORPORATE OFFICE", "category": "Clothing store", "street": "No 58 & 59 Phase", "city": "4", "phone": "01244648800", "website": "https://blackberrys.com/?utm_source=locator&utm_medium=googleplaces", "rating": 4.4, "review_count": "", "latitude": 28.493268, "longitude": 77.082741, "maps_url": "https://www.google.com/maps/place/?q=place_id:0x390d19a4c2efe971:0xfe658a338d577427"}, {"place_id": "0x390d193a2a825ec3:0x3a9037d0c220fe1c", "name": "Cube8 Coworking Pvt. Ltd.", "category": "Coworking space", "street": "MM Towers, Plot No. 8 & 9", "city": "Phase IV, Udyog Vihar, Sector 18", "phone": "09810788999", "website": "http://cube8.in/", "rating": 4.3, "review_count": "", "latitude": 28.4910613, "longitude": 77.0784228, "maps_url": "https://www.google.com/maps/place/?q=place_id:0x390d193a2a825ec3:0x3a9037d0c220fe1c"}, {"place_id": "0x390d1846bf95334b:0xdb60e62cb25dbc6a", "name": "ALPHA INFOTECH - A Total IT Solution Company", "category": "Software company", "street": "Plot No-36", "city": "Sector 15 Part 2, 1", "phone": "01244004035", "website": "https://alphainfotech.co.in/", "rating": 4.1, "review_count": "", "latitude": 28.4577043, "longitude": 77.045251, "maps_url": "https://www.google.com/maps/place/?q=place_id:0x390d1846bf95334b:0xdb60e62cb25dbc6a"}, {"place_id": "0x390d193e984021dd:0x9d540173d936294e", "name": "Logicore IT Services Pvt. Ltd", "category": "Corporate office", "street": "M11 A/6 ,Dlf Phase-2", "city": "Behind Nestle House", "phone": "08213964584", "website": "", "rating": "", "review_count": "", "latitude": 28.4907333, "longitude": 77.0836961, "maps_url": "https://www.google.com/maps/place/?q=place_id:0x390d193e984021dd:0x9d540173d936294e"}, {"place_id": "0x390d191e40000001:0x90a7d3249421940f", "name": "Grant Thornton India", "category": "Certified public accountant", "street": "21st", "city": "DLF Square", "phone": "01244628000", "website": "http://www.grantthornton.in/", "rating": 4.6, "review_count": "", "latitude": 28.491287, "longitude": 77.08388149999999, "maps_url": "https://www.google.com/maps/place/?q=place_id:0x390d191e40000001:0x90a7d3249421940f"}, {"place_id": "0x390d19e144f0bb5f:0x9c55ba588bea0473", "name": "Smart Packagings Solution", "category": "Packaging company", "street": "Mahindra Singh Compound", "city": "near Passport Office", "phone": "", "website": "https://www.smartpackagings.co.in/", "rating": 5, "review_count": "", "latitude": 28.4908759, "longitude": 77.0772808, "maps_url": "https://www.google.com/maps/place/?q=place_id:0x390d19e144f0bb5f:0x9c55ba588bea0473"}, {"place_id": "0x390d19126f5136eb:0x9ca34c71d00347c4", "name": "MCSAM", "category": "Software company", "street": "F3RH+99W", "city": "Sub. Major Laxmi Chand Rd", "phone": "08920374785", "website": "http://mcsam.in/", "rating": 3, "review_count": "", "latitude": 28.490992, "longitude": 77.0784675, "maps_url": "https://www.google.com/maps/place/?q=place_id:0x390d19126f5136eb:0x9ca34c71d00347c4"}, {"place_id": "0x390d196d4acf5a7f:0x93be6b9556f0207a", "name": "SEWA TOWER", "category": "Corporate office", "street": "Maruti Suzuki Plant", "city": "Plot No 19", "phone": "", "website": "", "rating": 4.2, "review_count": "", "latitude": 28.4920421, "longitude": 77.0776719, "maps_url": "https://www.google.com/maps/place/?q=place_id:0x390d196d4acf5a7f:0x93be6b9556f0207a"}, {"place_id": "0x390d1937d8c00001:0x40c7b2bdd9e6b022", "name": "APL LOGISTICS | VASCOR", "category": "Logistics service", "street": "Plot No 19, 4th Floor, Sewa Tower", "city": "Phase IV, Sector 18", "phone": "1800123827267", "website": "http://www.apllvascor.com/", "rating": 4.4, "review_count": "", "latitude": 28.492005199999998, "longitude": 77.0780253, "maps_url": "https://www.google.com/maps/place/?q=place_id:0x390d1937d8c00001:0x40c7b2bdd9e6b022"}, {"place_id": "0x390d1adc6aaaaaab:0x18be755d32201133", "name": "Aakash Educational Services Limited - Corporate Office - Udyog Vihar, Gurugram", "category": "Corporate office", "street": "Plot No. 13", "city": "Udyog Vihar, Sector 18", "phone": "01147623456", "website": "https://iacst.aakash.ac.in/iacstexam/?utm_source=google_local&utm_medium=organic", "rating": 4.1, "review_count": "", "latitude": 28.4914529, "longitude": 77.0743172, "maps_url": "https://www.google.com/maps/place/?q=place_id:0x390d1adc6aaaaaab:0x18be755d32201133"}, {"place_id": "0x39ed588a58c19919:0xfbe54e490d391fc", "name": "ESYTHINK", "category": "Corporate office", "street": "MM Tower, Plot No. 8 & 9, 6th Floor", "city": "Phase IV", "phone": "", "website": "", "rating": 4.4, "review_count": "", "latitude": 28.4909952, "longitude": 77.07843629999999, "maps_url": "https://www.google.com/maps/place/?q=place_id:0x39ed588a58c19919:0xfbe54e490d391fc"}, {"place_id": "0x390d194c30391379:0xf8df941f9e900ccc", "name": "DLF Nestle House, Gurugram", "category": "Corporate office", "street": "Building Nestle, Jacaranda Marg ,Block -M ,Phase 2 Gurugram (Haryana), Pin -122002", "city": "Gurugram, Haryana 122002", "phone": "", "website": "https://www.dlf.in/offices/gurugram/dlf-nestle-house", "rating": 4.5, "review_count": "", "latitude": 28.4908428, "longitude": 77.0836956, "maps_url": "https://www.google.com/maps/place/?q=place_id:0x390d194c30391379:0xf8df941f9e900ccc"}, {"place_id": "0x390d1905cf9418ab:0x68c73ef2c55c6a92", "name": "Dixinfotech | Best Web Development Company in Gurgaon", "category": "Software company", "street": "Plot No. 96, 1st Floor", "city": "Udyog Vihar Phase 1, Sector 20", "phone": "09717106162", "website": "https://www.dixinfotech.com/website-designing-company-in-gurgaon", "rating": 5, "review_count": "", "latitude": 28.5169219, "longitude": 77.0803425, "maps_url": "https://www.google.com/maps/place/?q=place_id:0x390d1905cf9418ab:0x68c73ef2c55c6a92"}, {"place_id": "0x390d193fb6ee407b:0x8c0a975a7c56f99e", "name": "Marwah Tower", "category": "Real Estate Builders & Construction Company", "street": "Plot 25", "city": "Phase IV, Udyog Vihar, Sector 18", "phone": "", "website": "", "rating": 4.2, "review_count": "", "latitude": 28.493166499999997, "longitude": 77.0811866, "maps_url": "https://www.google.com/maps/place/?q=place_id:0x390d193fb6ee407b:0x8c0a975a7c56f99e"}, {"place_id": "0x390d193e307e3bff:0xcb7d1cddcd87b6c9", "name": "GK Hospitality Services - Leading Hospitality Consultant in India", "category": "Website designer", "street": "Tower of ARC, 17-18, V", "city": "adjacent to Airtel Building", "phone": "07838641635", "website": "http://gkhospitality.com/", "rating": 4.9, "review_count": "", "latitude": 28.4919509, "longitude": 77.0803924, "maps_url": "https://www.google.com/maps/place/?q=place_id:0x390d193e307e3bff:0xcb7d1cddcd87b6c9"}, {"place_id": "0x390d2277f7164735:0x7ee54b8c1561264d", "name": "Agile Cockpit", "category": "Computer support and services", "street": "6th Floor, MM Towers, Plot No. 8 & 9", "city": "Phase IV, Udyog Vihar, Sector 18", "phone": "06462203377", "website": "https://www.agilecockpit.com/", "rating": 4, "review_count": "", "latitude": 28.4909479, "longitude": 77.0783931, "maps_url": "https://www.google.com/maps/place/?q=place_id:0x390d2277f7164735:0x7ee54b8c1561264d"}, {"place_id": "0x390d19f8f485de2b:0x1272dc5f3676ba6c", "name": "Future Tech Lancer", "category": "Software company", "street": "914", "city": "Urban Estate, Sector 4", "phone": "09717776087", "website": "https://futuretechlancer.com/", "rating": 4.6, "review_count": "", "latitude": 28.4741485, "longitude": 77.0165451, "maps_url": "https://www.google.com/maps/place/?q=place_id:0x390d19f8f485de2b:0x1272dc5f3676ba6c"}, {"place_id": "0x41ddcb5488aa4703:0x5290c64921de1a5b", "name": "Bloatware IT Software Development Company | Game Development | Software Company in delhi", "category": "Software company", "street": "SILVER OAK FARMS", "city": "660, Mehrauli-Gurgaon Rd", "phone": "", "website": "https://bloatwareitsolutions.com/", "rating": 5, "review_count": "", "latitude": 28.4911034, "longitude": 77.1432663, "maps_url": "https://www.google.com/maps/place/?q=place_id:0x41ddcb5488aa4703:0x5290c64921de1a5b"}, {"place_id": "0x390d23c996015dc7:0xc7223f71971ee06f", "name": "One Impression", "category": "Internet marketing service", "street": "RMZ Infinity Park", "city": "Sector 18", "phone": "09311124148", "website": "http://www.oneimpression.io/", "rating": 4.3, "review_count": "", "latitude": 28.489701399999998, "longitude": 77.0794421, "maps_url": "https://www.google.com/maps/place/?q=place_id:0x390d23c996015dc7:0xc7223f71971ee06f"}, {"place_id": "0x390d199d685970e7:0x5d688338cb4e1eec", "name": "Big Growth Digital", "category": "Marketing agency", "street": "DLF Square", "city": "72", "phone": "07991479011", "website": "http://www.biggrowthdigital.com/", "rating": 4.6, "review_count": "", "latitude": 28.490319799999998, "longitude": 77.08259199999999, "maps_url": "https://www.google.com/maps/place/?q=place_id:0x390d199d685970e7:0x5d688338cb4e1eec"}, {"place_id": "0x390d19e053e401e5:0xd91a4cbd07c1d249", "name": "Entra solutions Pvt. Ltd", "category": "Corporate office", "street": "1st Floor", "city": "Plot no 13", "phone": "", "website": "http://www.bsifinancial.com/", "rating": 4.8, "review_count": "", "latitude": 28.4914943, "longitude": 77.07433139999999, "maps_url": "https://www.google.com/maps/place/?q=place_id:0x390d19e053e401e5:0xd91a4cbd07c1d249"}, {"place_id": "0x390d23e83bb73bd9:0xfa27d59a72595eb0", "name": "TAPIRSOFT | Best Software Development Company", "category": "Software company", "street": "3rd Floor", "city": "Landmark Cyber Park", "phone": "07300005661", "website": "http://www.tapirsoft.com/", "rating": 5, "review_count": "", "latitude": 28.390846699999997, "longitude": 77.0597157, "maps_url": "https://www.google.com/maps/place/?q=place_id:0x390d23e83bb73bd9:0xfa27d59a72595eb0"}]}