{"timestamp": 1773730940.9662461, "keyword": "IT company", "location": "delhi", "cell_idx": 319, "results": [{"place_id": "0x390ce38f903de9fd:0x60b75e3dc7d3fb1b", "name": "iTech Mission Private Limited (iTM)", "category": "Software company", "street": "4th Floor, Saira Tower", "city": "Gulmohar Commercial Complex", "phone": "", "website": "http://www.itechmission.org/", "rating": 5, "review_count": "", "latitude": 28.557895499999997, "longitude": 77.20812099999999, "maps_url": "https://www.google.com/maps/place/?q=place_id:0x390ce38f903de9fd:0x60b75e3dc7d3fb1b"}, {"place_id": "0x390ce35650779121:0x2f547da399b9b1f2", "name": "24x7 Offshoring", "category": "Software company", "street": "Gautam Nagar", "city": "New Delhi, Delhi 110049", "phone": "09404228223", "website": "http://24x7offshoring.com/", "rating": 4.8, "review_count": "", "latitude": 28.5609662, "longitude": 77.2097233, "maps_url": "https://www.google.com/maps/place/?q=place_id:0x390ce35650779121:0x2f547da399b9b1f2"}, {"place_id": "0x390ce458d0000001:0xf2123bd299ec4501", "name": "IT Company India", "category": "Software company", "street": "D56", "city": "D Block, Sector 10", "phone": "09999244854", "website": "https://www.itcompanyindia.in/", "rating": 4.7, "review_count": "", "latitude": 28.589917699999997, "longitude": 77.3351153, "maps_url": "https://www.google.com/maps/place/?q=place_id:0x390ce458d0000001:0xf2123bd299ec4501"}, {"place_id": "0x390ce263ae840a65:0xfe4ba777c11dced6", "name": "Computer Ware India Pvt Ltd", "category": "Computer support and services", "street": "Veena Arcade", "city": "C-1/B, Sri Aurobindo Marg", "phone": "01126863278", "website": "http://www.computerware.in/", "rating": 4.1, "review_count": "", "latitude": 28.5587523, "longitude": 77.2065252, "maps_url": "https://www.google.com/maps/place/?q=place_id:0x390ce263ae840a65:0xfe4ba777c11dced6"}, {"place_id": "0x39f89c0fb3b411eb:0xbe473f977e9b7558", "name": "Kbeatech - Digital Solutions Company", "category": "Software company", "street": "1893, 1st Floor", "city": "Uday Chand Marg", "phone": "", "website": "https://kbeatech.in/", "rating": 4.9, "review_count": "", "latitude": 28.571338299999997, "longitude": 77.2228884, "maps_url": "https://www.google.com/maps/place/?q=place_id:0x39f89c0fb3b411eb:0xbe473f977e9b7558"}, {"place_id": "0x390ce3c153b89811:0xe7a279685777e9ca", "name": "IT Company", "category": "Automation company", "street": "A-14", "city": "near iskcon temple", "phone": "", "website": "http://www.opuswiz.com/", "rating": 3, "review_count": "", "latitude": 28.557167, "longitude": 77.25424819999999, "maps_url": "https://www.google.com/maps/place/?q=place_id:0x390ce3c153b89811:0xe7a279685777e9ca"}, {"place_id": "0x390d1d86a4f12173:0x3a6b42ea6f4b8260", "name": "Softvanz Technologies Private Limited", "category": "Software company", "street": "Somdutt Chamber 1", "city": "BT-22/9", "phone": "", "website": "https://softvanz.com/", "rating": 5, "review_count": "", "latitude": 28.567948899999998, "longitude": 77.1889269, "maps_url": "https://www.google.com/maps/place/?q=place_id:0x390d1d86a4f12173:0x3a6b42ea6f4b8260"}, {"place_id": "0x390ce2723fffffff:0xa2cba59ffa005bd4", "name": "Markon Electronics Corporation Pvt Ltd.", "category": "GPS supplier", "street": "U-1", "city": "Central Basement", "phone": "08860280932", "website": "http://iconcox.in/", "rating": 4.1, "review_count": "", "latitude": 28.5623765, "longitude": 77.2062625, "maps_url": "https://www.google.com/maps/place/?q=place_id:0x390ce2723fffffff:0xa2cba59ffa005bd4"}, {"place_id": "0x390ce32b06125073:0xdbfa40f2256a8e98", "name": "KUMAR IT INFRA SERVICES", "category": "Computer security service", "street": "38-B, 2nd Floor, Yusuf Sarai, Green Park Extension, South West, New Delhi, Pin Code-110016", "city": "DELHI, Delhi 110049", "phone": "09958891002", "website": "https://www.kumar-it-infra.net/", "rating": 5, "review_count": "", "latitude": 28.5619895, "longitude": 77.2127634, "maps_url": "https://www.google.com/maps/place/?q=place_id:0x390ce32b06125073:0xdbfa40f2256a8e98"}, {"place_id": "0x390ce25e81555555:0xf93f773552127f47", "name": "SANEKT SOFTWARE SOLUTION", "category": "Software company", "street": "Top floor", "city": "H 11", "phone": "01141589565", "website": "http://sanekt.com/", "rating": 5, "review_count": "", "latitude": 28.571361, "longitude": 77.221733, "maps_url": "https://www.google.com/maps/place/?q=place_id:0x390ce25e81555555:0xf93f773552127f47"}, {"place_id": "0x390ce335c957ae7f:0x45eefc0293b0a378", "name": "Ermin Systems", "category": "Computer support and services", "street": "Saira Tower", "city": "Metro Station", "phone": "01204991180", "website": "https://www.erminsystems.com/", "rating": 5, "review_count": "", "latitude": 28.561159999999997, "longitude": 77.2078015, "maps_url": "https://www.google.com/maps/place/?q=place_id:0x390ce335c957ae7f:0x45eefc0293b0a378"}, {"place_id": "0x390cdc0f63124a9d:0x12f491680556571d", "name": "Creation and Development (CAD) - Digital Marketing Agency", "category": "Software company", "street": "Suite - 301, 3rd floor", "city": "Plaza -1", "phone": "08802960996", "website": "https://creationanddevelopment.com/", "rating": 5, "review_count": "", "latitude": 28.564223199999997, "longitude": 77.2196822, "maps_url": "https://www.google.com/maps/place/?q=place_id:0x390cdc0f63124a9d:0x12f491680556571d"}, {"place_id": "0x390ce36b2523e053:0xce16524df10ca8e1", "name": "Easytech Solutions", "category": "Computer repair service", "street": "Shop No-1", "city": "A-449", "phone": "09650740040", "website": "", "rating": 4.4, "review_count": "", "latitude": 28.5620597, "longitude": 77.21420359999999, "maps_url": "https://www.google.com/maps/place/?q=place_id:0x390ce36b2523e053:0xce16524df10ca8e1"}, {"place_id": "0x390ce3d43625ab71:0xc50628d185f1e423", "name": "APEX SOLUTIONS", "category": "Computer repair service", "street": "477 Basement", "city": "Hardev Puri, Gautam Nagar", "phone": "09810939451", "website": "", "rating": 4.7, "review_count": "", "latitude": 28.562483099999998, "longitude": 77.21501409999999, "maps_url": "https://www.google.com/maps/place/?q=place_id:0x390ce3d43625ab71:0xc50628d185f1e423"}, {"place_id": "0x390ce26949a7aa31:0x71786d7e9e4636b4", "name": "Indian Pharma Network", "category": "Corporate office", "street": "Building No.12", "city": "Basement-B-5-A, Ajit Singh House", "phone": "09811747774", "website": "https://indianpharmanetwork.co.in/", "rating": 5, "review_count": "", "latitude": 28.561050899999998, "longitude": 77.2122567, "maps_url": "https://www.google.com/maps/place/?q=place_id:0x390ce26949a7aa31:0x71786d7e9e4636b4"}, {"place_id": "0x390ce310ddbe6011:0x29e7c76ca87ea495", "name": "DigiTecholic Private Limited", "category": "Software company", "street": "1st Floor", "city": "H-11", "phone": "07700840888", "website": "https://www.digitecholic.com/", "rating": 5, "review_count": "", "latitude": 28.5713112, "longitude": 77.2219863, "maps_url": "https://www.google.com/maps/place/?q=place_id:0x390ce310ddbe6011:0x29e7c76ca87ea495"}, {"place_id": "0x390ce3860c81c723:0xc5f50e43c0a86a3e", "name": "Nextr Technology", "category": "Software company", "street": "2nd Floor", "city": "1483/A-1", "phone": "09911751575", "website": "http://www.nextr.in/", "rating": 4.9, "review_count": "", "latitude": 28.574374, "longitude": 77.224284, "maps_url": "https://www.google.com/maps/place/?q=place_id:0x390ce3860c81c723:0xc5f50e43c0a86a3e"}, {"place_id": "0x390ce3d606c913ef:0xd246bd5631eb2cad", "name": "Delvetech", "category": "Software company", "street": "87A/1, 3rd Floor, Opp. Block N-115, G.K-1, Near Moolchand Merto", "city": "Block B, Zamrudpur, Greater Kailash", "phone": "09873895154", "website": "http://www.delvetech.co.in/", "rating": 4.1, "review_count": "", "latitude": 28.5570597, "longitude": 77.2356981, "maps_url": "https://www.google.com/maps/place/?q=place_id:0x390ce3d606c913ef:0xd246bd5631eb2cad"}, {"place_id": "0x390ce26c7a9059d1:0x8db5c6aface80cf4", "name": "Xalta", "category": "Food & Beverage Exporter", "street": "Gulmohar Commercial Complex", "city": "161, B/4, 4th Floor", "phone": "", "website": "https://xalta.co.in/", "rating": 3.6, "review_count": "", "latitude": 28.558654699999998, "longitude": 77.20854159999999, "maps_url": "https://www.google.com/maps/place/?q=place_id:0x390ce26c7a9059d1:0x8db5c6aface80cf4"}, {"place_id": "0x390ce39d4f220163:0x5e332ab90223ffb5", "name": "N-Aria CCTV Camera Installation CP Plus, Hikvision CCTV Installation | CCTV Camera Repair | CCTV Camera Installation Service", "category": "Security system supplier", "street": "860-A/1, Yusuf Sarai", "city": "Mandir Wali Gali", "phone": "07982753372", "website": "https://cctv-camera.in/nidhi-arya-cctv-camera/", "rating": 4.9, "review_count": "", "latitude": 28.5613791, "longitude": 77.2071551, "maps_url": "https://www.google.com/maps/place/?q=place_id:0x390ce39d4f220163:0x5e332ab90223ffb5"}, {"place_id": "0x390ce3b31aba64ef:0xe7b284399b8f2b40", "name": "Urbanclap company", "category": "Corporate office", "street": "161 B/4, Second Floor, Gulmohar House, Near Green Park Metro Gate- 2", "city": "New Delhi, Delhi 110016", "phone": "", "website": "https://www.urbancompany.com/delhi-ncr", "rating": 3, "review_count": "", "latitude": 28.5568733, "longitude": 77.2059249, "maps_url": "https://www.google.com/maps/place/?q=place_id:0x390ce3b31aba64ef:0xe7b284399b8f2b40"}, {"place_id": "0x390ce24cb277b1e3:0x2c294c5b19293dc6", "name": "Knight Kings Entertainment Private Limited", "category": "Event management company", "street": "103", "city": "A/1", "phone": "09811000084", "website": "http://www.knightkings.com/", "rating": 5, "review_count": "", "latitude": 28.563875699999997, "longitude": 77.2121706, "maps_url": "https://www.google.com/maps/place/?q=place_id:0x390ce24cb277b1e3:0x2c294c5b19293dc6"}, {"place_id": "0x390ce3529f23a4af:0xf1a3a4517b968d77", "name": "WebRumi", "category": "Marketing agency", "street": "First Floor", "city": "JG 25A", "phone": "08826027123", "website": "http://webrumi.com/", "rating": 5, "review_count": "", "latitude": 28.561280999999997, "longitude": 77.2119745, "maps_url": "https://www.google.com/maps/place/?q=place_id:0x390ce3529f23a4af:0xf1a3a4517b968d77"}, {"place_id": "0x390ce2432b6bb4ef:0x958eaff0cb0f8f3d", "name": "AaOne Group", "category": "Real Estate Builders & Construction Company", "street": "South Extension II, Block B", "city": "New Delhi, Delhi 110049", "phone": "08588831915", "website": "https://www.aaonegroup.com/", "rating": 4.7, "review_count": "", "latitude": 28.566106899999998, "longitude": 77.2168405, "maps_url": "https://www.google.com/maps/place/?q=place_id:0x390ce2432b6bb4ef:0x958eaff0cb0f8f3d"}, {"place_id": "0x390ce34685116211:0xedfb1294645a6d41", "name": "Aditya Security Networking Solutions CCTV Camera Installation Green Park", "category": "Security system supplier", "street": "Shop No. 6", "city": "Sri Aurobindo Marg", "phone": "08851223854", "website": "https://adityasecuritynetworksolution.site/", "rating": 5, "review_count": "", "latitude": 28.5618314, "longitude": 77.20576419999999, "maps_url": "https://www.google.com/maps/place/?q=place_id:0x390ce34685116211:0xedfb1294645a6d41"}, {"place_id": "0x390ce2690fffffff:0xbeda56110af95b0b", "name": "Events It Solutions", "category": "Software company", "street": "T-95A, 4th Floor, C.L. House, Gautam Nagar Complex", "city": "New Delhi, Delhi 110049", "phone": "01143516272", "website": "", "rating": "", "review_count": "", "latitude": 28.5620966, "longitude": 77.2139292, "maps_url": "https://www.google.com/maps/place/?q=place_id:0x390ce2690fffffff:0xbeda56110af95b0b"}, {"place_id": "0x390ce268e4f6dfc3:0x75082f820771df8d", "name": "Moftware Infotech Private Limited", "category": "Software company", "street": "D-24", "city": "1", "phone": "01149367000", "website": "", "rating": 1, "review_count": "", "latitude": 28.563279599999998, "longitude": 77.2137666, "maps_url": "https://www.google.com/maps/place/?q=place_id:0x390ce268e4f6dfc3:0x75082f820771df8d"}]}