[{"place_id": "ChIJPR796sD9DDkRLo5M9V9l1nA", "name": "Binarysoft Technologies (We bring IT)", "street": "1st Floor, 1626/33, Block 27F, Naiwala, Karol Bagh, Delhi, 110005, India", "phone": "+91 92054 71661", "rating": "5", "review_count": "", "website": "http://www.binarysoft.com/", "latitude": 28.647633, "longitude": 77.19496199999999, "maps_url": "https://www.google.com/maps/search/?api=1&query=Binarysoft%20Technologies%20%28We%20bring%20IT%29&query_place_id=ChIJPR796sD9DDkRLo5M9V9l1nA"}, {"place_id": "ChIJA6KtL5kCDTkR7wFe_OSD2bE", "name": "Omniscient IT Solutions Pvt. Ltd", "street": "4, 28, Saraswati Marg, Block 15A, WEA, Karol Bagh, New Delhi, Delhi, 110005, India", "phone": "+91 98110 27310", "rating": "4.6", "review_count": "", "website": "https://www.omniscientitsolutions.com/", "latitude": 28.646959, "longitude": 77.1882229, "maps_url": "https://www.google.com/maps/search/?api=1&query=Omniscient%20IT%20Solutions%20Pvt.%20Ltd&query_place_id=ChIJA6KtL5kCDTkR7wFe_OSD2bE"}, {"place_id": "ChIJq6qOI2L9DDkR38KnEgy0rzs", "name": "Chartered Information Systems Private Limited", "street": "222-233, Desh Bandhu Gupta Rd, Block 47, Beadonpura, Karol Bagh, New Delhi, Delhi, 110005, India", "phone": "+91 11 4503 7177", "rating": "4.9", "review_count": "", "website": "http://www.charteredinfo.com/", "latitude": 28.6504962, "longitude": 77.196344, "maps_url": "https://www.google.com/maps/search/?api=1&query=Chartered%20Information%20Systems%20Private%20Limited&query_place_id=ChIJq6qOI2L9DDkR38KnEgy0rzs"}, {"place_id": "ChIJXUaNbIEDDTkRGeQ542Caims", "name": "Paper Code Technologies", "street": "T-1871 D, Ashok Nagar Uppar Ridge Road Jhandewalan, Karol Bagh, New Delhi, Delhi 110055, India", "phone": "+91 85958 85110", "rating": "4.9", "review_count": "", "website": "https://papercodetech.com/", "latitude": 28.647361, "longitude": 77.2016883, "maps_url": "https://www.google.com/maps/search/?api=1&query=Paper%20Code%20Technologies&query_place_id=ChIJXUaNbIEDDTkRGeQ542Caims"}, {"place_id": "ChIJtXMHQGj9DDkRRE43pKtyAYM", "name": "Dvayweb Consultancy Services Pvt. Ltd.", "street": "Rani Jhansi Rd, Block E 4, Jhandewalan Extension, Jhandewalan, New Delhi, Delhi 110055, India", "phone": "+91 98730 30060", "rating": "4.6", "review_count": "", "website": "https://dvayweb.com/", "latitude": 28.645454599999997, "longitude": 77.2042455, "maps_url": "https://www.google.com/maps/search/?api=1&query=Dvayweb%20Consultancy%20Services%20Pvt.%20Ltd.&query_place_id=ChIJtXMHQGj9DDkRRE43pKtyAYM"}, {"place_id": "ChIJFeXlTZkCDTkRNw2aQAO8CNk", "name": "Himalayan IT Solutions | Best Website Designing Company in Delhi | SEO/Digital Marketing Company in Delhi NCR, India", "street": "61/4255, Padam Singh Rd, Block 29, Block 1, Regar Pura, Karol Bagh, Delhi, 110005, India", "phone": "+91 98990 98509", "rating": "3.9", "review_count": "", "website": "http://www.himalayanitsolutions.com/", "latitude": 28.649673999999997, "longitude": 77.186599, "maps_url": "https://www.google.com/maps/search/?api=1&query=Himalayan%20IT%20Solutions%20%7C%20Best%20Website%20Designing%20Company%20in%20Delhi%20%7C%20SEO/Digital%20Marketing%20Company%20in%20Delhi%20NCR%2C%20India&query_place_id=ChIJFeXlTZkCDTkRNw2aQAO8CNk"}, {"place_id": "ChIJnSUGhMb9DDkR1RSiSe5bP8s", "name": "Scrrum Labs Private Limited", "street": "We-start co-working space, 2E/25, Jhandewalan Extension, Block E 2, Jhandewalan Extension, Karol Bagh, New Delhi, Delhi 110055, India", "phone": "+91 98999 29886", "rating": "4.7", "review_count": "", "website": "", "latitude": 28.6442767, "longitude": 77.2012045, "maps_url": "https://www.google.com/maps/search/?api=1&query=Scrrum%20Labs%20Private%20Limited&query_place_id=ChIJnSUGhMb9DDkR1RSiSe5bP8s"}, {"place_id": "ChIJUX61TOUCDTkRPmeqyd2Pcps", "name": "IT Solutions & Services (ITSS)", "street": "T–2425 Street Number 21, Baljeet Nagar, West Patel Nagar, New Delhi, Delhi 110008, India", "phone": "+91 88004 19462", "rating": "4.7", "review_count": "", "website": "https://www.itssin.com/", "latitude": 28.6576111, "longitude": 77.160708, "maps_url": "https://www.google.com/maps/search/?api=1&query=IT%20Solutions%20%26%20Services%20%28ITSS%29&query_place_id=ChIJUX61TOUCDTkRPmeqyd2Pcps"}, {"place_id": "ChIJVdkZih79DDkR_dClCtK2ZkU", "name": "SoftGiant Technologies - Custom Software Development & Best eCommmerce Development Company in Delhi, India", "street": "T-1871 D, 2/F, Ashok Nagar Uppar Ridge Road Jhandewalan, Karol Bagh, New Delhi, Delhi 110055, India", "phone": "+91 85958 85110", "rating": "5", "review_count": "", "website": "http://www.softgianttech.com/", "latitude": 28.647350699999997, "longitude": 77.2016845, "maps_url": "https://www.google.com/maps/search/?api=1&query=SoftGiant%20Technologies%20-%20Custom%20Software%20Development%20%26%20Best%20eCommmerce%20Development%20Company%20in%20Delhi%2C%20India&query_place_id=ChIJVdkZih79DDkR_dClCtK2ZkU"}, {"place_id": "ChIJuzZ3usj9DDkR5Q91Qz7GlDc", "name": "Busy Infotech Pvt. Ltd.", "street": "3, Rani Jhansi Rd, Block E 4, Jhandewalan Extension, Karol Bagh, New Delhi, Delhi 110055, India", "phone": "+91 11 4096 4096", "rating": "4.6", "review_count": "", "website": "https://busy.in/", "latitude": 28.6454408, "longitude": 77.2042627, "maps_url": "https://www.google.com/maps/search/?api=1&query=Busy%20Infotech%20Pvt.%20Ltd.&query_place_id=ChIJuzZ3usj9DDkR5Q91Qz7GlDc"}, {"place_id": "ChIJL-nKSx0DDTkRYRIgQ0ZkHSo", "name": "OCPL Tech", "street": "Block 16, 16/17, Block 8, WEA, Karol Bagh, New Delhi, Delhi, 110005, India", "phone": "", "rating": "5", "review_count": "", "website": "https://ocpl.tech/", "latitude": 28.645553099999997, "longitude": 77.1931304, "maps_url": "https://www.google.com/maps/search/?api=1&query=OCPL%20Tech&query_place_id=ChIJL-nKSx0DDTkRYRIgQ0ZkHSo"}, {"place_id": "ChIJB6AZSUD9DDkRuApv-5TZXZg", "name": "MMI Softwares Pvt. Ltd.", "street": "B-A4, 9/54, Namdhari Chamber, Desh Bandhu Gupta Rd, Block 53, Karol Bagh, New Delhi, Delhi 110005, India", "phone": "+91 99714 76501", "rating": "4.6", "review_count": "", "website": "http://www.mmsoftwares.com/", "latitude": 28.6536804, "longitude": 77.1916753, "maps_url": "https://www.google.com/maps/search/?api=1&query=MMI%20Softwares%20Pvt.%20Ltd.&query_place_id=ChIJB6AZSUD9DDkRuApv-5TZXZg"}, {"place_id": "ChIJAQAAAG_9DDkRHe8T6B7G5Lc", "name": "Ms Chugh Pen Company", "street": "D-6 Ground floor, Block D, Desh Bandhu Gupta Rd, Block E, Jhandewalan Extension, Karol Bagh, New Delhi, Delhi 110055, India", "phone": "+91 11 4703 6969", "rating": "4.8", "review_count": "", "website": "http://www.ministryofpens.com/", "latitude": 28.647973399999998, "longitude": 77.2051184, "maps_url": "https://www.google.com/maps/search/?api=1&query=Ms%20Chugh%20Pen%20Company&query_place_id=ChIJAQAAAG_9DDkRHe8T6B7G5Lc"}, {"place_id": "ChIJSy2Jhp4CDTkR_0QSNabY9kM", "name": "Digital Marketing Agency, Software Development Company, SEO Services Company in Delhi", "street": "3rd Floor, 16/448, Block - I, Building Number, Military Rd, Karol Bagh, New Delhi, Delhi 110005, India", "phone": "+91 98183 53030", "rating": "5", "review_count": "", "website": "https://www.micromind.in/", "latitude": 28.655144999999997, "longitude": 77.18114899999999, "maps_url": "https://www.google.com/maps/search/?api=1&query=Digital%20Marketing%20Agency%2C%20Software%20Development%20Company%2C%20SEO%20Services%20Company%20in%20Delhi&query_place_id=ChIJSy2Jhp4CDTkR_0QSNabY9kM"}, {"place_id": "ChIJL4BtX1wdDTkRIiNTpELCuuM", "name": "Nobilitas Infotech Pvt. Ltd. - IT Solutions Company", "street": "Padma Tower II, 210, Rajendra Place, New Delhi, Delhi 110005, India", "phone": "+91 84483 84926", "rating": "5", "review_count": "", "website": "https://www.nobilitasinfotech.com/", "latitude": 28.6451836, "longitude": 77.1780375, "maps_url": "https://www.google.com/maps/search/?api=1&query=Nobilitas%20Infotech%20Pvt.%20Ltd.%20-%20IT%20Solutions%20Company&query_place_id=ChIJL4BtX1wdDTkRIiNTpELCuuM"}, {"place_id": "ChIJLTcYNGb9DDkRuBu0MDvZnOs", "name": "HARDICON Limited ( State PSU)", "street": "Flatted Factory Complex, D-28, Block E, Jhandewalan Extension, Jhandewalan, New Delhi, Delhi 110055, India", "phone": "+91 11 2363 6224", "rating": "4.2", "review_count": "", "website": "http://hardicon.org/", "latitude": 28.6479251, "longitude": 77.20497739999999, "maps_url": "https://www.google.com/maps/search/?api=1&query=HARDICON%20Limited%20%28%20State%20PSU%29&query_place_id=ChIJLTcYNGb9DDkRuBu0MDvZnOs"}, {"place_id": "ChIJuWHhgOADDTkRnxxopj0gupQ", "name": "Accuwisetech IT Solution & Digital Marketing Agency", "street": "Metro Station Patel Nagar, 2/15, station, West Patel Nagar, New Delhi, Delhi, 110008, India", "phone": "", "rating": "4.9", "review_count": "", "website": "https://accuwisetech.com/", "latitude": 28.645363, "longitude": 77.1688322, "maps_url": "https://www.google.com/maps/search/?api=1&query=Accuwisetech%20IT%20Solution%20%26%20Digital%20Marketing%20Agency&query_place_id=ChIJuWHhgOADDTkRnxxopj0gupQ"}, {"place_id": "ChIJw5pcGWD9DDkRdfwjhZ450iY", "name": "Pringle Homeware", "street": "5, Pusa Rd, Block 18 A, WEA, Karol Bagh, New Delhi, Delhi, 110005, India", "phone": "+91 1800 120 7010", "rating": "3.4", "review_count": "", "website": "http://www.pringle.in/", "latitude": 28.6452, "longitude": 77.194923, "maps_url": "https://www.google.com/maps/search/?api=1&query=Pringle%20Homeware&query_place_id=ChIJw5pcGWD9DDkRdfwjhZ450iY"}, {"place_id": "ChIJZaKPOJ4CDTkRXmdZo_-gxiM", "name": "Enbake Consulting Pvt. Ltd.", "street": "4B, 10184, Arya Samaj Rd, Block 15, WEA, Karol Bagh, New Delhi, Delhi, 110005, India", "phone": "+91 95827 45110", "rating": "3.8", "review_count": "", "website": "http://enbake.com/", "latitude": 28.647752699999998, "longitude": 77.1931573, "maps_url": "https://www.google.com/maps/search/?api=1&query=Enbake%20Consulting%20Pvt.%20Ltd.&query_place_id=ChIJZaKPOJ4CDTkRXmdZo_-gxiM"}, {"place_id": "ChIJM32GX2D9DDkRDTQwGBm5vus", "name": "Sethi Steel Fabricator Safe and Almirah co.", "street": "Shop No. T- 2313, Opp. Federal Bank , Near Hanuman Statue, Faiz Road, Karol Bagh, New Delhi, Delhi 110005, India", "phone": "+91 96501 41432", "rating": "4.4", "review_count": "", "website": "http://www.sethisteelfabricator.com/", "latitude": 28.646075399999997, "longitude": 77.1973336, "maps_url": "https://www.google.com/maps/search/?api=1&query=Sethi%20Steel%20Fabricator%20Safe%20and%20Almirah%20co.&query_place_id=ChIJM32GX2D9DDkRDTQwGBm5vus"}, {"place_id": "ChIJf_GPBmf9DDkR-EyK3aivCjA", "name": "ScanBulk Business Solution", "street": "176, 1st floor, Cycle Market, Block E 4, Jhandewalan Extension, Jhandewalan, New Delhi, Delhi 110055, India", "phone": "+91 88793 81599", "rating": "5", "review_count": "", "website": "http://www.scanbulk.co.in//", "latitude": 28.6461734, "longitude": 77.2033424, "maps_url": "https://www.google.com/maps/search/?api=1&query=ScanBulk%20Business%20Solution&query_place_id=ChIJf_GPBmf9DDkR-EyK3aivCjA"}, {"place_id": "ChIJJS2nYJoCDTkR8ZKgzjgdREU", "name": "Payroll Software Companies", "street": "4/28, Ground Floor, Saraswati Marg, W.E.A, Karol Bagh, New Delhi, Delhi 110005, India", "phone": "+91 97111 95490", "rating": "4.3", "review_count": "", "website": "", "latitude": 28.6484551, "longitude": 77.1875826, "maps_url": "https://www.google.com/maps/search/?api=1&query=Payroll%20Software%20Companies&query_place_id=ChIJJS2nYJoCDTkR8ZKgzjgdREU"}, {"place_id": "ChIJ51AtDZ0DDTkRF6QrEcB_6Ks", "name": "Renovision Automation Services Pvt.Ltd-karol bagh", "street": "16, 8, Arya Samaj Rd, Block 16, WEA, Karol Bagh, New Delhi, Delhi, 110005, India", "phone": "+91 93107 19624", "rating": "3.7", "review_count": "", "website": "http://www.raspl.com/", "latitude": 28.647336499999998, "longitude": 77.1937694, "maps_url": "https://www.google.com/maps/search/?api=1&query=Renovision%20Automation%20Services%20Pvt.Ltd-karol%20bagh&query_place_id=ChIJ51AtDZ0DDTkRF6QrEcB_6Ks"}, {"place_id": "ChIJL8jNVWD9DDkRheze-OjcWHQ", "name": "Teknomatics", "street": "", "phone": "+91 99530 65125", "rating": "3", "review_count": "", "website": "", "latitude": 21.0680074, "longitude": 82.7525294, "maps_url": "https://www.google.com/maps/search/?api=1&query=Teknomatics&query_place_id=ChIJL8jNVWD9DDkRheze-OjcWHQ"}, {"place_id": "ChIJ____P2f9DDkRK3oP70sP8rA", "name": "KLB Instruments Co. Private Limited", "street": "1E, 17, Link Road, Block E 1, Jhandewalan Extension, Jhandewalan, New Delhi, Delhi 110055, India", "phone": "+91 11 4154 3333", "rating": "4.3", "review_count": "", "website": "https://klb.in/", "latitude": 28.645252, "longitude": 77.20116089999999, "maps_url": "https://www.google.com/maps/search/?api=1&query=KLB%20Instruments%20Co.%20Private%20Limited&query_place_id=ChIJ____P2f9DDkRK3oP70sP8rA"}, {"place_id": "ChIJZaMa2J4CDTkRBH_8IS-hLxI", "name": "Harish Chandra & Co", "street": "Swastic Bhavan, 13/ 18, Ajmal Khan Rd, Block 13, WEA, Karol Bagh, New Delhi, Delhi, 110005, India", "phone": "+91 11 2572 4566", "rating": "3.8", "review_count": "", "website": "", "latitude": 28.6485083, "longitude": 77.19079239999999, "maps_url": "https://www.google.com/maps/search/?api=1&query=Harish%20Chandra%20%26%20Co&query_place_id=ChIJZaMa2J4CDTkRBH_8IS-hLxI"}, {"place_id": "ChIJVVVVmWf9DDkRfayImHap45U", "name": "ACS TECHNOLOGY", "street": "4E/S1, Block E 4, Jhandewalan Extension, Jhandewalan, New Delhi, Delhi 110055, India", "phone": "+91 98717 10085", "rating": "4.2", "review_count": "", "website": "http://laptopkharido.com/", "latitude": 28.6462377, "longitude": 77.202113, "maps_url": "https://www.google.com/maps/search/?api=1&query=ACS%20TECHNOLOGY&query_place_id=ChIJVVVVmWf9DDkRfayImHap45U"}, {"place_id": "ChIJqxkvH1n9DDkRsEdyv5q4zGs", "name": "Daftar Cowork Nexus 3.0", "street": "1e/23, Walking from Metro station, Block E 1, Jhandewalan Extension, Karol Bagh, New Delhi, Delhi 110055, India", "phone": "+91 96678 98884", "rating": "4.8", "review_count": "", "website": "https://daftarcowork.com/", "latitude": 28.645505699999998, "longitude": 77.2014129, "maps_url": "https://www.google.com/maps/search/?api=1&query=Daftar%20Cowork%20Nexus%203.0&query_place_id=ChIJqxkvH1n9DDkRsEdyv5q4zGs"}, {"place_id": "ChIJbQ3ir58CDTkR7oaREwH4xZk", "name": "Expert Trading Company", "street": "2273, 69, Abdul Aziz Rd, Block 25A, Naiwala, Karol Bagh, New Delhi, Delhi, 110005, India", "phone": "+91 98100 29670", "rating": "3.8", "review_count": "", "website": "", "latitude": 28.648117499999998, "longitude": 77.19372729999999, "maps_url": "https://www.google.com/maps/search/?api=1&query=Expert%20Trading%20Company&query_place_id=ChIJbQ3ir58CDTkR7oaREwH4xZk"}, {"place_id": "ChIJi9xqgp4CDTkRrhCdoDBCS5k", "name": "Narang Shoe Company", "street": "Shop No. 28 Gaffar Market, Karol Bagh, New Delhi, Delhi 110005, India", "phone": "+91 98711 76126", "rating": "4.1", "review_count": "", "website": "", "latitude": 28.6493275, "longitude": 77.19111079999999, "maps_url": "https://www.google.com/maps/search/?api=1&query=Narang%20Shoe%20Company&query_place_id=ChIJi9xqgp4CDTkRrhCdoDBCS5k"}, {"place_id": "ChIJHy_mJJwCDTkRjjWBA338368", "name": "Lahore Watch Co.", "street": "Shop No. 112, Shop No. 112 113 Ghaffar Market, Block, 113, Ghaffar Market, Block 23, Beadonpura, Karol Bagh, New Delhi, Delhi 110005, India", "phone": "+91 99996 68166", "rating": "4.8", "review_count": "", "website": "http://lahorewatchco.com/", "latitude": 28.649777999999998, "longitude": 77.191687, "maps_url": "https://www.google.com/maps/search/?api=1&query=Lahore%20Watch%20Co.&query_place_id=ChIJHy_mJJwCDTkRjjWBA338368"}, {"place_id": "ChIJXehgrEUDDTkRQa6A0ZOfuWY", "name": "Surplus dekho", "street": "17a/53, Gurudwara Rd, opposite jassa ram hospital, above and, Block 6, WEA, Karol Bagh, New Delhi, Delhi, 110005, India", "phone": "+91 92122 00006", "rating": "4.4", "review_count": "", "website": "https://surplusdekho.com/", "latitude": 28.646079999999998, "longitude": 77.190666, "maps_url": "https://www.google.com/maps/search/?api=1&query=Surplus%20dekho&query_place_id=ChIJXehgrEUDDTkRQa6A0ZOfuWY"}, {"place_id": "ChIJZ37rImL9DDkRNwd-MYPEWG0", "name": "Netmax Computers", "street": "2092/37 3rd Floor Naiwala, Karol Bagh, New Delhi, Delhi 110005, India", "phone": "+91 74289 67774", "rating": "4.3", "review_count": "", "website": "http://www.netmaxindia.com/", "latitude": 28.6504649, "longitude": 77.19629929999999, "maps_url": "https://www.google.com/maps/search/?api=1&query=Netmax%20Computers&query_place_id=ChIJZ37rImL9DDkRNwd-MYPEWG0"}, {"place_id": "ChIJvwmGY-r9DDkRkM1isX3WyfM", "name": "Aim Dynamics", "street": "Building No, 2168, Gurudwara Rd, Block 37J, Beadonpura, Karol Bagh, New Delhi, Delhi, 110005, India", "phone": "+91 79 7133 5690", "rating": "3.9", "review_count": "", "website": "", "latitude": 28.6498577, "longitude": 77.1943452, "maps_url": "https://www.google.com/maps/search/?api=1&query=Aim%20Dynamics&query_place_id=ChIJvwmGY-r9DDkRkM1isX3WyfM"}, {"place_id": "ChIJL_8v6Ff9DDkRPU1CYhmlTfw", "name": "CONCAT - Business Consulting Firms In India | vCXO | Digital Marketing & Lead Generation", "street": "1E/2, Block E 4, Jhandewalan Extension, Karol Bagh, New Delhi, Delhi 110055, India", "phone": "", "rating": "5", "review_count": "", "website": "https://concators.com/", "latitude": 28.6444406, "longitude": 77.2002596, "maps_url": "https://www.google.com/maps/search/?api=1&query=CONCAT%20-%20Business%20Consulting%20Firms%20In%20India%20%7C%20vCXO%20%7C%20Digital%20Marketing%20%26%20Lead%20Generation&query_place_id=ChIJL_8v6Ff9DDkRPU1CYhmlTfw"}, {"place_id": "ChIJVVkZANEFDTkREuPMUDxEtVc", "name": "Yogesher India", "street": "2nd Floor, 2E, 8, Jhandewalan Rd, Block E 1, Jhandewalan Extension, Karol Bagh, New Delhi, Delhi 110055, India", "phone": "+91 11 4102 0647", "rating": "3.5", "review_count": "", "website": "https://www.yogesher.com/", "latitude": 28.6449534, "longitude": 77.2012128, "maps_url": "https://www.google.com/maps/search/?api=1&query=Yogesher%20India&query_place_id=ChIJVVkZANEFDTkREuPMUDxEtVc"}, {"place_id": "ChIJAV_rsWH9DDkRhpuqtujzHh4", "name": "Mukesh Arora & Co.", "street": "Chamber No. 304, 1117, Gali Number 12, Rajgarh Extension-2, Block 39, Naiwala, Karol Bagh, New Delhi, Delhi, 110005, India", "phone": "+91 11 3562 2109", "rating": "4.5", "review_count": "", "website": "http://csmukesharora.com/", "latitude": 28.647567199999997, "longitude": 77.1966886, "maps_url": "https://www.google.com/maps/search/?api=1&query=Mukesh%20Arora%20%26%20Co.&query_place_id=ChIJAV_rsWH9DDkRhpuqtujzHh4"}, {"place_id": "ChIJNQOA6hUDDTkR4qTkhl4aJlY", "name": "D-Nation Entertainments Co.", "street": "1010, Faiz Rd, Pocket 29, Naiwala, Karol Bagh, New Delhi, Delhi, 110005, India", "phone": "+91 83689 20891", "rating": "4.6", "review_count": "", "website": "", "latitude": 28.6464604, "longitude": 77.1972819, "maps_url": "https://www.google.com/maps/search/?api=1&query=D-Nation%20Entertainments%20Co.&query_place_id=ChIJNQOA6hUDDTkR4qTkhl4aJlY"}, {"place_id": "ChIJ5XAX8V39DDkR4gQP6Af1-9E", "name": "Adio Brand Solutions : Digital Marketing Agency", "street": "2-E, Block E 3, Jhandewalan Extension, Jhandewalan, New Delhi, Delhi 110055, India", "phone": "+91 98995 66665", "rating": "5", "review_count": "", "website": "https://www.adiobrandsolutions.com/", "latitude": 28.6453027, "longitude": 77.2027925, "maps_url": "https://www.google.com/maps/search/?api=1&query=Adio%20Brand%20Solutions%20%3A%20Digital%20Marketing%20Agency&query_place_id=ChIJ5XAX8V39DDkR4gQP6Af1-9E"}, {"place_id": "ChIJWWsJ5l79DDkR_qUlGtK3NM8", "name": "Bharti Axa Life Insurance Company Limited", "street": "1st Floor, Caxton Press Building, 2-E, Rani Jhansi Rd, Block E 4, Jhandewalan Extension, Jhandewalan, New Delhi, Delhi 110055, India", "phone": "+91 1800 102 4444", "rating": "1.9", "review_count": "", "website": "https://www.bhartiaxa.com/", "latitude": 28.645413299999998, "longitude": 77.2041717, "maps_url": "https://www.google.com/maps/search/?api=1&query=Bharti%20Axa%20Life%20Insurance%20Company%20Limited&query_place_id=ChIJWWsJ5l79DDkR_qUlGtK3NM8"}, {"place_id": "ChIJGx0Mrjf9DDkRwLZIK37YPfo", "name": "Holidays 2 Cherish Travel Company", "street": "Second floor, 16/10164, Landmark:, Padam Singh Rd, opposite Shastri car Parking entrance, Block 15, WEA, Karol Bagh, New Delhi, Delhi, 110005, India", "phone": "", "rating": "4.7", "review_count": "", "website": "http://www.holidays2cherish.com/", "latitude": 28.647129999999997, "longitude": 77.19254149999999, "maps_url": "https://www.google.com/maps/search/?api=1&query=Holidays%202%20Cherish%20Travel%20Company&query_place_id=ChIJGx0Mrjf9DDkRwLZIK37YPfo"}, {"place_id": "ChIJ28mlS2b9DDkROhaHyIlBq8g", "name": "Anmol Enterprises", "street": "B 11, Block E, Jhandewalan Extension, Jhandewalan, New Delhi, Delhi 110055, India", "phone": "+91 11 4011 5176", "rating": "4.7", "review_count": "", "website": "https://anmolent.in/", "latitude": 28.647574, "longitude": 77.2049011, "maps_url": "https://www.google.com/maps/search/?api=1&query=Anmol%20Enterprises&query_place_id=ChIJ28mlS2b9DDkROhaHyIlBq8g"}, {"place_id": "ChIJbb549WH9DDkRVp0mRR9XtSs", "name": "Adequate Steel Fabricators", "street": "2015, Bank St, Block 47, Beadonpura, Karol Bagh, New Delhi, Delhi, 110005, India", "phone": "+91 98100 14985", "rating": "4.4", "review_count": "", "website": "https://www.adequatesteel.com/", "latitude": 28.649862, "longitude": 77.1957642, "maps_url": "https://www.google.com/maps/search/?api=1&query=Adequate%20Steel%20Fabricators&query_place_id=ChIJbb549WH9DDkRVp0mRR9XtSs"}, {"place_id": "ChIJ6dQtXYn9DDkRVXncUPfnLkE", "name": "LifeMakerS", "street": "52 No. Street, Building No. 1794, Shri Krishan Dass Road, Block 37J, Naiwala, Karol Bagh, New Delhi, Delhi 110005, India", "phone": "+91 83686 14836", "rating": "4.8", "review_count": "", "website": "", "latitude": 28.648358299999998, "longitude": 77.1952767, "maps_url": "https://www.google.com/maps/search/?api=1&query=LifeMakerS&query_place_id=ChIJ6dQtXYn9DDkRVXncUPfnLkE"}, {"place_id": "ChIJ5XAX8V39DDkRTfFwc6LTeuM", "name": "AtWork", "street": "Metro Station, 2E/25, Jhandewalan Extension, opposite Bank Of India, near Jhandewalan, Block E 2, Jhandewalan Extension, Karol Bagh, New Delhi, Delhi 110055, India", "phone": "+91 98997 63999", "rating": "4.4", "review_count": "", "website": "http://atwork.co.in/", "latitude": 28.6442767, "longitude": 77.2012045, "maps_url": "https://www.google.com/maps/search/?api=1&query=AtWork&query_place_id=ChIJ5XAX8V39DDkRTfFwc6LTeuM"}, {"place_id": "ChIJXeb5w2TstKsRCGyjMeL08iE", "name": "Businessofy - Digital Marketing Agency", "street": "Block, 4E/9, Block E 4, Jhandewalan Extension, Jhandewalan, New Delhi, Delhi 110055, New Delhi, Delhi 110005, India", "phone": "", "rating": "4.5", "review_count": "", "website": "https://businessofy.com/", "latitude": 28.6463155, "longitude": 77.2027624, "maps_url": "https://www.google.com/maps/search/?api=1&query=Businessofy%20-%20Digital%20Marketing%20Agency&query_place_id=ChIJXeb5w2TstKsRCGyjMeL08iE"}, {"place_id": "ChIJwf1Bi8blDDkR4WuGvDhiPwQ", "name": "TRIVENI WORLD - Buy Refurbished & Second Hand Mobile Phones Online In India", "street": "7, Telecom Plaza, Triveni World, Gurudwara Rd, Karol Bagh, New Delhi, Delhi 110005, India", "phone": "+91 70658 44397", "rating": "3.3", "review_count": "", "website": "http://www.triveniworld.com/", "latitude": 28.650418799999997, "longitude": 77.1914414, "maps_url": "https://www.google.com/maps/search/?api=1&query=TRIVENI%20WORLD%20-%20Buy%20Refurbished%20%26%20Second%20Hand%20Mobile%20Phones%20Online%20In%20India&query_place_id=ChIJwf1Bi8blDDkR4WuGvDhiPwQ"}, {"place_id": "ChIJMen4JTP9DDkRC7DSoPzEmGw", "name": "Sollace Co-works", "street": "1E/2, Block E 1, Jhandewalan Extension, Karol Bagh, New Delhi, Delhi 110055, India", "phone": "+91 98106 31405", "rating": "5", "review_count": "", "website": "https://sollacecoworks.com/coworking-spaces-in-jhandewalan/", "latitude": 28.644596999999997, "longitude": 77.2002167, "maps_url": "https://www.google.com/maps/search/?api=1&query=Sollace%20Co-works&query_place_id=ChIJMen4JTP9DDkRC7DSoPzEmGw"}, {"place_id": "ChIJ4_QbqvQDDTkRUV17EnOsFkk", "name": "QSpiders Delhi", "street": "No. 8/3, Part, Fourth Floor, Western Extn Karol Bagh Colony, Rajender Nagar Ward, Zone, Karol Bagh, New Delhi, Delhi 110005, India", "phone": "+91 89519 38997", "rating": "4.7", "review_count": "", "website": "https://qspiders.com/", "latitude": 28.645386499999997, "longitude": 77.1922999, "maps_url": "https://www.google.com/maps/search/?api=1&query=QSpiders%20Delhi&query_place_id=ChIJ4_QbqvQDDTkRUV17EnOsFkk"}, {"place_id": "ChIJs7t2M5wCDTkRLQuQSzDtWm0", "name": "Baba Tools Store", "street": "Network Plaza, B3, 4, Gali Number 17, Beadonpura, Karol Bagh, New Delhi, Delhi 110005, India", "phone": "", "rating": "4.1", "review_count": "", "website": "https://www.babaocamachine.com/", "latitude": 28.6508377, "longitude": 77.19119649999999, "maps_url": "https://www.google.com/maps/search/?api=1&query=Baba%20Tools%20Store&query_place_id=ChIJs7t2M5wCDTkRLQuQSzDtWm0"}, {"place_id": "ChIJH1q2a9EDDTkRTWvPZ_j-NWs", "name": "SHRI ASHOKA METALS - BEST DEALER OF STEEL STRUCTURES IN DELHI.", "street": "1ST FLOOR, 101, Gurudwara Rd, near GURDWARA, Ghaffar Market, Block 24N, Beadonpura, Karol Bagh, New Delhi, Delhi, 110005, India", "phone": "+91 98104 79393", "rating": "5", "review_count": "", "website": "http://www.shriashokametals.com/", "latitude": 28.648981799999998, "longitude": 77.1927755, "maps_url": "https://www.google.com/maps/search/?api=1&query=SHRI%20ASHOKA%20METALS%20-%20BEST%20DEALER%20OF%20STEEL%20STRUCTURES%20IN%20DELHI.&query_place_id=ChIJH1q2a9EDDTkRTWvPZ_j-NWs"}, {"place_id": "ChIJG8ZvuWT9DDkRmVHG94rdy5E", "name": "A2A Vision Pvt. Ltd.", "street": "316, 953-956, AJ Chamber, Pyarelal Rd, Gali Number 4, Block 49A, Naiwala, Karol Bagh, New Delhi, Delhi 110005, India", "phone": "+91 11 4300 3848", "rating": "5", "review_count": "", "website": "http://www.a2avision.com/", "latitude": 28.6484417, "longitude": 77.1983691, "maps_url": "https://www.google.com/maps/search/?api=1&query=A2A%20Vision%20Pvt.%20Ltd.&query_place_id=ChIJG8ZvuWT9DDkRmVHG94rdy5E"}, {"place_id": "ChIJnaq6nWf9DDkRG8-CY0SpqSA", "name": "Fundkarts Investment", "street": "Cycle Market, 268, Jhandewalan Extension, Delhi 110055, India", "phone": "+91 97114 15122", "rating": "5", "review_count": "", "website": "https://www.fundkarts.com/", "latitude": 28.6458965, "longitude": 77.20328409999999, "maps_url": "https://www.google.com/maps/search/?api=1&query=Fundkarts%20Investment&query_place_id=ChIJnaq6nWf9DDkRG8-CY0SpqSA"}, {"place_id": "ChIJk0dFfdoDDTkRJzepev2Yq20", "name": "PinnacleU", "street": "Block E 2, E-3, Rani Jhansi Rd, Block E 4, Jhandewalan Extension, Karol Bagh, New Delhi, Delhi 110055, India", "phone": "+91 93113 99020", "rating": "5", "review_count": "", "website": "http://pinnacleu.in/", "latitude": 28.6457053, "longitude": 77.2044719, "maps_url": "https://www.google.com/maps/search/?api=1&query=PinnacleU&query_place_id=ChIJk0dFfdoDDTkRJzepev2Yq20"}, {"place_id": "ChIJ28mlS2b9DDkRXJvKHZO1SbY", "name": "Supervac Industries LLP - Vacuum Pump Oil", "street": "B-21, Desh Bandhu Gupta Rd, Block E, Jhandewalan Extension, Jhandewalan, New Delhi, Delhi 110055, India", "phone": "+91 11 4356 4967", "rating": "4.2", "review_count": "", "website": "https://www.supervacoils.com/", "latitude": 28.647511899999998, "longitude": 77.2049085, "maps_url": "https://www.google.com/maps/search/?api=1&query=Supervac%20Industries%20LLP%20-%20Vacuum%20Pump%20Oil&query_place_id=ChIJ28mlS2b9DDkRXJvKHZO1SbY"}, {"place_id": "ChIJidDON5wCDTkRtKJcVJeuv5s", "name": "Maxbhi.com", "street": "3rd floor, Network Plaza, 318, Saraswati Road, Beadonpura, Karol Bagh, New Delhi, Delhi, 110005, India", "phone": "+91 95991 97756", "rating": "4.2", "review_count": "", "website": "https://www.maxbhi.com/%20samsung%20galaxy%20a12%20front%20camera%20available%20hai%20sir", "latitude": 28.6507999, "longitude": 77.1910572, "maps_url": "https://www.google.com/maps/search/?api=1&query=Maxbhi.com&query_place_id=ChIJidDON5wCDTkRtKJcVJeuv5s"}, {"place_id": "ChIJMVyfb58CDTkR97epNgQINuA", "name": "Denver For Men", "street": "18 Ground floor pusa lane, Delhi, 110005, India", "phone": "+91 11 4746 4444", "rating": "3.7", "review_count": "", "website": "https://www.denverformen.com/", "latitude": 28.644564, "longitude": 77.190769, "maps_url": "https://www.google.com/maps/search/?api=1&query=Denver%20For%20Men&query_place_id=ChIJMVyfb58CDTkR97epNgQINuA"}, {"place_id": "ChIJ23F4xzb9DDkR6oiWoTSG1iY", "name": "NTT DATA Payment Services India", "street": "Second Floor, Daftar Coworks : 23, 1-E, near Videocon Tower, Jhandewalan Extension, New Delhi, Delhi 110055, India", "phone": "+91 22 6807 4100", "rating": "1.3", "review_count": "", "website": "http://in.nttdatapay.com/", "latitude": 28.645186, "longitude": 77.20287979999999, "maps_url": "https://www.google.com/maps/search/?api=1&query=NTT%20DATA%20Payment%20Services%20India&query_place_id=ChIJ23F4xzb9DDkR6oiWoTSG1iY"}, {"place_id": "ChIJ165e-X6cQSQR95YONPN1nsM", "name": "Clear ITR", "street": "E-3, Rani Jhansi Rd, Block E 4, Jhandewalan Extension, Jhandewalan, New Delhi, Delhi 110055, India", "phone": "", "rating": "4.9", "review_count": "", "website": "https://clearitr.com/", "latitude": 28.645454599999997, "longitude": 77.2042455, "maps_url": "https://www.google.com/maps/search/?api=1&query=Clear%20ITR&query_place_id=ChIJ165e-X6cQSQR95YONPN1nsM"}, {"place_id": "ChIJE9NL9GD9DDkRaQa6HLygtd4", "name": "Vertex Fincorp Pvt Ltd", "street": "Number 3, Faiz Rd, Sewak Chember, Block 49A, Naiwala, Karol Bagh, New Delhi, Delhi, 110005, India", "phone": "", "rating": "4.8", "review_count": "", "website": "", "latitude": 28.648685399999998, "longitude": 77.19842109999999, "maps_url": "https://www.google.com/maps/search/?api=1&query=Vertex%20Fincorp%20Pvt%20Ltd&query_place_id=ChIJE9NL9GD9DDkRaQa6HLygtd4"}, {"place_id": "ChIJr9I9qmj9DDkRxnAGnMOFKGQ", "name": "Upahar Technologies Print & Publicity", "street": "Ground Floor 1E, 5, Jhandewalan Extension, Jhandewalan, New Delhi, Delhi 110055, India", "phone": "", "rating": "4.9", "review_count": "", "website": "http://www.upahar.co.in/", "latitude": 28.645128099999997, "longitude": 77.2004816, "maps_url": "https://www.google.com/maps/search/?api=1&query=Upahar%20Technologies%20Print%20%26%20Publicity&query_place_id=ChIJr9I9qmj9DDkRxnAGnMOFKGQ"}, {"place_id": "ChIJmTVIuOfjDDkReho6Fu2f5qk", "name": "Indiamart", "street": "First Floor, 1-E/3, Jhandewalan, Delhi 110055, India", "phone": "+91 98992 50619", "rating": "4.3", "review_count": "", "website": "", "latitude": 28.648062499999998, "longitude": 77.2035326, "maps_url": "https://www.google.com/maps/search/?api=1&query=Indiamart&query_place_id=ChIJmTVIuOfjDDkReho6Fu2f5qk"}, {"place_id": "ChIJ1-nWQZ4CDTkR6IgbNef9w6Y", "name": "FURMATS", "street": "Pratap Chambers, 404, Gurudwara Rd, Block 25A, Naiwala, Karol Bagh, New Delhi, Delhi, 110005, India", "phone": "+91 11 3060 6000", "rating": "3.3", "review_count": "", "website": "https://furmats.com/", "latitude": 28.648244299999998, "longitude": 77.1928775, "maps_url": "https://www.google.com/maps/search/?api=1&query=FURMATS&query_place_id=ChIJ1-nWQZ4CDTkR6IgbNef9w6Y"}, {"place_id": "ChIJGfrOswD9DDkRQw3eQjjHAtY", "name": "Electricita Energy Pvt. Ltd.", "street": "Plot No. 3, Block B Faiz Road, Jhandewalan, Estate, Karol Bagh, New Delhi, Delhi 110005, India", "phone": "+91 99119 23293", "rating": "3.3", "review_count": "", "website": "http://electricita.co.in/", "latitude": 28.650040999999998, "longitude": 77.200437, "maps_url": "https://www.google.com/maps/search/?api=1&query=Electricita%20Energy%20Pvt.%20Ltd.&query_place_id=ChIJGfrOswD9DDkRQw3eQjjHAtY"}, {"place_id": "ChIJ_____5wCDTkR97EwmffWHBE", "name": "Varun Electronics", "street": "129, MCD Market, Ghaffar Market, Block 23, Beadonpura, Karol Bagh, New Delhi, Delhi, 110005, India", "phone": "+91 98111 73434", "rating": "4.2", "review_count": "", "website": "https://instagram.com/varun_electronics?igshid=m76a7zoxaj3v", "latitude": 28.6501622, "longitude": 77.19070239999999, "maps_url": "https://www.google.com/maps/search/?api=1&query=Varun%20Electronics&query_place_id=ChIJ_____5wCDTkR97EwmffWHBE"}, {"place_id": "ChIJNzGy7LYDDTkRNXf56mjXolg", "name": "The Creation", "street": "4th Floor, 17, Pusa Rd, Block 8, WEA, Karol Bagh, New Delhi, Delhi, 110005, India", "phone": "+91 98184 05894", "rating": "4.5", "review_count": "", "website": "http://www.thecreation.in/", "latitude": 28.64474, "longitude": 77.191228, "maps_url": "https://www.google.com/maps/search/?api=1&query=The%20Creation&query_place_id=ChIJNzGy7LYDDTkRNXf56mjXolg"}, {"place_id": "ChIJUQbQB0L9DDkRBu-B58-Mqrk", "name": "Alankit - MEA, HRD, MOFA, Embassy Certificate Attestation & Apostille Services in Delhi NCR", "street": "Anarkali Complex, 205-208, Block E 3, Jhandewalan Extension, Karol Bagh, New Delhi, Delhi 110055, India", "phone": "+91 97178 58585", "rating": "3.4", "review_count": "", "website": "https://www.alankitattestation.com/", "latitude": 28.6447899, "longitude": 77.202384, "maps_url": "https://www.google.com/maps/search/?api=1&query=Alankit%20-%20MEA%2C%20HRD%2C%20MOFA%2C%20Embassy%20Certificate%20Attestation%20%26%20Apostille%20Services%20in%20Delhi%20NCR&query_place_id=ChIJUQbQB0L9DDkRBu-B58-Mqrk"}, {"place_id": "ChIJxc_5GJ8CDTkRK5iK5E2h6zg", "name": "Farsight Group", "street": "17A, Triveni Plaza, 55, Gurudwara Rd, Block 10, WEA, Karol Bagh, New Delhi, Delhi, 110005, India", "phone": "+91 11 4504 4444", "rating": "4.5", "review_count": "", "website": "https://farsightshares.com/", "latitude": 28.646054499999998, "longitude": 77.1904848, "maps_url": "https://www.google.com/maps/search/?api=1&query=Farsight%20Group&query_place_id=ChIJxc_5GJ8CDTkRK5iK5E2h6zg"}, {"place_id": "ChIJ6750cE0uXIgRPpj00kno5DA", "name": "The IT Company", "street": "16 Emory Pl STE 100, Knoxville, TN 37917", "phone": "(865) 392-9200", "rating": "4.8", "review_count": "", "website": "https://theitcompany.com/?utm_source=google&utm_medium=organic&utm_campaign=Google+Business+Profile", "latitude": 35.974151899999995, "longitude": -83.922608, "maps_url": "https://www.google.com/maps/search/?api=1&query=The%20IT%20Company&query_place_id=ChIJ6750cE0uXIgRPpj00kno5DA"}, {"place_id": "ChIJm-6KXMiAj4ARIOUJIrNg2ys", "name": "Intelligent Technical Solutions", "street": "5427 Telegraph Ave unit p, Oakland, CA 94609", "phone": "(415) 213-2285", "rating": "5", "review_count": "", "website": "https://www.itsasap.com/its-oakland", "latitude": 37.839716599999996, "longitude": -122.2623776, "maps_url": "https://www.google.com/maps/search/?api=1&query=Intelligent%20Technical%20Solutions&query_place_id=ChIJm-6KXMiAj4ARIOUJIrNg2ys"}, {"place_id": "ChIJef9yJGL9DDkRb-j4Wk1Dga4", "name": "Blanket Manufacturer & Wholesaler Delhi", "street": "1333-34, Durga Chambers, 316, Desh Bandhu Gupta Rd, Block 47, Beadonpura, Karol Bagh, New Delhi, Delhi, 110005, India", "phone": "+91 92125 00800", "rating": "4.3", "review_count": "", "website": "http://www.sunilwoollenmills.com/", "latitude": 28.650485999999997, "longitude": 77.196356, "maps_url": "https://www.google.com/maps/search/?api=1&query=Blanket%20Manufacturer%20%26%20Wholesaler%20Delhi&query_place_id=ChIJef9yJGL9DDkRb-j4Wk1Dga4"}, {"place_id": "ChIJafwlbWf9DDkRPUk4Ucj45WI", "name": "Alankit House", "street": "House, 4E/2, Alankit, near Indian Post Office, Block E 4, Jhandewalan Extension, Karol Bagh, New Delhi, Delhi 110055, India", "phone": "+91 11 4254 1234", "rating": "3.2", "review_count": "", "website": "https://www.alankit.com/", "latitude": 28.646386399999997, "longitude": 77.2024543, "maps_url": "https://www.google.com/maps/search/?api=1&query=Alankit%20House&query_place_id=ChIJafwlbWf9DDkRPUk4Ucj45WI"}, {"place_id": "ChIJCa3Vycn9DDkRg4m2djRfQQc", "name": "Baba Ji Printers", "street": "1461, Gali No 23, Block 48D, Beadonpura, Karol Bagh, New Delhi, Delhi, 110005, India", "phone": "", "rating": "4.8", "review_count": "", "website": "", "latitude": 28.6489792, "longitude": 77.19679359999999, "maps_url": "https://www.google.com/maps/search/?api=1&query=Baba%20Ji%20Printers&query_place_id=ChIJCa3Vycn9DDkRg4m2djRfQQc"}, {"place_id": "ChIJ0Ql-EWL9DDkRWb24ujA3NdY", "name": "Web Design, Digital Marketing, Software & Mobile App Development.", "street": "", "phone": "", "rating": "3.7", "review_count": "", "website": "", "latitude": 28.692404999999997, "longitude": 77.090042, "maps_url": "https://www.google.com/maps/search/?api=1&query=Web%20Design%2C%20Digital%20Marketing%2C%20Software%20%26%20Mobile%20App%20Development.&query_place_id=ChIJ0Ql-EWL9DDkRWb24ujA3NdY"}, {"place_id": "ChIJdXCN3EEDDTkRoJINk8_fM1A", "name": "Ennod - IT Solutions", "street": "12-a/14, Saraswati Marg, Block 12A, WEA, Karol Bagh, New Delhi, Delhi, 110005, India", "phone": "+91 93105 55260", "rating": "", "review_count": "", "website": "https://ennod.com/", "latitude": 28.646982899999998, "longitude": 77.18712169999999, "maps_url": "https://www.google.com/maps/search/?api=1&query=Ennod%20-%20IT%20Solutions&query_place_id=ChIJdXCN3EEDDTkRoJINk8_fM1A"}, {"place_id": "ChIJA_JAOmD9DDkRUTuRjOuh7BY", "name": "Click Mecha", "street": "Office no, 3, Arya Samaj Rd, near big biknervala, Block 18, WEA, Karol Bagh, New Delhi, Delhi, 110005, India", "phone": "+91 99990 08998", "rating": "4.9", "review_count": "", "website": "https://clickmecha.com/", "latitude": 28.646258999999997, "longitude": 77.195506, "maps_url": "https://www.google.com/maps/search/?api=1&query=Click%20Mecha&query_place_id=ChIJA_JAOmD9DDkRUTuRjOuh7BY"}, {"place_id": "ChIJvS8s1Wf9DDkRnwo5B73VETg", "name": "Website Designing Services in Delhi", "street": "2nd Floor, 76-A, Rani Jhansi Rd, near Jhandewalan Mandir, Block A, Mukharjee Market, Karol Bagh, New Delhi, Delhi 110055, India", "phone": "+91 99998 64418", "rating": "4.5", "review_count": "", "website": "http://www.barahamiitservices.com/", "latitude": 28.650288699999997, "longitude": 77.2048521, "maps_url": "https://www.google.com/maps/search/?api=1&query=Website%20Designing%20Services%20in%20Delhi&query_place_id=ChIJvS8s1Wf9DDkRnwo5B73VETg"}, {"place_id": "ChIJ_f1Otz0FDTkRaULdKs4F6Dk", "name": "KARACT FILINGS", "street": "208, 2nd Floor, 2066/38-39, Gali Number 16, Pocket 29, Naiwala, Karol Bagh, New Delhi, Delhi, 110005, India", "phone": "+91 78629 92992", "rating": "5", "review_count": "", "website": "", "latitude": 28.6461729, "longitude": 77.19656859999999, "maps_url": "https://www.google.com/maps/search/?api=1&query=KARACT%20FILINGS&query_place_id=ChIJ_f1Otz0FDTkRaULdKs4F6Dk"}, {"place_id": "ChIJAQAAkAr9DDkRpSWPcY0TB_0", "name": "R K Trading Co", "street": "1st Floor, 1744/55, Block 26I, Naiwala, Karol Bagh, New Delhi, Delhi, 110005, India", "phone": "+91 11 2875 2880", "rating": "5", "review_count": "", "website": "", "latitude": 28.648294, "longitude": 77.1942783, "maps_url": "https://www.google.com/maps/search/?api=1&query=R%20K%20Trading%20Co&query_place_id=ChIJAQAAkAr9DDkRpSWPcY0TB_0"}, {"place_id": "ChIJdd3K8pQCDTkRY6pTevLZsMU", "name": "TRINE CONCEPTS AND EVENTS LLP", "street": "E-3 Delhi Press Building, Rani Jhansi Rd, Jhandewalan Extension, New Delhi, Delhi 110055, India", "phone": "", "rating": "4.7", "review_count": "", "website": "http://www.trineconcepts.com/", "latitude": 28.6455387, "longitude": 77.20436339999999, "maps_url": "https://www.google.com/maps/search/?api=1&query=TRINE%20CONCEPTS%20AND%20EVENTS%20LLP&query_place_id=ChIJdd3K8pQCDTkRY6pTevLZsMU"}, {"place_id": "ChIJOZd2wWIDDTkRMdyNCdCtCIQ", "name": "Groot Infotech", "street": "Padma Tower II, 502, Rajendra Place, New Delhi, Delhi 110005, India", "phone": "+91 85273 53508", "rating": "", "review_count": "", "website": "https://www.grootinfotech.com/", "latitude": 28.6451836, "longitude": 77.1780375, "maps_url": "https://www.google.com/maps/search/?api=1&query=Groot%20Infotech&query_place_id=ChIJOZd2wWIDDTkRMdyNCdCtCIQ"}]