{"timestamp": 1773729899.1518707, "keyword": "IT company", "location": "delhi", "cell_idx": 155, "results": [{"place_id": "0x390d195b3d2c83ab:0x3dedc435b1e10e51", "name": "Gemini Solutions pvt ltd", "category": "Software company", "street": "Plot No. 119", "city": "Udyog Vihar, Phase I, Sector 20", "phone": "08800998042", "website": "https://geminisolutions.com/", "rating": 4.2, "review_count": "", "latitude": 28.5133342, "longitude": 77.08256279999999, "maps_url": "https://www.google.com/maps/place/?q=place_id:0x390d195b3d2c83ab:0x3dedc435b1e10e51"}, {"place_id": "0x390d1c154aba0acd:0xc90313ce54cb43e9", "name": "Midas IT Services India Pvt Ltd", "category": "Software company", "street": "L", "city": "42", "phone": "", "website": "http://www.midaswebtech.com/", "rating": 4.6, "review_count": "", "latitude": 28.545162299999998, "longitude": 77.12531, "maps_url": "https://www.google.com/maps/place/?q=place_id:0x390d1c154aba0acd:0xc90313ce54cb43e9"}, {"place_id": "0x390d195e4483ae05:0xec67b2579bb38803", "name": "eXtendCode - Software Development Company", "category": "Software company", "street": "Plot 63, Second Floor, Udyog Vihar Phase -1,", "city": "Gurugram, Haryana 122016", "phone": "01244261219", "website": "http://www.extendcode.com/", "rating": 4.1, "review_count": "", "latitude": 28.514535199999997, "longitude": 77.0815075, "maps_url": "https://www.google.com/maps/place/?q=place_id:0x390d195e4483ae05:0xec67b2579bb38803"}, {"place_id": "0x390d191100000001:0x424476192b3b5b5b", "name": "Binary Semantics Limited", "category": "Software company", "street": "PLot no", "city": "38", "phone": "08929156505", "website": "https://www.binarysemantics.com/", "rating": 3.7, "review_count": "", "latitude": 28.5018823, "longitude": 77.0701466, "maps_url": "https://www.google.com/maps/place/?q=place_id:0x390d191100000001:0x424476192b3b5b5b"}, {"place_id": "0x390ce458d0000001:0xf2123bd299ec4501", "name": "IT Company India", "category": "Software company", "street": "D56", "city": "D Block, Sector 10", "phone": "09999244854", "website": "https://www.itcompanyindia.in/", "rating": 4.7, "review_count": "", "latitude": 28.589917699999997, "longitude": 77.3351153, "maps_url": "https://www.google.com/maps/place/?q=place_id:0x390ce458d0000001:0xf2123bd299ec4501"}, {"place_id": "0x390d192ead051335:0x1f45fb98e90cc397", "name": "Honeysha Technologies, Software Company in Gurgaon, Digital Marketing Agency in Gurgaon", "category": "Software company", "street": "Cyber City", "city": "U-79/18, Rd Number 79", "phone": "07692079000", "website": "https://honeyshatech.com/", "rating": 4.5, "review_count": "", "latitude": 28.4900566, "longitude": 77.09324459999999, "maps_url": "https://www.google.com/maps/place/?q=place_id:0x390d192ead051335:0x1f45fb98e90cc397"}, {"place_id": "0x390d1944b3f22513:0x339f61acaa678349", "name": "Kellton Tech Solutions Limited", "category": "Software company", "street": "iLabs Centre", "city": "404-405", "phone": "01244698900", "website": "http://www.kellton.com/", "rating": 4.1, "review_count": "", "latitude": 28.5087872, "longitude": 77.0921085, "maps_url": "https://www.google.com/maps/place/?q=place_id:0x390d1944b3f22513:0x339f61acaa678349"}, {"place_id": "0x390d181b03ac9f6f:0x3ec5a92a519f94ad", "name": "Daffodil Software", "category": "Software company", "street": "9th Floor, Tower B1, DLF", "city": "World Tech Park", "phone": "01246817000", "website": "https://www.daffodilsw.com/", "rating": 4.1, "review_count": "", "latitude": 28.465191599999997, "longitude": 77.0564785, "maps_url": "https://www.google.com/maps/place/?q=place_id:0x390d181b03ac9f6f:0x3ec5a92a519f94ad"}, {"place_id": "0x390d1c3fadaf436b:0x7da80df34b6cc628", "name": "Acelema It Solutions Pvt. Ltd", "category": "Software company", "street": "L 357, 1st Floor", "city": "Gurgaon - Delhi Expy", "phone": "09015904466", "website": "https://www.acelema.com/", "rating": 5, "review_count": "", "latitude": 28.5456917, "longitude": 77.1231365, "maps_url": "https://www.google.com/maps/place/?q=place_id:0x390d1c3fadaf436b:0x7da80df34b6cc628"}, {"place_id": "0x390d1b0076c735ad:0x13551f319095520a", "name": "Aftab IT information technology", "category": "Computer Hardware Company", "street": "C58", "city": "D Block, Kapas Hera Estate", "phone": "", "website": "", "rating": 5, "review_count": "", "latitude": 28.5221669, "longitude": 77.08510989999999, "maps_url": "https://www.google.com/maps/place/?q=place_id:0x390d1b0076c735ad:0x13551f319095520a"}, {"place_id": "0x390ce3c153b89811:0xe7a279685777e9ca", "name": "IT Company", "category": "Automation company", "street": "A-14", "city": "near iskcon temple", "phone": "", "website": "http://www.opuswiz.com/", "rating": 3, "review_count": "", "latitude": 28.557167, "longitude": 77.25424819999999, "maps_url": "https://www.google.com/maps/place/?q=place_id:0x390ce3c153b89811:0xe7a279685777e9ca"}, {"place_id": "0x390d1923af5d91ed:0xbe103b16161f5631", "name": "Condeco Software Private Limited", "category": "Software company", "street": "Tower C", "city": "4th floor building 10", "phone": "01244760150", "website": "http://www.condecosoftware.com/apac", "rating": 4.3, "review_count": "", "latitude": 28.4940696, "longitude": 77.0885457, "maps_url": "https://www.google.com/maps/place/?q=place_id:0x390d1923af5d91ed:0xbe103b16161f5631"}, {"place_id": "0x390d19440bc59efb:0xda6549686148f7b4", "name": "PerfectionGeeks Technologies", "category": "Software company", "street": "Plot 378-379, Udyog Vihar Phase 4 Rd", "city": "near nokia building", "phone": "08920947884", "website": "http://www.perfectiongeeks.com/", "rating": 4.9, "review_count": "", "latitude": 28.5002221, "longitude": 77.0730516, "maps_url": "https://www.google.com/maps/place/?q=place_id:0x390d19440bc59efb:0xda6549686148f7b4"}, {"place_id": "0x390d1be0178a9bc9:0x859831577d94c68e", "name": "VBE SERVICES", "category": "Computer support and services", "street": "II, III, PLOT IN KHASRA NO 135", "city": "RAO MATADIN BUILDING", "phone": "01143381919", "website": "http://www.vbeservices.com/", "rating": 4.7, "review_count": "", "latitude": 28.5287723, "longitude": 77.08648769999999, "maps_url": "https://www.google.com/maps/place/?q=place_id:0x390d1be0178a9bc9:0x859831577d94c68e"}, {"place_id": "0x390d1b7951a0c91b:0x275f126dd1c4bd39", "name": "ETHERLITE INDIA PRIVATE LIMITED", "category": "Business management consultant", "street": "K.No 37/7/3, Pole No JF-10, G/F 24th Milestone, National Highway-8", "city": "Rajokri Flyover", "phone": "09220500880", "website": "http://www.esarathi.com/", "rating": 4.9, "review_count": "", "latitude": 28.524251999999997, "longitude": 77.1015956, "maps_url": "https://www.google.com/maps/place/?q=place_id:0x390d1b7951a0c91b:0x275f126dd1c4bd39"}, {"place_id": "0x390d19298db2fb35:0xcaa0d46737c4561c", "name": "MLM Software Developer | Sunny citrix", "category": "Software company", "street": "office no 427C, 4th floor, vashisht complex", "city": "Sikanderpur", "phone": "07906059336", "website": "http://sunnycitrix.com/", "rating": 4.8, "review_count": "", "latitude": 28.4816798, "longitude": 77.09770569999999, "maps_url": "https://www.google.com/maps/place/?q=place_id:0x390d19298db2fb35:0xcaa0d46737c4561c"}, {"place_id": "0x390cfd00fd453a1b:0x9b04afa48c2538ec", "name": "Inwoin Technologies Pvt. Ltd.", "category": "Software company", "street": "Building No. 309", "city": "310", "phone": "", "website": "http://www.inwoin.com/", "rating": 4.5, "review_count": "", "latitude": 28.4999559, "longitude": 77.07965879999999, "maps_url": "https://www.google.com/maps/place/?q=place_id:0x390cfd00fd453a1b:0x9b04afa48c2538ec"}, {"place_id": "0x390d19472c0ed765:0x3448f98cc74febf6", "name": "Vichara Technology", "category": "Software company", "street": "Infotech Center", "city": "Old Delhi Gurugram Rd", "phone": "08887631346", "website": "http://www.vichara.com/", "rating": 4.1, "review_count": "", "latitude": 28.5110438, "longitude": 77.07454489999999, "maps_url": "https://www.google.com/maps/place/?q=place_id:0x390d19472c0ed765:0x3448f98cc74febf6"}, {"place_id": "0x390ce1597b5509e5:0xfd8209b937b44d3c", "name": "IT Solutions India Private Limited", "category": "Software company", "street": "D-88/5", "city": "Pocket D, Okhla Phase I, Okhla Industrial Estate", "phone": "09810017429", "website": "https://www.itsipl.com/", "rating": 4.2, "review_count": "", "latitude": 28.520146, "longitude": 77.280431, "maps_url": "https://www.google.com/maps/place/?q=place_id:0x390ce1597b5509e5:0xfd8209b937b44d3c"}, {"place_id": "0x390d19f36f09bccb:0x922b9ed67b679fb8", "name": "Webdecorum | Best Web Development Company in India", "category": "Software company", "street": "7th Floor", "city": "108", "phone": "09599110321", "website": "https://www.webdecorum.com/", "rating": 4.9, "review_count": "", "latitude": 28.5161558, "longitude": 77.08289289999999, "maps_url": "https://www.google.com/maps/place/?q=place_id:0x390d19f36f09bccb:0x922b9ed67b679fb8"}, {"place_id": "0x390d195c57ccd5e1:0x1b2c706c8f63247e", "name": "Byteprojects - Technologies", "category": "Software company", "street": "Skootr Offices", "city": "PlotNo. 264", "phone": "07876435599", "website": "http://byteprojects.in/", "rating": 4.8, "review_count": "", "latitude": 28.5101685, "longitude": 77.0828891, "maps_url": "https://www.google.com/maps/place/?q=place_id:0x390d195c57ccd5e1:0x1b2c706c8f63247e"}, {"place_id": "0x390d1dcb22bede17:0xaa69daaeb6f9f53", "name": "Redesys Innovative Pvt Ltd", "category": "Computer support and services", "street": "108", "city": "Udyog Vihar Phase 1, Udyog Vihar, Sector 20", "phone": "09540094851", "website": "http://www.redesys.co.in/", "rating": 4.8, "review_count": "", "latitude": 28.516242599999998, "longitude": 77.0828938, "maps_url": "https://www.google.com/maps/place/?q=place_id:0x390d1dcb22bede17:0xaa69daaeb6f9f53"}, {"place_id": "0x390d013ca8ac1387:0x8a0db85b518267d5", "name": "NexGen Innovators", "category": "Software company", "street": "114B, 3rd floor, Dwarka Mor", "city": "New Delhi, Delhi 110059", "phone": "", "website": "https://www.nexgi.com/", "rating": 4.9, "review_count": "", "latitude": 28.618961, "longitude": 77.0322202, "maps_url": "https://www.google.com/maps/place/?q=place_id:0x390d013ca8ac1387:0x8a0db85b518267d5"}, {"place_id": "0x390d1993bd871777:0x59b8dceaab966d6e", "name": "Web & Mobile App Development Company in Gurgaon - WEBIENT TECHNOLOGIES", "category": "Software company", "street": "97, 2nd Floor", "city": "Udyog Vihar Phase V Rd", "phone": "09075069326", "website": "https://webienttechnologies.in/", "rating": 5, "review_count": "", "latitude": 28.4993746, "longitude": 77.0833406, "maps_url": "https://www.google.com/maps/place/?q=place_id:0x390d1993bd871777:0x59b8dceaab966d6e"}, {"place_id": "0x390d1d841fefffff:0x93fcc50cf324f171", "name": "Netsure IT Solution Private Limited (NSIT GLOBAL)", "category": "Software company", "street": "Ansal Chamber-2", "city": "NSIT GLOBAL, 428", "phone": "1800313818283", "website": "", "rating": 4.3, "review_count": "", "latitude": 28.5677649, "longitude": 77.187382, "maps_url": "https://www.google.com/maps/place/?q=place_id:0x390d1d841fefffff:0x93fcc50cf324f171"}, {"place_id": "0x390d192f80e784d3:0x2c271ddf93d663b4", "name": "Tranciscolabs | Mobile App Development Company | Web Development Company", "category": "Software company", "street": "Park", "city": "RGREP", "phone": "09580174570", "website": "https://tranciscolabs.com/", "rating": 4.4, "review_count": "", "latitude": 28.4695091, "longitude": 77.06860209999999, "maps_url": "https://www.google.com/maps/place/?q=place_id:0x390d192f80e784d3:0x2c271ddf93d663b4"}, {"place_id": "0x390d19437cb628b3:0x12e71803eb09ac16", "name": "Clavax Technologies", "category": "Software company", "street": "727", "city": "Udyog Vihar, Phase 5", "phone": "+18444252829", "website": "http://www.clavax.com/", "rating": 4.1, "review_count": "", "latitude": 28.5052123, "longitude": 77.0850025, "maps_url": "https://www.google.com/maps/place/?q=place_id:0x390d19437cb628b3:0x12e71803eb09ac16"}, {"place_id": "0x390d191598f48ef3:0x70991b4ff870f05d", "name": "Shree Partners LLC", "category": "Software company", "street": "1, Tower A, Building, Cyber City", "city": "Corporate Edge Level", "phone": "01246728815", "website": "https://www.shreepartners.com/", "rating": 4.3, "review_count": "", "latitude": 28.4936018, "longitude": 77.088325, "maps_url": "https://www.google.com/maps/place/?q=place_id:0x390d191598f48ef3:0x70991b4ff870f05d"}, {"place_id": "0x390d192ca95aaaab:0xc152e62b92cf35b4", "name": "ISMEDU Software Solutions Pvt. Ltd.", "category": "Software company", "street": "204, 2nd Floor", "city": "GLOBAL BUSINESS PARK", "phone": "09205444090", "website": "https://www.ismedusoftsol.com/", "rating": 5, "review_count": "", "latitude": 28.4807173, "longitude": 77.1020856, "maps_url": "https://www.google.com/maps/place/?q=place_id:0x390d192ca95aaaab:0xc152e62b92cf35b4"}, {"place_id": "0x390d1905cf9418ab:0x68c73ef2c55c6a92", "name": "Dixinfotech | Best Web Development Company in Gurgaon", "category": "Software company", "street": "Plot No. 96, 1st Floor", "city": "Udyog Vihar Phase 1, Sector 20", "phone": "09717106162", "website": "https://www.dixinfotech.com/website-designing-company-in-gurgaon", "rating": 5, "review_count": "", "latitude": 28.5169219, "longitude": 77.0803425, "maps_url": "https://www.google.com/maps/place/?q=place_id:0x390d1905cf9418ab:0x68c73ef2c55c6a92"}, {"place_id": "0x390d1ca8de94abb1:0xc070687f1d5f8558", "name": "Bita Infotech IT Solutions:: Website Designing & Development Company", "category": "Software company", "street": "Rz-31 B, Street No. 5", "city": "Block M, West Sagarpur, Sagar Pur", "phone": "08178256664", "website": "https://bitainfotech.com/", "rating": 4.7, "review_count": "", "latitude": 28.6056495, "longitude": 77.1012293, "maps_url": "https://www.google.com/maps/place/?q=place_id:0x390d1ca8de94abb1:0xc070687f1d5f8558"}, {"place_id": "0x390d19174792f4db:0xcb5f589caa71b6e7", "name": "Knocial India Limited", "category": "Software company", "street": "60B", "city": "Udyog Vihar, Sector 22", "phone": "09354120847", "website": "https://www.knocialindia.com/", "rating": 4.7, "review_count": "", "latitude": 28.504239499999997, "longitude": 77.0651981, "maps_url": "https://www.google.com/maps/place/?q=place_id:0x390d19174792f4db:0xcb5f589caa71b6e7"}, {"place_id": "0x390d195c26bfa369:0x69bd8efd2e3a31fe", "name": "Radical Minds Technologies Pvt. Ltd.", "category": "BPO Company", "street": "368", "city": "Phase II, Udyog Vihar, Sector 20", "phone": "01244338366", "website": "http://www.radicalminds.in/", "rating": 4.2, "review_count": "", "latitude": 28.506335099999998, "longitude": 77.0877546, "maps_url": "https://www.google.com/maps/place/?q=place_id:0x390d195c26bfa369:0x69bd8efd2e3a31fe"}, {"place_id": "0x2a72b8b69d7b6493:0x11251466d4d34cac", "name": "WebZonal IT Company", "category": "Website designer", "street": "Wz-258/2-3, D Block Rd", "city": "Khazan Basti, Nangal Raya, Janakpuri", "phone": "09811170903", "website": "http://webzonal.com/", "rating": 5, "review_count": "", "latitude": 28.6122102, "longitude": 77.11159549999999, "maps_url": "https://www.google.com/maps/place/?q=place_id:0x2a72b8b69d7b6493:0x11251466d4d34cac"}, {"place_id": "0x390ce3ad10000061:0xeff7e6017a22cce7", "name": "Alpinesoft IT Solutions Authorized Google Workspace Reseller", "category": "Software company", "street": "162/9 Ist Floor, KIshangarh - Gaushala Marg", "city": "Lakhi Nath Kuti, Mehrauli, Vasant Kunj", "phone": "09999011157", "website": "https://www.alpinesoftit.com/", "rating": 4.3, "review_count": "", "latitude": 28.515394399999998, "longitude": 77.16460359999999, "maps_url": "https://www.google.com/maps/place/?q=place_id:0x390ce3ad10000061:0xeff7e6017a22cce7"}, {"place_id": "0x390d1946a4b0d01f:0xab23cbaa408b3b9c", "name": "Tagbin Services Pvt. Ltd. \u2013 Best AI & Experiential Tech Company in Gurgaon", "category": "Software company", "street": "3rd Floor, Wing A, Enkay Centre", "city": "Vaniya Kunj", "phone": "08178112682", "website": "https://tagbin.in/", "rating": 4.2, "review_count": "", "latitude": 28.4974691, "longitude": 77.08654609999999, "maps_url": "https://www.google.com/maps/place/?q=place_id:0x390d1946a4b0d01f:0xab23cbaa408b3b9c"}, {"place_id": "0x390d195b233aaaab:0x416cb7b74c179f86", "name": "Trantor Software Pvt Ltd.", "category": "Corporate office", "street": "2nd floor, 91 Springboard, Business Hub Private Limited", "city": "Cabin 2", "phone": "06506467818", "website": "http://trantorinc.com/", "rating": 4.1, "review_count": "", "latitude": 28.486732399999998, "longitude": 77.0745902, "maps_url": "https://www.google.com/maps/place/?q=place_id:0x390d195b233aaaab:0x416cb7b74c179f86"}, {"place_id": "0x390d0306a5205339:0xc8417239bcfe9f11", "name": "RSS INFOTECH PVT.LTD", "category": "Software company", "street": "1st floor, Didar Complex", "city": "6 DLE Industrial Area office no -128,129", "phone": "09953134732", "website": "https://www.rssindia.com/", "rating": 4.5, "review_count": "", "latitude": 28.656828299999997, "longitude": 77.1425177, "maps_url": "https://www.google.com/maps/place/?q=place_id:0x390d0306a5205339:0xc8417239bcfe9f11"}, {"place_id": "0x390ce3b5c2a11543:0xc4df0cd95534bf85", "name": "LimeTray", "category": "Software company", "street": "2nd Floor", "city": "815", "phone": "", "website": "https://limetray.com/", "rating": 3.6, "review_count": "", "latitude": 28.5015508, "longitude": 77.08626919999999, "maps_url": "https://www.google.com/maps/place/?q=place_id:0x390ce3b5c2a11543:0xc4df0cd95534bf85"}, {"place_id": "0x390d190e50732f89:0xe8ba9bfa95bf2fd1", "name": "Webloop Technik India Pvt Ltd", "category": "Software company", "street": "104,second floor A S Tower", "city": "Sikanderpur", "phone": "09958692076", "website": "http://weblooptechnik.com/", "rating": 4.9, "review_count": "", "latitude": 28.4818027, "longitude": 77.09696129999999, "maps_url": "https://www.google.com/maps/place/?q=place_id:0x390d190e50732f89:0xe8ba9bfa95bf2fd1"}, {"place_id": "0x390d05befd73251b:0x5b1f0b14ae5f78dd", "name": "Trank Tec. | Web & Mobile App Developers : eCommerce Web Development Company in Delhi, India", "category": "Software company", "street": "Plot no. 112, 3rd Floor", "city": "Udyog Vihar Phase 1, Udyog Vihar, Sector 20", "phone": "09311397535", "website": "https://www.tranktechnologies.com/", "rating": 3.8, "review_count": "", "latitude": 28.514941399999998, "longitude": 77.0849483, "maps_url": "https://www.google.com/maps/place/?q=place_id:0x390d05befd73251b:0x5b1f0b14ae5f78dd"}, {"place_id": "0x390d196aa65f2787:0x206eea180dde1151", "name": "Targus Technologies", "category": "Software company", "street": "S&A Tower First Floor, Plot 5", "city": "6 and 7", "phone": "01244742300", "website": "http://www.targustech.com/", "rating": 4.1, "review_count": "", "latitude": 28.4914788, "longitude": 77.07879179999999, "maps_url": "https://www.google.com/maps/place/?q=place_id:0x390d196aa65f2787:0x206eea180dde1151"}, {"place_id": "0x390d1d9ce0eaada3:0xc5a1a0a2458099e3", "name": "CODENCREATIVE TECH PVT LTD", "category": "Software company", "street": "DDA Flat", "city": "RBI Officers Colony, Vasant Vihar", "phone": "09717047610", "website": "https://codencreative.com/", "rating": 4.9, "review_count": "", "latitude": 28.563302099999998, "longitude": 77.1519732, "maps_url": "https://www.google.com/maps/place/?q=place_id:0x390d1d9ce0eaada3:0xc5a1a0a2458099e3"}, {"place_id": "0x390d195b3d68bfd5:0x33d426418fb46db7", "name": "Kockpit Analytics Pvt. Ltd", "category": "Corporate office", "street": "No.1", "city": "Bhikaji Cama Place, Rama Krishna Puram", "phone": "09599080265", "website": "", "rating": 4.7, "review_count": "", "latitude": 28.508890599999997, "longitude": 77.087429, "maps_url": "https://www.google.com/maps/place/?q=place_id:0x390d195b3d68bfd5:0x33d426418fb46db7"}, {"place_id": "0x390d19361c56cecd:0x50517af3dc928d70", "name": "Mycom", "category": "Software company", "street": "7th Floor", "city": "Building 8b", "phone": "01244508000", "website": "http://www.mycom-osi.com/", "rating": 4.3, "review_count": "", "latitude": 28.4982059, "longitude": 77.0900367, "maps_url": "https://www.google.com/maps/place/?q=place_id:0x390d19361c56cecd:0x50517af3dc928d70"}, {"place_id": "0x390ce1877a5ef8eb:0xd5abb94a30425144", "name": "Plusone Technologies Private Limited", "category": "Software company", "street": "Phase IV, Udyog Vihar, Sector 18", "city": "Gurugram, Haryana 122015", "phone": "09891387094", "website": "https://www.plusonetech.co/", "rating": 4.7, "review_count": "", "latitude": 28.4941475, "longitude": 77.0808448, "maps_url": "https://www.google.com/maps/place/?q=place_id:0x390ce1877a5ef8eb:0xd5abb94a30425144"}, {"place_id": "0x390d193c3a36e523:0xe68f8d2568faeaad", "name": "Espire Infolabs Pvt. Ltd.", "category": "Software company", "street": "486 & 487", "city": "Phase III, Udyog Vihar III, Sector 20", "phone": "01247173000", "website": "http://www.espire.com/", "rating": 4.1, "review_count": "", "latitude": 28.5119516, "longitude": 77.0899661, "maps_url": "https://www.google.com/maps/place/?q=place_id:0x390d193c3a36e523:0xe68f8d2568faeaad"}, {"place_id": "0x390d1960c2b8367f:0xd2d30e45ac71acea", "name": "Vorombetech Solutions - Top IT & Digitalization Service Company in Gurugram", "category": "Software company", "street": "249", "city": "Phase IV, Udyog Vihar, Sector 19", "phone": "", "website": "https://vorombetech.com/", "rating": 4.8, "review_count": "", "latitude": 28.4941475, "longitude": 77.0808448, "maps_url": "https://www.google.com/maps/place/?q=place_id:0x390d1960c2b8367f:0xd2d30e45ac71acea"}, {"place_id": "0x390d1dc539fc39dd:0xa8d421a9d22cb256", "name": "India best website development company", "category": "Software company", "street": "RZ74, RZ Rd", "city": "Hans Park, Block RZ, Sagarpur East, Sagar Pur", "phone": "", "website": "https://techbuddy31.co.in/", "rating": 5, "review_count": "", "latitude": 28.6054396, "longitude": 77.1082699, "maps_url": "https://www.google.com/maps/place/?q=place_id:0x390d1dc539fc39dd:0xa8d421a9d22cb256"}, {"place_id": "0x390ce38f903de9fd:0x60b75e3dc7d3fb1b", "name": "iTech Mission Private Limited (iTM)", "category": "Software company", "street": "4th Floor, Saira Tower", "city": "Gulmohar Commercial Complex", "phone": "", "website": "http://www.itechmission.org/", "rating": 5, "review_count": "", "latitude": 28.557895499999997, "longitude": 77.20812099999999, "maps_url": "https://www.google.com/maps/place/?q=place_id:0x390ce38f903de9fd:0x60b75e3dc7d3fb1b"}, {"place_id": "0x41ddcb5488aa4703:0x5290c64921de1a5b", "name": "Bloatware IT Software Development Company | Game Development | Software Company in delhi", "category": "Software company", "street": "SILVER OAK FARMS", "city": "660, Mehrauli-Gurgaon Rd", "phone": "", "website": "https://bloatwareitsolutions.com/", "rating": 5, "review_count": "", "latitude": 28.4911034, "longitude": 77.1432663, "maps_url": "https://www.google.com/maps/place/?q=place_id:0x41ddcb5488aa4703:0x5290c64921de1a5b"}, {"place_id": "0x390d1daf5bbb6d71:0xd493e8d457a28388", "name": "DPM IT SOLUTIONS", "category": "Software company", "street": "2nd floor, madangiri", "city": "111, E-2", "phone": "09650413450", "website": "https://dpmitsolutions.com/", "rating": 5, "review_count": "", "latitude": 28.565620799999998, "longitude": 77.16005679999999, "maps_url": "https://www.google.com/maps/place/?q=place_id:0x390d1daf5bbb6d71:0xd493e8d457a28388"}, {"place_id": "0x390d1d84709c66e7:0xb821a251a16fae09", "name": "IT Works @ Siyaram", "category": "Software company", "street": "404", "city": "BHIKAJI CAMA PLACE", "phone": "01143178782", "website": "http://www.garruda.co.in/", "rating": 4.8, "review_count": "", "latitude": 28.567508399999998, "longitude": 77.18817349999999, "maps_url": "https://www.google.com/maps/place/?q=place_id:0x390d1d84709c66e7:0xb821a251a16fae09"}, {"place_id": "0x390d193854a9b805:0xeb675c7a6d5768f7", "name": "Cvent India", "category": "Software company", "street": "19th Floor Building", "city": "No.14C", "phone": "0008001008934", "website": "https://careers.cvent.com/", "rating": 4.3, "review_count": "", "latitude": 28.4968638, "longitude": 77.0941567, "maps_url": "https://www.google.com/maps/place/?q=place_id:0x390d193854a9b805:0xeb675c7a6d5768f7"}, {"place_id": "0x390d1938bd6d1407:0x67e9acb6425a6fce", "name": "Razornext - A Razorpod Group Company", "category": "Software company", "street": "First Floor", "city": "Plot 300, Udyog Vihar II Rd", "phone": "", "website": "https://razornext.com/", "rating": 5, "review_count": "", "latitude": 28.5071789, "longitude": 77.087616, "maps_url": "https://www.google.com/maps/place/?q=place_id:0x390d1938bd6d1407:0x67e9acb6425a6fce"}, {"place_id": "0x390d03adaef37299:0xd8b343093deaee7", "name": "Ruminate IT Solution | Best software company in Delhi NCR | IT Software company", "category": "Software company", "street": "C-64", "city": "Pocket B, Hari Nagar", "phone": "09625650376", "website": "https://www.ruminateitsolution.com/", "rating": 5, "review_count": "", "latitude": 28.628819, "longitude": 77.10428399999999, "maps_url": "https://www.google.com/maps/place/?q=place_id:0x390d03adaef37299:0xd8b343093deaee7"}, {"place_id": "0x390d1be7f1a44f95:0x84524a5425f8930d", "name": "InfraDost Technologies Pvt Ltd.- Microsoft Adobe Corel Draw & Security Solution Provider", "category": "Software company", "street": "Gurgaon - Delhi Expy", "city": "Block B, Mahipalpur Village, Mahipalpur", "phone": "08287792542", "website": "http://www.infradost.com/", "rating": 4.6, "review_count": "", "latitude": 28.5485743, "longitude": 77.1264697, "maps_url": "https://www.google.com/maps/place/?q=place_id:0x390d1be7f1a44f95:0x84524a5425f8930d"}, {"place_id": "0x390d195e96bb4105:0xfba8615a67d65660", "name": "Onkar Infotech", "category": "BPO Company", "street": "117", "city": "Udyog Vihar Phase 1, Udyog Vihar, Sector 20", "phone": "01244004742", "website": "http://www.onkarinfotech.com/", "rating": 3.9, "review_count": "", "latitude": 28.5137038, "longitude": 77.0832096, "maps_url": "https://www.google.com/maps/place/?q=place_id:0x390d195e96bb4105:0xfba8615a67d65660"}, {"place_id": "0x390d19d6fada2dbb:0xf471019497f6cda8", "name": "Suvrin Technologies|Website Development | eCommerce & Mobile App Development company", "category": "Software company", "street": "P1/55", "city": "Mushedpur, DLF Phase 2, Sector 25", "phone": "09811021616", "website": "https://www.suvrin.com/", "rating": 3.9, "review_count": "", "latitude": 28.4872941, "longitude": 77.0874865, "maps_url": "https://www.google.com/maps/place/?q=place_id:0x390d19d6fada2dbb:0xf471019497f6cda8"}, {"place_id": "0x390d1959e54e0cdb:0x7120a86a0b29095e", "name": "Gurgaon SEO Company", "category": "Website designer", "street": "First Floor Plot", "city": "270, Udyog Vihar II Rd", "phone": "", "website": "", "rating": 2, "review_count": "", "latitude": 28.5074082, "longitude": 77.08512379999999, "maps_url": "https://www.google.com/maps/place/?q=place_id:0x390d1959e54e0cdb:0x7120a86a0b29095e"}, {"place_id": "0x390d1d5c5f6d802f:0xe3bac242a4532322", "name": "Nobilitas Infotech Pvt. Ltd. - IT Solutions Company", "category": "Software company", "street": "Padma Tower II", "city": "210", "phone": "08448384926", "website": "https://www.nobilitasinfotech.com/", "rating": 5, "review_count": "", "latitude": 28.6451836, "longitude": 77.1780375, "maps_url": "https://www.google.com/maps/place/?q=place_id:0x390d1d5c5f6d802f:0xe3bac242a4532322"}, {"place_id": "0x390d19afd1d64805:0xdc0ff76292f115a0", "name": "ichhapurti Corporate Office", "category": "E-commerce service", "street": "GGJ SOLUTIONS PVT. LTD, Plot No. 112, 3rd Floor", "city": "Udyog Vihar, Phase I, Sector 20", "phone": "", "website": "", "rating": 3.3, "review_count": "", "latitude": 28.5147753, "longitude": 77.0848065, "maps_url": "https://www.google.com/maps/place/?q=place_id:0x390d19afd1d64805:0xdc0ff76292f115a0"}, {"place_id": "0x390d195b180061c3:0xbc2dc26222ba3801", "name": "Team Computers Pvt Ltd", "category": "Software company", "street": "5th floor", "city": "Plot no. 278", "phone": "18001024200", "website": "https://www.teamcomputers.com/", "rating": 4.3, "review_count": "", "latitude": 28.508890599999997, "longitude": 77.087429, "maps_url": "https://www.google.com/maps/place/?q=place_id:0x390d195b180061c3:0xbc2dc26222ba3801"}, {"place_id": "0x390d19404f4f65d5:0xc7a5e785eb2e8ef6", "name": "Infodart Technologies Ltd", "category": "Software company", "street": "2nd floor", "city": "plot no 254", "phone": "", "website": "https://www.infodartglobal.com/", "rating": 4, "review_count": "", "latitude": 28.4979135, "longitude": 77.0815518, "maps_url": "https://www.google.com/maps/place/?q=place_id:0x390d19404f4f65d5:0xc7a5e785eb2e8ef6"}, {"place_id": "0x390d1bb0ed2b78c9:0xb962a26eb951c969", "name": "New India Structures pvt. ltd", "category": "Civil engineering company", "street": "Main Rd", "city": "Kapas Hera Extension, Samalka", "phone": "01140686630", "website": "", "rating": 4.8, "review_count": "", "latitude": 28.5306568, "longitude": 77.08498519999999, "maps_url": "https://www.google.com/maps/place/?q=place_id:0x390d1bb0ed2b78c9:0xb962a26eb951c969"}, {"place_id": "0x390d190b8996b54d:0xa4d9ad7263547701", "name": "Company", "category": "Corporate office", "street": "The Coworking Space", "city": "A-14/15 DLF Phase 1, Sector 26 A Truworx", "phone": "01140844560", "website": "https://www.quickcompany.in/", "rating": 4.1, "review_count": "", "latitude": 28.474366699999997, "longitude": 77.0943154, "maps_url": "https://www.google.com/maps/place/?q=place_id:0x390d190b8996b54d:0xa4d9ad7263547701"}, {"place_id": "0x390d04a919026121:0x26aca74d3780962f", "name": "EIGEN Technologies Pvt. Ltd. (SENSEnuts)", "category": "Electronics Company", "street": "1st floor", "city": "275, Rao Gajraj Singh Marg", "phone": "01141643004", "website": "http://www.eigen.in/", "rating": 4.4, "review_count": "", "latitude": 28.4996682, "longitude": 77.0802267, "maps_url": "https://www.google.com/maps/place/?q=place_id:0x390d04a919026121:0x26aca74d3780962f"}, {"place_id": "0x390d05713cbc05f9:0x29ec332097ea9861", "name": "Bluebyte It Solutions", "category": "Software company", "street": "MS-83", "city": "Block MS, Mohan Garden, Uttam Nagar", "phone": "08178838292", "website": "https://www.bluebyteitsolutions.com/", "rating": 5, "review_count": "", "latitude": 28.6289797, "longitude": 77.0335781, "maps_url": "https://www.google.com/maps/place/?q=place_id:0x390d05713cbc05f9:0x29ec332097ea9861"}, {"place_id": "0x390d192fc20b97e7:0x3048b25634f6d955", "name": "Nagarro", "category": "Software company", "street": "Plot 6B, Sub. Major Laxmi Chand Rd", "city": "Maruti Udyog, Sector 18", "phone": "", "website": "https://www.nagarro.com/en", "rating": 4.5, "review_count": "", "latitude": 28.491098599999997, "longitude": 77.0673492, "maps_url": "https://www.google.com/maps/place/?q=place_id:0x390d192fc20b97e7:0x3048b25634f6d955"}, {"place_id": "0x390d195a7e8028fb:0xd762916f19a9de76", "name": "SingleInterface", "category": "Software company", "street": "241", "city": "Udyog Vihar Phase 1, Udyog Vihar, Sector 20", "phone": "01244305789", "website": "https://www.singleinterface.com/", "rating": 3.9, "review_count": "", "latitude": 28.513015, "longitude": 77.08865949999999, "maps_url": "https://www.google.com/maps/place/?q=place_id:0x390d195a7e8028fb:0xd762916f19a9de76"}, {"place_id": "0x390d192a43d18f13:0x8bbba9dab452c924", "name": "Eon Networks Pvt Ltd", "category": "Computer support and services", "street": "733, Udyog Vihar Phase V Rd", "city": "Phase V, Udyog Vihar, Sector 19", "phone": "09810644642", "website": "http://eonconnects.net/", "rating": 4.5, "review_count": "", "latitude": 28.5046906, "longitude": 77.0857224, "maps_url": "https://www.google.com/maps/place/?q=place_id:0x390d192a43d18f13:0x8bbba9dab452c924"}, {"place_id": "0x4156579e876131e7:0x356c887f8dac5e97", "name": "Haaditech Private Limited", "category": "Software company", "street": "Gate No. 04", "city": "Ambience Mall", "phone": "", "website": "https://www.haaditech.com/", "rating": 5, "review_count": "", "latitude": 28.5057491, "longitude": 77.0960972, "maps_url": "https://www.google.com/maps/place/?q=place_id:0x4156579e876131e7:0x356c887f8dac5e97"}, {"place_id": "0x390d19414b0e5321:0xf7a5ae3e08b20907", "name": "Real Time Data Services Pvt. Ltd.", "category": "Corporate office", "street": "809-A", "city": "Phase V, Udyog Vihar, Sector 19", "phone": "01244018891", "website": "https://www.myrealdata.in/", "rating": 3.8, "review_count": "", "latitude": 28.5007093, "longitude": 77.08505699999999, "maps_url": "https://www.google.com/maps/place/?q=place_id:0x390d19414b0e5321:0xf7a5ae3e08b20907"}, {"place_id": "0x390d05f6807aba3f:0x8d4dbf179623854a", "name": "Erp Software Company Delhi | Crm Software Development Company in Delhi", "category": "Software company", "street": "3 Floor", "city": "B-77", "phone": "09266518819", "website": "https://www.weblyticsinfotech.com/crm-software-in-delhi.php", "rating": 5, "review_count": "", "latitude": 28.6150725, "longitude": 77.0341376, "maps_url": "https://www.google.com/maps/place/?q=place_id:0x390d05f6807aba3f:0x8d4dbf179623854a"}, {"place_id": "0x390d19437e719739:0x14737a286b425c55", "name": "Mediology Software", "category": "Software company", "street": "Tower B, 4th Floor", "city": "ASF Towers", "phone": "01244747500", "website": "https://www.mediologysoftware.com/", "rating": 4.1, "review_count": "", "latitude": 28.4966176, "longitude": 77.0842566, "maps_url": "https://www.google.com/maps/place/?q=place_id:0x390d19437e719739:0x14737a286b425c55"}, {"place_id": "0x29182cd90b477205:0xafbdc18388b8d100", "name": "Ananta Technology - IT Company", "category": "Web hosting company", "street": "RZB-214, Old Mehrauli Rd", "city": "Palam Colony, Part - I, Raj Nagar", "phone": "", "website": "https://anantatechnology.com/", "rating": 5, "review_count": "", "latitude": 28.584313899999998, "longitude": 77.0862543, "maps_url": "https://www.google.com/maps/place/?q=place_id:0x29182cd90b477205:0xafbdc18388b8d100"}, {"place_id": "0x4ebf586dbe4d7c09:0x968455c83bf5226c", "name": "Anchor IT Solutions- App Development | Website Development | Digital Marketing", "category": "Software company", "street": "4", "city": "Vinoba Puri, Lajpat Nagar II, Lajpat Nagar", "phone": "07678658584", "website": "", "rating": 4.8, "review_count": "", "latitude": 28.566371399999998, "longitude": 77.2486924, "maps_url": "https://www.google.com/maps/place/?q=place_id:0x4ebf586dbe4d7c09:0x968455c83bf5226c"}, {"place_id": "0x390d19b51e5edf49:0xd17618454eb66b58", "name": "STERLING MANUFACTURING COMPANY", "category": "Manufacturer", "street": "2nd Floor", "city": "249", "phone": "09310644419", "website": "https://sterlingmfgco.com/", "rating": 4.8, "review_count": "", "latitude": 28.498040099999997, "longitude": 77.0824007, "maps_url": "https://www.google.com/maps/place/?q=place_id:0x390d19b51e5edf49:0xd17618454eb66b58"}, {"place_id": "0x390ce3a2021e9897:0x28bf52d36a7d0c19", "name": "It Softtech - Website Designing and Development Company in Delhi, India", "category": "Internet marketing service", "street": "149, Ring Rd", "city": "opp. Maharani Bagh", "phone": "09810056177", "website": "", "rating": 5, "review_count": "", "latitude": 28.5763395, "longitude": 77.2640869, "maps_url": "https://www.google.com/maps/place/?q=place_id:0x390ce3a2021e9897:0x28bf52d36a7d0c19"}, {"place_id": "0x390d1966954592b7:0x9d806c595f0dd9ca", "name": "Bhavyansh Infotech", "category": "Software company", "street": "1st floor", "city": "Infotech Center", "phone": "09818114030", "website": "http://bhavyansh.net/", "rating": 3.6, "review_count": "", "latitude": 28.5107358, "longitude": 77.0751057, "maps_url": "https://www.google.com/maps/place/?q=place_id:0x390d1966954592b7:0x9d806c595f0dd9ca"}, {"place_id": "0x390ce30f4c4ed777:0x3a7c5e032ce51ce5", "name": "Appextech Software Solutions", "category": "Software company", "street": "Second Floor", "city": "Mohan Cooperative Industrial Estate", "phone": "09911432451", "website": "https://www.appextech.com/", "rating": 4.9, "review_count": "", "latitude": 28.502260099999997, "longitude": 77.28519, "maps_url": "https://www.google.com/maps/place/?q=place_id:0x390ce30f4c4ed777:0x3a7c5e032ce51ce5"}, {"place_id": "0x390d1f4effffffff:0xcfc715ac63417946", "name": "Bechtel India Private Limited", "category": "Corporate office", "street": "244-245", "city": "Phase IV, Udyog Vihar, Knowledge Park", "phone": "01244098000", "website": "http://www.bechtel.com/", "rating": 4.4, "review_count": "", "latitude": 28.4956277, "longitude": 77.0839426, "maps_url": "https://www.google.com/maps/place/?q=place_id:0x390d1f4effffffff:0xcfc715ac63417946"}, {"place_id": "0x20616dbf813c03ef:0xc8fd1ca47f902e9e", "name": "Bloatware IT Software Company | website Designing Company | Software Company | MLM |CRM | Android Apps", "category": "Software company", "street": "C1", "city": "Rama Park", "phone": "08920750797", "website": "https://bloatwareitsolutions.com/", "rating": 4.5, "review_count": "", "latitude": 28.621265599999997, "longitude": 77.0324943, "maps_url": "https://www.google.com/maps/place/?q=place_id:0x20616dbf813c03ef:0xc8fd1ca47f902e9e"}, {"place_id": "0x390d19158765706b:0x7940981b18929c00", "name": "Infogix International Pvt. Ltd.", "category": "Software company", "street": "5 th floor", "city": "Tower 10", "phone": "01244802900", "website": "https://www.infogix.com/", "rating": 4, "review_count": "", "latitude": 28.4945511, "longitude": 77.08714619999999, "maps_url": "https://www.google.com/maps/place/?q=place_id:0x390d19158765706b:0x7940981b18929c00"}, {"place_id": "0x390d195a7c8a06a7:0x34d8dddb7a7933ed", "name": "VDC Technologies Private Limited", "category": "Engineering consultant", "street": "2nd floor", "city": "Plot no 29", "phone": "01244281413", "website": "http://vdcint.com/", "rating": 3.5, "review_count": "", "latitude": 28.514978, "longitude": 77.080433, "maps_url": "https://www.google.com/maps/place/?q=place_id:0x390d195a7c8a06a7:0x34d8dddb7a7933ed"}, {"place_id": "0x390ce58c7403e0a1:0x2a35ba3fcd3ecb95", "name": "Akhil Systems Pvt Ltd - Electronic Medical Records Software, Best Hospital Software India, Hospital Management Software", "category": "Software company", "street": "5th Floor", "city": "Incuspaze Building", "phone": "08448799453", "website": "https://akhilsystems.com/", "rating": 3.4, "review_count": "", "latitude": 28.4914019, "longitude": 77.0771321, "maps_url": "https://www.google.com/maps/place/?q=place_id:0x390ce58c7403e0a1:0x2a35ba3fcd3ecb95"}, {"place_id": "0x390d19454748b5f1:0x930fdb13eea6af9b", "name": "Auquall BPO - Best BPO and BPM company in gurgaon", "category": "BPO Company", "street": "698, Udyog Vihar Phase V Rd", "city": "Phase V, Udyog Vihar, Sector 19", "phone": "09899005897", "website": "", "rating": 4.4, "review_count": "", "latitude": 28.505634099999998, "longitude": 77.0837823, "maps_url": "https://www.google.com/maps/place/?q=place_id:0x390d19454748b5f1:0x930fdb13eea6af9b"}, {"place_id": "0x4215c6da63b4b82f:0x794ba814a6ada964", "name": "Asha Tech | Website Design, App Development & IT Solutions Delhi", "category": "Software company", "street": "no 2", "city": "195, Lane No. 1", "phone": "07531080874", "website": "https://ashatech.co.in/", "rating": 4.7, "review_count": "", "latitude": 28.519994099999998, "longitude": 77.2008791, "maps_url": "https://www.google.com/maps/place/?q=place_id:0x4215c6da63b4b82f:0x794ba814a6ada964"}, {"place_id": "0x390cfb4bf15a6733:0xaf50e6f3c5fb7641", "name": "Digitals Daddy: Web & App Development Company", "category": "Software company", "street": "Metro Gate No. 2", "city": "Nearest Sikandarpur", "phone": "09818286609", "website": "https://www.digitalsdaddy.com/", "rating": 4.9, "review_count": "", "latitude": 28.4847884, "longitude": 77.0922192, "maps_url": "https://www.google.com/maps/place/?q=place_id:0x390cfb4bf15a6733:0xaf50e6f3c5fb7641"}, {"place_id": "0x390d193c3a36fabd:0x8bd7aacd8793bdb7", "name": "Orange Business Services", "category": "Public relations firm", "street": "Infinity Tower 8, Tower B", "city": "DLF Cyber City, DLF Phase 2, Sector 25", "phone": "", "website": "http://www.orange-business.com/", "rating": 4.5, "review_count": "", "latitude": 28.495814199999998, "longitude": 77.0910088, "maps_url": "https://www.google.com/maps/place/?q=place_id:0x390d193c3a36fabd:0x8bd7aacd8793bdb7"}, {"place_id": "0x390d19362811e097:0x6cc24d025feba594", "name": "Axtria - Ingenious Insights", "category": "Software company", "street": "11th and 17th Floor", "city": "Cyber City", "phone": "01244500870", "website": "https://axtria.com/", "rating": 4.4, "review_count": "", "latitude": 28.4973335, "longitude": 77.0939032, "maps_url": "https://www.google.com/maps/place/?q=place_id:0x390d19362811e097:0x6cc24d025feba594"}, {"place_id": "0x390d19345bcdc4f3:0x61d5221ed2c17f35", "name": "Cognizant", "category": "Software company", "street": "Tower C, SEZ Building, Building No 6, 5th & 6th Floor DLF C yber City Rd W Block", "city": "Near Shankar Chowk", "phone": "", "website": "http://www.cognizant.com/india", "rating": 4.1, "review_count": "", "latitude": 28.4964521, "longitude": 77.096576, "maps_url": "https://www.google.com/maps/place/?q=place_id:0x390d19345bcdc4f3:0x61d5221ed2c17f35"}, {"place_id": "0x390d19c4f81c373b:0x569790526001fe47", "name": "Pasenture Technologies - Web Development Company in Gurugram, Software Development Company in Gurgaon for CRM & Saas Software", "category": "Software company", "street": "2nd Floor", "city": "90, IDC", "phone": "09717197498", "website": "https://pasenture.in/", "rating": 4, "review_count": "", "latitude": 28.4716508, "longitude": 77.0509349, "maps_url": "https://www.google.com/maps/place/?q=place_id:0x390d19c4f81c373b:0x569790526001fe47"}, {"place_id": "0x390d19ad585bba37:0xc7a1380f3c30571a", "name": "Wroffy Technologies Pvt Ltd", "category": "Software company", "street": "304", "city": "Vipul Business Park", "phone": "01244349014", "website": "https://www.wroffy.com/", "rating": 4.3, "review_count": "", "latitude": 28.4226457, "longitude": 77.0376039, "maps_url": "https://www.google.com/maps/place/?q=place_id:0x390d19ad585bba37:0xc7a1380f3c30571a"}, {"place_id": "0x390d193a8fc4db75:0xeabb8ee6a0ab3f4", "name": "Protouch Corporate Training", "category": "Training center", "street": "1st Floor", "city": "Incuspaze 103", "phone": "08800005599", "website": "https://www.protouchpro.com/", "rating": 4.9, "review_count": "", "latitude": 28.514610899999997, "longitude": 77.0831838, "maps_url": "https://www.google.com/maps/place/?q=place_id:0x390d193a8fc4db75:0xeabb8ee6a0ab3f4"}, {"place_id": "0x390d1960b5895949:0x95f114824fd58a5a", "name": "IOTA Engineering Corporation", "category": "Business to business service", "street": "Opp. Plot No. 127", "city": "Udyog Vihar Phase 1, Dundahera Village, Sector 20", "phone": "09315873177", "website": "http://www.iotaindia.in/", "rating": 4.6, "review_count": "", "latitude": 28.5134376, "longitude": 77.0801899, "maps_url": "https://www.google.com/maps/place/?q=place_id:0x390d1960b5895949:0x95f114824fd58a5a"}, {"place_id": "0x390d068daabb01c5:0x9f458c7c5e28f8f0", "name": "Tekniko Global - Top Mobile App Development Company in Delhi | Android & iOS", "category": "Software company", "street": "", "city": "", "phone": "09311620027", "website": "https://www.teknikoglobal.com/", "rating": 4.5, "review_count": "", "latitude": 28.5870636, "longitude": 77.1721882, "maps_url": "https://www.google.com/maps/place/?q=place_id:0x390d068daabb01c5:0x9f458c7c5e28f8f0"}, {"place_id": "0x390d1915fa5d766d:0x1d92c0eb013cd4f2", "name": "FIS Global Business Solutions India Pvt. Ltd.", "category": "Corporate office", "street": "402, I Park, Plot No. 15", "city": "Phase IV", "phone": "01243927500", "website": "https://www.fisglobal.com/", "rating": 4.1, "review_count": "", "latitude": 28.490092899999997, "longitude": 77.078841, "maps_url": "https://www.google.com/maps/place/?q=place_id:0x390d1915fa5d766d:0x1d92c0eb013cd4f2"}, {"place_id": "0x390d195d0d8bbaeb:0x879480fbc713a400", "name": "MJS eSTORE", "category": "Software company", "street": "223-224", "city": "Udyog Vihar Phase 1, Udyog Vihar, Sector 20", "phone": "", "website": "", "rating": 4.1, "review_count": "", "latitude": 28.509130799999998, "longitude": 77.08123619999999, "maps_url": "https://www.google.com/maps/place/?q=place_id:0x390d195d0d8bbaeb:0x879480fbc713a400"}, {"place_id": "0x390cfbbbf146ce71:0x51bfc1aafd719a57", "name": "Sentiss Pharma Pvt Ltd", "category": "Pharmaceutical company", "street": "261", "city": "Phase IV, Udyog Vihar, Sector 18", "phone": "01244951100", "website": "http://www.sentisspharma.com/", "rating": 4.6, "review_count": "", "latitude": 28.4980507, "longitude": 77.0806636, "maps_url": "https://www.google.com/maps/place/?q=place_id:0x390cfbbbf146ce71:0x51bfc1aafd719a57"}]}