{"timestamp": 1773729497.6844833, "keyword": "IT company", "location": "delhi", "cell_idx": 96, "results": [{"place_id": "0x390ce1a20e94f69d:0xf6c5af89da672917", "name": "Code IT Solutions", "category": "Software company", "street": "E45", "city": "Krishna Park Colony, Khanpur", "phone": "07992249312", "website": "http://codeitsolutionshub.com/", "rating": 4.9, "review_count": "", "latitude": 28.509770999999997, "longitude": 77.23377169999999, "maps_url": "https://www.google.com/maps/place/?q=place_id:0x390ce1a20e94f69d:0xf6c5af89da672917"}, {"place_id": "0x390ce19def47dcdb:0x559511e0f84263c7", "name": "EzeeOnline", "category": "Software company", "street": "A166, Devli Rd", "city": "near Sainik Farm", "phone": "08882505020", "website": "https://www.ezeeonline.in/", "rating": 5, "review_count": "", "latitude": 28.5059188, "longitude": 77.23209489999999, "maps_url": "https://www.google.com/maps/place/?q=place_id:0x390ce19def47dcdb:0x559511e0f84263c7"}, {"place_id": "0x390ce1597b5509e5:0xfd8209b937b44d3c", "name": "IT Solutions India Private Limited", "category": "Software company", "street": "D-88/5", "city": "Pocket D, Okhla Phase I, Okhla Industrial Estate", "phone": "09810017429", "website": "https://www.itsipl.com/", "rating": 4.2, "review_count": "", "latitude": 28.520146, "longitude": 77.280431, "maps_url": "https://www.google.com/maps/place/?q=place_id:0x390ce1597b5509e5:0xfd8209b937b44d3c"}, {"place_id": "0x390ce146624d3325:0xdef50cdb9e3f79b2", "name": "Hybridd Eminence IT Solutions", "category": "Computer service", "street": "No .A-66", "city": "H", "phone": "07011675606", "website": "https://www.google.com/search?q=hybrid+eminence+it+solutions&oq=hy&aqs=chrome.0.69i59j69i61j69i57j0i273l2j46i199i291i433i512j0i433i512l2.1129j0j4&client=ms-android-xiaomi&sourceid=chrome-mobile&ie=UTF-8#lkt=overview&trex=m_t:lcl_akp,rc_f:nav,rc_ludocids:16065761383106443698,rc_q:Hybrid%2520Eminence%2520IT%2520Solutions,ru_q:Hybrid%2520Eminence%2520IT%2520Solutions,trex_id:BTlVsc", "rating": 4.9, "review_count": "", "latitude": 28.504536299999998, "longitude": 77.2357723, "maps_url": "https://www.google.com/maps/place/?q=place_id:0x390ce146624d3325:0xdef50cdb9e3f79b2"}, {"place_id": "0x390ce458d0000001:0xf2123bd299ec4501", "name": "IT Company India", "category": "Software company", "street": "D56", "city": "D Block, Sector 10", "phone": "09999244854", "website": "https://www.itcompanyindia.in/", "rating": 4.7, "review_count": "", "latitude": 28.589917699999997, "longitude": 77.3351153, "maps_url": "https://www.google.com/maps/place/?q=place_id:0x390ce458d0000001:0xf2123bd299ec4501"}, {"place_id": "0x390ce1fd90fd6a05:0x3da727e8a7d67167", "name": "StartUp Delhi - Company Registration Consultancy in Delhi | Pvt. Ltd.", "category": "Registration office", "street": "Devli Rd", "city": "Pocket A, Jawahar Park, Khanpur", "phone": "08447371730", "website": "", "rating": 4.3, "review_count": "", "latitude": 28.5078376, "longitude": 77.2300901, "maps_url": "https://www.google.com/maps/place/?q=place_id:0x390ce1fd90fd6a05:0x3da727e8a7d67167"}, {"place_id": "0x390ce1a4862aa76f:0x1e7e203d7d715198", "name": "Corporate Training Computer Institute", "category": "Software Training Institute", "street": "Bus Stand", "city": "Khasra No 144 Ground Floor Deoli", "phone": "09911996339", "website": "", "rating": 4.8, "review_count": "", "latitude": 28.503310199999998, "longitude": 77.23182539999999, "maps_url": "https://www.google.com/maps/place/?q=place_id:0x390ce1a4862aa76f:0x1e7e203d7d715198"}, {"place_id": "0x390ce1fb44618b65:0x8e06b2a6128352d1", "name": "Acropolis Infotech - Delhi Office", "category": "Software company", "street": "metro station gate", "city": "55, 2nd Floor, Lane 2", "phone": "09999876593", "website": "https://www.acropolisinfotech.com/", "rating": 4.6, "review_count": "", "latitude": 28.518907, "longitude": 77.2015435, "maps_url": "https://www.google.com/maps/place/?q=place_id:0x390ce1fb44618b65:0x8e06b2a6128352d1"}, {"place_id": "0x8d1367491c694315:0xb6e1626c69d891d2", "name": "WebGridSolution - Software Development Digital Marketing Company", "category": "Software company", "street": "G-12/188", "city": "Talimabad, Sangam Vihar", "phone": "", "website": "https://webgridsolution.com/", "rating": 4.8, "review_count": "", "latitude": 28.506943099999997, "longitude": 77.2507213, "maps_url": "https://www.google.com/maps/place/?q=place_id:0x8d1367491c694315:0xb6e1626c69d891d2"}, {"place_id": "0x390d1fb30dd00ee3:0x77cfd1f858a2b9ee", "name": "Ionic Software Services", "category": "Software company", "street": "B-2/63, Africa Ave", "city": "Block A, Block B 2, Safdarjung Enclave", "phone": "08744941668", "website": "http://www.ionicsoftwares.com/", "rating": 4.7, "review_count": "", "latitude": 28.515873499999998, "longitude": 77.2044335, "maps_url": "https://www.google.com/maps/place/?q=place_id:0x390d1fb30dd00ee3:0x77cfd1f858a2b9ee"}, {"place_id": "0x390ce1bca456ed31:0x9f4e99a3d0d5a364", "name": "Webxicom", "category": "Internet marketing service", "street": "A-42, Devli Rd", "city": "Pocket D, Raju Park, Khanpur", "phone": "09899883923", "website": "https://www.webxicom.com/", "rating": 4.9, "review_count": "", "latitude": 28.504669099999997, "longitude": 77.231572, "maps_url": "https://www.google.com/maps/place/?q=place_id:0x390ce1bca456ed31:0x9f4e99a3d0d5a364"}, {"place_id": "0x390ce3c153b89811:0xe7a279685777e9ca", "name": "IT Company", "category": "Automation company", "street": "A-14", "city": "near iskcon temple", "phone": "", "website": "http://www.opuswiz.com/", "rating": 3, "review_count": "", "latitude": 28.557167, "longitude": 77.25424819999999, "maps_url": "https://www.google.com/maps/place/?q=place_id:0x390ce3c153b89811:0xe7a279685777e9ca"}, {"place_id": "0x390ce17a65628dff:0x7d61fb568be582e0", "name": "Divyansh Gupta - Web Developer", "category": "Website designer", "street": "2nd Floor", "city": "A-7", "phone": "08178392040", "website": "https://divyansh21.vercel.app/contact", "rating": 4.8, "review_count": "", "latitude": 28.507746299999997, "longitude": 77.2320081, "maps_url": "https://www.google.com/maps/place/?q=place_id:0x390ce17a65628dff:0x7d61fb568be582e0"}, {"place_id": "0x390ce1a84c6a05c3:0x7e192e6d8b97061d", "name": "A-TECH INDIA", "category": "Business management consultant", "street": "B -539, Public Schools Rd", "city": "Block B, Devli, Sangam Vihar", "phone": "08527298902", "website": "http://atechindia.in/", "rating": 5, "review_count": "", "latitude": 28.5021427, "longitude": 77.2406735, "maps_url": "https://www.google.com/maps/place/?q=place_id:0x390ce1a84c6a05c3:0x7e192e6d8b97061d"}, {"place_id": "0x390ce227b000003f:0x68c684a3cbf810b", "name": "IT Solution INDIA", "category": "Computer support and services", "street": "Triveni Commercial Complex", "city": "Sheikh Sarai Phase 1, Sheikh Sarai", "phone": "09312209167", "website": "https://itsolutionindia.in/", "rating": 4.8, "review_count": "", "latitude": 28.5364054, "longitude": 77.22372, "maps_url": "https://www.google.com/maps/place/?q=place_id:0x390ce227b000003f:0x68c684a3cbf810b"}, {"place_id": "0x390ce1ae212ceacd:0xaa717b98753f80d4", "name": "E Global Soft Solutions", "category": "Software company", "street": "Head Office", "city": "A-5, Mehrauli - Badarpur Rd", "phone": "09899924546", "website": "http://www.eglobalsoftsolutions.com/", "rating": 4, "review_count": "", "latitude": 28.5146831, "longitude": 77.2312527, "maps_url": "https://www.google.com/maps/place/?q=place_id:0x390ce1ae212ceacd:0xaa717b98753f80d4"}, {"place_id": "0x390ce198ef877ab9:0x7a18a39d0d4b426", "name": "PRIYA TECHNOLOGY", "category": "Software company", "street": "45, Devli Rd", "city": "Khanpur Extension, Khanpur", "phone": "09718501851", "website": "", "rating": 4, "review_count": "", "latitude": 28.5133838, "longitude": 77.2337356, "maps_url": "https://www.google.com/maps/place/?q=place_id:0x390ce198ef877ab9:0x7a18a39d0d4b426"}, {"place_id": "0x390ce13dbeae6e95:0x5866baac1a8f3964", "name": "Vox Websites", "category": "Website designer", "street": "C-142", "city": "Pocket C, Jawahar Park, Khanpur", "phone": "07982621905", "website": "https://voxwebsites.com/", "rating": 5, "review_count": "", "latitude": 28.5078319, "longitude": 77.2311754, "maps_url": "https://www.google.com/maps/place/?q=place_id:0x390ce13dbeae6e95:0x5866baac1a8f3964"}, {"place_id": "0x390ce2305c00002d:0x9f7efbacdc0d8271", "name": "ICO WebTech Pvt. Ltd. - Website Designing Company in Delhi", "category": "Website designer", "street": "J E 5, Ground Floor, Khirki Extension, Malviya Nagar", "city": "New Delhi, Delhi 110017", "phone": "08447380262", "website": "https://www.icowebsolutions.com/", "rating": 4.6, "review_count": "", "latitude": 28.535594, "longitude": 77.21577099999999, "maps_url": "https://www.google.com/maps/place/?q=place_id:0x390ce2305c00002d:0x9f7efbacdc0d8271"}, {"place_id": "0x390ce17b01e1a187:0x586fa6002747476d", "name": "OneTap AI Solutions", "category": "Software company", "street": "FIRST FLOOR", "city": "HOLI CHOWK", "phone": "07859935902", "website": "https://onetapaisolutions.com/", "rating": 5, "review_count": "", "latitude": 28.5011396, "longitude": 77.2343595, "maps_url": "https://www.google.com/maps/place/?q=place_id:0x390ce17b01e1a187:0x586fa6002747476d"}, {"place_id": "0x390ce17b01e1a187:0x586fa6002747476d", "name": "OneTap AI Solutions", "category": "Software company", "street": "FIRST FLOOR", "city": "HOLI CHOWK", "phone": "07859935902", "website": "https://onetapaisolutions.com/", "rating": 5, "review_count": "", "latitude": 28.5011396, "longitude": 77.2343595, "maps_url": "https://www.google.com/maps/place/?q=place_id:0x390ce17b01e1a187:0x586fa6002747476d"}, {"place_id": "0x390ce1c82340b7f1:0x4817464da5a8fc58", "name": "Deonandan Technologies Pvt. Ltd.", "category": "Computer support and services", "street": "151, Basement", "city": "Punjab National Bank", "phone": "", "website": "", "rating": "", "review_count": "", "latitude": 28.5032517, "longitude": 77.2313988, "maps_url": "https://www.google.com/maps/place/?q=place_id:0x390ce1c82340b7f1:0x4817464da5a8fc58"}, {"place_id": "0x390ce17b94309bbf:0x2a7be4bbd23e8470", "name": "Nexinfotech", "category": "Website designer", "street": "Gali No. 5", "city": "Block J 1, Devli, Sangam Vihar", "phone": "09319089231", "website": "https://nexinfotech.com/", "rating": 5, "review_count": "", "latitude": 28.4901479, "longitude": 77.2463212, "maps_url": "https://www.google.com/maps/place/?q=place_id:0x390ce17b94309bbf:0x2a7be4bbd23e8470"}, {"place_id": "0x390ce1ce534cb1e5:0x39fe77c42bc52616", "name": "ITeSolution- Odoo ERP , Mobile/Web Application Development Software Company in Noida, Delhi NCR India.", "category": "Software company", "street": "RZ60/9", "city": "T/F, Tughlakabad Extension, Tughlakabad", "phone": "09889294124", "website": "https://www.itesolution.co.in/", "rating": 4.9, "review_count": "", "latitude": 28.520523899999997, "longitude": 77.2570535, "maps_url": "https://www.google.com/maps/place/?q=place_id:0x390ce1ce534cb1e5:0x39fe77c42bc52616"}, {"place_id": "0x390ce1a34270de53:0x6914ab92257aa8af", "name": "Benstay", "category": "Website designer", "street": "C-151, Devli Rd", "city": "Pocket A, Jawahar Park, Khanpur", "phone": "09650715026", "website": "https://benstay.com/", "rating": 4.6, "review_count": "", "latitude": 28.5068645, "longitude": 77.23099189999999, "maps_url": "https://www.google.com/maps/place/?q=place_id:0x390ce1a34270de53:0x6914ab92257aa8af"}, {"place_id": "0x390ce38f903de9fd:0x60b75e3dc7d3fb1b", "name": "iTech Mission Private Limited (iTM)", "category": "Software company", "street": "4th Floor, Saira Tower", "city": "Gulmohar Commercial Complex", "phone": "", "website": "http://www.itechmission.org/", "rating": 5, "review_count": "", "latitude": 28.557895499999997, "longitude": 77.20812099999999, "maps_url": "https://www.google.com/maps/place/?q=place_id:0x390ce38f903de9fd:0x60b75e3dc7d3fb1b"}, {"place_id": "0x390ce3c50d455555:0x625e4cf2def0b6ac", "name": "Infonative Solutions Limited", "category": "Corporate office", "street": "107, 108", "city": "DLF South Court", "phone": "08448141818", "website": "https://infonative.net/", "rating": 4.7, "review_count": "", "latitude": 28.5274255, "longitude": 77.2209031, "maps_url": "https://www.google.com/maps/place/?q=place_id:0x390ce3c50d455555:0x625e4cf2def0b6ac"}, {"place_id": "0x390ce11068dacbdd:0xac4070cb73f9c1b1", "name": "Reedham It solutions pvt ltd", "category": "Software company", "street": "1297B, H 16 Rd", "city": "Block G 1, Talimabad, Sangam Vihar", "phone": "01146012950", "website": "http://reedhamitsolution.com/", "rating": 5, "review_count": "", "latitude": 28.5017906, "longitude": 77.25404069999999, "maps_url": "https://www.google.com/maps/place/?q=place_id:0x390ce11068dacbdd:0xac4070cb73f9c1b1"}, {"place_id": "0x4215c6da63b4b82f:0x794ba814a6ada964", "name": "Asha Tech | Website Design, App Development & IT Solutions Delhi", "category": "Software company", "street": "no 2", "city": "195, Lane No. 1", "phone": "07531080874", "website": "https://ashatech.co.in/", "rating": 4.7, "review_count": "", "latitude": 28.519994099999998, "longitude": 77.2008791, "maps_url": "https://www.google.com/maps/place/?q=place_id:0x4215c6da63b4b82f:0x794ba814a6ada964"}, {"place_id": "0x390ce5fdcc79e755:0x309ce99251b84ef6", "name": "Optyminds IT Solutions - Top AI and IT company I Best Digital agency in Noida | Delhi NCR | India", "category": "Software company", "street": "1st Floor", "city": "B-70", "phone": "08929075975", "website": "https://optyminds.com/", "rating": 4.9, "review_count": "", "latitude": 28.584679599999998, "longitude": 77.3135042, "maps_url": "https://www.google.com/maps/place/?q=place_id:0x390ce5fdcc79e755:0x309ce99251b84ef6"}, {"place_id": "0x390ce1398dcd91ef:0x48c4b6b9d7c83ce7", "name": "SEO Freelancer in Delhi", "category": "Internet marketing service", "street": "Devli Rd", "city": "Pocket C, Raju Park, Khanpur", "phone": "", "website": "https://linktr.ee/ishak_ahmed", "rating": 5, "review_count": "", "latitude": 28.5024993, "longitude": 77.225995, "maps_url": "https://www.google.com/maps/place/?q=place_id:0x390ce1398dcd91ef:0x48c4b6b9d7c83ce7"}, {"place_id": "0x390ce128fa4f4fdd:0xbaf579b34dc2a978", "name": "Trinity Computer Solution", "category": "Computer service", "street": "A-96", "city": "Durga Vihar, Raju Park, Devli", "phone": "09711044809", "website": "", "rating": 5, "review_count": "", "latitude": 28.505039, "longitude": 77.23054069999999, "maps_url": "https://www.google.com/maps/place/?q=place_id:0x390ce128fa4f4fdd:0xbaf579b34dc2a978"}, {"place_id": "0x390ce30f4c4ed777:0x3a7c5e032ce51ce5", "name": "Appextech Software Solutions", "category": "Software company", "street": "Second Floor", "city": "Mohan Cooperative Industrial Estate", "phone": "09911432451", "website": "https://www.appextech.com/", "rating": 4.9, "review_count": "", "latitude": 28.502260099999997, "longitude": 77.28519, "maps_url": "https://www.google.com/maps/place/?q=place_id:0x390ce30f4c4ed777:0x3a7c5e032ce51ce5"}, {"place_id": "0x390ce1b9de54d101:0xc5184256693b27dd", "name": "LCK Technologies - Website designing development company South Delhi", "category": "Website designer", "street": "439 1st floor", "city": "438", "phone": "09891337955", "website": "https://lckdigitalmedia.in/", "rating": 4.9, "review_count": "", "latitude": 28.5089698, "longitude": 77.20114769999999, "maps_url": "https://www.google.com/maps/place/?q=place_id:0x390ce1b9de54d101:0xc5184256693b27dd"}, {"place_id": "0x390d1e2895a5a193:0xc8a11377898c5b0f", "name": "GALAXY IT CORPORATION", "category": "Computer support and services", "street": "B-6, Annexe", "city": "Shivalik Colony, Malviya Nagar", "phone": "09990560588", "website": "http://www.galaxyitcorp.in/", "rating": 5, "review_count": "", "latitude": 28.533527, "longitude": 77.206172, "maps_url": "https://www.google.com/maps/place/?q=place_id:0x390d1e2895a5a193:0xc8a11377898c5b0f"}, {"place_id": "0x39f89c0fb3b411eb:0xbe473f977e9b7558", "name": "Kbeatech - Digital Solutions Company", "category": "Software company", "street": "1893, 1st Floor", "city": "Uday Chand Marg", "phone": "", "website": "https://kbeatech.in/", "rating": 4.9, "review_count": "", "latitude": 28.571338299999997, "longitude": 77.2228884, "maps_url": "https://www.google.com/maps/place/?q=place_id:0x39f89c0fb3b411eb:0xbe473f977e9b7558"}, {"place_id": "0x390ce105f881a971:0x67965a41df0a508a", "name": "Apogee Grow", "category": "Marketing agency", "street": "F309 , Ground Floor", "city": "Deoli, Jawahar Park, Khanpur", "phone": "09142255291", "website": "https://www.apogeegrow.com/", "rating": 4.9, "review_count": "", "latitude": 28.508695799999998, "longitude": 77.2300029, "maps_url": "https://www.google.com/maps/place/?q=place_id:0x390ce105f881a971:0x67965a41df0a508a"}, {"place_id": "0x390ce1726e39b19f:0xaf8499b737226c4f", "name": "Dreamiler Private Limited", "category": "Human resource consulting", "street": "3rd floor, PNB Building", "city": "Bus stand", "phone": "", "website": "http://www.dreamiler.com/", "rating": 4.6, "review_count": "", "latitude": 28.503366, "longitude": 77.23151279999999, "maps_url": "https://www.google.com/maps/place/?q=place_id:0x390ce1726e39b19f:0xaf8499b737226c4f"}, {"place_id": "0x390ce17abd50d7c7:0xb804600c23f3d5a2", "name": "Morphiaas", "category": "Marketing agency", "street": "c137/a ,jawahar park ,c block near Sai Baba Mandir", "city": "New Delhi, Delhi 110080", "phone": "09643291984", "website": "https://morphiaas.com/", "rating": 4.9, "review_count": "", "latitude": 28.5063545, "longitude": 77.23072359999999, "maps_url": "https://www.google.com/maps/place/?q=place_id:0x390ce17abd50d7c7:0xb804600c23f3d5a2"}, {"place_id": "0x390ce15a595cf441:0xdaec6985696f5095", "name": "Star digital it care", "category": "Electronics Company", "street": "A", "city": "Friday Market", "phone": "09015290704", "website": "", "rating": 4.7, "review_count": "", "latitude": 28.4993786, "longitude": 77.22339439999999, "maps_url": "https://www.google.com/maps/place/?q=place_id:0x390ce15a595cf441:0xdaec6985696f5095"}, {"place_id": "0x390ce19d6aaaaaab:0x322f66cd91e8f6cd", "name": "Vikas Gupta Web Developer", "category": "Website designer", "street": "A-454 Dakshinpuri", "city": "New Delhi, Delhi 110062", "phone": "09643269244", "website": "https://itcrafterhub.com/website-developer-delhi/", "rating": 5, "review_count": "", "latitude": 28.522017599999998, "longitude": 77.2366923, "maps_url": "https://www.google.com/maps/place/?q=place_id:0x390ce19d6aaaaaab:0x322f66cd91e8f6cd"}, {"place_id": "0xa64f7e15b8ec9789:0x967e4f56d7e5b275", "name": "WebTech Inventor", "category": "Website designer", "street": "", "city": "", "phone": "09354948539", "website": "https://www.webtechinventor.com/", "rating": 5, "review_count": "", "latitude": 21.0680074, "longitude": 82.7525294, "maps_url": "https://www.google.com/maps/place/?q=place_id:0xa64f7e15b8ec9789:0x967e4f56d7e5b275"}, {"place_id": "0x390ce1bef0c8c071:0xb0a64e46c6405fc6", "name": "Tech rise dynamics", "category": "Website designer", "street": "293, Lane-2, Westend Marg", "city": "near Saket Metro Station", "phone": "08750557052", "website": "https://www.techrisedynamics.com/", "rating": 5, "review_count": "", "latitude": 28.5177321, "longitude": 77.1986237, "maps_url": "https://www.google.com/maps/place/?q=place_id:0x390ce1bef0c8c071:0xb0a64e46c6405fc6"}, {"place_id": "0x390ce1a4daaaaaab:0x41d8d5340c8cdf94", "name": "AFC Consulting", "category": "Consultant", "street": "Bus Stand, Near", "city": "Ground Floor, Plot No 144", "phone": "08287304997", "website": "https://afcconsulting.in/", "rating": 4.1, "review_count": "", "latitude": 28.503381899999997, "longitude": 77.2318173, "maps_url": "https://www.google.com/maps/place/?q=place_id:0x390ce1a4daaaaaab:0x41d8d5340c8cdf94"}, {"place_id": "0x390ce3d606c913ef:0xd246bd5631eb2cad", "name": "Delvetech", "category": "Software company", "street": "87A/1, 3rd Floor, Opp. Block N-115, G.K-1, Near Moolchand Merto", "city": "Block B, Zamrudpur, Greater Kailash", "phone": "09873895154", "website": "http://www.delvetech.co.in/", "rating": 4.1, "review_count": "", "latitude": 28.5570597, "longitude": 77.2356981, "maps_url": "https://www.google.com/maps/place/?q=place_id:0x390ce3d606c913ef:0xd246bd5631eb2cad"}, {"place_id": "0x390d1e186527b451:0x3d552630d3703e21", "name": "Inca Infotech Technologies Pvt Ltd", "category": "Computer support and services", "street": "D-23/405, UGF", "city": "100 Feet Rd", "phone": "18008891907", "website": "https://www.incainfotech.com/", "rating": 3.6, "review_count": "", "latitude": 28.506226899999998, "longitude": 77.1850521, "maps_url": "https://www.google.com/maps/place/?q=place_id:0x390d1e186527b451:0x3d552630d3703e21"}, {"place_id": "0x390ce19373198ddd:0xd90726e6aec66e36", "name": "MeTech INDIA", "category": "Computer support and services", "street": "A 41-A", "city": "Pocket C, Raju Park, Khanpur", "phone": "07428338644", "website": "https://www.indiamart.com/company/190358429/", "rating": 5, "review_count": "", "latitude": 28.503338399999997, "longitude": 77.22578589999999, "maps_url": "https://www.google.com/maps/place/?q=place_id:0x390ce19373198ddd:0xd90726e6aec66e36"}, {"place_id": "0x390ce3cfe91504eb:0x55346c5c499223d7", "name": "CCS Computers Private Limited", "category": "Computer support and services", "street": "2nd-3rd Floor Skipper House", "city": "Nehru Place", "phone": "01126463959", "website": "http://www.ccscomputers.co.in/", "rating": 4, "review_count": "", "latitude": 28.550090599999997, "longitude": 77.2537834, "maps_url": "https://www.google.com/maps/place/?q=place_id:0x390ce3cfe91504eb:0x55346c5c499223d7"}, {"place_id": "0x390ce1557a9b46e7:0xfa936456123e51f1", "name": "Total Solution", "category": "Repair service", "street": "A-3, Devli Rd", "city": "Pocket B, Raju Park, Khanpur", "phone": "09311292623", "website": "", "rating": 4.9, "review_count": "", "latitude": 28.505179899999998, "longitude": 77.2298093, "maps_url": "https://www.google.com/maps/place/?q=place_id:0x390ce1557a9b46e7:0xfa936456123e51f1"}, {"place_id": "0x390ce3c5130e43f3:0xce85951ee98d424e", "name": "MODI INFOSOL PVT. LTD.", "category": "Manufacturer", "street": "OFFICE # 168", "city": "D Block, Pocket D, Okhla Phase I, Okhla Industrial Estate", "phone": "01140746900", "website": "http://www.modiithub.com/", "rating": 3.6, "review_count": "", "latitude": 28.5209118, "longitude": 77.2783556, "maps_url": "https://www.google.com/maps/place/?q=place_id:0x390ce3c5130e43f3:0xce85951ee98d424e"}, {"place_id": "0x390ce3b7c0000001:0x46ddd80ee502d937", "name": "Amtrak Technologies Private Limited", "category": "Computer support and services", "street": "6, Community Centre", "city": "East of Kailash", "phone": "01126448000", "website": "https://amtrak.co.in/", "rating": 4.4, "review_count": "", "latitude": 28.558434899999998, "longitude": 77.2463302, "maps_url": "https://www.google.com/maps/place/?q=place_id:0x390ce3b7c0000001:0x46ddd80ee502d937"}, {"place_id": "0x390ce1e92eec0d49:0x8b4c598e70e40b8", "name": "Kito Infocom Pvt. Ltd", "category": "Internet marketing service", "street": "2nd Floor", "city": "B-38", "phone": "08826845665", "website": "https://kitoinfocom.com/", "rating": 4.6, "review_count": "", "latitude": 28.5302415, "longitude": 77.2719123, "maps_url": "https://www.google.com/maps/place/?q=place_id:0x390ce1e92eec0d49:0x8b4c598e70e40b8"}, {"place_id": "0x390ce13fbd6112a1:0xc9e836d86582fc6d", "name": "Taxpot Business Solution-Company Registration, CA & CS Services", "category": "Chartered accountant", "street": "Second Floor", "city": "Pilli Kothi", "phone": "07827455193", "website": "http://www.newcompanyregistrationdelhi.in/", "rating": 5, "review_count": "", "latitude": 28.508529499999998, "longitude": 77.2273353, "maps_url": "https://www.google.com/maps/place/?q=place_id:0x390ce13fbd6112a1:0xc9e836d86582fc6d"}, {"place_id": "0x390ce10c6b5a9cb1:0xea9e2f6ccece3d0e", "name": "DizitalXpert | Digital Advertising Agency", "category": "Website designer", "street": "Devli Rd", "city": "Durga Vihar, Deoli Gaon Nai Basti, Sangam Vihar", "phone": "", "website": "http://dizitalxpert.com/", "rating": 4.8, "review_count": "", "latitude": 28.504681899999998, "longitude": 77.2319119, "maps_url": "https://www.google.com/maps/place/?q=place_id:0x390ce10c6b5a9cb1:0xea9e2f6ccece3d0e"}, {"place_id": "0x390ce12f3278e955:0xe7de7fb5e3fc26f5", "name": "Early Bird Squad", "category": "Event management company", "street": "C- 2", "city": "Pocket C, Raju Park, Khanpur", "phone": "09555634995", "website": "", "rating": 4.8, "review_count": "", "latitude": 28.5026434, "longitude": 77.2246165, "maps_url": "https://www.google.com/maps/place/?q=place_id:0x390ce12f3278e955:0xe7de7fb5e3fc26f5"}, {"place_id": "0x390d1fb9b19cd7d7:0x2febfba590f33428", "name": "Corapana Technologies - Mobile App Development and Web Design Development Company Delhi", "category": "Software company", "street": "Ground floor", "city": "D-23", "phone": "08295242621", "website": "https://corapana.com/", "rating": 4.8, "review_count": "", "latitude": 28.496378999999997, "longitude": 77.17898, "maps_url": "https://www.google.com/maps/place/?q=place_id:0x390d1fb9b19cd7d7:0x2febfba590f33428"}, {"place_id": "0x390ce456aaaaaaab:0x6e4e087895622564", "name": "Klasiinn", "category": "Software company", "street": "E-506, Inder Mohan Bhardwaj Marg", "city": "Block E, Greater Kailash II, Greater Kailash", "phone": "07827882870", "website": "http://klasiinn.in/", "rating": 5, "review_count": "", "latitude": 28.5358657, "longitude": 77.2384798, "maps_url": "https://www.google.com/maps/place/?q=place_id:0x390ce456aaaaaaab:0x6e4e087895622564"}, {"place_id": "0xa3f7b500ba6bee9b:0xbf6f44de92b28de", "name": "Yuvocreations Private Limited ( \u092f\u0941\u0935\u094b\u0915\u094d\u0930\u093f\u090f\u0936\u0928\u094d\u0938 \u092a\u094d\u0930\u093e\u0907\u0935\u0947\u091f \u0932\u093f\u092e\u093f\u091f\u0947\u0921 ) - Website Designing & Digital Marketing Agency", "category": "Software company", "street": "Lane no.4", "city": "Khasra no. 258, Westend Marg", "phone": "07042123166", "website": "https://yuvocreations.com/", "rating": 5, "review_count": "", "latitude": 28.5169774, "longitude": 77.19925789999999, "maps_url": "https://www.google.com/maps/place/?q=place_id:0xa3f7b500ba6bee9b:0xbf6f44de92b28de"}, {"place_id": "0x390ce1b614e5b9c7:0x81817b6824409763", "name": "Icon Steel Creation", "category": "Steelwork design service", "street": "B", "city": "11", "phone": "09310548762", "website": "", "rating": 5, "review_count": "", "latitude": 28.507831999999997, "longitude": 77.23118459999999, "maps_url": "https://www.google.com/maps/place/?q=place_id:0x390ce1b614e5b9c7:0x81817b6824409763"}, {"place_id": "0x390ce16f81ade383:0x4ee8774bc537962a", "name": "Dr Graphical Digital Marketing & Video Production and Podcast Agency", "category": "Video production service", "street": "F-138, Devli Rd", "city": "Pocket C, Jawahar Park, Khanpur", "phone": "09990050552", "website": "https://www.instagram.com/drgraphical", "rating": 5, "review_count": "", "latitude": 28.508329399999997, "longitude": 77.2300404, "maps_url": "https://www.google.com/maps/place/?q=place_id:0x390ce16f81ade383:0x4ee8774bc537962a"}, {"place_id": "0x390ce3b7c0000001:0x46ddd80ee502d937", "name": "Amtrak Technologies Private Limited", "category": "Computer support and services", "street": "6, Community Centre", "city": "East of Kailash", "phone": "01126448000", "website": "https://amtrak.co.in/", "rating": 4.4, "review_count": "", "latitude": 28.558434899999998, "longitude": 77.2463302, "maps_url": "https://www.google.com/maps/place/?q=place_id:0x390ce3b7c0000001:0x46ddd80ee502d937"}, {"place_id": "0x390ce1e92eec0d49:0x8b4c598e70e40b8", "name": "Kito Infocom Pvt. Ltd", "category": "Internet marketing service", "street": "2nd Floor", "city": "B-38", "phone": "08826845665", "website": "https://kitoinfocom.com/", "rating": 4.6, "review_count": "", "latitude": 28.5302415, "longitude": 77.2719123, "maps_url": "https://www.google.com/maps/place/?q=place_id:0x390ce1e92eec0d49:0x8b4c598e70e40b8"}, {"place_id": "0x390ce13fbd6112a1:0xc9e836d86582fc6d", "name": "Taxpot Business Solution-Company Registration, CA & CS Services", "category": "Chartered accountant", "street": "Second Floor", "city": "Pilli Kothi", "phone": "07827455193", "website": "http://www.newcompanyregistrationdelhi.in/", "rating": 5, "review_count": "", "latitude": 28.508529499999998, "longitude": 77.2273353, "maps_url": "https://www.google.com/maps/place/?q=place_id:0x390ce13fbd6112a1:0xc9e836d86582fc6d"}, {"place_id": "0x390ce10c6b5a9cb1:0xea9e2f6ccece3d0e", "name": "DizitalXpert | Digital Advertising Agency", "category": "Advertising agency", "street": "Devli Rd", "city": "Durga Vihar, Deoli Gaon Nai Basti, Sangam Vihar", "phone": "", "website": "http://dizitalxpert.com/", "rating": 4.8, "review_count": "", "latitude": 28.504681899999998, "longitude": 77.2319119, "maps_url": "https://www.google.com/maps/place/?q=place_id:0x390ce10c6b5a9cb1:0xea9e2f6ccece3d0e"}, {"place_id": "0x390ce12f3278e955:0xe7de7fb5e3fc26f5", "name": "Early Bird Squad", "category": "Event management company", "street": "C- 2", "city": "Pocket C, Raju Park, Khanpur", "phone": "09555634995", "website": "", "rating": 4.8, "review_count": "", "latitude": 28.5026434, "longitude": 77.2246165, "maps_url": "https://www.google.com/maps/place/?q=place_id:0x390ce12f3278e955:0xe7de7fb5e3fc26f5"}, {"place_id": "0x390d1fb9b19cd7d7:0x2febfba590f33428", "name": "Corapana Technologies - Mobile App Development and Web Design Development Company Delhi", "category": "Software company", "street": "Ground floor", "city": "D-23", "phone": "08295242621", "website": "https://corapana.com/", "rating": 4.8, "review_count": "", "latitude": 28.496378999999997, "longitude": 77.17898, "maps_url": "https://www.google.com/maps/place/?q=place_id:0x390d1fb9b19cd7d7:0x2febfba590f33428"}, {"place_id": "0x390ce456aaaaaaab:0x6e4e087895622564", "name": "Klasiinn", "category": "Software company", "street": "E-506, Inder Mohan Bhardwaj Marg", "city": "Block E, Greater Kailash II, Greater Kailash", "phone": "07827882870", "website": "http://klasiinn.in/", "rating": 5, "review_count": "", "latitude": 28.5358657, "longitude": 77.2384798, "maps_url": "https://www.google.com/maps/place/?q=place_id:0x390ce456aaaaaaab:0x6e4e087895622564"}, {"place_id": "0xa3f7b500ba6bee9b:0xbf6f44de92b28de", "name": "Yuvocreations Private Limited ( \u092f\u0941\u0935\u094b\u0915\u094d\u0930\u093f\u090f\u0936\u0928\u094d\u0938 \u092a\u094d\u0930\u093e\u0907\u0935\u0947\u091f \u0932\u093f\u092e\u093f\u091f\u0947\u0921 ) - Website Designing & Digital Marketing Agency", "category": "Software company", "street": "Lane no.4", "city": "Khasra no. 258, Westend Marg", "phone": "07042123166", "website": "https://yuvocreations.com/", "rating": 5, "review_count": "", "latitude": 28.5169774, "longitude": 77.19925789999999, "maps_url": "https://www.google.com/maps/place/?q=place_id:0xa3f7b500ba6bee9b:0xbf6f44de92b28de"}, {"place_id": "0x390ce1b614e5b9c7:0x81817b6824409763", "name": "Icon Steel Creation", "category": "Steelwork design service", "street": "B", "city": "11", "phone": "09310548762", "website": "", "rating": 5, "review_count": "", "latitude": 28.507831999999997, "longitude": 77.23118459999999, "maps_url": "https://www.google.com/maps/place/?q=place_id:0x390ce1b614e5b9c7:0x81817b6824409763"}, {"place_id": "0x390ce21e692e0283:0xa33efbc3468a3d7d", "name": "Tally Software Services", "category": "Computer support and services", "street": "C 220/4, Savtri Nagar, Malviya Nagar", "city": "New Delhi, Delhi 110017", "phone": "09810311011", "website": "", "rating": 3.8, "review_count": "", "latitude": 28.533087, "longitude": 77.2128759, "maps_url": "https://www.google.com/maps/place/?q=place_id:0x390ce21e692e0283:0xa33efbc3468a3d7d"}, {"place_id": "0x390ce16f81ade383:0x4ee8774bc537962a", "name": "Dr Graphical Digital Marketing & Video Production and Podcast Agency", "category": "Video production service", "street": "F-138, Devli Rd", "city": "Pocket C, Jawahar Park, Khanpur", "phone": "09990050552", "website": "https://www.instagram.com/drgraphical", "rating": 5, "review_count": "", "latitude": 28.508329399999997, "longitude": 77.2300404, "maps_url": "https://www.google.com/maps/place/?q=place_id:0x390ce16f81ade383:0x4ee8774bc537962a"}, {"place_id": "0x390d04d9c62ecba9:0xac7a8b4e3f5338e8", "name": "Original Products Private Limited", "category": "Manufacturer", "street": "School Rd", "city": "Shiv Park, Khanpur Village, Khanpur", "phone": "08860597553", "website": "http://www.opplin.com/", "rating": 3.7, "review_count": "", "latitude": 28.5108046, "longitude": 77.2285868, "maps_url": "https://www.google.com/maps/place/?q=place_id:0x390d04d9c62ecba9:0xac7a8b4e3f5338e8"}, {"place_id": "0xa37120c29a1816f1:0xeee39611dddc5ec9", "name": "Security for all services", "category": "Security guard service", "street": "hanuman mandir", "city": "Gali Number 1", "phone": "09910985334", "website": "", "rating": 4.7, "review_count": "", "latitude": 28.5039141, "longitude": 77.2285358, "maps_url": "https://www.google.com/maps/place/?q=place_id:0xa37120c29a1816f1:0xeee39611dddc5ec9"}, {"place_id": "0x390ce1a20e94f687:0x13554fd9471442e5", "name": "Nextera Entertainment", "category": "Event management company", "street": "D-144, 1st Floor, Flat No. B-5", "city": "Krishna Park, Khanpur (9863522222)", "phone": "09899291066", "website": "", "rating": 4.9, "review_count": "", "latitude": 28.509770999999997, "longitude": 77.2337715, "maps_url": "https://www.google.com/maps/place/?q=place_id:0x390ce1a20e94f687:0x13554fd9471442e5"}, {"place_id": "0x4dae85eac82b7e1b:0x10fc12ebe47de598", "name": "WELLIFY HEALTH CARE PVT LTD", "category": "Home health care service", "street": "Head office - 103 A Third floor", "city": "Pocket C, Raju Park, Khanpur", "phone": "09907014417", "website": "https://www.wellifyhealthcare.com/", "rating": 4.8, "review_count": "", "latitude": 28.5031914, "longitude": 77.2255292, "maps_url": "https://www.google.com/maps/place/?q=place_id:0x4dae85eac82b7e1b:0x10fc12ebe47de598"}, {"place_id": "0x390ce23eeab015ab:0x92d6a7e8dbc46e1a", "name": "Odyssey Website Development Company", "category": "Website designer", "street": "B-59", "city": "Block B, Soami Nagar South, Soami Nagar", "phone": "09654486464", "website": "http://odysseyin.com/?utm_source=GMB&utm_medium=Organic&utm_term=Odyssey&utm_content=Listing&utm_campaign=GMB1", "rating": 3.6, "review_count": "", "latitude": 28.541823599999997, "longitude": 77.2262008, "maps_url": "https://www.google.com/maps/place/?q=place_id:0x390ce23eeab015ab:0x92d6a7e8dbc46e1a"}, {"place_id": "0x390ce1aefe10f367:0xb1595558504b7318", "name": "7Empire Films Studio", "category": "Film Production Company", "street": "C-103, 104 -A, Raju Park, East Of Sanik Farm", "city": "Khanpur", "phone": "09811353561", "website": "http://www.7empirefilms.com/", "rating": 4.8, "review_count": "", "latitude": 28.504634, "longitude": 77.22661599999999, "maps_url": "https://www.google.com/maps/place/?q=place_id:0x390ce1aefe10f367:0xb1595558504b7318"}, {"place_id": "0x390ce1a3abec05eb:0x68d2ad8868240a71", "name": "Ritwik Enterprises", "category": "Electrical supply store", "street": "D-213, Devli Rd", "city": "Krishna Park Colony, Jawahar Park, Khanpur", "phone": "09871396949", "website": "", "rating": 4.2, "review_count": "", "latitude": 28.5070724, "longitude": 77.2322101, "maps_url": "https://www.google.com/maps/place/?q=place_id:0x390ce1a3abec05eb:0x68d2ad8868240a71"}, {"place_id": "0x390ce169ad55dd55:0xa59250553934cd0d", "name": "PSR & Associates LLP (Chartered Accountants)", "category": "Certified public accountant", "street": "A 3B, Devli Rd", "city": "near Sundar Lal Hospital", "phone": "09990028230", "website": "", "rating": 4.9, "review_count": "", "latitude": 28.5058519, "longitude": 77.2318116, "maps_url": "https://www.google.com/maps/place/?q=place_id:0x390ce169ad55dd55:0xa59250553934cd0d"}, {"place_id": "0x390d1ed3c6e9f579:0x322eccdb00f350d2", "name": "Techjockey", "category": "Software company", "street": "Ground floor, Habitat India", "city": "C-3", "phone": "01142213003", "website": "https://www.techjockey.com/", "rating": 4, "review_count": "", "latitude": 28.536615299999998, "longitude": 77.1902978, "maps_url": "https://www.google.com/maps/place/?q=place_id:0x390d1ed3c6e9f579:0x322eccdb00f350d2"}, {"place_id": "0x390ce175b698b801:0x5a45e4318cd866c2", "name": "Fine it Services", "category": "Computer repair service", "street": "c-II/22", "city": "Pocket C, Raju Park, Khanpur", "phone": "", "website": "", "rating": "", "review_count": "", "latitude": 28.503338399999997, "longitude": 77.22578589999999, "maps_url": "https://www.google.com/maps/place/?q=place_id:0x390ce175b698b801:0x5a45e4318cd866c2"}, {"place_id": "0x390ce1be2d2a7377:0x5020cce4790298e1", "name": "AJWA KAIF PVT LTD", "category": "Computer support and services", "street": "Ground Floor", "city": "Khirki Vill", "phone": "01142502100", "website": "https://www.ajwakaif.com/", "rating": 5, "review_count": "", "latitude": 28.5309287, "longitude": 77.2194186, "maps_url": "https://www.google.com/maps/place/?q=place_id:0x390ce1be2d2a7377:0x5020cce4790298e1"}, {"place_id": "0x390ce1bb79555555:0xc1fb3e58c274fc2f", "name": "PINKS Pest Control Private Limited", "category": "Pest control service", "street": "19 Devli, Raju Park, Khanpur", "city": "Khanpur", "phone": "09871169931", "website": "http://www.pinkspestcontrol.com/", "rating": 5, "review_count": "", "latitude": 28.503382199999997, "longitude": 77.22648199999999, "maps_url": "https://www.google.com/maps/place/?q=place_id:0x390ce1bb79555555:0xc1fb3e58c274fc2f"}, {"place_id": "0x390ce1fb6d6fa48f:0x8be9b07790f41251", "name": "The Wellingston Company", "category": "Corporate office", "street": "K-2nd, 555", "city": "Bandh Rd", "phone": "09716881871", "website": "http://www.wellingston.com/", "rating": 5, "review_count": "", "latitude": 28.4954108, "longitude": 77.2369391, "maps_url": "https://www.google.com/maps/place/?q=place_id:0x390ce1fb6d6fa48f:0x8be9b07790f41251"}, {"place_id": "0x390ce1cc81366711:0x2d4fbb5a3813396b", "name": "ZeeClick", "category": "Website designer", "street": "", "city": "", "phone": "08851338312", "website": "http://www.zeeclick.com/", "rating": 4.3, "review_count": "", "latitude": 21.7644144, "longitude": 75.3291284, "maps_url": "https://www.google.com/maps/place/?q=place_id:0x390ce1cc81366711:0x2d4fbb5a3813396b"}, {"place_id": "0x390ce100f5e94809:0xd78d6863269ad2a1", "name": "Taom Solutions", "category": "Software company", "street": "E- 44/3 Ground Floor", "city": "F Block, Pocket X, Okhla Phase II, Okhla Industrial Estate", "phone": "", "website": "https://www.taomsolutions.com/", "rating": 5, "review_count": "", "latitude": 28.535762799999997, "longitude": 77.2764329, "maps_url": "https://www.google.com/maps/place/?q=place_id:0x390ce100f5e94809:0xd78d6863269ad2a1"}, {"place_id": "0x390ce1bb71267bd3:0x674f44c01d38465b", "name": "A V Developers", "category": "Real estate agency", "street": "207-A, Devli Village", "city": "near Mansa Devi Mandir", "phone": "09810500745", "website": "", "rating": 4.8, "review_count": "", "latitude": 28.5028531, "longitude": 77.2265879, "maps_url": "https://www.google.com/maps/place/?q=place_id:0x390ce1bb71267bd3:0x674f44c01d38465b"}, {"place_id": "0x390ce1e08aad0a03:0xf11f03753d86ae44", "name": "Blostem", "category": "Business banking service", "street": "163/F, W-2", "city": "Lane, Western Ave", "phone": "08588890832", "website": "http://www.blostem.com/", "rating": 4.4, "review_count": "", "latitude": 28.510039499999998, "longitude": 77.2206147, "maps_url": "https://www.google.com/maps/place/?q=place_id:0x390ce1e08aad0a03:0xf11f03753d86ae44"}, {"place_id": "0x390ce1b6da3e87df:0x2c080ffa2feea42c", "name": "Widespread Immigration Services", "category": "Immigration attorney", "street": "A-148", "city": "Pocket C, Raju Park, Khanpur", "phone": "09650611747", "website": "http://www.widespreadimmigration.com/", "rating": 4.6, "review_count": 30, "latitude": 28.503338399999997, "longitude": 77.22578589999999, "maps_url": "https://www.google.com/maps/place/?q=place_id:0x390ce1b6da3e87df:0x2c080ffa2feea42c"}, {"place_id": "0x390ce15550f72e63:0x205a1462b7f422d5", "name": "Zeetech Interiors", "category": "Interior designer", "street": "Ground Floor, Flat", "city": "A - 487, Street Number 1", "phone": "09773763209", "website": "https://zeetechinteriors.com/", "rating": 4.8, "review_count": "", "latitude": 28.5008706, "longitude": 77.22716299999999, "maps_url": "https://www.google.com/maps/place/?q=place_id:0x390ce15550f72e63:0x205a1462b7f422d5"}, {"place_id": "0x390ce10972701b43:0x88fbfcfafdaf00f3", "name": "SearchingYard Group Corporate HQ", "category": "Software company", "street": "Tower 1st Floor, A", "city": "Nagpal Business", "phone": "", "website": "http://www.searchingyard.com/", "rating": 1.7, "review_count": "", "latitude": 28.538387699999998, "longitude": 77.27080029999999, "maps_url": "https://www.google.com/maps/place/?q=place_id:0x390ce10972701b43:0x88fbfcfafdaf00f3"}, {"place_id": "0x390ce199baaaaaab:0xfe814f9c9c563447", "name": "Food Machine Equipment Co.", "category": "Food machinery supplier", "street": "107 B,2nd Floor", "city": "Khanpur Village, Khanpur", "phone": "09871968070", "website": "http://foodmachineequipment.com/", "rating": 4.7, "review_count": "", "latitude": 28.513876099999997, "longitude": 77.2312183, "maps_url": "https://www.google.com/maps/place/?q=place_id:0x390ce199baaaaaab:0xfe814f9c9c563447"}, {"place_id": "0x390ce1d22060ff1d:0x410ffc83d4f4a717", "name": "SVA Marketing Solution", "category": "Website designer", "street": "sewa sadan", "city": "C-4/86, Sangam Vihar Rd", "phone": "08178232697", "website": "https://svamarketingsolution.com/", "rating": 5, "review_count": "", "latitude": 28.4991812, "longitude": 77.2364204, "maps_url": "https://www.google.com/maps/place/?q=place_id:0x390ce1d22060ff1d:0x410ffc83d4f4a717"}, {"place_id": "0x390ce1a36c888245:0x7469b7449cb0432f", "name": "Quintessence Consulting", "category": "Business management consultant", "street": "A 57, Devli Rd", "city": "Deoli, Raju Park, Khanpur", "phone": "09311111001", "website": "http://www.quint-essence.com/", "rating": "", "review_count": "", "latitude": 28.5054552, "longitude": 77.23078009999999, "maps_url": "https://www.google.com/maps/place/?q=place_id:0x390ce1a36c888245:0x7469b7449cb0432f"}, {"place_id": "0x390ce15bac92be69:0x59fb78d18cf4cff2", "name": "PRD & Associates - Company Secretaries", "category": "Consultant", "street": "L1", "city": "941/18", "phone": "08368648999", "website": "", "rating": 4.8, "review_count": "", "latitude": 28.4946184, "longitude": 77.2287387, "maps_url": "https://www.google.com/maps/place/?q=place_id:0x390ce15bac92be69:0x59fb78d18cf4cff2"}, {"place_id": "0x390ce15e14269f85:0x3ba7f44e5ef08a18", "name": "AdClove Innovation", "category": "Marketing agency", "street": "ALAMs House", "city": "E-22, Devli Rd", "phone": "09560785751", "website": "", "rating": 4, "review_count": "", "latitude": 28.508078899999997, "longitude": 77.2287547, "maps_url": "https://www.google.com/maps/place/?q=place_id:0x390ce15e14269f85:0x3ba7f44e5ef08a18"}, {"place_id": "0x390ce1a52636e7fb:0x9b887dbb70f85ec0", "name": "Modular Kitchen DSI", "category": "Kitchen remodeler", "street": "536", "city": "Bank Colony, Durga Vihar, Devli, Sangam Vihar", "phone": "09210339555", "website": "https://modularkitchendsi.com/", "rating": 4.8, "review_count": "", "latitude": 28.500805999999997, "longitude": 77.22978239999999, "maps_url": "https://www.google.com/maps/place/?q=place_id:0x390ce1a52636e7fb:0x9b887dbb70f85ec0"}, {"place_id": "0x390ce1bb12843fef:0x8fb52757daefbe4d", "name": "Ruchika Steel & Sheet Metal Works", "category": "Metal fabricator", "street": "B - 493", "city": "near Anita Singhal House", "phone": "08851332832", "website": "", "rating": 4.9, "review_count": "", "latitude": 28.5013079, "longitude": 77.2275153, "maps_url": "https://www.google.com/maps/place/?q=place_id:0x390ce1bb12843fef:0x8fb52757daefbe4d"}, {"place_id": "0x390ce1a2faaaaaaf:0x717203e2eca9d452", "name": "DTDC Courier & Cargo Ltd.", "category": "Courier service", "street": "Courier Service", "city": "F- 98", "phone": "09899435081", "website": "", "rating": 3.7, "review_count": "", "latitude": 28.5084713, "longitude": 77.232101, "maps_url": "https://www.google.com/maps/place/?q=place_id:0x390ce1a2faaaaaaf:0x717203e2eca9d452"}, {"place_id": "0x390ce18c6963a4af:0xb99624ed3ba838ee", "name": "Royal mesh - The right mosquito door & windows - Great service guaranteed", "category": "Door manufacturer", "street": "Address B 1296", "city": "Block B, Devli, Sangam Vihar", "phone": "", "website": "http://royalmesh.in/", "rating": 4.7, "review_count": "", "latitude": 28.503000399999998, "longitude": 77.235463, "maps_url": "https://www.google.com/maps/place/?q=place_id:0x390ce18c6963a4af:0xb99624ed3ba838ee"}]}