[{"place_id": "ChIJ7aqqqhn9DDkRAHrHrySKo2M", "name": "TEAMWORK IT SOLUTION", "street": "4680, Shree Ji Service Ballimaran,, Chandani Chowk Delhi, New Delhi, Delhi 110006, India", "phone": "+91 98911 15747", "rating": "5", "review_count": "", "website": "", "latitude": 28.6505196, "longitude": 77.23188069999999, "maps_url": "https://www.google.com/maps/search/?api=1&query=TEAMWORK%20IT%20SOLUTION&query_place_id=ChIJ7aqqqhn9DDkRAHrHrySKo2M"}, {"place_id": "ChIJO4sr49IDDTkRALZaeWsr-oI", "name": "Iraitech | Software Development Company", "street": "Central Square Complex 3, Unit No-1051, 1st Floor, Near Filmistan, DCM chowk, Bara Hindu Rao, Kishan Ganj, Delhi, 110006, India", "phone": "+91 81301 04108", "rating": "4.1", "review_count": "", "website": "https://www.iraitech.com/", "latitude": 28.6631951, "longitude": 77.20308639999999, "maps_url": "https://www.google.com/maps/search/?api=1&query=Iraitech%20%7C%20Software%20Development%20Company&query_place_id=ChIJO4sr49IDDTkRALZaeWsr-oI"}, {"place_id": "ChIJYz_ehGH9DDkRCa--BbkSwKQ", "name": "TRV Technologies LLP", "street": "781-T/F, Gali Harjimal Kundewalan, near Ajmeri Gate, Kucha Tiku Shah, Chandni Chowk, New Delhi, Delhi, 110006, India", "phone": "+91 70427 28290", "rating": "4.9", "review_count": "", "website": "https://trvtech.in/", "latitude": 28.6459743, "longitude": 77.2259098, "maps_url": "https://www.google.com/maps/search/?api=1&query=TRV%20Technologies%20LLP&query_place_id=ChIJYz_ehGH9DDkRCa--BbkSwKQ"}, {"place_id": "ChIJ8bD3oe-1bTkRhQOwVrfg-vw", "name": "One Aim IT Solutions", "street": "2/41/2 , 1st Floor, Sadar Bazar , Moradabad Pahari ,TO.Delhi Cantt, Distt:, South West, New Delhi, Delhi 110006, India", "phone": "+91 89552 49714", "rating": "5", "review_count": "", "website": "https://theoneaim.in/", "latitude": 28.6580968, "longitude": 77.2124735, "maps_url": "https://www.google.com/maps/search/?api=1&query=One%20Aim%20IT%20Solutions&query_place_id=ChIJ8bD3oe-1bTkRhQOwVrfg-vw"}, {"place_id": "ChIJQ_oGW9r9DDkRVEcZFZZp-T4", "name": "IT SOLUTION PVT LTD", "street": "Katra Asharfi, Chandni Chowk, Delhi, 110006, India", "phone": "+91 78348 28211", "rating": "4.3", "review_count": "", "website": "", "latitude": 28.6564014, "longitude": 77.2279331, "maps_url": "https://www.google.com/maps/search/?api=1&query=IT%20SOLUTION%20PVT%20LTD&query_place_id=ChIJQ_oGW9r9DDkRVEcZFZZp-T4"}, {"place_id": "ChIJFeXlTZkCDTkRNw2aQAO8CNk", "name": "Himalayan IT Solutions | Best Website Designing Company in Delhi | SEO/Digital Marketing Company in Delhi NCR, India", "street": "61/4255, Padam Singh Rd, Block 29, Block 1, Regar Pura, Karol Bagh, Delhi, 110005, India", "phone": "+91 98990 98509", "rating": "3.9", "review_count": "", "website": "http://www.himalayanitsolutions.com/", "latitude": 28.649673999999997, "longitude": 77.186599, "maps_url": "https://www.google.com/maps/search/?api=1&query=Himalayan%20IT%20Solutions%20%7C%20Best%20Website%20Designing%20Company%20in%20Delhi%20%7C%20SEO/Digital%20Marketing%20Company%20in%20Delhi%20NCR%2C%20India&query_place_id=ChIJFeXlTZkCDTkRNw2aQAO8CNk"}, {"place_id": "ChIJFzU1Z779DDkRUcZuTWbOsuI", "name": "MROvendor - Your Trusted Industrial Partner", "street": "3406, 2nd Floor, Gali Bajrang Bali, Sitaram Bazar Rd, Bazar Sirkiwalan, Chawri Bazar, Chandni Chowk, Delhi, 110006, India", "phone": "+91 75360 66067", "rating": "4.9", "review_count": "", "website": "http://www.mrovendor.in/", "latitude": 28.6484919, "longitude": 77.2278444, "maps_url": "https://www.google.com/maps/search/?api=1&query=MROvendor%20-%20Your%20Trusted%20Industrial%20Partner&query_place_id=ChIJFzU1Z779DDkRUcZuTWbOsuI"}, {"place_id": "ChIJB9uQx2v9DDkR43vQGnPZ440", "name": "ZK Computer Workshop", "street": "Shop No. 184/102, Mahalaxmi Market, Bandook Wali Gali, Chawri Bazar, Ajmeri Gate, Delhi, 110006, India", "phone": "+91 81306 99915", "rating": "4.9", "review_count": "", "website": "http://www.zkcomputerworkshop.com/", "latitude": 28.6474497, "longitude": 77.22539859999999, "maps_url": "https://www.google.com/maps/search/?api=1&query=ZK%20Computer%20Workshop&query_place_id=ChIJB9uQx2v9DDkR43vQGnPZ440"}, {"place_id": "ChIJ8VDpBiP9DDkRoNhIIKrIwmg", "name": "The Computer Hub", "street": "4687 gali razia begum, Hauz Qazi, Delhi, 110006, India", "phone": "+91 99581 61727", "rating": "4.8", "review_count": "", "website": "", "latitude": 28.6489288, "longitude": 77.2256456, "maps_url": "https://www.google.com/maps/search/?api=1&query=The%20Computer%20Hub&query_place_id=ChIJ8VDpBiP9DDkRoNhIIKrIwmg"}, {"place_id": "ChIJd-3rnjD9DDkRC1ouB5NrtvU", "name": "ITI Tools Co (INDIAN TECHNOLOGY CO.)", "street": "3675, Shradhanand Marg, Chabdi Bazar, Ajmeri Gate, New Delhi, Delhi, 110006, India", "phone": "+91 98714 08551", "rating": "3.2", "review_count": "", "website": "", "latitude": 28.648723399999998, "longitude": 77.2218827, "maps_url": "https://www.google.com/maps/search/?api=1&query=ITI%20Tools%20Co%20%28INDIAN%20TECHNOLOGY%20CO.%29&query_place_id=ChIJd-3rnjD9DDkRC1ouB5NrtvU"}, {"place_id": "ChIJAQAAAG_9DDkRFyl46Foh0ns", "name": "Shree Krishna Engineering Company (Lovely Fasteners & Tools)", "street": "Gate No.1, Metro Station, 73/74, Deen Dayal Upadhaya Market, opp. Tanga Stand, next to Chawri Bazar, Hauz Qazi, New Delhi, Delhi 110006, India", "phone": "+91 11 4100 3034", "rating": "4.9", "review_count": "", "website": "http://www.lovelyfasteners.com/", "latitude": 28.6483748, "longitude": 77.2263569, "maps_url": "https://www.google.com/maps/search/?api=1&query=Shree%20Krishna%20Engineering%20Company%20%28Lovely%20Fasteners%20%26%20Tools%29&query_place_id=ChIJAQAAAG_9DDkRFyl46Foh0ns"}, {"place_id": "ChIJGcRbrhf9DDkRgYcxMqd3A9U", "name": "TAYAL SCREW INDIA (hub of SCREW'S)", "street": "3435, Hauz Qazi Chowk, behind Police Booth, Bazar Sirkiwalan, Chawri Bazar, Chandni Chowk, Delhi, 110006, India", "phone": "+91 99114 47446", "rating": "4.9", "review_count": "", "website": "https://www.tayalscrew.com/", "latitude": 28.6494668, "longitude": 77.2266976, "maps_url": "https://www.google.com/maps/search/?api=1&query=TAYAL%20SCREW%20INDIA%20%28hub%20of%20SCREW%27S%29&query_place_id=ChIJGcRbrhf9DDkRgYcxMqd3A9U"}, {"place_id": "ChIJuS06_6T9DDkRGVwzoWf9FQc", "name": "Kamonk", "street": "Kamonk Projects Private Limited, 3645, IInd Floor, Chawri Bazar, Hauz Qazi, New Delhi, Delhi 110006, India", "phone": "", "rating": "4.5", "review_count": "", "website": "http://www.kamonk.in/", "latitude": 28.649371799999997, "longitude": 77.2274109, "maps_url": "https://www.google.com/maps/search/?api=1&query=Kamonk&query_place_id=ChIJuS06_6T9DDkRGVwzoWf9FQc"}, {"place_id": "ChIJM_82ex39DDkRm1jw-7f4tsc", "name": "KC COMPUTER & GADGETS", "street": "1037, Main Road, near by Sardar Ghee, Bazar Sita Ram, Sita Ram Bazar, Chandni Chowk, Delhi, 110006, India", "phone": "+91 98182 83826", "rating": "5", "review_count": "", "website": "", "latitude": 28.648041, "longitude": 77.2281953, "maps_url": "https://www.google.com/maps/search/?api=1&query=KC%20COMPUTER%20%26%20GADGETS&query_place_id=ChIJM_82ex39DDkRm1jw-7f4tsc"}, {"place_id": "ChIJd-3rnjD9DDkRItcR6i9kdkg", "name": "Top Tools Private Limited", "street": "Gate no.1, SHOP NO.4662, opposite Chawri Bazar metro station, Ajmeri Gate, New Delhi, Delhi 110006, India", "phone": "+91 98102 14861", "rating": "3.7", "review_count": "", "website": "http://www.toptools.in/", "latitude": 28.6487421, "longitude": 77.2259244, "maps_url": "https://www.google.com/maps/search/?api=1&query=Top%20Tools%20Private%20Limited&query_place_id=ChIJd-3rnjD9DDkRItcR6i9kdkg"}, {"place_id": "ChIJVVsDmpn9DDkR8_akqpvqKbI", "name": "Fasteners King Private Limited - Hilti Fischer Milwaukee Wurth Distributor", "street": "1st Floor, Hauz Qazi, 3438, Chawri Bazar, METRO, New Delhi, Delhi 110006, India", "phone": "+91 85058 50569", "rating": "4.9", "review_count": "", "website": "http://www.fastenersking.com/", "latitude": 28.6493932, "longitude": 77.2266758, "maps_url": "https://www.google.com/maps/search/?api=1&query=Fasteners%20King%20Private%20Limited%20-%20Hilti%20Fischer%20Milwaukee%20Wurth%20Distributor&query_place_id=ChIJVVsDmpn9DDkR8_akqpvqKbI"}, {"place_id": "ChIJ5arWWr79DDkRXM4xD3Xs__E", "name": "SANCHIT GUPTA & COMPANY", "street": "748, 1st FLOOR, KUNDEWALAN, Ajmeri Gate, Delhi, 110006, India", "phone": "+91 84473 37337", "rating": "5", "review_count": "", "website": "https://www.casanchit.com/?utm_source=google&utm_medium=wix_google_business_profile&utm_campaign=11004256634209600788", "latitude": 28.6461941, "longitude": 77.2248129, "maps_url": "https://www.google.com/maps/search/?api=1&query=SANCHIT%20GUPTA%20%26%20COMPANY&query_place_id=ChIJ5arWWr79DDkRXM4xD3Xs__E"}, {"place_id": "ChIJf2RLJxb9DDkRq5nIuDsDeLk", "name": "N.C. BOLT CO.", "street": "141, Ajmere Gate Rd, Kucha Tiku Shah, Ajmeri Gate, New Delhi, Delhi, 110006, India", "phone": "+91 88003 88343", "rating": "5", "review_count": "", "website": "", "latitude": 28.647105, "longitude": 77.22507499999999, "maps_url": "https://www.google.com/maps/search/?api=1&query=N.C.%20BOLT%20CO.&query_place_id=ChIJf2RLJxb9DDkRq5nIuDsDeLk"}, {"place_id": "ChIJqZV06mb9DDkRAS_7VMEm--k", "name": "IndiaLocalShop", "street": "HN 4289, 3rd Floor, Gali Shahtar, behind Shardhanand Marg, Delhi, 110006, India", "phone": "", "rating": "4", "review_count": "", "website": "http://indialocalshop.com/", "latitude": 28.6482872, "longitude": 77.2229732, "maps_url": "https://www.google.com/maps/search/?api=1&query=IndiaLocalShop&query_place_id=ChIJqZV06mb9DDkRAS_7VMEm--k"}, {"place_id": "ChIJ____Gxj9DDkRwg55bIqX4zg", "name": "AAUZAAR | Batra Business Centre", "street": "3477-3478, Hauz Qazi Chowk, Bazar Sirkiwalan, Khush Dil, Chandni Chowk, New Delhi, Delhi, 110006, India", "phone": "+91 87503 38000", "rating": "4.4", "review_count": "", "website": "https://aauzaar.mini.store/", "latitude": 28.6494666, "longitude": 77.2266965, "maps_url": "https://www.google.com/maps/search/?api=1&query=AAUZAAR%20%7C%20Batra%20Business%20Centre&query_place_id=ChIJ____Gxj9DDkRwg55bIqX4zg"}, {"place_id": "ChIJkQj4w3H9DDkRi2xtXV3_fdE", "name": "Omrook Industries Pvt. Ltd.", "street": "4289, Gali Shahtara, shardanad marg, Gali Shahtara, near Rabia market, Delhi, 110006, India", "phone": "+91 77038 69803", "rating": "4.2", "review_count": "", "website": "https://omrook.com/", "latitude": 28.647834999999997, "longitude": 77.2249157, "maps_url": "https://www.google.com/maps/search/?api=1&query=Omrook%20Industries%20Pvt.%20Ltd.&query_place_id=ChIJkQj4w3H9DDkRi2xtXV3_fdE"}, {"place_id": "ChIJq88jUD39DDkRz--gkB_ugVU", "name": "Fair Flow India Private Limited", "street": "Building No. 1984, Gali Neela Wali, near Gali Arya Samaj, Hauz Qazi, Sitaram Bazar, Delhi, 110006, India", "phone": "+91 78380 93339", "rating": "4.9", "review_count": "", "website": "https://www.meters.co.in/", "latitude": 28.646615699999998, "longitude": 77.22820229999999, "maps_url": "https://www.google.com/maps/search/?api=1&query=Fair%20Flow%20India%20Private%20Limited&query_place_id=ChIJq88jUD39DDkRz--gkB_ugVU"}, {"place_id": "ChIJM3Cts6YBDTkRURzktpFYX2A", "name": "Mittal Merchandisers Co.", "street": "4879, Phatak Namak St, Bazar Sirkiwalan, Kaccha Pandit Main Bazar, Chawri Bazar, Old Delhi, New Delhi, Delhi, 110006, India", "phone": "+91 80 4896 1646", "rating": "4.4", "review_count": "", "website": "http://www.mmcfixings.com/", "latitude": 28.6492293, "longitude": 77.2257315, "maps_url": "https://www.google.com/maps/search/?api=1&query=Mittal%20Merchandisers%20Co.&query_place_id=ChIJM3Cts6YBDTkRURzktpFYX2A"}, {"place_id": "ChIJMduAwxX9DDkR7JELXl_79co", "name": "NEW INDIA MANUFACTURING COMPANY", "street": "G. B. Road, Behind Shardhanand Marg, Chowk Niarian 2851, Fasil Road, Shah Ganj, Chandni Chowk New Delhi New Delhi, Delhi, 110006, India", "phone": "+91 99991 01667", "rating": "4", "review_count": "", "website": "", "latitude": 28.6484396, "longitude": 77.2225158, "maps_url": "https://www.google.com/maps/search/?api=1&query=NEW%20INDIA%20MANUFACTURING%20COMPANY&query_place_id=ChIJMduAwxX9DDkR7JELXl_79co"}, {"place_id": "ChIJZ3b0Mvb9DDkRJOXV1KJbapo", "name": "Packnician Pvt Ltd", "street": "510, Kucha Pati Ram Rd, Bazar Sita Ram, Kucha Pati Ram, Chandni Chowk, Delhi, 110006, India", "phone": "", "rating": "5", "review_count": "", "website": "", "latitude": 28.6479161, "longitude": 77.2271373, "maps_url": "https://www.google.com/maps/search/?api=1&query=Packnician%20Pvt%20Ltd&query_place_id=ChIJZ3b0Mvb9DDkRJOXV1KJbapo"}, {"place_id": "ChIJr1H22eP9DDkR9qc-MF2LyQE", "name": "Donear and Oddessey Power Tools", "street": "542, Kucha Pati Ram Rd, Bazar Sita Ram, Kucha Pati Ram, Chandni Chowk, Delhi, 110006, India", "phone": "", "rating": "4.9", "review_count": "", "website": "", "latitude": 28.6475208, "longitude": 77.22694229999999, "maps_url": "https://www.google.com/maps/search/?api=1&query=Donear%20and%20Oddessey%20Power%20Tools&query_place_id=ChIJr1H22eP9DDkR9qc-MF2LyQE"}, {"place_id": "ChIJ_-6JUD39DDkRuYyIDbxwUW8", "name": "PRIYANKA S GUPTA & CO.", "street": "Lal Darwaza, 3170, 1st floor, Sitaram Bazar Rd, near metro station, Delhi, 110006, India", "phone": "", "rating": "5", "review_count": "", "website": "", "latitude": 28.6468338, "longitude": 77.22837, "maps_url": "https://www.google.com/maps/search/?api=1&query=PRIYANKA%20S%20GUPTA%20%26%20CO.&query_place_id=ChIJ_-6JUD39DDkRuYyIDbxwUW8"}, {"place_id": "ChIJk8GQlhf9DDkRmLI01UvUXDc", "name": "Vijay engineering corporation", "street": "4762, first floor,, Hauz Qazi, Behind Tanga Stand, Delhi, 110006, India", "phone": "+91 95993 82992", "rating": "5", "review_count": "", "website": "http://www.vechoses.com/", "latitude": 28.649147, "longitude": 77.226131, "maps_url": "https://www.google.com/maps/search/?api=1&query=Vijay%20engineering%20corporation&query_place_id=ChIJk8GQlhf9DDkRmLI01UvUXDc"}, {"place_id": "ChIJAQAAQN_8DDkRc75-dGe2Zek", "name": "Shiva Industries", "street": "No. 1, Shop No. 4646, opp. Chawri Bazar Road, inside Ajmeri Gate, New Delhi, Delhi 110006, India", "phone": "+91 93126 37176", "rating": "4", "review_count": "", "website": "https://shivaindustries.net/", "latitude": 28.6483153, "longitude": 77.2258744, "maps_url": "https://www.google.com/maps/search/?api=1&query=Shiva%20Industries&query_place_id=ChIJAQAAQN_8DDkRc75-dGe2Zek"}, {"place_id": "ChIJqYKwZaj7DDkRe8RkhLsBitA", "name": "Jobetto", "street": "10578/44, Street, 2, Shankar Gali, Motia Khan, Paharganj, New Delhi, Delhi 110006, India", "phone": "+91 91663 68516", "rating": "4.5", "review_count": "", "website": "https://jobetto.com/", "latitude": 28.646183699999998, "longitude": 77.2285832, "maps_url": "https://www.google.com/maps/search/?api=1&query=Jobetto&query_place_id=ChIJqYKwZaj7DDkRe8RkhLsBitA"}, {"place_id": "ChIJZUlYZ3f9DDkRMbKBGVVvAzc", "name": "Anmol Traders", "street": "Third Floor 5224, Nigam Market, Shradhanand Marg, Ajmeri Gate, Delhi, 110006, India", "phone": "+91 78383 60676", "rating": "4.9", "review_count": "", "website": "", "latitude": 28.646753399999998, "longitude": 77.223201, "maps_url": "https://www.google.com/maps/search/?api=1&query=Anmol%20Traders&query_place_id=ChIJZUlYZ3f9DDkRMbKBGVVvAzc"}, {"place_id": "ChIJj7lfm9j9DDkRbvyjBGrCXEY", "name": "RMH INFRA PROJECT PRIVATE LIMITED", "street": "Office 59, RaghuShree Market, Kucha Tiku Shah, Ajmeri Gate, Delhi, 110006, India", "phone": "", "rating": "4.9", "review_count": "", "website": "https://rmhprojects.com/", "latitude": 28.646280299999997, "longitude": 77.2246802, "maps_url": "https://www.google.com/maps/search/?api=1&query=RMH%20INFRA%20PROJECT%20PRIVATE%20LIMITED&query_place_id=ChIJj7lfm9j9DDkRbvyjBGrCXEY"}, {"place_id": "ChIJAQAAAG_9DDkRZF3n6QyNfno", "name": "Yatin Fasteners (India)", "street": "4641B, Bazar, Ajmeri Gate, Near Chawri Bazar Metro Station, Gate No. 1, New Delhi, Delhi 110006, India", "phone": "+91 99997 28879", "rating": "3.5", "review_count": "", "website": "https://yatinfastenersindia.com/", "latitude": 28.648099, "longitude": 77.225551, "maps_url": "https://www.google.com/maps/search/?api=1&query=Yatin%20Fasteners%20%28India%29&query_place_id=ChIJAQAAAG_9DDkRZF3n6QyNfno"}, {"place_id": "ChIJBaRhO1v9DDkRsMvAJ1l1TuM", "name": "Acoustic Event & Management Pvt Ltd", "street": "Madersa Meir, Jumla Street, 1718, Ajmere Gate Rd, Lal Kuan Bazar, Ajmeri Gate, New Delhi, Delhi, 110006, India", "phone": "+91 98916 44064", "rating": "4.8", "review_count": "", "website": "http://acousticpvtltd.com/", "latitude": 28.647353, "longitude": 77.225244, "maps_url": "https://www.google.com/maps/search/?api=1&query=Acoustic%20Event%20%26%20Management%20Pvt%20Ltd&query_place_id=ChIJBaRhO1v9DDkRsMvAJ1l1TuM"}, {"place_id": "ChIJ9Wc8rxf9DDkRUYzAJDbZF_4", "name": "SDR Associates", "street": "Hauz Qazi Chowk 3394, Pipal Mahadev Gali Top Floor, Delhi, 110006, India", "phone": "", "rating": "5", "review_count": "", "website": "", "latitude": 28.6493073, "longitude": 77.2265745, "maps_url": "https://www.google.com/maps/search/?api=1&query=SDR%20Associates&query_place_id=ChIJ9Wc8rxf9DDkRUYzAJDbZF_4"}, {"place_id": "ChIJOd0erhf9DDkRcro2uNUW_5U", "name": "Sohan Lal Gupta & Co", "street": "Showroom- 3660, 61, Chandni Chowk Rd, near Union Bank, Bazar Sirkiwalan, Chawri Bazar, Chandni Chowk, Delhi, 110006, India", "phone": "+91 98103 33361", "rating": "4.8", "review_count": "", "website": "https://www.slgc.in/", "latitude": 28.6494282, "longitude": 77.2275226, "maps_url": "https://www.google.com/maps/search/?api=1&query=Sohan%20Lal%20Gupta%20%26%20Co&query_place_id=ChIJOd0erhf9DDkRcro2uNUW_5U"}, {"place_id": "ChIJe2jN_j39DDkRTZNn_yJ2Ovk", "name": "Brij Mohan Aggarwal & Company", "street": "5266-67, Shradhanand Marg, Ajmeri Gate, New Delhi, Delhi, 110006, India", "phone": "+91 99999 98821", "rating": "4.1", "review_count": "", "website": "", "latitude": 28.6469301, "longitude": 77.22337519999999, "maps_url": "https://www.google.com/maps/search/?api=1&query=Brij%20Mohan%20Aggarwal%20%26%20Company&query_place_id=ChIJe2jN_j39DDkRTZNn_yJ2Ovk"}, {"place_id": "ChIJayLuUHH9DDkRidJcVwkiXcc", "name": "Tayal screw house-Wholesale Screws Shop", "street": "3400, Sitaram Bazar Rd, Bazar Sirkiwalan, Chawri Bazar, Chandni Chowk, Delhi, 110006, India", "phone": "+91 11 4578 5785", "rating": "4.9", "review_count": "", "website": "http://www.tayalscrewhouse.com/", "latitude": 28.6483328, "longitude": 77.2279952, "maps_url": "https://www.google.com/maps/search/?api=1&query=Tayal%20screw%20house-Wholesale%20Screws%20Shop&query_place_id=ChIJayLuUHH9DDkRidJcVwkiXcc"}, {"place_id": "ChIJRdF6JJP9DDkRkXiCWcDk0Yo", "name": "AS Safety Solutions", "street": "184, Gali, Bandook Wali Gali, Ajmeri Gate, Delhi, 110006, India", "phone": "+91 81307 67395", "rating": "5", "review_count": "", "website": "", "latitude": 28.647408499999997, "longitude": 77.2256063, "maps_url": "https://www.google.com/maps/search/?api=1&query=AS%20Safety%20Solutions&query_place_id=ChIJRdF6JJP9DDkRkXiCWcDk0Yo"}, {"place_id": "ChIJ____Gxj9DDkRMeG3kiKjafg", "name": "Safety Solutions", "street": "4787/133 Phatak Namaki, Sumi Market, Hauz Qazi, New Delhi, Delhi 110006, India", "phone": "+91 80 4860 2188", "rating": "4.5", "review_count": "", "website": "http://www.safetysolutions.info/", "latitude": 28.6492792, "longitude": 77.225949, "maps_url": "https://www.google.com/maps/search/?api=1&query=Safety%20Solutions&query_place_id=ChIJ____Gxj9DDkRMeG3kiKjafg"}, {"place_id": "ChIJAQAAAG_9DDkRPuP7Mp-LxA0", "name": "BHARAT RUBBER COMPANY", "street": "4096, Central, inside Ajmere Gate Road, Ajmeri Gate, New Delhi, Delhi, 110006, India", "phone": "+91 11 4150 9515", "rating": "4.3", "review_count": "", "website": "", "latitude": 28.6471467, "longitude": 77.22483439999999, "maps_url": "https://www.google.com/maps/search/?api=1&query=BHARAT%20RUBBER%20COMPANY&query_place_id=ChIJAQAAAG_9DDkRPuP7Mp-LxA0"}, {"place_id": "ChIJ____Gxj9DDkRaxKQt9v6eOk", "name": "PREMIER WIRE NETTINGS - WIRE MESH WELD MESH", "street": "Metro station, 4908, Second Floor, Hauz Qazi Chowk, near Chawri Bazar, Delhi 110006, India", "phone": "+91 98110 32586", "rating": "5", "review_count": "", "website": "", "latitude": 28.6494465, "longitude": 77.2261856, "maps_url": "https://www.google.com/maps/search/?api=1&query=PREMIER%20WIRE%20NETTINGS%20-%20WIRE%20MESH%20WELD%20MESH&query_place_id=ChIJ____Gxj9DDkRaxKQt9v6eOk"}, {"place_id": "ChIJhUT_aCD9DDkRG5spnAoaxeQ", "name": "Shubharambh Enterprises ( BOXWALA )", "street": "3512, Kucha Kash Gari, Bazar Sirkiwalan, Chawri Bazar, Old Delhi, New Delhi, Delhi, 110006, India", "phone": "+91 97163 72999", "rating": "4.2", "review_count": "", "website": "http://www.boxwala.in/", "latitude": 28.648722199999998, "longitude": 77.2279697, "maps_url": "https://www.google.com/maps/search/?api=1&query=Shubharambh%20Enterprises%20%28%20BOXWALA%20%29&query_place_id=ChIJhUT_aCD9DDkRG5spnAoaxeQ"}, {"place_id": "ChIJ____yBf9DDkRPdgS_4no630", "name": "Best Quality Fasteners", "street": "3632, Gali Piao Wali, opposite Metro, Bazar Sirkiwalan, Chawri Bazar, Chandni Chowk, New Delhi, Delhi, 110006, India", "phone": "+91 98103 30141", "rating": "3.7", "review_count": "", "website": "http://www.bqf.co.in/", "latitude": 28.648472899999998, "longitude": 77.2267002, "maps_url": "https://www.google.com/maps/search/?api=1&query=Best%20Quality%20Fasteners&query_place_id=ChIJ____yBf9DDkRPdgS_4no630"}, {"place_id": "ChIJC4ABfZH9DDkRSKSGoiFpOvw", "name": "Sawan International", "street": "Shop No.3446, Ground Floor, Bajrang, Bali Street, Bazar Sirkiwalan, Chawri Bazar, Chandni Chowk, Delhi, 110006, India", "phone": "+91 99991 51296", "rating": "4.8", "review_count": "", "website": "https://www.sawaninternational.com/", "latitude": 28.649226499999997, "longitude": 77.2284471, "maps_url": "https://www.google.com/maps/search/?api=1&query=Sawan%20International&query_place_id=ChIJC4ABfZH9DDkRSKSGoiFpOvw"}, {"place_id": "ChIJy7Uc8Rj8DDkRUR3K-KcIpHQ", "name": "Rattan Iron Works", "street": "4938, Phatak Namak St, Bazar Sirkiwalan, Kaccha Pandit Main Bazar, Hauz Qazi, Chandni Chowk, Delhi, 110006, India", "phone": "+91 99112 51063", "rating": "4.7", "review_count": "", "website": "https://www.rattanironworks.com/", "latitude": 28.6493821, "longitude": 77.225752, "maps_url": "https://www.google.com/maps/search/?api=1&query=Rattan%20Iron%20Works&query_place_id=ChIJy7Uc8Rj8DDkRUR3K-KcIpHQ"}, {"place_id": "ChIJecGQlhf9DDkR64r1ieR12-E", "name": "Milling Jobs", "street": "12-15, First Floor, Sabzi Market, Chowk, Hauz Qazi, New Delhi, Delhi 110006, India", "phone": "+91 88821 74799", "rating": "", "review_count": "", "website": "http://millingjobs.com/", "latitude": 28.649129, "longitude": 77.2278334, "maps_url": "https://www.google.com/maps/search/?api=1&query=Milling%20Jobs&query_place_id=ChIJecGQlhf9DDkR64r1ieR12-E"}, {"place_id": "ChIJVVWVxRf9DDkRfJ6O9MF2qE4", "name": "ROOT GERMANY", "street": "3596, Katra Bariyan, Bazar Sita Ram, Chawri Bazar, Chandni Chowk, Delhi, 110006, India", "phone": "+91 11 4970 7936", "rating": "3.2", "review_count": "", "website": "https://rootgermany.in/", "latitude": 28.648339, "longitude": 77.2270699, "maps_url": "https://www.google.com/maps/search/?api=1&query=ROOT%20GERMANY&query_place_id=ChIJVVWVxRf9DDkRfJ6O9MF2qE4"}, {"place_id": "ChIJJ9aZlxf9DDkRfnOkgAjlkL4", "name": "Industrial Engineering Syndicate", "street": "3489, Gail Bajrang Bali, near Union Bank, Bazar Sirkiwalan, Chawri Bazar, Chandni Chowk, Delhi, 110006, India", "phone": "+91 88829 94988", "rating": "4.7", "review_count": "", "website": "https://www.industrialengineeringsyndicate.com/", "latitude": 28.648799999999998, "longitude": 77.2263, "maps_url": "https://www.google.com/maps/search/?api=1&query=Industrial%20Engineering%20Syndicate&query_place_id=ChIJJ9aZlxf9DDkRfnOkgAjlkL4"}, {"place_id": "ChIJ-djjJBb9DDkRNFTbsVpozMc", "name": "Grow Enterprises", "street": "North, 4145, Gali Shahtara, Ajmeri Gate, New Delhi, Delhi 110006, India", "phone": "+91 79 4253 1890", "rating": "5", "review_count": "", "website": "http://growenterprises.co.in/", "latitude": 28.6476346, "longitude": 77.2252288, "maps_url": "https://www.google.com/maps/search/?api=1&query=Grow%20Enterprises&query_place_id=ChIJ-djjJBb9DDkRNFTbsVpozMc"}, {"place_id": "ChIJZ8-ScnD9DDkRZCd1QzzRP_0", "name": "Nitin Enterprises", "street": "2nd floor 225, no shop, namak Pahtak, Sai market, Hauz Qazi Chowk, Delhi, 110006, India", "phone": "", "rating": "5", "review_count": "", "website": "", "latitude": 28.6490589, "longitude": 77.226382, "maps_url": "https://www.google.com/maps/search/?api=1&query=Nitin%20Enterprises&query_place_id=ChIJZ8-ScnD9DDkRZCd1QzzRP_0"}, {"place_id": "ChIJlx5-7JT9DDkRhhF-CJlswh4", "name": "SHIVANSH ENTERPRISES", "street": "C-5, Street No.3, near HANSRAJ MARKET, Block T, GAMRI EXTENSION, SUDAMAPURI, Delhi, 110053, India", "phone": "+91 88265 49483", "rating": "5", "review_count": "", "website": "", "latitude": 28.6781546, "longitude": 77.264049, "maps_url": "https://www.google.com/maps/search/?api=1&query=SHIVANSH%20ENTERPRISES&query_place_id=ChIJlx5-7JT9DDkRhhF-CJlswh4"}, {"place_id": "ChIJM9r7u0r9DDkRiUvt7zjjpRM", "name": "IT Executive vivek", "street": "22, Vijay Ghat, Raj Ghat, New Delhi, Delhi, 110006, India", "phone": "", "rating": "", "review_count": "", "website": "https://itexecuitive.com/", "latitude": 28.6584512, "longitude": 77.2449233, "maps_url": "https://www.google.com/maps/search/?api=1&query=IT%20Executive%20vivek&query_place_id=ChIJM9r7u0r9DDkRiUvt7zjjpRM"}, {"place_id": "ChIJc_0tF6r9DDkRadPfA7j1z6c", "name": "Shivam Saroj", "street": "Shop No 24, Phatak Namak St, Bazar Sirkiwalan, Kaccha Pandit Main Bazar, Hauz Qazi, Chandni Chowk, New Delhi, Delhi, 110006, India", "phone": "+91 81155 66694", "rating": "", "review_count": "", "website": "", "latitude": 28.649113999999997, "longitude": 77.22581389999999, "maps_url": "https://www.google.com/maps/search/?api=1&query=Shivam%20Saroj&query_place_id=ChIJc_0tF6r9DDkRadPfA7j1z6c"}]