[{"place_id": "ChIJc-QFLnQSbQQRAu_8xjqxZFI", "name": "Info Tech India", "street": "KAILASH BUILDING, 1212, KG Marg, Barakhamba, New Delhi, Delhi 110001, India", "phone": "", "rating": "5", "review_count": "", "website": "https://infotechindia.in/", "latitude": 28.629473299999997, "longitude": 77.22220159999999, "maps_url": "https://www.google.com/maps/search/?api=1&query=Info%20Tech%20India&query_place_id=ChIJc-QFLnQSbQQRAu_8xjqxZFI"}, {"place_id": "ChIJExoZbgP9DDkRd2Q8vmEWFgc", "name": "Posistrength Software Solution Pvt.Ltd.", "street": "Workingdom,E-13/29, First Floor, Harsha Bhawan, Inner Circle, Block E, Connaught Place, New Delhi, Delhi 110001, India", "phone": "+91 89832 05821", "rating": "4.9", "review_count": "", "website": "https://www.posistrength.com/", "latitude": 28.6326204, "longitude": 77.22187869999999, "maps_url": "https://www.google.com/maps/search/?api=1&query=Posistrength%20Software%20Solution%20Pvt.Ltd.&query_place_id=ChIJExoZbgP9DDkRd2Q8vmEWFgc"}, {"place_id": "ChIJUTjmTlX9DDkRFs7kNi7bKuo", "name": "Globe Alley Tech. - Software Development Company", "street": "J6JG+6RW, 119, Fire Brigade Lane, Connaught Place, New Delhi, Delhi 110001, India", "phone": "+91 99107 10140", "rating": "4.9", "review_count": "", "website": "http://globealley.us/", "latitude": 28.6306084, "longitude": 77.22708829999999, "maps_url": "https://www.google.com/maps/search/?api=1&query=Globe%20Alley%20Tech.%20-%20Software%20Development%20Company&query_place_id=ChIJUTjmTlX9DDkRFs7kNi7bKuo"}, {"place_id": "ChIJC3MN3zb9DDkR-JxtEG9cQg0", "name": "I. T. Solutions", "street": "Gate No. 8, A-6, 1st Floor, Inner Circle, Above Post office, near ICICI Bank, Bon Ton and Metro, Connaught Place, New Delhi, Delhi 110001, India", "phone": "+91 11 4152 3242", "rating": "4.9", "review_count": "", "website": "http://www.itsolutioncp.com/", "latitude": 28.6324367, "longitude": 77.2183441, "maps_url": "https://www.google.com/maps/search/?api=1&query=I.%20T.%20Solutions&query_place_id=ChIJC3MN3zb9DDkR-JxtEG9cQg0"}, {"place_id": "ChIJl4FEUC79DDkRcO6JhMtCTyw", "name": "Accelon Technologies Pvt Ltd. SAP Business One Gold Partner, New Delhi", "street": "L-29, 1st Floor, Awfis Business Center, Connaught Cir, Connaught Place, New Delhi, Delhi 110001, India", "phone": "+91 90210 68822", "rating": "5", "review_count": "", "website": "https://accelontech.com/", "latitude": 28.6341117, "longitude": 77.2220997, "maps_url": "https://www.google.com/maps/search/?api=1&query=Accelon%20Technologies%20Pvt%20Ltd.%20SAP%20Business%20One%20Gold%20Partner%2C%20New%20Delhi&query_place_id=ChIJl4FEUC79DDkRcO6JhMtCTyw"}, {"place_id": "ChIJSclvODL9DDkRYyaAVInQcz0", "name": "Alliancef Cyber & Web Technologies Pvt. Ltd.", "street": "Vijaya Building, 811, 8th Floor, Barakhamba Rd, New Delhi, Delhi 110001, India", "phone": "+91 93502 54293", "rating": "5", "review_count": "", "website": "https://www.alliancef.com/", "latitude": 28.628895699999998, "longitude": 77.2252187, "maps_url": "https://www.google.com/maps/search/?api=1&query=Alliancef%20Cyber%20%26%20Web%20Technologies%20Pvt.%20Ltd.&query_place_id=ChIJSclvODL9DDkRYyaAVInQcz0"}, {"place_id": "ChIJY05MZjb9DDkRTiB7cFBD48w", "name": "DataSlexIndia | On-Demand Software Development Company", "street": "210,211,212 BMC House, N1, Middle Cir, Connaught Place, New Delhi, Delhi 110001, India", "phone": "+91 11 2484 5172", "rating": "5", "review_count": "", "website": "https://dataslexindia.com/", "latitude": 28.630570499999997, "longitude": 77.2198088, "maps_url": "https://www.google.com/maps/search/?api=1&query=DataSlexIndia%20%7C%20On-Demand%20Software%20Development%20Company&query_place_id=ChIJY05MZjb9DDkRTiB7cFBD48w"}, {"place_id": "ChIJz4951S79DDkRLTGt3BzxZbA", "name": "NTS Computers Private Limited", "street": "3 DSIDC Complex Mata Sundari Road, Beside, Ranjeet Singh Flyover, New Delhi, Delhi 110002, India", "phone": "+91 98111 13199", "rating": "4.2", "review_count": "", "website": "http://www.nts-india.com/", "latitude": 28.633590899999998, "longitude": 77.2345907, "maps_url": "https://www.google.com/maps/search/?api=1&query=NTS%20Computers%20Private%20Limited&query_place_id=ChIJz4951S79DDkRLTGt3BzxZbA"}, {"place_id": "ChIJITEUwdbiDDkRJOYUu7ijEEA", "name": "Atlanta Systems Private Limited", "street": "M-135, 2nd Floor, Connaught Place, New Delhi, Delhi 110001, India", "phone": "+91 80 4802 4386", "rating": "4.1", "review_count": "", "website": "", "latitude": 28.6335099, "longitude": 77.2225933, "maps_url": "https://www.google.com/maps/search/?api=1&query=Atlanta%20Systems%20Private%20Limited&query_place_id=ChIJITEUwdbiDDkRJOYUu7ijEEA"}, {"place_id": "ChIJAQAQaDH9DDkR-lZqDqQpSgY", "name": "INSPIRA ENTERPRISE INDIA LTD.", "street": "24, Barakhamba Rd, Fire Brigade Lane, Barakhamba, New Delhi, Delhi 110001, India", "phone": "+91 11 4310 2841", "rating": "4.5", "review_count": "", "website": "https://inspiraenterprise.com/", "latitude": 28.6308105, "longitude": 77.22426659999999, "maps_url": "https://www.google.com/maps/search/?api=1&query=INSPIRA%20ENTERPRISE%20INDIA%20LTD.&query_place_id=ChIJAQAQaDH9DDkR-lZqDqQpSgY"}, {"place_id": "ChIJLXrkS8z9DDkRIXIDU_ojar0", "name": "Web Players Technology- Website Designing Company in Central Delhi - Landing Page Designing Company in Delhi", "street": "CP N-12 UPPER GROUND FLOOR MUNSI LAL BUILDING, Connaught Cir, OPPOSITE KFC, Connaught Place, New Delhi, Delhi 110001, India", "phone": "+91 97172 92583", "rating": "5", "review_count": "", "website": "https://www.web-players.co.in/", "latitude": 28.6315566, "longitude": 77.22262119999999, "maps_url": "https://www.google.com/maps/search/?api=1&query=Web%20Players%20Technology-%20Website%20Designing%20Company%20in%20Central%20Delhi%20-%20Landing%20Page%20Designing%20Company%20in%20Delhi&query_place_id=ChIJLXrkS8z9DDkRIXIDU_ojar0"}, {"place_id": "ChIJjeJIYfv9DDkRW6JxZ0ugd-A", "name": "Alliancef Global | Mobile App Development | eCommerce Website Design and Development company in Delhi, India", "street": "8th Floor, Vijaya Building, 811, Barakhamba Rd, Todermal Road Area, Mandi House, New Delhi, Delhi 110001, India", "phone": "+91 95821 99196", "rating": "5", "review_count": "", "website": "https://alliancef.global/", "latitude": 28.628632099999997, "longitude": 77.2269889, "maps_url": "https://www.google.com/maps/search/?api=1&query=Alliancef%20Global%20%7C%20Mobile%20App%20Development%20%7C%20eCommerce%20Website%20Design%20and%20Development%20company%20in%20Delhi%2C%20India&query_place_id=ChIJjeJIYfv9DDkRW6JxZ0ugd-A"}, {"place_id": "ChIJO4sr49IDDTkRALZaeWsr-oI", "name": "Iraitech | Software Development Company", "street": "Central Square Complex 3, Unit No-1051, 1st Floor, Near Filmistan, DCM chowk, Bara Hindu Rao, Kishan Ganj, Delhi, 110006, India", "phone": "+91 81301 04108", "rating": "4.1", "review_count": "", "website": "https://www.iraitech.com/", "latitude": 28.6631951, "longitude": 77.20308639999999, "maps_url": "https://www.google.com/maps/search/?api=1&query=Iraitech%20%7C%20Software%20Development%20Company&query_place_id=ChIJO4sr49IDDTkRALZaeWsr-oI"}, {"place_id": "ChIJAcBttzb9DDkRCoEeuTPCXmg", "name": "Telepie Technology", "street": "5TH FLOOR, Wing-A, Statesman House, Barakhamba Rd, Barakhamba, New Delhi, Delhi 110001, India", "phone": "+91 83686 15329", "rating": "5", "review_count": "", "website": "http://telepie.com/", "latitude": 28.630822199999997, "longitude": 77.2226395, "maps_url": "https://www.google.com/maps/search/?api=1&query=Telepie%20Technology&query_place_id=ChIJAcBttzb9DDkRCoEeuTPCXmg"}, {"place_id": "ChIJgfcVzCj9DDkRsMtdI1ON4mI", "name": "Sentieo India Private Limited", "street": "1st and 2nd floor, Aiwan-E-Ghalib Marg, Ghalib Institute, Mata Sundari Ln, near New Delhi, Mata Sundri Women's College, Mandi House, Delhi, 110002, India", "phone": "", "rating": "4.4", "review_count": "", "website": "http://sentieo.com/", "latitude": 28.634365799999998, "longitude": 77.2350191, "maps_url": "https://www.google.com/maps/search/?api=1&query=Sentieo%20India%20Private%20Limited&query_place_id=ChIJgfcVzCj9DDkRsMtdI1ON4mI"}, {"place_id": "ChIJ3abLd_7hDDkRLr3QuYjVwWM", "name": "Marquee-Equity", "street": "5th floor, Wing-A, Statesman House, MR-1, Barakhamba Rd, Barakhamba, New Delhi, Delhi 110001, India", "phone": "", "rating": "4.6", "review_count": "", "website": "https://www.marquee-equity.com/", "latitude": 28.6305777, "longitude": 77.22265949999999, "maps_url": "https://www.google.com/maps/search/?api=1&query=Marquee-Equity&query_place_id=ChIJ3abLd_7hDDkRLr3QuYjVwWM"}, {"place_id": "ChIJ7aqqWqz8DDkRgAFAey6rIAo", "name": "𝑨𝑶 𝑺𝒐𝒇𝒕𝒘𝒂𝒓𝒆 𝑺𝒐𝒍𝒖𝒕𝒊𝒐𝒏 Website Designing company-website development company-product promotion and ERP development company", "street": "1B, S-505, School Block, Laxmi Nagar, II, Shakarpur, New Delhi, Delhi, 110092, India", "phone": "+91 11 4260 3444", "rating": "4.8", "review_count": "", "website": "https://aosoftwaresolution.com/", "latitude": 28.6287195, "longitude": 77.2766171, "maps_url": "https://www.google.com/maps/search/?api=1&query=%F0%9D%91%A8%F0%9D%91%B6%20%F0%9D%91%BA%F0%9D%92%90%F0%9D%92%87%F0%9D%92%95%F0%9D%92%98%F0%9D%92%82%F0%9D%92%93%F0%9D%92%86%20%F0%9D%91%BA%F0%9D%92%90%F0%9D%92%8D%F0%9D%92%96%F0%9D%92%95%F0%9D%92%8A%F0%9D%92%90%F0%9D%92%8F%20Website%20Designing%20company-website%20development%20company-product%20promotion%20and%20ERP%20development%20company&query_place_id=ChIJ7aqqWqz8DDkRgAFAey6rIAo"}, {"place_id": "ChIJzcPkaQT9DDkRx3UEJCk8euw", "name": "ZYIBA IT SOLUTION PRIVATE LIMITED", "street": "Room No. 112, Kundan Mansion, Asaf Ali Rd, Turkman Gate, Chandni Chowk, New Delhi, Delhi, 110002, India", "phone": "+91 97983 43767", "rating": "5", "review_count": "", "website": "https://zyiba.com/", "latitude": 28.6420234, "longitude": 77.2331059, "maps_url": "https://www.google.com/maps/search/?api=1&query=ZYIBA%20IT%20SOLUTION%20PRIVATE%20LIMITED&query_place_id=ChIJzcPkaQT9DDkRx3UEJCk8euw"}, {"place_id": "ChIJeRY9stf9DDkRYAKRJFhxaHY", "name": "Tally Experts", "street": "Statesman House, 4th, Barakhamba Rd, Connaught Lane, Barakhamba, New Delhi, Delhi 110001, India", "phone": "+91 92110 44269", "rating": "4.8", "review_count": "", "website": "https://tallyexperts.co.in/", "latitude": 28.6308044, "longitude": 77.22262529999999, "maps_url": "https://www.google.com/maps/search/?api=1&query=Tally%20Experts&query_place_id=ChIJeRY9stf9DDkRYAKRJFhxaHY"}, {"place_id": "ChIJD6Pc3N_8DDkRB8f9Javm7n0", "name": "I Plexus Technologies", "street": "4806, Ansari Rd, Daryaganj, Delhi, 110002, India", "phone": "+91 93116 05067", "rating": "5", "review_count": "", "website": "https://www.iplexus.in/contact-us/", "latitude": 28.6469468, "longitude": 77.2432682, "maps_url": "https://www.google.com/maps/search/?api=1&query=I%20Plexus%20Technologies&query_place_id=ChIJD6Pc3N_8DDkRB8f9Javm7n0"}, {"place_id": "ChIJD9I9f4sbSyIRXgZAJYlV23U", "name": "Click4Kart Tech Private Limited – IT Services & Software Solutions", "street": "Ambedkar Park, 28/2-e/25 F/f L/s, Jawala Nagar, Shahdara, Delhi, 110032, India", "phone": "+91 84472 22999", "rating": "5", "review_count": "", "website": "https://www.click4kart.com/", "latitude": 28.6697302, "longitude": 77.29738669999999, "maps_url": "https://www.google.com/maps/search/?api=1&query=Click4Kart%20Tech%20Private%20Limited%20%E2%80%93%20IT%20Services%20%26%20Software%20Solutions&query_place_id=ChIJD9I9f4sbSyIRXgZAJYlV23U"}, {"place_id": "ChIJ4YcGHzb9DDkR7wUt-LcNrY8", "name": "Wow Digital Pvt. Ltd.", "street": "L 29 First Floor, Connaught Place, New Delhi, Delhi 110001, India", "phone": "+91 97112 21588", "rating": "4.3", "review_count": "", "website": "http://datswoww.com/", "latitude": 28.634127799999998, "longitude": 77.2223181, "maps_url": "https://www.google.com/maps/search/?api=1&query=Wow%20Digital%20Pvt.%20Ltd.&query_place_id=ChIJ4YcGHzb9DDkR7wUt-LcNrY8"}, {"place_id": "ChIJt6MkQB_9DDkR2R74KHwN6Vc", "name": "Startupvisors", "street": "5th Floor, Wing-A, Statesman House, Startupvisors, AltF Statesman House, Barakhamba Rd, Connaught Place, New Delhi, Delhi 110001, India", "phone": "+91 82858 44875", "rating": "4.9", "review_count": "", "website": "http://www.startupvisors.com/", "latitude": 28.630803999999998, "longitude": 77.222625, "maps_url": "https://www.google.com/maps/search/?api=1&query=Startupvisors&query_place_id=ChIJt6MkQB_9DDkR2R74KHwN6Vc"}, {"place_id": "ChIJyTdmVAD9DDkRR0Uqq0_jv88", "name": "dev", "street": "J6MC+GRR, Shankar Market, Block L, Connaught Place, New Delhi, Delhi 110001, India", "phone": "+98 919 279 9285", "rating": "4.3", "review_count": "", "website": "", "latitude": 28.633869999999998, "longitude": 77.2220109, "maps_url": "https://www.google.com/maps/search/?api=1&query=dev&query_place_id=ChIJyTdmVAD9DDkRR0Uqq0_jv88"}, {"place_id": "ChIJiRFJ8an8DDkRHe9kVYtmhoc", "name": "Ridhi IT Solutions Pvt Ltd", "street": "D-7, Vikas Ln, Veer Savarkar Block, Narayan Nagar, Laxmi Nagar, New Delhi, Delhi, 110092, India", "phone": "", "rating": "5", "review_count": "", "website": "", "latitude": 28.636050599999997, "longitude": 77.2854247, "maps_url": "https://www.google.com/maps/search/?api=1&query=Ridhi%20IT%20Solutions%20Pvt%20Ltd&query_place_id=ChIJiRFJ8an8DDkRHe9kVYtmhoc"}, {"place_id": "ChIJ8aNp-ib9DDkRj1J-BH2NWv8", "name": "Movers international pvt. ltd", "street": "World Trade Center, 108 (UGF) Upper Ground Floor, Babar Rd, Connaught Place, New Delhi, Delhi 110001, India", "phone": "+91 11 4341 2244", "rating": "3.7", "review_count": "", "website": "http://www.moversintl.com/", "latitude": 28.6314612, "longitude": 77.2268685, "maps_url": "https://www.google.com/maps/search/?api=1&query=Movers%20international%20pvt.%20ltd&query_place_id=ChIJ8aNp-ib9DDkRj1J-BH2NWv8"}, {"place_id": "ChIJq6VoZqf9DDkRaSoH1WyYcMk", "name": "GV InfoTech", "street": "Block-2, Shankar Market, Connaught Lane, Connaught Place, New Delhi, Delhi 110001, India", "phone": "+91 97738 70841", "rating": "", "review_count": "", "website": "https://gvinfotech.org/", "latitude": 28.6335701, "longitude": 77.2229116, "maps_url": "https://www.google.com/maps/search/?api=1&query=GV%20InfoTech&query_place_id=ChIJq6VoZqf9DDkRaSoH1WyYcMk"}, {"place_id": "ChIJ_f8Teqv8DDkRSx6LrShlc84", "name": "Meta It Services Pvt. Ltd", "street": "102, 1st Floor, S-558, Dwarka Bhawan, School Block, Near By Anil Property, Shakarpur, Block A, Shakarpur, New Delhi, Delhi 110092, India", "phone": "+91 83779 08024", "rating": "4.4", "review_count": "", "website": "http://www.metaitservices.com/", "latitude": 28.628546399999998, "longitude": 77.277821, "maps_url": "https://www.google.com/maps/search/?api=1&query=Meta%20It%20Services%20Pvt.%20Ltd&query_place_id=ChIJ_f8Teqv8DDkRSx6LrShlc84"}, {"place_id": "ChIJ73IgCGz9DDkR7gjo65Wz_gM", "name": "Vxtry Industry", "street": "A96, Maharaja Ranjeet Singh Marg, near Pehalwan Dairy, Rouse Avenue, Press Enclave, Barakhamba, New Delhi, Delhi, 110002, India", "phone": "+91 99113 15199", "rating": "5", "review_count": "", "website": "https://vxtry.com/", "latitude": 28.635824699999997, "longitude": 77.23113529999999, "maps_url": "https://www.google.com/maps/search/?api=1&query=Vxtry%20Industry&query_place_id=ChIJ73IgCGz9DDkR7gjo65Wz_gM"}, {"place_id": "ChIJQQ8lEn79DDkRhusdZ7TnTkU", "name": "Techbook Technologies", "street": "Fifth Floor, Wing-A, 148, AltF-Statesman House, Barakhamba Rd, Connaught Place, New Delhi, Delhi 110001, India", "phone": "+91 98110 66025", "rating": "5", "review_count": "", "website": "https://techbook.co.in/", "latitude": 28.630822199999997, "longitude": 77.2226395, "maps_url": "https://www.google.com/maps/search/?api=1&query=Techbook%20Technologies&query_place_id=ChIJQQ8lEn79DDkRhusdZ7TnTkU"}, {"place_id": "ChIJnXsP_jD9DDkR3jAZQSbRVT4", "name": "Jindal Group of Companies", "street": "110, Babar Rd, Fire Brigade Lane, Barakhamba, New Delhi, Delhi 110001, India", "phone": "+91 11 2613 9256", "rating": "3.4", "review_count": "", "website": "http://www.jindalgroup.com/", "latitude": 28.632469, "longitude": 77.227425, "maps_url": "https://www.google.com/maps/search/?api=1&query=Jindal%20Group%20of%20Companies&query_place_id=ChIJnXsP_jD9DDkR3jAZQSbRVT4"}, {"place_id": "ChIJ7wPsuzH9DDkRNVFcCPL-2pw", "name": "Convas Verity Services Private Limited", "street": "82 Ground Floor, Barakhamba Ln, Fire Brigade Lane, Connaught Place, New Delhi, Delhi 110001, India", "phone": "", "rating": "3.5", "review_count": "", "website": "http://www.convasverity.com/", "latitude": 28.6306084, "longitude": 77.22708829999999, "maps_url": "https://www.google.com/maps/search/?api=1&query=Convas%20Verity%20Services%20Private%20Limited&query_place_id=ChIJ7wPsuzH9DDkRNVFcCPL-2pw"}, {"place_id": "ChIJL1vpiaj9DDkRMpwTnnGfQNk", "name": "Cellbless Healthcare Private Limited", "street": "Yogeshwar Building, 301, Block M, Connaught Place, New Delhi, Delhi 110001, India", "phone": "", "rating": "4.8", "review_count": "", "website": "http://www.cellbless.com/", "latitude": 28.63328, "longitude": 77.2221836, "maps_url": "https://www.google.com/maps/search/?api=1&query=Cellbless%20Healthcare%20Private%20Limited&query_place_id=ChIJL1vpiaj9DDkRMpwTnnGfQNk"}, {"place_id": "ChIJl5geAqLjDDkRGQx9atNSvyg", "name": "It Softtech - Website Designing and Development Company in Delhi, India", "street": "149, Ring Rd, opp. Maharani Bagh, Kilokri, Phase 1, Hari Nagar Ashram, New Delhi, Delhi 110014, India", "phone": "+91 98100 56177", "rating": "5", "review_count": "", "website": "", "latitude": 28.5763395, "longitude": 77.2640869, "maps_url": "https://www.google.com/maps/search/?api=1&query=It%20Softtech%20-%20Website%20Designing%20and%20Development%20Company%20in%20Delhi%2C%20India&query_place_id=ChIJl5geAqLjDDkRGQx9atNSvyg"}, {"place_id": "ChIJ_yRJNyz9DDkR1h_iwpxiHZw", "name": "Asf Infrastructure Private Limited", "street": "11, Babar Ln, Bengali Market, Todermal Road Area, Mandi House, New Delhi, Delhi 110001, India", "phone": "+91 11 2335 5511", "rating": "4.3", "review_count": "", "website": "http://www.asfinfrastructure.com/", "latitude": 28.6307674, "longitude": 77.22931679999999, "maps_url": "https://www.google.com/maps/search/?api=1&query=Asf%20Infrastructure%20Private%20Limited&query_place_id=ChIJ_yRJNyz9DDkR1h_iwpxiHZw"}, {"place_id": "ChIJwQuVsDb9DDkRboW31hMj5nA", "name": "Avanta Business Centre", "street": "Statesman House, 402, Barakhamba Rd, Barakhamba, New Delhi, Delhi 110001, India", "phone": "+91 11 3044 6402", "rating": "4.8", "review_count": "", "website": "https://www.avanta.co.in/business-centre/connaught-place-delhi?utm_source=GMB-CP&utm_medium=gmb&utm_id=cpstatesman", "latitude": 28.630816099999997, "longitude": 77.2226072, "maps_url": "https://www.google.com/maps/search/?api=1&query=Avanta%20Business%20Centre&query_place_id=ChIJwQuVsDb9DDkRboW31hMj5nA"}, {"place_id": "ChIJ4aJK1FLjDDkRN3QrMA6Yru8", "name": "SAT SOFTWARE SOLUTIONS", "street": "S-553-554, School Block,Gautam Complex, Near Laxmi Nagar Metro Station, Shakarpur, mother dairy road, New Delhi, Delhi 110092, India", "phone": "", "rating": "4.8", "review_count": "", "website": "https://ssstp.com/", "latitude": 28.628342, "longitude": 77.2777558, "maps_url": "https://www.google.com/maps/search/?api=1&query=SAT%20SOFTWARE%20SOLUTIONS&query_place_id=ChIJ4aJK1FLjDDkRN3QrMA6Yru8"}, {"place_id": "ChIJo-qlLJD9DDkR-sCI6wJHDg4", "name": "Innovative Brothers", "street": "Nirmal Tower, 601, Barakhamba Rd, Delhi 110001, India", "phone": "+91 93541 54223", "rating": "5", "review_count": "", "website": "", "latitude": 28.6311479, "longitude": 77.22397959999999, "maps_url": "https://www.google.com/maps/search/?api=1&query=Innovative%20Brothers&query_place_id=ChIJo-qlLJD9DDkR-sCI6wJHDg4"}, {"place_id": "ChIJGe3Rkcj9DDkRxJgIY58DEx8", "name": "ConnectHQ", "street": "M 130-131, Connaught Cir, Shankar Market, Block M, Connaught Place, New Delhi, Delhi, 110001, India", "phone": "", "rating": "4.9", "review_count": "", "website": "https://connecthq.co.in/office-space-cp.html", "latitude": 28.633471999999998, "longitude": 77.222512, "maps_url": "https://www.google.com/maps/search/?api=1&query=ConnectHQ&query_place_id=ChIJGe3Rkcj9DDkRxJgIY58DEx8"}, {"place_id": "ChIJVVVVVTb9DDkRtYcJITk-6Uo", "name": "Nestle India", "street": "100/101, World Trade Centre, Barakhamba Ln, New Delhi, Delhi 110001, India", "phone": "+91 82748 59647", "rating": "4.3", "review_count": "", "website": "https://www.nestle.in/", "latitude": 28.633696099999998, "longitude": 77.2261568, "maps_url": "https://www.google.com/maps/search/?api=1&query=Nestle%20India&query_place_id=ChIJVVVVVTb9DDkRtYcJITk-6Uo"}, {"place_id": "ChIJa710uZIFDTkRv-aFnYJLvUo", "name": "ARM IT Services", "street": "", "phone": "+91 99717 27755", "rating": "5", "review_count": "", "website": "https://itwebsoluation.yolasite.com/contact-us.php", "latitude": 28.5273522, "longitude": 77.19232219999999, "maps_url": "https://www.google.com/maps/search/?api=1&query=ARM%20IT%20Services&query_place_id=ChIJa710uZIFDTkRv-aFnYJLvUo"}, {"place_id": "ChIJodGVNDb7DDkRYmOHRl4AKAk", "name": "DASNAC Holdings", "street": "Dasnac Annexe I, ECE House, 28A, KG Marg, Connaught Place, New Delhi, Delhi 110001, India", "phone": "+91 99113 37711", "rating": "4.6", "review_count": "", "website": "http://www.dasnac.com/", "latitude": 28.630551999999998, "longitude": 77.22183009999999, "maps_url": "https://www.google.com/maps/search/?api=1&query=DASNAC%20Holdings&query_place_id=ChIJodGVNDb7DDkRYmOHRl4AKAk"}, {"place_id": "ChIJy1NfozH9DDkR-aNihjlhZ4Q", "name": "Indian Oil Corporation Limited", "street": "Delhi State Office, IOCL, World Trade Centre, 2nd Floor, Babar Road, Delhi, 110001, India", "phone": "+91 11 4636 3304", "rating": "4.6", "review_count": "", "website": "https://iocl.com/", "latitude": 28.631556999999997, "longitude": 77.227222, "maps_url": "https://www.google.com/maps/search/?api=1&query=Indian%20Oil%20Corporation%20Limited&query_place_id=ChIJy1NfozH9DDkR-aNihjlhZ4Q"}, {"place_id": "ChIJAwKEiC_9DDkRPIgO1Mg6mX0", "name": "Tridev Express Logistics", "street": "279A, DDA Flats, Chandni Chowk, Near Ranjeet Singh Marg, Mata Sundari Ln, Press Enclave, Barakhamba, New Delhi, Delhi 110002, India", "phone": "+91 11 2394 2113", "rating": "3.5", "review_count": "", "website": "http://www.tridevexpress.com/index_9.aspx", "latitude": 28.635924199999998, "longitude": 77.23128779999999, "maps_url": "https://www.google.com/maps/search/?api=1&query=Tridev%20Express%20Logistics&query_place_id=ChIJAwKEiC_9DDkRPIgO1Mg6mX0"}, {"place_id": "ChIJe5dmyDH9DDkR7W6C8fIzdNo", "name": "Capital Wealth Management", "street": "Connaught Royal LGF, 106, Babar Rd, opp. World Trande Centre, Connaught Place, New Delhi, Delhi 110001, India", "phone": "+91 98101 37284", "rating": "4.8", "review_count": "", "website": "http://capitalwealth.in/", "latitude": 28.632308, "longitude": 77.227733, "maps_url": "https://www.google.com/maps/search/?api=1&query=Capital%20Wealth%20Management&query_place_id=ChIJe5dmyDH9DDkR7W6C8fIzdNo"}, {"place_id": "ChIJVVXFITf9DDkRiUoDCIGR2eE", "name": "Sharks Fund", "street": "Harsha Bhawan, E-13/29, 1st floor, Connaught Place, New Delhi, Delhi 110001, India", "phone": "", "rating": "4.8", "review_count": "", "website": "http://thesharksfund.com/", "latitude": 28.6326204, "longitude": 77.22187869999999, "maps_url": "https://www.google.com/maps/search/?api=1&query=Sharks%20Fund&query_place_id=ChIJVVXFITf9DDkRiUoDCIGR2eE"}, {"place_id": "ChIJVVVVGFPjDDkRYsyaO7bVh5I", "name": "Moultion Delhi", "street": "Pillar Number 34, Metro near Sai Mandir, H-29, Office No, 101, Laxmi Nagar, Delhi, 110002, India", "phone": "+91 82852 35670", "rating": "5", "review_count": "", "website": "", "latitude": 28.6339518, "longitude": 77.2299984, "maps_url": "https://www.google.com/maps/search/?api=1&query=Moultion%20Delhi&query_place_id=ChIJVVVVGFPjDDkRYsyaO7bVh5I"}, {"place_id": "ChIJnSbzGu4CDTkRCo3A6t8j-QY", "name": "Aurionpro", "street": "B-7, Suraj Parkash Marg, Block B, West Patel Nagar, Patel Nagar, New Delhi, Delhi 110001, India", "phone": "", "rating": "4.2", "review_count": "", "website": "https://www.aurionpro.com/", "latitude": 28.6318587, "longitude": 77.2268302, "maps_url": "https://www.google.com/maps/search/?api=1&query=Aurionpro&query_place_id=ChIJnSbzGu4CDTkRCo3A6t8j-QY"}, {"place_id": "ChIJmTi5SDH9DDkRjtxPqn2GIWc", "name": "Best Consultants in India - Delhi Best HR Consultants", "street": "26, Barakhamba Rd, Fire Brigade Lane, Connaught Place, New Delhi, Delhi 110001, India", "phone": "+91 96259 94855", "rating": "4.2", "review_count": "", "website": "https://www.oasis-india.com/", "latitude": 28.6308622, "longitude": 77.2239164, "maps_url": "https://www.google.com/maps/search/?api=1&query=Best%20Consultants%20in%20India%20-%20Delhi%20Best%20HR%20Consultants&query_place_id=ChIJmTi5SDH9DDkRjtxPqn2GIWc"}, {"place_id": "ChIJMetyODf9DDkRqBJhnLgYKq4", "name": "Citizen India", "street": "Shop Number- M-54 , Opposite Nirula Hotel , Outer Circle, Rd Number 6, Connaught Circus, Block M, Connaught Place, New Delhi, Delhi 110001, India", "phone": "+91 11 4151 7771", "rating": "3.8", "review_count": "", "website": "https://www.citizenwatches.co.in/", "latitude": 28.633830999999997, "longitude": 77.222391, "maps_url": "https://www.google.com/maps/search/?api=1&query=Citizen%20India&query_place_id=ChIJMetyODf9DDkRqBJhnLgYKq4"}, {"place_id": "ChIJqzFCKWsdDTkReD0USPPoxqU", "name": "BDG Lifesciences", "street": "First Floor, Block-L, L29 - L34, Connaught Cir, Block L, Connaught Place, New Delhi, Delhi 110001, India", "phone": "+91 97601 48880", "rating": "4.5", "review_count": "", "website": "https://bdglifesciences.com/", "latitude": 28.6342903, "longitude": 77.2218413, "maps_url": "https://www.google.com/maps/search/?api=1&query=BDG%20Lifesciences&query_place_id=ChIJqzFCKWsdDTkReD0USPPoxqU"}, {"place_id": "ChIJ307pADz9DDkRi2L0mJdkmFs", "name": "Award-Winning FIDA Detective Agency in Delhi | Private Detective In Delhi ,India", "street": "Fire Brigade Ln, Fire Brigade Lane, Connaught Place, New Delhi, Delhi 110001, India", "phone": "+91 98101 86410", "rating": "4.8", "review_count": "", "website": "https://www.firstindiandetectiveagency.com/", "latitude": 28.6306084, "longitude": 77.22708829999999, "maps_url": "https://www.google.com/maps/search/?api=1&query=Award-Winning%20FIDA%20Detective%20Agency%20in%20Delhi%20%7C%20Private%20Detective%20In%20Delhi%20%2CIndia&query_place_id=ChIJ307pADz9DDkRi2L0mJdkmFs"}, {"place_id": "ChIJg8Ngx3cDDTkRHHev96K8vd4", "name": "Sumitech India", "street": "D9, LALITA BLOCK, Shastri Nagar, New Delhi, Delhi 110001, India", "phone": "+91 82877 73617", "rating": "5", "review_count": "", "website": "https://sumitechengineers.com/", "latitude": 28.6304663, "longitude": 77.22284119999999, "maps_url": "https://www.google.com/maps/search/?api=1&query=Sumitech%20India&query_place_id=ChIJg8Ngx3cDDTkRHHev96K8vd4"}, {"place_id": "ChIJ86Qs8uUCDTkRxsMT_v1oAUM", "name": "IRCTC Buddhist Circuit Tourist Train", "street": "Punj House, M-13, Connaught Place, New Delhi, Delhi 110001, India", "phone": "+91 82879 30157", "rating": "4.2", "review_count": "", "website": "http://www.irctcbuddhisttrain.com/", "latitude": 28.631750099999998, "longitude": 77.22214819999999, "maps_url": "https://www.google.com/maps/search/?api=1&query=IRCTC%20Buddhist%20Circuit%20Tourist%20Train&query_place_id=ChIJ86Qs8uUCDTkRxsMT_v1oAUM"}, {"place_id": "ChIJwQC89XIA_aARPuDk5_0SZKc", "name": "Tripta and co, chartered Accountants", "street": "105, First Floor, Nirmal Tower, Barakhamba Rd, Fire Brigade Lane, Connaught Place, New Delhi, Delhi 110001, India", "phone": "", "rating": "4.9", "review_count": "", "website": "", "latitude": 28.630734999999998, "longitude": 77.2241394, "maps_url": "https://www.google.com/maps/search/?api=1&query=Tripta%20and%20co%2C%20chartered%20Accountants&query_place_id=ChIJwQC89XIA_aARPuDk5_0SZKc"}, {"place_id": "ChIJuW499jX9DDkRfBDvP4aR0a8", "name": "Dtc Express Packers And Movers", "street": "Shop No -18, Lgf, Babar Rd, Connaught Place, New Delhi, Delhi 110001, India", "phone": "+91 76692 30058", "rating": "4.6", "review_count": "", "website": "https://www.dtcexpress.in/", "latitude": 28.6306084, "longitude": 77.22708829999999, "maps_url": "https://www.google.com/maps/search/?api=1&query=Dtc%20Express%20Packers%20And%20Movers&query_place_id=ChIJuW499jX9DDkRfBDvP4aR0a8"}, {"place_id": "ChIJh9xIALP9DDkRF3uaUv_PNWc", "name": "Deluxe Cargo Packers And Movers", "street": "Shop No. 55 LGF, World Trade Center, Babar Rd, Todermal Road Area, Connaught Place, New Delhi, Delhi 110001, India", "phone": "+91 93500 80070", "rating": "4.6", "review_count": "", "website": "https://www.deluxecargopackers.com/", "latitude": 28.6312818, "longitude": 77.23009259999999, "maps_url": "https://www.google.com/maps/search/?api=1&query=Deluxe%20Cargo%20Packers%20And%20Movers&query_place_id=ChIJh9xIALP9DDkRF3uaUv_PNWc"}, {"place_id": "ChIJm0XZ6GfP5zsReesa5dnwsvU", "name": "LdotR", "street": "4th floor, Statesman House, Barakhamba Rd, Barakhamba, New Delhi, Delhi 110001, India", "phone": "+91 11 3044 6627", "rating": "", "review_count": "", "website": "http://www.ldotr.red/", "latitude": 28.6307992, "longitude": 77.22262549999999, "maps_url": "https://www.google.com/maps/search/?api=1&query=LdotR&query_place_id=ChIJm0XZ6GfP5zsReesa5dnwsvU"}, {"place_id": "ChIJ0T4YH6r8DDkR_BEk1gbMeys", "name": "Global Information Technology Services", "street": "305 3rd Floor, Metro Complex, 4 & 5, Madhuban Rd, Veer Savarkar Block, Shakarpur, Delhi, 110092, India", "phone": "+91 99719 33388", "rating": "4", "review_count": "", "website": "http://gitservices.in/", "latitude": 28.6351263, "longitude": 77.28577609999999, "maps_url": "https://www.google.com/maps/search/?api=1&query=Global%20Information%20Technology%20Services&query_place_id=ChIJ0T4YH6r8DDkR_BEk1gbMeys"}, {"place_id": "ChIJ30RusDb9DDkR_HhV-3rfDV4", "name": "Neugene International Inc", "street": "4th floor, Statesman House, Barakhamba Rd, Connaught Place, New Delhi, Delhi 110001, India", "phone": "", "rating": "4.5", "review_count": "", "website": "https://www.neugeneinc.com/", "latitude": 28.6307992, "longitude": 77.22262549999999, "maps_url": "https://www.google.com/maps/search/?api=1&query=Neugene%20International%20Inc&query_place_id=ChIJ30RusDb9DDkR_HhV-3rfDV4"}, {"place_id": "ChIJlSobTU_kDDkRWFKbIX3NkWE", "name": "Avyukt Healthcare | Best Corporate Wellness Company", "street": "505, Nirmal Tower, 26, Barakhamba Rd, Fire Brigade Lane, Barakhamba, New Delhi, Delhi 110001, India", "phone": "+91 85274 54456", "rating": "4.5", "review_count": "", "website": "https://www.avyukthealthcare.com/", "latitude": 28.6308622, "longitude": 77.2239164, "maps_url": "https://www.google.com/maps/search/?api=1&query=Avyukt%20Healthcare%20%7C%20Best%20Corporate%20Wellness%20Company&query_place_id=ChIJlSobTU_kDDkRWFKbIX3NkWE"}, {"place_id": "ChIJK7Wp5TH9DDkRpF3pI2LjFC8", "name": "Dhampur Green", "street": "24, School Lane, New, opp. World Trade Center, Delhi, 110001, India", "phone": "+91 98183 62962", "rating": "4.5", "review_count": "", "website": "http://www.dhampurgreen.com/", "latitude": 28.631300099999997, "longitude": 77.22895, "maps_url": "https://www.google.com/maps/search/?api=1&query=Dhampur%20Green&query_place_id=ChIJK7Wp5TH9DDkRpF3pI2LjFC8"}, {"place_id": "ChIJabujoJ79DDkRy2jIBDfvo6s", "name": "Saurabh Agrawal & Co.", "street": "Nirmal Tower, 403, 26, Barakhamba Rd, New Delhi, Delhi 110001, India", "phone": "", "rating": "", "review_count": "", "website": "", "latitude": 28.630865399999998, "longitude": 77.2238562, "maps_url": "https://www.google.com/maps/search/?api=1&query=Saurabh%20Agrawal%20%26%20Co.&query_place_id=ChIJabujoJ79DDkRy2jIBDfvo6s"}, {"place_id": "ChIJYVKiABX9DDkRlIPbf0wzFek", "name": "Kisaan Station Pvt Ltd", "street": "904-905, Barakhamba Rd, Barakhamba, New Delhi, Delhi 110001, India", "phone": "", "rating": "", "review_count": "", "website": "https://www.kisaanstation.co.in/", "latitude": 28.6305516, "longitude": 77.2235334, "maps_url": "https://www.google.com/maps/search/?api=1&query=Kisaan%20Station%20Pvt%20Ltd&query_place_id=ChIJYVKiABX9DDkRlIPbf0wzFek"}, {"place_id": "ChIJr-GNhzH9DDkR5DhBc10NOCU", "name": "DBS Business Centers - Delhi", "street": "World Trade Tower, Barakhamba Road, Connaught Place, New Delhi, Delhi 110001, India", "phone": "+91 11 4050 9200", "rating": "4", "review_count": "", "website": "https://www.dbsindia.com/delhi.php", "latitude": 28.631464899999997, "longitude": 77.2266971, "maps_url": "https://www.google.com/maps/search/?api=1&query=DBS%20Business%20Centers%20-%20Delhi&query_place_id=ChIJr-GNhzH9DDkR5DhBc10NOCU"}, {"place_id": "ChIJmW4oxo79DDkRPbNdx2mRAL0", "name": "Future Tech Software - Web Software Development Company", "street": "R 22 Shakarpur, Laxmi Nagar, New Delhi, Delhi 110092, India", "phone": "", "rating": "5", "review_count": "", "website": "", "latitude": 28.630793999999998, "longitude": 77.282076, "maps_url": "https://www.google.com/maps/search/?api=1&query=Future%20Tech%20Software%20-%20Web%20Software%20Development%20Company&query_place_id=ChIJmW4oxo79DDkRPbNdx2mRAL0"}, {"place_id": "ChIJLZWUmWkBDTkRoqSHlR7ETtk", "name": "Website Desiging Company - Asistech Software Solutions", "street": "211-C, Trivani Complex, Laxmi Nagar, New Delhi, Delhi 110092, India", "phone": "+91 82875 37054", "rating": "3.7", "review_count": "", "website": "", "latitude": 28.6342577, "longitude": 77.28133749999999, "maps_url": "https://www.google.com/maps/search/?api=1&query=Website%20Desiging%20Company%20-%20Asistech%20Software%20Solutions&query_place_id=ChIJLZWUmWkBDTkRoqSHlR7ETtk"}, {"place_id": "ChIJo7dPhS_9DDkRJp9kwfDknYA", "name": "Bright IT Technologies", "street": "J6PJ+5FQ, Kotla Marg, Press Enclave, Barakhamba, Delhi, 110002, India", "phone": "", "rating": "", "review_count": "", "website": "", "latitude": 28.6354741, "longitude": 77.23122599999999, "maps_url": "https://www.google.com/maps/search/?api=1&query=Bright%20IT%20Technologies&query_place_id=ChIJo7dPhS_9DDkRJp9kwfDknYA"}, {"place_id": "ChIJgwiTQin9DDkRwkDaBCzL_zM", "name": "Malvin IT Systems", "street": "21, G/F, Site, 1793, Kotla Marg, opp. Balbhaban, Delhi, 110002, India", "phone": "", "rating": "", "review_count": "", "website": "", "latitude": 28.631724499999997, "longitude": 77.236125, "maps_url": "https://www.google.com/maps/search/?api=1&query=Malvin%20IT%20Systems&query_place_id=ChIJgwiTQin9DDkRwkDaBCzL_zM"}, {"place_id": "ChIJM9r7u0r9DDkRiUvt7zjjpRM", "name": "IT Executive vivek", "street": "22, Vijay Ghat, Raj Ghat, New Delhi, Delhi, 110006, India", "phone": "", "rating": "", "review_count": "", "website": "https://itexecuitive.com/", "latitude": 28.6584512, "longitude": 77.2449233, "maps_url": "https://www.google.com/maps/search/?api=1&query=IT%20Executive%20vivek&query_place_id=ChIJM9r7u0r9DDkRiUvt7zjjpRM"}, {"place_id": "ChIJ3_XyNzL9DDkRq6tXRxAHEks", "name": "M2K", "street": "E-13/29, Harsha Bhawan, 1st Floor, Connaught Place, New Delhi, Delhi 110001, India", "phone": "+91 11 4848 6060", "rating": "4", "review_count": "", "website": "", "latitude": 28.632551, "longitude": 77.22189399999999, "maps_url": "https://www.google.com/maps/search/?api=1&query=M2K&query_place_id=ChIJ3_XyNzL9DDkRq6tXRxAHEks"}, {"place_id": "ChIJidM_Gjf9DDkRABsztT_8CXM", "name": "Amadeus India Pvt. Ltd.", "street": "E-9 Connaught House, Connaught Place, New Delhi, Delhi 110001, India", "phone": "+91 11 3061 3367", "rating": "4.3", "review_count": "", "website": "http://amadeus.in/", "latitude": 28.633090499999998, "longitude": 77.2219707, "maps_url": "https://www.google.com/maps/search/?api=1&query=Amadeus%20India%20Pvt.%20Ltd.&query_place_id=ChIJidM_Gjf9DDkRABsztT_8CXM"}]