{"timestamp": 1773731090.6864605, "keyword": "IT company", "location": "delhi", "cell_idx": 341, "results": [{"place_id": "0x390d1d841fefffff:0x93fcc50cf324f171", "name": "Netsure IT Solution Private Limited (NSIT GLOBAL)", "category": "Software company", "street": "Ansal Chamber-2", "city": "NSIT GLOBAL, 428", "phone": "1800313818283", "website": "", "rating": 4.3, "review_count": "", "latitude": 28.5677649, "longitude": 77.187382, "maps_url": "https://www.google.com/maps/place/?q=place_id:0x390d1d841fefffff:0x93fcc50cf324f171"}, {"place_id": "0x390d1d84709c66e7:0xb821a251a16fae09", "name": "IT Works @ Siyaram", "category": "Software company", "street": "404", "city": "BHIKAJI CAMA PLACE", "phone": "01143178782", "website": "http://www.garruda.co.in/", "rating": 4.8, "review_count": "", "latitude": 28.567508399999998, "longitude": 77.18817349999999, "maps_url": "https://www.google.com/maps/place/?q=place_id:0x390d1d84709c66e7:0xb821a251a16fae09"}, {"place_id": "0x390d1d86a4f12173:0x3a6b42ea6f4b8260", "name": "Softvanz Technologies Private Limited", "category": "Software company", "street": "Somdutt Chamber 1", "city": "BT-22/9", "phone": "", "website": "https://softvanz.com/", "rating": 5, "review_count": "", "latitude": 28.567948899999998, "longitude": 77.1889269, "maps_url": "https://www.google.com/maps/place/?q=place_id:0x390d1d86a4f12173:0x3a6b42ea6f4b8260"}, {"place_id": "0x390d1d006ea04e6f:0x964f4c5893f4eaf6", "name": "Tech58 Private Limited", "category": "Software company", "street": "UG-07", "city": "Ansal Chamber -1", "phone": "", "website": "", "rating": 5, "review_count": "", "latitude": 28.5684203, "longitude": 77.1890959, "maps_url": "https://www.google.com/maps/place/?q=place_id:0x390d1d006ea04e6f:0x964f4c5893f4eaf6"}, {"place_id": "0x390d1dd317cfeadd:0x62cbeb4eec61f9ea", "name": "TECH IT CLOUD SOLUTIONS PVT LTD", "category": "Software company", "street": "Ansal Chamber-2", "city": "Bhikaji Cama Place, II", "phone": "07838019283", "website": "http://www.techitcloud.in/", "rating": "", "review_count": "", "latitude": 28.5677649, "longitude": 77.187382, "maps_url": "https://www.google.com/maps/place/?q=place_id:0x390d1dd317cfeadd:0x62cbeb4eec61f9ea"}, {"place_id": "0x390d1d841a0f4d5b:0x36604bdbf83612d3", "name": "Intek Micro Systems Pvt.Ltd", "category": "Software company", "street": "E-131, 3rd Floor, Ganpathi Bhawan, Mohammadpur", "city": "opp. Bhikaji Cama Place", "phone": "01146089696", "website": "", "rating": 3, "review_count": "", "latitude": 28.567966799999997, "longitude": 77.1881528, "maps_url": "https://www.google.com/maps/place/?q=place_id:0x390d1d841a0f4d5b:0x36604bdbf83612d3"}, {"place_id": "0x390d1d841aaaaaab:0x73b109a878a9bfe3", "name": "Aakash Systems Pvt Ltd", "category": "Computer Wholesaler", "street": "Ansal Chamber-2", "city": "Unit : A-501", "phone": "08383931110", "website": "http://akpl.com/", "rating": 4.8, "review_count": "", "latitude": 28.5692228, "longitude": 77.1877839, "maps_url": "https://www.google.com/maps/place/?q=place_id:0x390d1d841aaaaaab:0x73b109a878a9bfe3"}, {"place_id": "0x390ce458d0000001:0xf2123bd299ec4501", "name": "IT Company India", "category": "Software company", "street": "D56", "city": "D Block, Sector 10", "phone": "09999244854", "website": "https://www.itcompanyindia.in/", "rating": 4.7, "review_count": "", "latitude": 28.589917699999997, "longitude": 77.3351153, "maps_url": "https://www.google.com/maps/place/?q=place_id:0x390ce458d0000001:0xf2123bd299ec4501"}, {"place_id": "0x390d1d86aa8e0f77:0x59d1a6f2084b6996", "name": "INTEGRATED ELECTRONICS", "category": "Electronics Company", "street": "618", "city": "Ansal Chamber-2", "phone": "09910495279", "website": "http://www.integratedelectronics.co.in/", "rating": 4.9, "review_count": "", "latitude": 28.5679189, "longitude": 77.1881483, "maps_url": "https://www.google.com/maps/place/?q=place_id:0x390d1d86aa8e0f77:0x59d1a6f2084b6996"}, {"place_id": "0x390d1d91b545fcbf:0xef1450e079444a8a", "name": "HNS SOLUTIONS", "category": "Computer repair service", "street": "On-site CCTV< Computer Hardware & Networking Support", "city": "Ansal Chamber-2", "phone": "09821781947", "website": "https://hnssolutions.in/", "rating": 4.9, "review_count": "", "latitude": 28.568983499999998, "longitude": 77.1887751, "maps_url": "https://www.google.com/maps/place/?q=place_id:0x390d1d91b545fcbf:0xef1450e079444a8a"}, {"place_id": "0x390d04afaaaaaaab:0xa0a133d0075e6be5", "name": "Website Development company", "category": "Website designer", "street": "705/A/1", "city": "Bhikaji Cama Place", "phone": "01126100386", "website": "https://direct-i.com/", "rating": 4.8, "review_count": "", "latitude": 28.5681396, "longitude": 77.18618649999999, "maps_url": "https://www.google.com/maps/place/?q=place_id:0x390d04afaaaaaaab:0xa0a133d0075e6be5"}, {"place_id": "0x390ce3c153b89811:0xe7a279685777e9ca", "name": "IT Company", "category": "Automation company", "street": "A-14", "city": "near iskcon temple", "phone": "", "website": "http://www.opuswiz.com/", "rating": 3, "review_count": "", "latitude": 28.557167, "longitude": 77.25424819999999, "maps_url": "https://www.google.com/maps/place/?q=place_id:0x390ce3c153b89811:0xe7a279685777e9ca"}, {"place_id": "0x390d1d841e9aaaab:0xa5c3615aadd6db02", "name": "THIRDEYE INFRASERVICES PVT. LTD.", "category": "Security service", "street": "B-36, Ansal Chamber II", "city": "6, Africa Ave", "phone": "01141440018", "website": "http://www.tiplgroup.in/", "rating": 4.6, "review_count": "", "latitude": 28.567837299999997, "longitude": 77.1897709, "maps_url": "https://www.google.com/maps/place/?q=place_id:0x390d1d841e9aaaab:0xa5c3615aadd6db02"}, {"place_id": "0x390ce1597b5509e5:0xfd8209b937b44d3c", "name": "IT Solutions India Private Limited", "category": "Software company", "street": "D-88/5", "city": "Pocket D, Okhla Phase I, Okhla Industrial Estate", "phone": "09810017429", "website": "https://www.itsipl.com/", "rating": 4.2, "review_count": "", "latitude": 28.520146, "longitude": 77.280431, "maps_url": "https://www.google.com/maps/place/?q=place_id:0x390ce1597b5509e5:0xfd8209b937b44d3c"}, {"place_id": "0x390d1d841aaaaaab:0xd674fbb57baadb77", "name": "Savitri Telecom Services", "category": "Corporate office", "street": "203", "city": "Ansal Chamber-2", "phone": "01126103358", "website": "http://savitritelecom.com/", "rating": 4.6, "review_count": "", "latitude": 28.5677649, "longitude": 77.187382, "maps_url": "https://www.google.com/maps/place/?q=place_id:0x390d1d841aaaaaab:0xd674fbb57baadb77"}, {"place_id": "0x390d1d841aaaaaab:0x4966871fc9108cb9", "name": "Engineers India Limited", "category": "Engineering consultant", "street": "EI Bhavan", "city": "1", "phone": "01126762121", "website": "https://engineersindia.com/", "rating": 4.3, "review_count": "", "latitude": 28.5692271, "longitude": 77.1879221, "maps_url": "https://www.google.com/maps/place/?q=place_id:0x390d1d841aaaaaab:0x4966871fc9108cb9"}, {"place_id": "0x390d0329fecf4d55:0x7f4911d4cc3fb54e", "name": "Neuailes Global Technologies Pvt Ltd", "category": "Computer security service", "street": "236, Second floor", "city": "Ansal Chamber-2", "phone": "01145170050", "website": "https://neuailes.com/", "rating": 4.3, "review_count": "", "latitude": 28.5677649, "longitude": 77.187382, "maps_url": "https://www.google.com/maps/place/?q=place_id:0x390d0329fecf4d55:0x7f4911d4cc3fb54e"}, {"place_id": "0x390d1d841aaaaaab:0xa32856a97de4096b", "name": "BI Biotech India Pvt. Ltd. (Corporate Office)", "category": "Biotechnology company", "street": "328", "city": "Ansal Chamber-2", "phone": "01126101271", "website": "http://www.biotechindia.com/", "rating": 3.9, "review_count": "", "latitude": 28.5677649, "longitude": 77.187382, "maps_url": "https://www.google.com/maps/place/?q=place_id:0x390d1d841aaaaaab:0xa32856a97de4096b"}, {"place_id": "0x390d1d2521bef661:0x89777bed36a17", "name": "Fast Computers", "category": "Computer repair service", "street": "UG-25 Ansal Chamber 2", "city": "adjoining to Vijaya Bank", "phone": "09811628275", "website": "http://www.fastcomputers.co.in/", "rating": 4.8, "review_count": "", "latitude": 28.567599599999998, "longitude": 77.1883564, "maps_url": "https://www.google.com/maps/place/?q=place_id:0x390d1d2521bef661:0x89777bed36a17"}, {"place_id": "0x390d1d84100001bb:0xf70543438f33c957", "name": "Perfect", "category": "Computer support and services", "street": "Ansal Chamber-2", "city": "512, 5th floor", "phone": "01141024861", "website": "http://www.perfect-group.co.in/", "rating": 4.2, "review_count": "", "latitude": 28.5677649, "longitude": 77.187382, "maps_url": "https://www.google.com/maps/place/?q=place_id:0x390d1d84100001bb:0xf70543438f33c957"}, {"place_id": "0x390d1daf5bbb6d71:0xd493e8d457a28388", "name": "DPM IT SOLUTIONS", "category": "Software company", "street": "2nd floor, madangiri", "city": "111, E-2", "phone": "09650413450", "website": "https://dpmitsolutions.com/", "rating": 5, "review_count": "", "latitude": 28.565620799999998, "longitude": 77.16005679999999, "maps_url": "https://www.google.com/maps/place/?q=place_id:0x390d1daf5bbb6d71:0xd493e8d457a28388"}, {"place_id": "0x390d1d847f3b84c1:0x9da23f0dc281b80a", "name": "PTC India Limited", "category": "Electric utility company", "street": "2nd Floor, NBCC Tower 15 Bhikaji Cama Place", "city": "New Delhi, Delhi 110066", "phone": "01141659500", "website": "http://www.ptcindia.com/", "rating": 4.3, "review_count": "", "latitude": 28.568101199999997, "longitude": 77.1860351, "maps_url": "https://www.google.com/maps/place/?q=place_id:0x390d1d847f3b84c1:0x9da23f0dc281b80a"}, {"place_id": "0x390d1ddf2a9d8e0d:0xa4ee4554abb703b9", "name": "Docsys Kalmin Solutions Pvt Ltd", "category": "Software company", "street": "Office Number 111-113, Ansal Chambers - 2 6", "city": "Bhikaji Cama Place", "phone": "09560108201", "website": "https://docsyskalmin.com/", "rating": 5, "review_count": "", "latitude": 28.5676629, "longitude": 77.18819069999999, "maps_url": "https://www.google.com/maps/place/?q=place_id:0x390d1ddf2a9d8e0d:0xa4ee4554abb703b9"}, {"place_id": "0x390d1d9ce0eaada3:0xc5a1a0a2458099e3", "name": "CODENCREATIVE TECH PVT LTD", "category": "Software company", "street": "DDA Flat", "city": "RBI Officers Colony, Vasant Vihar", "phone": "09717047610", "website": "https://codencreative.com/", "rating": 4.9, "review_count": "", "latitude": 28.563302099999998, "longitude": 77.1519732, "maps_url": "https://www.google.com/maps/place/?q=place_id:0x390d1d9ce0eaada3:0xc5a1a0a2458099e3"}, {"place_id": "0x390d1d82a2aff179:0x229539750e047b78", "name": "MV INFOTECH INDIA", "category": "Computer support and services", "street": "Ranjit sadan", "city": "Mohammadpur", "phone": "09811237039", "website": "https://www.mvinfotechindia.com/", "rating": 4.8, "review_count": "", "latitude": 28.567919, "longitude": 77.1881483, "maps_url": "https://www.google.com/maps/place/?q=place_id:0x390d1d82a2aff179:0x229539750e047b78"}, {"place_id": "0x390d1d841dd25d8b:0x13c2df92d5a3ac8d", "name": "Raghav Enterprises", "category": "Computer store", "street": "Somdutt Chamber 1", "city": "UGK, 7 - 8", "phone": "09250130001", "website": "https://raghav-enterprises-rama-krishna-puram-new-delhi.grexa.site/", "rating": 4.5, "review_count": "", "latitude": 28.567877, "longitude": 77.18854999999999, "maps_url": "https://www.google.com/maps/place/?q=place_id:0x390d1d841dd25d8b:0x13c2df92d5a3ac8d"}, {"place_id": "0x390d1d841aaaaaab:0x9b9b78f4b37f48f9", "name": "GAIL India Limited", "category": "Oil & natural gas company", "street": "GAIL Bhawan", "city": "16", "phone": "01126172580", "website": "https://www.gailonline.com/", "rating": 4.5, "review_count": "", "latitude": 28.5689493, "longitude": 77.18615919999999, "maps_url": "https://www.google.com/maps/place/?q=place_id:0x390d1d841aaaaaab:0x9b9b78f4b37f48f9"}, {"place_id": "0x390d1d84129a23f7:0xc44bb519ad2ad9c4", "name": "Parsh Infotech Inc - Computer, Laptop & Cartridges Store", "category": "Computer store", "street": "Somdutt Chamber-2", "city": "B-48", "phone": "09212057276", "website": "https://www.parshinfo.com/", "rating": 4.9, "review_count": "", "latitude": 28.5680263, "longitude": 77.1874758, "maps_url": "https://www.google.com/maps/place/?q=place_id:0x390d1d84129a23f7:0xc44bb519ad2ad9c4"}, {"place_id": "0x4462dc92d871ff:0x476f578ec61874cb", "name": "RoadVision AI", "category": "Software company", "street": "Office No. 310, B, Ansal Chamber -1", "city": "RoadVision AI Private Limited", "phone": "09768725607", "website": "http://www.roadvision.ai/", "rating": 4.3, "review_count": "", "latitude": 28.569158299999998, "longitude": 77.18778429999999, "maps_url": "https://www.google.com/maps/place/?q=place_id:0x4462dc92d871ff:0x476f578ec61874cb"}, {"place_id": "0x390d1d8462e55553:0x766189b787067ecc", "name": "National Informatics Centre Services Inc.", "category": "Corporate office", "street": "6th Floor", "city": "National Informatics Centre Services Incorporated", "phone": "01126105054", "website": "http://nicsi.nic.in/", "rating": 4.2, "review_count": "", "latitude": 28.567905099999997, "longitude": 77.1860344, "maps_url": "https://www.google.com/maps/place/?q=place_id:0x390d1d8462e55553:0x766189b787067ecc"}, {"place_id": "0x390d0306a5205339:0xc8417239bcfe9f11", "name": "RSS INFOTECH PVT.LTD", "category": "Software company", "street": "1st floor, Didar Complex", "city": "6 DLE Industrial Area office no -128,129", "phone": "09953134732", "website": "https://www.rssindia.com/", "rating": 4.5, "review_count": "", "latitude": 28.656828299999997, "longitude": 77.1425177, "maps_url": "https://www.google.com/maps/place/?q=place_id:0x390d0306a5205339:0xc8417239bcfe9f11"}, {"place_id": "0x390d03566135da17:0xb45afec30274f599", "name": "Mind IT Systems", "category": "Software company", "street": "D MALL", "city": "514", "phone": "09205856556", "website": "https://minditsystems.com/", "rating": 4, "review_count": "", "latitude": 28.6925977, "longitude": 77.1528621, "maps_url": "https://www.google.com/maps/place/?q=place_id:0x390d03566135da17:0xb45afec30274f599"}, {"place_id": "0x390ce3ad10000061:0xeff7e6017a22cce7", "name": "Alpinesoft IT Solutions Authorized Google Workspace Reseller", "category": "Software company", "street": "162/9 Ist Floor, KIshangarh - Gaushala Marg", "city": "Lakhi Nath Kuti, Mehrauli, Vasant Kunj", "phone": "09999011157", "website": "https://www.alpinesoftit.com/", "rating": 4.3, "review_count": "", "latitude": 28.515394399999998, "longitude": 77.16460359999999, "maps_url": "https://www.google.com/maps/place/?q=place_id:0x390ce3ad10000061:0xeff7e6017a22cce7"}, {"place_id": "0x390d1d848110bc6d:0xad76096e70a3e40a", "name": "Pfizer Limited", "category": "Corporate office", "street": "Hyatt Regency", "city": "Besides", "phone": "01166175300", "website": "https://www.pfizerltd.co.in/our-people/working-at-pfizer", "rating": 4.1, "review_count": "", "latitude": 28.5684646, "longitude": 77.1856682, "maps_url": "https://www.google.com/maps/place/?q=place_id:0x390d1d848110bc6d:0xad76096e70a3e40a"}, {"place_id": "0x390d1d841fe55555:0x2445dbd59c01cb0", "name": "Pioneer E Solutions", "category": "Software company", "street": "B 23-25, Somdutt Chamber -1", "city": "Bhikaji Cama Place", "phone": "", "website": "https://www.pioneeresolutions.com/", "rating": 4.2, "review_count": "", "latitude": 28.5679196, "longitude": 77.1881392, "maps_url": "https://www.google.com/maps/place/?q=place_id:0x390d1d841fe55555:0x2445dbd59c01cb0"}, {"place_id": "0x390cfd309e171d1b:0x7bf91fd491101385", "name": "Entire Techno Solutions (P) Limited", "category": "Software company", "street": "201 Block-B NDM-1", "city": "Netaji Subhash Marg", "phone": "09313489430", "website": "http://www.entirets.com/", "rating": 4.4, "review_count": "", "latitude": 28.635505, "longitude": 77.224992, "maps_url": "https://www.google.com/maps/place/?q=place_id:0x390cfd309e171d1b:0x7bf91fd491101385"}, {"place_id": "0x390d1d83866b594b:0x1befce7745020df9", "name": "Jindal Steel Limited", "category": "Corporate office", "street": "12", "city": "Bhikaji Cama Place, Rama Krishna Puram", "phone": "", "website": "https://www.jindalsteel.in/", "rating": 4.4, "review_count": "", "latitude": 28.5691405, "longitude": 77.18643159999999, "maps_url": "https://www.google.com/maps/place/?q=place_id:0x390d1d83866b594b:0x1befce7745020df9"}, {"place_id": "0x390d1d844df861a7:0x92ef9a9c85d29019", "name": "Spiders of web", "category": "Website designer", "street": "Kranti Bhawan", "city": "C 124 Mohammadpur", "phone": "09555260560", "website": "http://spidersofweb.com/", "rating": 4.9, "review_count": "", "latitude": 28.5680953, "longitude": 77.18661829999999, "maps_url": "https://www.google.com/maps/place/?q=place_id:0x390d1d844df861a7:0x92ef9a9c85d29019"}, {"place_id": "0x390d0388eb1134b7:0x923b38f37bf6abe4", "name": "Techquench Solution - Best IT Company provide Digital Marketing and Software Solution in Paschim Vihar New Delhi NCR.", "category": "Internet marketing service", "street": "103 First", "city": "DMALL", "phone": "09355008575", "website": "https://www.techquenchsolution.com/", "rating": 4.9, "review_count": "", "latitude": 28.6924855, "longitude": 77.1526042, "maps_url": "https://www.google.com/maps/place/?q=place_id:0x390d0388eb1134b7:0x923b38f37bf6abe4"}, {"place_id": "0x390d06cfffffffff:0xd04ea205a43856ef", "name": "SLN Softwares - Software Development Company", "category": "Software company", "street": "UNIT NO.111 /FIRST FLOOR, APRA NORTH-EX PLAZA, PLOT NO.H-2,", "city": "NETAJI SUBHASH PLACE,", "phone": "09315898126", "website": "https://www.slnsoftwares.com/", "rating": 4.8, "review_count": "", "latitude": 28.6935456, "longitude": 77.1474502, "maps_url": "https://www.google.com/maps/place/?q=place_id:0x390d06cfffffffff:0xd04ea205a43856ef"}, {"place_id": "0x390d1dbdeed05a29:0x335189245b3d4283", "name": "GS ENT GLOBAL PRIVATE LIMITED", "category": "Computer support and services", "street": "Unit No. 214, Second Floor", "city": "Somdutt Chamber-2", "phone": "01141326086", "website": "", "rating": 3, "review_count": "", "latitude": 28.5680312, "longitude": 77.1885276, "maps_url": "https://www.google.com/maps/place/?q=place_id:0x390d1dbdeed05a29:0x335189245b3d4283"}, {"place_id": "0x390d1dd687f35f6f:0xac3053b9c737a2da", "name": "Maxop Engineering - Head Office", "category": "Corporate office", "street": "Africa Ave", "city": "Block A 2, Nauroji Nagar, Safdarjung Enclave", "phone": "", "website": "https://www.maxop.com/", "rating": 3.6, "review_count": "", "latitude": 28.5682846, "longitude": 77.1898331, "maps_url": "https://www.google.com/maps/place/?q=place_id:0x390d1dd687f35f6f:0xac3053b9c737a2da"}, {"place_id": "0x390d1d838b9b70d5:0x4d2f40f4f0842c4d", "name": "Worldwide Achievers Pvt. Ltd.", "category": "Corporate office", "street": "3rd Floor, Ansal Chamber-2", "city": "324", "phone": "09990496789", "website": "https://www.worldwideachievers.in/", "rating": 4.7, "review_count": "", "latitude": 28.5677649, "longitude": 77.187382, "maps_url": "https://www.google.com/maps/place/?q=place_id:0x390d1d838b9b70d5:0x4d2f40f4f0842c4d"}, {"place_id": "0x390d1d000d44bc01:0xde3fbeff247c4b6e", "name": "Advance Computronix", "category": "Computer support and services", "street": "4th Floor , Building - 9, Somdutt Chamber-2", "city": "419", "phone": "", "website": "http://www.advancecomputronix.com/", "rating": 5, "review_count": "", "latitude": 28.5680312, "longitude": 77.1885276, "maps_url": "https://www.google.com/maps/place/?q=place_id:0x390d1d000d44bc01:0xde3fbeff247c4b6e"}, {"place_id": "0x390cfd48c0092403:0x88ae41667b578d1c", "name": "TDI Infratech Limited", "category": "Real estate agency", "street": "2nd Floor, MAHINDRA TOWER, BHIKAJI CAMA PLACE", "city": "TDI Corporate Headquarters, Mahindra Towers", "phone": "01149133333", "website": "http://www.tdiinfratech.com/", "rating": 3.7, "review_count": "", "latitude": 28.5687337, "longitude": 77.188283, "maps_url": "https://www.google.com/maps/place/?q=place_id:0x390cfd48c0092403:0x88ae41667b578d1c"}, {"place_id": "0x390d1d838b6adef3:0x9fe7d28408ca7ceb", "name": "Perfect Generator Technologies Pvt. Ltd.", "category": "Industrial consultant", "street": "5th Floor, Ansal Chamber-2", "city": "512", "phone": "08527500501", "website": "http://www.perfectgenerators.com/", "rating": 4.4, "review_count": "", "latitude": 28.5677649, "longitude": 77.187382, "maps_url": "https://www.google.com/maps/place/?q=place_id:0x390d1d838b6adef3:0x9fe7d28408ca7ceb"}, {"place_id": "0x390d046160cbfd05:0x61b16861a432d74c", "name": "Datar Security Service Group company", "category": "Security service", "street": "201, Second Floor", "city": "Bhikaji Cama Place, Bhawan II", "phone": "18001204131", "website": "http://www.dssg.in/", "rating": 3.9, "review_count": "", "latitude": 28.5690264, "longitude": 77.1872187, "maps_url": "https://www.google.com/maps/place/?q=place_id:0x390d046160cbfd05:0x61b16861a432d74c"}, {"place_id": "0x390ce55d779c1171:0xe99be44118a228f7", "name": "Anvesh Vision Private Limited", "category": "Computer security service", "street": "Ansal Chamber-2", "city": "R-15, LG", "phone": "09818221255", "website": "https://www.anveshvision.com/", "rating": 4.5, "review_count": "", "latitude": 28.5677649, "longitude": 77.187382, "maps_url": "https://www.google.com/maps/place/?q=place_id:0x390ce55d779c1171:0xe99be44118a228f7"}, {"place_id": "0x390d1d13164c8e91:0x7d99369cdbccee62", "name": "Coterie Healthcare India Pvt Ltd - Anticancer, Nephrology, Critical Care/super speciality medicine", "category": "Pharmaceutical company", "street": "B42", "city": "Ansal Chamber-2", "phone": "09811867469", "website": "http://www.coteriehealthcare.com/", "rating": 4.9, "review_count": "", "latitude": 28.5675754, "longitude": 77.188189, "maps_url": "https://www.google.com/maps/place/?q=place_id:0x390d1d13164c8e91:0x7d99369cdbccee62"}, {"place_id": "0x390d1fa977d77f21:0xe5a2876812091aa2", "name": "BTL Biotechno Labs Pvt Ltd", "category": "Supplier", "street": "Ansal Chamber-2", "city": "620", "phone": "07291852429", "website": "https://www.biotechnolabs.com/", "rating": 4.6, "review_count": "", "latitude": 28.5680242, "longitude": 77.1864755, "maps_url": "https://www.google.com/maps/place/?q=place_id:0x390d1fa977d77f21:0xe5a2876812091aa2"}, {"place_id": "0x390d1d846268eabf:0xade939dea7de4bfa", "name": "NTPC-SAIL Power Company Limited", "category": "Electric utility company", "street": "15", "city": "Bhikaji Cama Place, Rama Krishna Puram", "phone": "01126717379", "website": "https://www.nspcl.co.in/", "rating": 4.5, "review_count": "", "latitude": 28.567905099999997, "longitude": 77.1860343, "maps_url": "https://www.google.com/maps/place/?q=place_id:0x390d1d846268eabf:0xade939dea7de4bfa"}, {"place_id": "0x390d1d841fe076d9:0xe4b1229f10bd4569", "name": "A. Office Equipments", "category": "Printer ink refill store", "street": "UG-17, 5", "city": "Somdutt Chamber 1", "phone": "09810026325", "website": "", "rating": 4.5, "review_count": "", "latitude": 28.567611199999998, "longitude": 77.18897319999999, "maps_url": "https://www.google.com/maps/place/?q=place_id:0x390d1d841fe076d9:0xe4b1229f10bd4569"}, {"place_id": "0x390d1d841aaaaaab:0x8d3118e810b3bd50", "name": "Udaan India - The Original Visa Company (Head Office)", "category": "Visa Agent", "street": "309-312, Somdutt Chamber-II, Road No. 9", "city": "Bhikaji Cama Place", "phone": "09540017356", "website": "https://udaanindia.com/", "rating": 4, "review_count": "", "latitude": 28.5680014, "longitude": 77.1874028, "maps_url": "https://www.google.com/maps/place/?q=place_id:0x390d1d841aaaaaab:0x8d3118e810b3bd50"}, {"place_id": "0x390d1d841e2915ed:0xcfad4cb937f37055", "name": "Nexensus", "category": "Database Management Company", "street": "A223, Somdatt Chambers 1, Bhikaji Cama Place", "city": "New Delhi, Delhi 110066", "phone": "09205685050", "website": "http://www.nexensus.com/", "rating": 3.2, "review_count": "", "latitude": 28.567804, "longitude": 77.1886085, "maps_url": "https://www.google.com/maps/place/?q=place_id:0x390d1d841e2915ed:0xcfad4cb937f37055"}, {"place_id": "0x390d1d1a682a403f:0x25280afad894983f", "name": "24 SKY SECURITY SERVICES PVT LTD", "category": "Security guard service", "street": "Office No 118/6", "city": "Ansal Chamber-2", "phone": "09311567897", "website": "https://24skysecurity.com/", "rating": 4.9, "review_count": "", "latitude": 28.568983499999998, "longitude": 77.1887751, "maps_url": "https://www.google.com/maps/place/?q=place_id:0x390d1d1a682a403f:0x25280afad894983f"}, {"place_id": "0x390d1d350ded40f7:0x7cc070a41c693ebb", "name": "Learning Routes Private Limited", "category": "Educational consultant", "street": "Block B 2nd floor", "city": "Ansal Chamber -1", "phone": "01140074750", "website": "http://www.learningroutes.in/", "rating": 4.3, "review_count": "", "latitude": 28.569158299999998, "longitude": 77.18778429999999, "maps_url": "https://www.google.com/maps/place/?q=place_id:0x390d1d350ded40f7:0x7cc070a41c693ebb"}, {"place_id": "0x390d041473753e49:0xef5d92666ba22903", "name": "Stufa Manufacturing Enterprise (SURYA FLAME)", "category": "Manufacturer", "street": "8th floor", "city": "BHIKAJI CAMA PLACE", "phone": "", "website": "", "rating": 4.2, "review_count": "", "latitude": 28.5680953, "longitude": 77.18661829999999, "maps_url": "https://www.google.com/maps/place/?q=place_id:0x390d041473753e49:0xef5d92666ba22903"}, {"place_id": "0x390d0150ec363ea9:0x4b415afe7cccdd0a", "name": "Mindscan Software Solutions Pvt. Ltd", "category": "Software company", "street": "Aggarwal Cyber Plaza", "city": "573", "phone": "09810113797", "website": "http://www.mindscansoftware.com/", "rating": 4.9, "review_count": "", "latitude": 28.6934215, "longitude": 77.1496398, "maps_url": "https://www.google.com/maps/place/?q=place_id:0x390d0150ec363ea9:0x4b415afe7cccdd0a"}, {"place_id": "0x390d1ddb62613c1d:0x8397b83491c720fd", "name": "Optimus Enviropro Pvt. Ltd. (Delhi Office) Water & Wastewater Treatment | STP | ETP | ZLD | RO&UF | DM Plant Manufacturer", "category": "Sewage treatment plant", "street": "901", "city": "near EIL Pvt. Ltd", "phone": "01141551444", "website": "https://optimusenviro.pro/", "rating": 4, "review_count": "", "latitude": 28.5687656, "longitude": 77.18706759999999, "maps_url": "https://www.google.com/maps/place/?q=place_id:0x390d1ddb62613c1d:0x8397b83491c720fd"}, {"place_id": "0x390d023326643ee7:0x772c34715764a562", "name": "EitBiz", "category": "Software company", "street": "9th Floor, Pearl Best Heights", "city": "910", "phone": "", "website": "https://www.eitbiz.com/", "rating": 4.8, "review_count": "", "latitude": 28.6934439, "longitude": 77.14957509999999, "maps_url": "https://www.google.com/maps/place/?q=place_id:0x390d023326643ee7:0x772c34715764a562"}, {"place_id": "0x390d041473753e49:0xef5d92666ba22903", "name": "Stufa Manufacturing Enterprise (SURYA FLAME)", "category": "Manufacturer", "street": "8th floor", "city": "BHIKAJI CAMA PLACE", "phone": "", "website": "", "rating": 4.2, "review_count": "", "latitude": 28.5680953, "longitude": 77.18661829999999, "maps_url": "https://www.google.com/maps/place/?q=place_id:0x390d041473753e49:0xef5d92666ba22903"}, {"place_id": "0x390d0150ec363ea9:0x4b415afe7cccdd0a", "name": "Mindscan Software Solutions Pvt. Ltd", "category": "Software company", "street": "Aggarwal Cyber Plaza", "city": "573", "phone": "09810113797", "website": "http://www.mindscansoftware.com/", "rating": 4.9, "review_count": "", "latitude": 28.6934215, "longitude": 77.1496398, "maps_url": "https://www.google.com/maps/place/?q=place_id:0x390d0150ec363ea9:0x4b415afe7cccdd0a"}, {"place_id": "0x390d1ddb62613c1d:0x8397b83491c720fd", "name": "Optimus Enviropro Pvt. Ltd. (Delhi Office) Water & Wastewater Treatment | STP | ETP | ZLD | RO&UF | DM Plant Manufacturer", "category": "Sewage treatment plant", "street": "901", "city": "near EIL Pvt. Ltd", "phone": "01141551444", "website": "https://optimusenviro.pro/", "rating": 4, "review_count": "", "latitude": 28.5687656, "longitude": 77.18706759999999, "maps_url": "https://www.google.com/maps/place/?q=place_id:0x390d1ddb62613c1d:0x8397b83491c720fd"}, {"place_id": "0x390d1d85cee04fed:0x1197718a38504d3d", "name": "City Intelligence Pvt. Ltd. \u2013 Private Detective Agency in Delhi", "category": "Private investigator", "street": "UG 38A", "city": "Ansal Chamber-2", "phone": "09811510888", "website": "https://www.cityintelligence.net/", "rating": 4.5, "review_count": "", "latitude": 28.567667099999998, "longitude": 77.1883114, "maps_url": "https://www.google.com/maps/place/?q=place_id:0x390d1d85cee04fed:0x1197718a38504d3d"}, {"place_id": "0x390d1dd3df1c93eb:0x2a197cd694def693", "name": "Aycertis Lifesciences Pvt. Ltd.", "category": "Pharmaceutical company", "street": "UG-42, Ansal Chamber-1, 3", "city": "Bhikaji Cama Place", "phone": "08368502034", "website": "https://www.aycertis.com/", "rating": 5, "review_count": "", "latitude": 28.569158299999998, "longitude": 77.18778429999999, "maps_url": "https://www.google.com/maps/place/?q=place_id:0x390d1dd3df1c93eb:0x2a197cd694def693"}, {"place_id": "0x390d1d84185aaaab:0x662fa21fe0b1564d", "name": "Inis Marketing Services Pvt. Ltd.", "category": "Business management consultant", "street": "Somdutt Chamber 1", "city": "B - 316, 3rd Floor", "phone": "09871582127", "website": "http://www.inis-services.com/", "rating": "", "review_count": "", "latitude": 28.567624799999997, "longitude": 77.1887297, "maps_url": "https://www.google.com/maps/place/?q=place_id:0x390d1d84185aaaab:0x662fa21fe0b1564d"}, {"place_id": "0x390d1d841e293e2d:0xfb24420e313c2319", "name": "THE COORDINATORS", "category": "Event management company", "street": "529-530, 5th Floor, Somdutt Chamber-ll Bhikaji Cama Place", "city": "New Delhi, Delhi 110066", "phone": "08510001851", "website": "https://www.instagram.com/theco_ordinators/?hl=en", "rating": 4.4, "review_count": "", "latitude": 28.5678035, "longitude": 77.1886085, "maps_url": "https://www.google.com/maps/place/?q=place_id:0x390d1d841e293e2d:0xfb24420e313c2319"}, {"place_id": "0x390d07947a303c01:0x6b003b08542d7af7", "name": "Anfo IT Solution | Web Design | Web Development | Mobile Application | App Development | Ecommerce Website in Delhi", "category": "Website designer", "street": "Vijay vihar Phase I, Vijay Vihar, Budh Vihar Phase I, Rohini", "city": "New Delhi, Delhi, 110085", "phone": "08750925996", "website": "https://anfoitsolution.com/", "rating": 4.6, "review_count": "", "latitude": 28.7139614, "longitude": 77.0971658, "maps_url": "https://www.google.com/maps/place/?q=place_id:0x390d07947a303c01:0x6b003b08542d7af7"}, {"place_id": "0x390d1d3fd8418b33:0x7ca883b95bb0889f", "name": "SAEV PRIVATE LIMITED", "category": "Solar Energy Company", "street": "10th Floor", "city": "1002", "phone": "", "website": "http://sa-ev.com/", "rating": 3.5, "review_count": "", "latitude": 28.5688949, "longitude": 77.1865096, "maps_url": "https://www.google.com/maps/place/?q=place_id:0x390d1d3fd8418b33:0x7ca883b95bb0889f"}, {"place_id": "0x390d04ec681aaac3:0x7d3ecfb37e99a884", "name": "AMX Detective Agency in Delhi | Private Detective In Delhi | Detective Agency in Delhi", "category": "Private investigator", "street": "Metro Gate", "city": "AMX Detectives, A 415 Block A, Ansal Chamber", "phone": "01141586701", "website": "http://www.amxdetectives.com/", "rating": 4.6, "review_count": "", "latitude": 28.568728999999998, "longitude": 77.189041, "maps_url": "https://www.google.com/maps/place/?q=place_id:0x390d04ec681aaac3:0x7d3ecfb37e99a884"}, {"place_id": "0x390d1d73633a28c1:0xb0eabf72815145ae", "name": "Royal Computers and Communication", "category": "Computer accessories store", "street": "Somdutt Chamber 1", "city": "Bhikaji Cama Place, UGK 3", "phone": "09810105449", "website": "https://royalcomputersandcommunication.com/", "rating": 4.5, "review_count": "", "latitude": 28.567624799999997, "longitude": 77.1887297, "maps_url": "https://www.google.com/maps/place/?q=place_id:0x390d1d73633a28c1:0xb0eabf72815145ae"}, {"place_id": "0x390d1de913938c2b:0xe26bf499129edc7a", "name": "KOLATH & CO", "category": "Business management consultant", "street": "FFS 4, ANSAL CHAMBERS I", "city": "3", "phone": "09497836863", "website": "http://www.kolath.in/", "rating": 5, "review_count": "", "latitude": 28.568639599999997, "longitude": 77.1886024, "maps_url": "https://www.google.com/maps/place/?q=place_id:0x390d1de913938c2b:0xe26bf499129edc7a"}, {"place_id": "0x390d1d841fefffff:0x60445c4d74e8817a", "name": "SupremeWork | Co-working Space Bhikaji", "category": "Coworking space", "street": "LG-5", "city": "Somdutt Chamber 1", "phone": "08699308453", "website": "https://www.supremework.work/", "rating": 3.1, "review_count": "", "latitude": 28.5679241, "longitude": 77.1890038, "maps_url": "https://www.google.com/maps/place/?q=place_id:0x390d1d841fefffff:0x60445c4d74e8817a"}, {"place_id": "0x390d1d8412b9ce25:0xd2c6483973c34aa9", "name": "Orion PR | PR Agency in Delhi, New Delhi, Delhi NCR | Strategic PR and Crisis Communications | Reputation Management", "category": "Public relations firm", "street": "Ansal Chamber-2", "city": "B-214, Second Floor", "phone": "09910509394", "website": "http://www.orionpr.in/", "rating": 4.8, "review_count": "", "latitude": 28.5692228, "longitude": 77.1877839, "maps_url": "https://www.google.com/maps/place/?q=place_id:0x390d1d8412b9ce25:0xd2c6483973c34aa9"}, {"place_id": "0x390d03cd670898df:0xb689ce8289d9bb71", "name": "Appslure WebSolutions | Mobile App Development Company in Delhi | iOS, Android App Development Company", "category": "Software company", "street": "1113, 11th Floor, Tower - 2", "city": "Pearls Omaxe Tower", "phone": "08595845996", "website": "https://www.appslure.com/", "rating": 4.8, "review_count": "", "latitude": 28.6905841, "longitude": 77.1517968, "maps_url": "https://www.google.com/maps/place/?q=place_id:0x390d03cd670898df:0xb689ce8289d9bb71"}, {"place_id": "0x390d1d84184a339d:0xaead68ca0d5e3ddf", "name": "Macarius Health", "category": "Pharmaceutical company", "street": "6th Floor Office No", "city": "Ansal Chamber-2", "phone": "", "website": "http://macariushealth.com/", "rating": 4.9, "review_count": "", "latitude": 28.5677649, "longitude": 77.187382, "maps_url": "https://www.google.com/maps/place/?q=place_id:0x390d1d84184a339d:0xaead68ca0d5e3ddf"}, {"place_id": "0x390d1d84185aaaab:0x3d64591cbbcd6fcc", "name": "CropLife India", "category": "Corporate office", "street": "702, 7th Floor", "city": "Bhikaji Cama Place", "phone": "01126186296", "website": "http://croplifeindia.org/", "rating": 4.5, "review_count": "", "latitude": 28.5687656, "longitude": 77.18706759999999, "maps_url": "https://www.google.com/maps/place/?q=place_id:0x390d1d84185aaaab:0x3d64591cbbcd6fcc"}, {"place_id": "0x390d1d6c9467ee71:0xd9d189155e6ca44b", "name": "Perfection Security Services", "category": "Security guard service", "street": "First Floor, Somdutt Chamber-2", "city": "Office No- 121 B", "phone": "09312835918", "website": "https://perfectionsecurity.in/", "rating": 5, "review_count": "", "latitude": 28.5680312, "longitude": 77.1885276, "maps_url": "https://www.google.com/maps/place/?q=place_id:0x390d1d6c9467ee71:0xd9d189155e6ca44b"}, {"place_id": "0x390d1d841a0f4d5b:0xec99ca28bd1f05f7", "name": "JP Engineering Services", "category": "Construction equipment supplier", "street": "162", "city": "Bhikaji Cama Place, Rama Krishna Puram", "phone": "", "website": "http://www.jpengggroup.com/", "rating": 4.6, "review_count": "", "latitude": 28.5676299, "longitude": 77.18754129999999, "maps_url": "https://www.google.com/maps/place/?q=place_id:0x390d1d841a0f4d5b:0xec99ca28bd1f05f7"}, {"place_id": "0x390d1d841a0f4d5b:0x1ea67bfcce9a7e24", "name": "SL Entertainment & Events - best event management company in Delhi | corporate event Planners | Celebrity booking", "category": "Event management company", "street": "Ansal Complex", "city": "B-516", "phone": "", "website": "https://slentertainment.in/", "rating": 4.6, "review_count": "", "latitude": 28.568580899999997, "longitude": 77.1882607, "maps_url": "https://www.google.com/maps/place/?q=place_id:0x390d1d841a0f4d5b:0x1ea67bfcce9a7e24"}, {"place_id": "0x390d1d841a0f4d5b:0x118a809e63380493", "name": "Office Care Services Ltd", "category": "Business development service", "street": "A- 40, Mohammadpur, Bhikaji Cama Place", "city": "New Delhi, Delhi 110066", "phone": "01141704894", "website": "http://officecare.in/", "rating": 3.9, "review_count": "", "latitude": 28.5679196, "longitude": 77.1881392, "maps_url": "https://www.google.com/maps/place/?q=place_id:0x390d1d841a0f4d5b:0x118a809e63380493"}, {"place_id": "0x390d1d8405555567:0x4a52bba8b36d9c9e", "name": "Capital Pest Control (India)", "category": "Pest control service", "street": "Ansal Chamber-2", "city": "B 607 Bhikaji Cama Place", "phone": "09810087539", "website": "https://cpcindia.in/", "rating": 4.8, "review_count": "", "latitude": 28.5677649, "longitude": 77.187382, "maps_url": "https://www.google.com/maps/place/?q=place_id:0x390d1d8405555567:0x4a52bba8b36d9c9e"}, {"place_id": "0x390d011e517039e5:0xd7871aa892609a4c", "name": "Top #1 Website Company in delhi", "category": "Software company", "street": "P56H+9CP, Commercial Complex, Gopal Nagar, Model Town", "city": "near Akash Cinema", "phone": "", "website": "", "rating": 4.6, "review_count": "", "latitude": 28.7109375, "longitude": 77.1785625, "maps_url": "https://www.google.com/maps/place/?q=place_id:0x390d011e517039e5:0xd7871aa892609a4c"}, {"place_id": "0x390d1d59c0f4c62d:0x25dafaafbcbe7837", "name": "GO4LEGAL", "category": "Law firm", "street": "405", "city": "Bhikaji Cama Place, Rama Krishna Puram", "phone": "08929201494", "website": "http://www.go4legal.com/", "rating": 5, "review_count": "", "latitude": 28.5676629, "longitude": 77.18819069999999, "maps_url": "https://www.google.com/maps/place/?q=place_id:0x390d1d59c0f4c62d:0x25dafaafbcbe7837"}, {"place_id": "0x390d03b695fce0b5:0x36b6a2b798a2a2ce", "name": "FusionSoft Technologies", "category": "Software company", "street": "Netaji Subhash Place", "city": "Office no 9th floor, Aggarwal cyber plaza", "phone": "", "website": "https://fusionsofttechnologies.com/", "rating": 5, "review_count": "", "latitude": 28.6948665, "longitude": 77.0982027, "maps_url": "https://www.google.com/maps/place/?q=place_id:0x390d03b695fce0b5:0x36b6a2b798a2a2ce"}, {"place_id": "0x390d1d841e2915ed:0x7897d5000837b4af", "name": "Open Estates", "category": "Office space rental agency", "street": "B 51", "city": "Somdutt Chamber 1", "phone": "08826843310", "website": "http://www.officespaceindelhi.com/", "rating": 4.6, "review_count": "", "latitude": 28.5678035, "longitude": 77.1886085, "maps_url": "https://www.google.com/maps/place/?q=place_id:0x390d1d841e2915ed:0x7897d5000837b4af"}, {"place_id": "0x390ce242f9855555:0xd68d50e65db956de", "name": "GVM Global Education Pvt. Ltd.", "category": "Educational consultant", "street": "Ansal Chamber -1", "city": "B-413", "phone": "09999771442", "website": "https://gvmglobal.org/", "rating": 5, "review_count": "", "latitude": 28.569217899999998, "longitude": 77.18890329999999, "maps_url": "https://www.google.com/maps/place/?q=place_id:0x390ce242f9855555:0xd68d50e65db956de"}, {"place_id": "0x390d1d86a4f12173:0x72da2d4e4f077cf0", "name": "BRACEWELL PHARMACEUTICALS", "category": "Pharmaceutical company", "street": "Basement 12A", "city": "Somdutt Chamber-2", "phone": "09811339701", "website": "http://bracewellpharma.com/", "rating": 5, "review_count": "", "latitude": 28.5679837, "longitude": 77.1885526, "maps_url": "https://www.google.com/maps/place/?q=place_id:0x390d1d86a4f12173:0x72da2d4e4f077cf0"}, {"place_id": "0x390d1dc00e3f4ac7:0x6cb79872e21acb12", "name": "Vistramax", "category": "Visa Agent", "street": "Building No 5, Somdutt Chamber 1", "city": "LG 6", "phone": "", "website": "https://www.vistramax.com/", "rating": 5, "review_count": "", "latitude": 28.5677499, "longitude": 77.1886083, "maps_url": "https://www.google.com/maps/place/?q=place_id:0x390d1dc00e3f4ac7:0x6cb79872e21acb12"}, {"place_id": "0x390d1df5be535dc5:0x18d3ab01eefb8dc2", "name": "Astral Pipes", "category": "Pipe Manufacturer", "street": "231,233 & 235, Ansal Chamber-2", "city": "Astral Limited", "phone": "01126168156", "website": "https://www.astralltd.com/astral-pipes/", "rating": 4.6, "review_count": "", "latitude": 28.5677649, "longitude": 77.187382, "maps_url": "https://www.google.com/maps/place/?q=place_id:0x390d1df5be535dc5:0x18d3ab01eefb8dc2"}, {"place_id": "0x390d0361dc6ddf45:0x11f4bd7b1e2df648", "name": "OpenSource Technologies Delhi- Mobile App, Custom Software & AI Solutions", "category": "Software company", "street": "3rd Floor", "city": "167", "phone": "+13307752493", "website": "https://ost.agency/", "rating": 4, "review_count": "", "latitude": 28.7003114, "longitude": 77.13573889999999, "maps_url": "https://www.google.com/maps/place/?q=place_id:0x390d0361dc6ddf45:0x11f4bd7b1e2df648"}, {"place_id": "0x390d027d298fa87b:0x10c4ee194083a814", "name": "Dbest Software", "category": "Software company", "street": "Tower, B, ITL Twin", "city": "506, 110034", "phone": "08588872531", "website": "https://www.dbest.co.in/", "rating": 4.8, "review_count": "", "latitude": 28.691535, "longitude": 77.1522931, "maps_url": "https://www.google.com/maps/place/?q=place_id:0x390d027d298fa87b:0x10c4ee194083a814"}, {"place_id": "0x390d1d8462d7335b:0x667d2ed78e10b867", "name": "NEEPCO Ltd", "category": "Office Accessories Wholesaler", "street": "H59P+6C3", "city": "Bhikaji Cama Place, Rama Krishna Puram", "phone": "", "website": "https://neepco.co.in/", "rating": 4, "review_count": "", "latitude": 28.568004, "longitude": 77.18605699999999, "maps_url": "https://www.google.com/maps/place/?q=place_id:0x390d1d8462d7335b:0x667d2ed78e10b867"}, {"place_id": "0x390d1d841e92eb67:0x1dcf9b11bdcb5d86", "name": "DTDC COURIER BHIKAJI CAMA PLACE A", "category": "Courier service", "street": "BHIKAJI CAMA PLACE 132A 1ST FLOOR, Somdutt Chamber 1, 132 A", "city": "above YES Bank", "phone": "09312948076", "website": "http://dtdc.com/", "rating": 4.6, "review_count": "", "latitude": 28.5676635, "longitude": 77.1889065, "maps_url": "https://www.google.com/maps/place/?q=place_id:0x390d1d841e92eb67:0x1dcf9b11bdcb5d86"}, {"place_id": "0x390cfe2767c704c9:0x7976a0b8535f729b", "name": "Software IT Solution", "category": "Software company", "street": "H.No.188, Gali Number 8", "city": "Chandan Vihar, Virendar Nagar, Block B, West Sant Nagar, Burari", "phone": "09555739718", "website": "http://www.softwareitsolution.com/", "rating": 4.5, "review_count": "", "latitude": 28.7413723, "longitude": 77.1961584, "maps_url": "https://www.google.com/maps/place/?q=place_id:0x390cfe2767c704c9:0x7976a0b8535f729b"}, {"place_id": "0x390d1d952541df8f:0x8c138f10ef38b275", "name": "Corporate Employment Services", "category": "Employment agency", "street": "Ansal Chamber-2", "city": "Bhikaji Cama Place, Rama Krishna Puram", "phone": "", "website": "https://corpemployservices.com/", "rating": 4.3, "review_count": "", "latitude": 28.5677649, "longitude": 77.187382, "maps_url": "https://www.google.com/maps/place/?q=place_id:0x390d1d952541df8f:0x8c138f10ef38b275"}, {"place_id": "0x390d1d0eafffffff:0x553c39a8483a7b5a", "name": "Spaces Talk - Your family Interior Designers", "category": "Interior designer", "street": "Som Datt Chambers", "city": "B 407", "phone": "09810316996", "website": "http://www.spacestalk.com/", "rating": 4.8, "review_count": "", "latitude": 28.568959, "longitude": 77.1879556, "maps_url": "https://www.google.com/maps/place/?q=place_id:0x390d1d0eafffffff:0x553c39a8483a7b5a"}, {"place_id": "0x390d1d8475cc9563:0x7b7a7bd3085d9fbe", "name": "Manu Digital Studio", "category": "Photography studio", "street": "UG-21", "city": "Bhikaji Cama Place, Rama Krishna Puram", "phone": "09999469897", "website": "https://www.instagram.com/manudigitalstudio/", "rating": 4.7, "review_count": "", "latitude": 28.567588899999997, "longitude": 77.1879838, "maps_url": "https://www.google.com/maps/place/?q=place_id:0x390d1d8475cc9563:0x7b7a7bd3085d9fbe"}, {"place_id": "0x390d1d99aa0be97f:0x92f4c675cbcd1ca3", "name": "OneInsure", "category": "Insurance broker", "street": "B-306, Somdatta Chember", "city": "I, 5", "phone": "08655986559", "website": "https://www.oneinsure.com/", "rating": 3.5, "review_count": "", "latitude": 28.5677842, "longitude": 77.18860649999999, "maps_url": "https://www.google.com/maps/place/?q=place_id:0x390d1d99aa0be97f:0x92f4c675cbcd1ca3"}, {"place_id": "0x390cfea83f36661b:0x893715bf8766e4ee", "name": "IT Solution", "category": "Software company", "street": "P7CG+RPF", "city": "Mahalaxmi Vihar, Phase 7, Block A, Shiv Vihar, Karawal Nagar", "phone": "09818231784", "website": "", "rating": 5, "review_count": "", "latitude": 28.722054399999998, "longitude": 77.2768011, "maps_url": "https://www.google.com/maps/place/?q=place_id:0x390cfea83f36661b:0x893715bf8766e4ee"}]}