{"timestamp": 1773729019.497434, "keyword": "IT company", "location": "delhi", "cell_idx": 27, "results": [{"place_id": "0x390d191bdd750067:0xe9639855574194dd", "name": "Digiware It Solutions Pvt Ltd", "category": "Software company", "street": "1st Floor", "city": "plot no 60", "phone": "09999794342", "website": "https://digiwareitsolution.com/", "rating": 5, "review_count": "", "latitude": 28.4874852, "longitude": 77.06640709999999, "maps_url": "https://www.google.com/maps/place/?q=place_id:0x390d191bdd750067:0xe9639855574194dd"}, {"place_id": "0x390d195b233aaaab:0x416cb7b74c179f86", "name": "Trantor Software Pvt Ltd.", "category": "Corporate office", "street": "2nd floor, 91 Springboard, Business Hub Private Limited", "city": "Cabin 2", "phone": "06506467818", "website": "http://trantorinc.com/", "rating": 4.1, "review_count": "", "latitude": 28.486732399999998, "longitude": 77.0745902, "maps_url": "https://www.google.com/maps/place/?q=place_id:0x390d195b233aaaab:0x416cb7b74c179f86"}, {"place_id": "0x390d192fc20b97e7:0x3048b25634f6d955", "name": "Nagarro", "category": "Software company", "street": "Plot 6B, Sub. Major Laxmi Chand Rd", "city": "Maruti Udyog, Sector 18", "phone": "", "website": "https://www.nagarro.com/en", "rating": 4.5, "review_count": "", "latitude": 28.491098599999997, "longitude": 77.0673492, "maps_url": "https://www.google.com/maps/place/?q=place_id:0x390d192fc20b97e7:0x3048b25634f6d955"}, {"place_id": "0x390d191100000001:0x83e113ab96f792a6", "name": "Aithent Technologies Private Limited", "category": "Software company", "street": "Plot 8 & 9", "city": "Electronic City, Udyog Vihar, Sector 18", "phone": "01244514600", "website": "", "rating": 4.3, "review_count": "", "latitude": 28.4992287, "longitude": 77.0683609, "maps_url": "https://www.google.com/maps/place/?q=place_id:0x390d191100000001:0x83e113ab96f792a6"}, {"place_id": "0x390d192339c95cdf:0x48126251f4963f65", "name": "Srchout Software Mobile Application Development Company", "category": "Software company", "street": "Plot No. 8 & 9", "city": "Phase IV, Udyog Vihar, Sector 18", "phone": "08005282881", "website": "https://srchoutsoftware.com/", "rating": 3.7, "review_count": "", "latitude": 28.4909952, "longitude": 77.07843629999999, "maps_url": "https://www.google.com/maps/place/?q=place_id:0x390d192339c95cdf:0x48126251f4963f65"}, {"place_id": "0x390d190c870c17bd:0x4409f3685fd1baf3", "name": "ALITSO INDIA IT CONSULTING PVT LTD", "category": "Computer Hardware Company", "street": "Plot No. 76 D", "city": "Phase IV, Sector 18", "phone": "09168491495", "website": "http://www.alitso.com/", "rating": 5, "review_count": "", "latitude": 28.4851782, "longitude": 77.0657025, "maps_url": "https://www.google.com/maps/place/?q=place_id:0x390d190c870c17bd:0x4409f3685fd1baf3"}, {"place_id": "0x390d233423cb9d69:0xa575a6f599ef7db6", "name": "Proswl Technology Private Limited", "category": "Software company", "street": "90B, Delhi - Jaipur Expy", "city": "Udyog Vihar, Sector 18", "phone": "01244271015", "website": "https://proswl.com/", "rating": 5, "review_count": "", "latitude": 28.485295999999998, "longitude": 77.0746961, "maps_url": "https://www.google.com/maps/place/?q=place_id:0x390d233423cb9d69:0xa575a6f599ef7db6"}, {"place_id": "0x390d196aa65f2787:0x206eea180dde1151", "name": "Targus Technologies", "category": "Software company", "street": "S&A Tower First Floor, Plot 5", "city": "6 and 7", "phone": "01244742300", "website": "http://www.targustech.com/", "rating": 4.1, "review_count": "", "latitude": 28.4914788, "longitude": 77.07879179999999, "maps_url": "https://www.google.com/maps/place/?q=place_id:0x390d196aa65f2787:0x206eea180dde1151"}, {"place_id": "0x390d190dd05e2f47:0xc8bbd0ff4d3e91b0", "name": "Programming.com", "category": "Corporate office", "street": "46", "city": "Sector 18", "phone": "01724946000", "website": "https://programming.com/", "rating": 4.1, "review_count": "", "latitude": 28.4887834, "longitude": 77.0657227, "maps_url": "https://www.google.com/maps/place/?q=place_id:0x390d190dd05e2f47:0xc8bbd0ff4d3e91b0"}, {"place_id": "0x390d1960c2b8367f:0xd2d30e45ac71acea", "name": "Vorombetech Solutions - Top IT & Digitalization Service Company in Gurugram", "category": "Software company", "street": "249", "city": "Phase IV, Udyog Vihar, Sector 19", "phone": "", "website": "https://vorombetech.com/", "rating": 4.8, "review_count": "", "latitude": 28.4941475, "longitude": 77.0808448, "maps_url": "https://www.google.com/maps/place/?q=place_id:0x390d1960c2b8367f:0xd2d30e45ac71acea"}, {"place_id": "0x390d191100000001:0x424476192b3b5b5b", "name": "Binary Semantics Limited", "category": "Software company", "street": "PLot no", "city": "38", "phone": "08929156505", "website": "https://www.binarysemantics.com/", "rating": 3.7, "review_count": "", "latitude": 28.5018823, "longitude": 77.0701466, "maps_url": "https://www.google.com/maps/place/?q=place_id:0x390d191100000001:0x424476192b3b5b5b"}, {"place_id": "0x390d195669b14167:0xdc35ef304e38e313", "name": "DianApps- Top Mobile App Development Company in Gurgaon, India", "category": "Software company", "street": "2nd Floor, Plot No. 8&9", "city": "Phase IV, Sector 18", "phone": "09351584693", "website": "https://dianapps.com/", "rating": 4.6, "review_count": "", "latitude": 28.4909952, "longitude": 77.07843629999999, "maps_url": "https://www.google.com/maps/place/?q=place_id:0x390d195669b14167:0xdc35ef304e38e313"}, {"place_id": "0x390d193f8bc6ee33:0x9291091cccd9e628", "name": "Elcamino Software Pvt. Ltd.", "category": "Corporate office", "street": "194", "city": "Phase IV, Udyog Vihar, Sector 18", "phone": "01244265653", "website": "", "rating": 3.6, "review_count": "", "latitude": 28.495358, "longitude": 77.0796919, "maps_url": "https://www.google.com/maps/place/?q=place_id:0x390d193f8bc6ee33:0x9291091cccd9e628"}, {"place_id": "0x390d192f80e784d3:0x2c271ddf93d663b4", "name": "Tranciscolabs | Mobile App Development Company | Web Development Company", "category": "Software company", "street": "Park", "city": "RGREP", "phone": "09580174570", "website": "https://tranciscolabs.com/", "rating": 4.4, "review_count": "", "latitude": 28.4695091, "longitude": 77.06860209999999, "maps_url": "https://www.google.com/maps/place/?q=place_id:0x390d192f80e784d3:0x2c271ddf93d663b4"}, {"place_id": "0x390d181b03ac9f6f:0x3ec5a92a519f94ad", "name": "Daffodil Software", "category": "Software company", "street": "9th Floor, Tower B1, DLF", "city": "World Tech Park", "phone": "01246817000", "website": "https://www.daffodilsw.com/", "rating": 4.1, "review_count": "", "latitude": 28.465191599999997, "longitude": 77.0564785, "maps_url": "https://www.google.com/maps/place/?q=place_id:0x390d181b03ac9f6f:0x3ec5a92a519f94ad"}, {"place_id": "0x390d19440bc59efb:0xda6549686148f7b4", "name": "PerfectionGeeks Technologies", "category": "Software company", "street": "Plot 378-379, Udyog Vihar Phase 4 Rd", "city": "near nokia building", "phone": "08920947884", "website": "http://www.perfectiongeeks.com/", "rating": 4.9, "review_count": "", "latitude": 28.5002221, "longitude": 77.0730516, "maps_url": "https://www.google.com/maps/place/?q=place_id:0x390d19440bc59efb:0xda6549686148f7b4"}, {"place_id": "0x390d192ead051335:0x1f45fb98e90cc397", "name": "Honeysha Technologies, Software Company in Gurgaon, Digital Marketing Agency in Gurgaon", "category": "Software company", "street": "Cyber City", "city": "U-79/18, Rd Number 79", "phone": "07692079000", "website": "https://honeyshatech.com/", "rating": 4.5, "review_count": "", "latitude": 28.4900566, "longitude": 77.09324459999999, "maps_url": "https://www.google.com/maps/place/?q=place_id:0x390d192ead051335:0x1f45fb98e90cc397"}, {"place_id": "0x390d19aabe7d692b:0xd6ac9bdd0332d56c", "name": "Sirion", "category": "Software company", "street": "8th floor", "city": "One Qube", "phone": "01244915400", "website": "http://www.sirion.ai/", "rating": 4.2, "review_count": "", "latitude": 28.4855172, "longitude": 77.07554449999999, "maps_url": "https://www.google.com/maps/place/?q=place_id:0x390d19aabe7d692b:0xd6ac9bdd0332d56c"}, {"place_id": "0x390d1910da46a7db:0x18c0a10a69f503f8", "name": "Coforge", "category": "Corporate office", "street": "5th & 6th Floor", "city": "Plot No-13", "phone": "02240103100", "website": "https://www.coforge.com/", "rating": 3.9, "review_count": "", "latitude": 28.4915973, "longitude": 77.07432709999999, "maps_url": "https://www.google.com/maps/place/?q=place_id:0x390d1910da46a7db:0x18c0a10a69f503f8"}, {"place_id": "0x390d194723971919:0xbf7b141568ae3cd1", "name": "NKB IT support", "category": "Computer service", "street": "Rao Lal Singh Market", "city": "near Munjhal", "phone": "", "website": "", "rating": 5, "review_count": "", "latitude": 28.49036, "longitude": 77.0730586, "maps_url": "https://www.google.com/maps/place/?q=place_id:0x390d194723971919:0xbf7b141568ae3cd1"}, {"place_id": "0x390ce58c7403e0a1:0x2a35ba3fcd3ecb95", "name": "Akhil Systems Pvt Ltd - Electronic Medical Records Software, Best Hospital Software India, Hospital Management Software", "category": "Software company", "street": "5th Floor", "city": "Incuspaze Building", "phone": "08448799453", "website": "https://akhilsystems.com/", "rating": 3.4, "review_count": "", "latitude": 28.4914019, "longitude": 77.0771321, "maps_url": "https://www.google.com/maps/place/?q=place_id:0x390ce58c7403e0a1:0x2a35ba3fcd3ecb95"}, {"place_id": "0x390ce1877a5ef8eb:0xd5abb94a30425144", "name": "Plusone Technologies Private Limited", "category": "Software company", "street": "Phase IV, Udyog Vihar, Sector 18", "city": "Gurugram, Haryana 122015", "phone": "09891387094", "website": "https://www.plusonetech.co/", "rating": 4.7, "review_count": "", "latitude": 28.4941475, "longitude": 77.0808448, "maps_url": "https://www.google.com/maps/place/?q=place_id:0x390ce1877a5ef8eb:0xd5abb94a30425144"}, {"place_id": "0x390cfd00fd453a1b:0x9b04afa48c2538ec", "name": "Inwoin Technologies Pvt. Ltd.", "category": "Software company", "street": "Building No. 309", "city": "310", "phone": "", "website": "http://www.inwoin.com/", "rating": 4.5, "review_count": "", "latitude": 28.4999559, "longitude": 77.07965879999999, "maps_url": "https://www.google.com/maps/place/?q=place_id:0x390cfd00fd453a1b:0x9b04afa48c2538ec"}, {"place_id": "0x390d193ff211b3fb:0xd964ffb67296e058", "name": "IStrat Software Pvt. Ltd.", "category": "Software company", "street": "90D,", "city": "Udyog Vihar Phase IV, Sector 18", "phone": "01244121000", "website": "", "rating": 3.8, "review_count": "", "latitude": 28.485205399999998, "longitude": 77.0740924, "maps_url": "https://www.google.com/maps/place/?q=place_id:0x390d193ff211b3fb:0xd964ffb67296e058"}, {"place_id": "0x390d1b130dafff9b:0x766056bbabbd78", "name": "Cyber Vision Infotech Pvt Ltd (formerly CV Infotech) \u2013 Gurugram & Noida", "category": "Software company", "street": "Plot No. 94B, Second Floor", "city": "Udyog Vihar Phase V Rd", "phone": "08766291838", "website": "https://www.cvinfotech.com/", "rating": 4.1, "review_count": "", "latitude": 28.499617599999997, "longitude": 77.0835913, "maps_url": "https://www.google.com/maps/place/?q=place_id:0x390d1b130dafff9b:0x766056bbabbd78"}, {"place_id": "0x390d1927c918c30d:0x77c4c1a35f67593b", "name": "Ajath Infotech | Mobile App Development Company", "category": "Software company", "street": "WeWork DLF Forum, Cybercity", "city": "Phase III", "phone": "07838518049", "website": "", "rating": 4.9, "review_count": "", "latitude": 28.4969054, "longitude": 77.0918947, "maps_url": "https://www.google.com/maps/place/?q=place_id:0x390d1927c918c30d:0x77c4c1a35f67593b"}, {"place_id": "0x390d1923af5d91ed:0xbe103b16161f5631", "name": "Condeco Software Private Limited", "category": "Software company", "street": "Tower C", "city": "4th floor building 10", "phone": "01244760150", "website": "http://www.condecosoftware.com/apac", "rating": 4.3, "review_count": "", "latitude": 28.4940696, "longitude": 77.0885457, "maps_url": "https://www.google.com/maps/place/?q=place_id:0x390d1923af5d91ed:0xbe103b16161f5631"}, {"place_id": "0x390d04dd5b5a36ef:0xc6294dd24c52409", "name": "XeliumTech Solutions - Best Mobile App Development Company", "category": "Software company", "street": "Xeliumtech Solutions - Mobile App Development Company", "city": "5, Tenon Ln", "phone": "08800464848", "website": "http://www.xeliumtech.com/", "rating": 4.3, "review_count": "", "latitude": 28.4991502, "longitude": 77.0675995, "maps_url": "https://www.google.com/maps/place/?q=place_id:0x390d04dd5b5a36ef:0xc6294dd24c52409"}, {"place_id": "0x390d1915fa5d766d:0x1d92c0eb013cd4f2", "name": "FIS Global Business Solutions India Pvt. Ltd.", "category": "Corporate office", "street": "402, I Park, Plot No. 15", "city": "Phase IV", "phone": "01243927500", "website": "https://www.fisglobal.com/", "rating": 4.1, "review_count": "", "latitude": 28.490092899999997, "longitude": 77.078841, "maps_url": "https://www.google.com/maps/place/?q=place_id:0x390d1915fa5d766d:0x1d92c0eb013cd4f2"}, {"place_id": "0x390d19298db2fb35:0xcaa0d46737c4561c", "name": "MLM Software Developer | Sunny citrix", "category": "Software company", "street": "office no 427C, 4th floor, vashisht complex", "city": "Sikanderpur", "phone": "07906059336", "website": "http://sunnycitrix.com/", "rating": 4.8, "review_count": "", "latitude": 28.4816798, "longitude": 77.09770569999999, "maps_url": "https://www.google.com/maps/place/?q=place_id:0x390d19298db2fb35:0xcaa0d46737c4561c"}, {"place_id": "0x390d193e3496e041:0xdacae04ce23c8b2f", "name": "Incedo software Plot 109", "category": "Software company", "street": "Plot No. 109", "city": "Phase IV, Udyog Vihar, Sector 18", "phone": "", "website": "http://incedoinc.com/", "rating": 4.4, "review_count": "", "latitude": 28.4925768, "longitude": 77.08060619999999, "maps_url": "https://www.google.com/maps/place/?q=place_id:0x390d193e3496e041:0xdacae04ce23c8b2f"}, {"place_id": "0x390d196dd557600b:0x9d4d1908b3f87bc1", "name": "MetaDesign Solutions - AI , Gen AI & Software Development Company", "category": "Software company", "street": "Plot 28-29", "city": "Electronic City, Phase IV, Udyog Vihar, Sector 18", "phone": "07669913462", "website": "https://metadesignsolutions.com/", "rating": 3.9, "review_count": "", "latitude": 28.5005469, "longitude": 77.0717586, "maps_url": "https://www.google.com/maps/place/?q=place_id:0x390d196dd557600b:0x9d4d1908b3f87bc1"}, {"place_id": "0x390d190d92bc9f29:0x38c4b0794db4dca8", "name": "Kavya Digital Solution", "category": "Website designer", "street": "NO - 54B", "city": "PLOT", "phone": "09911388747", "website": "http://kavyadigitalsolution.com/", "rating": 4.8, "review_count": "", "latitude": 28.490026099999998, "longitude": 77.06718819999999, "maps_url": "https://www.google.com/maps/place/?q=place_id:0x390d190d92bc9f29:0x38c4b0794db4dca8"}, {"place_id": "0x390d19cea409bc97:0xc6e8a3b81530d83e", "name": "Bill Gosling India Private Ltd", "category": "BPO Company", "street": "430", "city": "Phase IV, Udyog Vihar, Sector 18", "phone": "01244229330", "website": "https://www.billgosling.com/", "rating": 4.2, "review_count": "", "latitude": 28.4994452, "longitude": 77.07619059999999, "maps_url": "https://www.google.com/maps/place/?q=place_id:0x390d19cea409bc97:0xc6e8a3b81530d83e"}, {"place_id": "0x390d1972e4565885:0xdbb0a0c36370d249", "name": "Hosting Precise - Web Hosting Company", "category": "Web hosting company", "street": "Plot No 23", "city": "Maruti Industrial Area, Sector 18", "phone": "08595104872", "website": "https://www.hostingprecise.com/", "rating": 4.9, "review_count": "", "latitude": 28.4898737, "longitude": 77.0620363, "maps_url": "https://www.google.com/maps/place/?q=place_id:0x390d1972e4565885:0xdbb0a0c36370d249"}, {"place_id": "0x390d23c3d78e55b3:0xa646d37fc7345909", "name": "eCorpIT", "category": "Software company", "street": "MIQB", "city": "Maruti Industrial Development Area", "phone": "", "website": "https://ecorpit.com/", "rating": 5, "review_count": "", "latitude": 28.4908258, "longitude": 77.0690091, "maps_url": "https://www.google.com/maps/place/?q=place_id:0x390d23c3d78e55b3:0xa646d37fc7345909"}, {"place_id": "0x390d191598f48ef3:0x70991b4ff870f05d", "name": "Shree Partners LLC", "category": "Software company", "street": "1, Tower A, Building, Cyber City", "city": "Corporate Edge Level", "phone": "01246728815", "website": "https://www.shreepartners.com/", "rating": 4.3, "review_count": "", "latitude": 28.4936018, "longitude": 77.088325, "maps_url": "https://www.google.com/maps/place/?q=place_id:0x390d191598f48ef3:0x70991b4ff870f05d"}, {"place_id": "0x390d19174792f4db:0xcb5f589caa71b6e7", "name": "Knocial India Limited", "category": "Software company", "street": "60B", "city": "Udyog Vihar, Sector 22", "phone": "09354120847", "website": "https://www.knocialindia.com/", "rating": 4.7, "review_count": "", "latitude": 28.504239499999997, "longitude": 77.0651981, "maps_url": "https://www.google.com/maps/place/?q=place_id:0x390d19174792f4db:0xcb5f589caa71b6e7"}, {"place_id": "0x390d2292473358e7:0x8571b3368423910b", "name": "HelioNext", "category": "BPO Company", "street": "Plot No", "city": "91springboard Cabin No. 0.53 Ground Floor", "phone": "01244343434", "website": "", "rating": 3.9, "review_count": "", "latitude": 28.4852952, "longitude": 77.0746995, "maps_url": "https://www.google.com/maps/place/?q=place_id:0x390d2292473358e7:0x8571b3368423910b"}, {"place_id": "0x390d19171c5769bd:0x39a2ac8ecb96bb9c", "name": "Genpact", "category": "Software company", "street": "PLOT 22", "city": "Udyog Vihar, Sector 18", "phone": "", "website": "http://www.genpact.com/", "rating": 4.1, "review_count": "", "latitude": 28.4867068, "longitude": 77.0760523, "maps_url": "https://www.google.com/maps/place/?q=place_id:0x390d19171c5769bd:0x39a2ac8ecb96bb9c"}, {"place_id": "0x390d194750e12601:0x35dc020ed851aa3c", "name": "Incedo Inc.", "category": "Software company", "street": "Plot No.-248", "city": "Phase IV, Udyog Vihar, Sector 18", "phone": "01244345901", "website": "http://www.incedoinc.com/", "rating": 4.1, "review_count": "", "latitude": 28.497866799999997, "longitude": 77.0821045, "maps_url": "https://www.google.com/maps/place/?q=place_id:0x390d194750e12601:0x35dc020ed851aa3c"}, {"place_id": "0x390d19145ca96a51:0xb3afb1009960de39", "name": "Altius Infrastructure Investment Trust", "category": "Corporate office", "street": "Anant Marg Maruti Industrial Complex", "city": "Plot No. 14-A", "phone": "01244464000", "website": "", "rating": 4.2, "review_count": "", "latitude": 28.4913819, "longitude": 77.075169, "maps_url": "https://www.google.com/maps/place/?q=place_id:0x390d19145ca96a51:0xb3afb1009960de39"}, {"place_id": "0x390d19369518181d:0x5feab9c18d50d09e", "name": "Tranciscolabs", "category": "Software company", "street": "Floor , U", "city": "R-15, Fourth", "phone": "08076608462", "website": "https://www.tranciscolabs.com/", "rating": 4.5, "review_count": "", "latitude": 28.4928071, "longitude": 77.0953923, "maps_url": "https://www.google.com/maps/place/?q=place_id:0x390d19369518181d:0x5feab9c18d50d09e"}, {"place_id": "0x390d192b25446fd9:0xfa30aac40a8f26ad", "name": "Digitem", "category": "Software company", "street": "7th Floor", "city": "STPI", "phone": "", "website": "http://www.digitem.tech/", "rating": 5, "review_count": "", "latitude": 28.5006655, "longitude": 77.06961919999999, "maps_url": "https://www.google.com/maps/place/?q=place_id:0x390d192b25446fd9:0xfa30aac40a8f26ad"}, {"place_id": "0x390d1964921a1d9b:0x1fde406005cf8a72", "name": "Software Development Company in Gurgaon | Metafrone", "category": "Software company", "street": "M-45, First Floor", "city": "Mehrauli-Gurgaon Rd", "phone": "09811004471", "website": "http://www.insoftsys.com/", "rating": 5, "review_count": "", "latitude": 28.4693562, "longitude": 77.0441388, "maps_url": "https://www.google.com/maps/place/?q=place_id:0x390d1964921a1d9b:0x1fde406005cf8a72"}, {"place_id": "0x390d1946a4b0d01f:0xab23cbaa408b3b9c", "name": "Tagbin Services Pvt. Ltd. \u2013 Best AI & Experiential Tech Company in Gurgaon", "category": "Software company", "street": "3rd Floor, Wing A, Enkay Centre", "city": "Vaniya Kunj", "phone": "08178112682", "website": "https://tagbin.in/", "rating": 4.2, "review_count": "", "latitude": 28.4974691, "longitude": 77.08654609999999, "maps_url": "https://www.google.com/maps/place/?q=place_id:0x390d1946a4b0d01f:0xab23cbaa408b3b9c"}, {"place_id": "0x390d185739b22a15:0x9f6748278ced78ed", "name": "TS Infotech India Pvt. Ltd.", "category": "Software company", "street": "Tower A, 5th Floor, Unit 517-522, 526, 527, 534", "city": "Park Centra, BPTP", "phone": "01244935903", "website": "", "rating": 4.7, "review_count": "", "latitude": 28.459949199999997, "longitude": 77.0515892, "maps_url": "https://www.google.com/maps/place/?q=place_id:0x390d185739b22a15:0x9f6748278ced78ed"}, {"place_id": "0x390d19404f4f65d5:0xc7a5e785eb2e8ef6", "name": "Infodart Technologies Ltd", "category": "Software company", "street": "2nd floor", "city": "plot no 254", "phone": "", "website": "https://www.infodartglobal.com/", "rating": 4, "review_count": "", "latitude": 28.4979135, "longitude": 77.0815518, "maps_url": "https://www.google.com/maps/place/?q=place_id:0x390d19404f4f65d5:0xc7a5e785eb2e8ef6"}, {"place_id": "0x390ce458d0000001:0xf2123bd299ec4501", "name": "IT Company India", "category": "Software company", "street": "D56", "city": "D Block, Sector 10", "phone": "09999244854", "website": "https://www.itcompanyindia.in/", "rating": 4.7, "review_count": "", "latitude": 28.589917699999997, "longitude": 77.3351153, "maps_url": "https://www.google.com/maps/place/?q=place_id:0x390ce458d0000001:0xf2123bd299ec4501"}, {"place_id": "0x390d183a3846403b:0x8fd7c90645a11f72", "name": "Vashist IT Solutions Pvt Ltd", "category": "Software company", "street": "729", "city": "Islampur Village, Sector 38", "phone": "09718216517", "website": "https://vashist.tech/", "rating": 4.4, "review_count": "", "latitude": 28.4305924, "longitude": 77.0415957, "maps_url": "https://www.google.com/maps/place/?q=place_id:0x390d183a3846403b:0x8fd7c90645a11f72"}, {"place_id": "0x390d19437cb628b3:0x12e71803eb09ac16", "name": "Clavax Technologies", "category": "Software company", "street": "727", "city": "Udyog Vihar, Phase 5", "phone": "+18444252829", "website": "http://www.clavax.com/", "rating": 4.1, "review_count": "", "latitude": 28.5052123, "longitude": 77.0850025, "maps_url": "https://www.google.com/maps/place/?q=place_id:0x390d19437cb628b3:0x12e71803eb09ac16"}, {"place_id": "0x390d1912f5f4daeb:0x6ec328cd97467b28", "name": "Siemens", "category": "Engineer", "street": "Plot 6A", "city": "Sector 37, Maruti Udyog, Sector 18", "phone": "", "website": "https://new.siemens.com/in/en.html?stc=wwsi111586", "rating": 4.3, "review_count": "", "latitude": 28.491147299999998, "longitude": 77.068304, "maps_url": "https://www.google.com/maps/place/?q=place_id:0x390d1912f5f4daeb:0x6ec328cd97467b28"}, {"place_id": "0x390d19316748a39b:0x427bebf40160d8ac", "name": "Construe IT Solutions Pvt. Ltd.", "category": "Software company", "street": "R # 3", "city": "56/10", "phone": "08130713756", "website": "http://www.construesol.com/", "rating": 4, "review_count": "", "latitude": 28.489741799999997, "longitude": 77.0963127, "maps_url": "https://www.google.com/maps/place/?q=place_id:0x390d19316748a39b:0x427bebf40160d8ac"}, {"place_id": "0x390d19437e719739:0x14737a286b425c55", "name": "Mediology Software", "category": "Software company", "street": "Tower B, 4th Floor", "city": "ASF Towers", "phone": "01244747500", "website": "https://www.mediologysoftware.com/", "rating": 4.1, "review_count": "", "latitude": 28.4966176, "longitude": 77.0842566, "maps_url": "https://www.google.com/maps/place/?q=place_id:0x390d19437e719739:0x14737a286b425c55"}, {"place_id": "0x390d195c26bfa369:0x69bd8efd2e3a31fe", "name": "Radical Minds Technologies Pvt. Ltd.", "category": "BPO Company", "street": "368", "city": "Phase II, Udyog Vihar, Sector 20", "phone": "01244338366", "website": "http://www.radicalminds.in/", "rating": 4.2, "review_count": "", "latitude": 28.506335099999998, "longitude": 77.0877546, "maps_url": "https://www.google.com/maps/place/?q=place_id:0x390d195c26bfa369:0x69bd8efd2e3a31fe"}, {"place_id": "0x390d19361c56cecd:0x50517af3dc928d70", "name": "Mycom", "category": "Software company", "street": "7th Floor", "city": "Building 8b", "phone": "01244508000", "website": "http://www.mycom-osi.com/", "rating": 4.3, "review_count": "", "latitude": 28.4982059, "longitude": 77.0900367, "maps_url": "https://www.google.com/maps/place/?q=place_id:0x390d19361c56cecd:0x50517af3dc928d70"}, {"place_id": "0x390ce3b5c2a11543:0xc4df0cd95534bf85", "name": "LimeTray", "category": "Software company", "street": "2nd Floor", "city": "815", "phone": "", "website": "https://limetray.com/", "rating": 3.6, "review_count": "", "latitude": 28.5015508, "longitude": 77.08626919999999, "maps_url": "https://www.google.com/maps/place/?q=place_id:0x390ce3b5c2a11543:0xc4df0cd95534bf85"}, {"place_id": "0x390d19a74e9e565b:0xedb966793c579ad7", "name": "CNH Industrial Gurgaon", "category": "Corporate office", "street": "Plot No", "city": "3rd Floor, ATC Tower", "phone": "01246659100", "website": "http://www.cnhindustrial.com/", "rating": 4.2, "review_count": "", "latitude": 28.4920188, "longitude": 77.0752547, "maps_url": "https://www.google.com/maps/place/?q=place_id:0x390d19a74e9e565b:0xedb966793c579ad7"}, {"place_id": "0x390d18414bb12f0f:0x590c025fd2a801b6", "name": "Smssofts Software & Website Development Company in Gurgaon", "category": "Software company", "street": "house 571", "city": "Sector 15 Part 1, Sector 15", "phone": "07970756296", "website": "", "rating": 4.9, "review_count": "", "latitude": 28.4510391, "longitude": 77.03794769999999, "maps_url": "https://www.google.com/maps/place/?q=place_id:0x390d18414bb12f0f:0x590c025fd2a801b6"}, {"place_id": "0x390d190b8996b54d:0xa4d9ad7263547701", "name": "Company", "category": "Corporate office", "street": "The Coworking Space", "city": "A-14/15 DLF Phase 1, Sector 26 A Truworx", "phone": "01140844560", "website": "https://www.quickcompany.in/", "rating": 4.1, "review_count": "", "latitude": 28.474366699999997, "longitude": 77.0943154, "maps_url": "https://www.google.com/maps/place/?q=place_id:0x390d190b8996b54d:0xa4d9ad7263547701"}, {"place_id": "0x390d1930ce6b42f9:0xb39219cee9e1d009", "name": "Intelli Vectra Technologies Pvt. Ltd.", "category": "Computer support and services", "street": "Intelli Vectra Technologies, Dynamic House Plot No. 29, Sub. Major Laxmi Chand Rd, Sector 18", "city": "Udyog Vihar, 4", "phone": "01244960635", "website": "https://www.intellivectra.tech/", "rating": 3.5, "review_count": "", "latitude": 28.490693, "longitude": 77.0743589, "maps_url": "https://www.google.com/maps/place/?q=place_id:0x390d1930ce6b42f9:0xb39219cee9e1d009"}, {"place_id": "0x390ce18cddf14577:0x70314701f8d76d96", "name": "NMDSOFT SOFTWARE & NETWORK PVT LTD", "category": "Software company", "street": "55-56, Mehrauli-Gurgaon Rd", "city": "U Block, DLF Phase 3, Sector 24", "phone": "02240375751", "website": "https://www.nmdsoft.co.in/", "rating": 5, "review_count": "", "latitude": 28.4861491, "longitude": 77.0953779, "maps_url": "https://www.google.com/maps/place/?q=place_id:0x390ce18cddf14577:0x70314701f8d76d96"}, {"place_id": "0x390d196a4a46c73b:0xf41908c944238963", "name": "VConsyst Software Solutions", "category": "Software company", "street": "F3XG+QP5", "city": "NH 8", "phone": "01244382364", "website": "http://www.vconsyst.co.uk/", "rating": 4.3, "review_count": "", "latitude": 28.499377, "longitude": 77.076849, "maps_url": "https://www.google.com/maps/place/?q=place_id:0x390d196a4a46c73b:0xf41908c944238963"}, {"place_id": "0x390d19be4ae5ef63:0xa4a7fcfb04a1e4cd", "name": "Teleperformance", "category": "Software company", "street": "96", "city": "Phase IV, Udyog Vihar, Sector 18", "phone": "01244221050", "website": "http://teleperformance.com/", "rating": 3.8, "review_count": "", "latitude": 28.492676699999997, "longitude": 77.0793487, "maps_url": "https://www.google.com/maps/place/?q=place_id:0x390d19be4ae5ef63:0xa4a7fcfb04a1e4cd"}, {"place_id": "0x390d193feaaaaaab:0x7a36da7465a8aea3", "name": "SoftAge Information Technology Limited", "category": "Corporate office", "street": "204", "city": "Phase IV, Udyog Vihar, Sector 18", "phone": "09999886622", "website": "http://www.softage.net/", "rating": 4.3, "review_count": "", "latitude": 28.496942699999998, "longitude": 77.0796953, "maps_url": "https://www.google.com/maps/place/?q=place_id:0x390d193feaaaaaab:0x7a36da7465a8aea3"}, {"place_id": "0x390d19b51e5edf49:0xd17618454eb66b58", "name": "STERLING MANUFACTURING COMPANY", "category": "Manufacturer", "street": "2nd Floor", "city": "249", "phone": "09310644419", "website": "https://sterlingmfgco.com/", "rating": 4.8, "review_count": "", "latitude": 28.498040099999997, "longitude": 77.0824007, "maps_url": "https://www.google.com/maps/place/?q=place_id:0x390d19b51e5edf49:0xd17618454eb66b58"}, {"place_id": "0x390d1f4effffffff:0xcfc715ac63417946", "name": "Bechtel India Private Limited", "category": "Corporate office", "street": "244-245", "city": "Phase IV, Udyog Vihar, Knowledge Park", "phone": "01244098000", "website": "http://www.bechtel.com/", "rating": 4.4, "review_count": "", "latitude": 28.4956277, "longitude": 77.0839426, "maps_url": "https://www.google.com/maps/place/?q=place_id:0x390d1f4effffffff:0xcfc715ac63417946"}, {"place_id": "0x390d1940f78c23cd:0x6228401c0ddf3d8c", "name": "Intellect Commerce", "category": "Software company", "street": "249, Rao Gajraj Singh Marg", "city": "Phase IV, Udyog Vihar, Sector 18", "phone": "01243916300", "website": "http://www.intellectcommerce.com/", "rating": 4, "review_count": "", "latitude": 28.4979142, "longitude": 77.0824324, "maps_url": "https://www.google.com/maps/place/?q=place_id:0x390d1940f78c23cd:0x6228401c0ddf3d8c"}, {"place_id": "0x390d192409eb1411:0xbf1f68f4b2dd1d69", "name": "Appicia Technologies", "category": "Software company", "street": "Third floor", "city": "Ashirwad", "phone": "08076917265", "website": "https://appicia.com/", "rating": 5, "review_count": "", "latitude": 28.4885505, "longitude": 77.01963889999999, "maps_url": "https://www.google.com/maps/place/?q=place_id:0x390d192409eb1411:0xbf1f68f4b2dd1d69"}, {"place_id": "0x390d190e40355443:0xb149b16212ffb798", "name": "Enhance Business Solutions | EBS", "category": "Business management consultant", "street": "75-C", "city": "Sector 18", "phone": "09999883913", "website": "https://www.enhancebusinesssolutions.com/", "rating": 3.8, "review_count": "", "latitude": 28.4876743, "longitude": 77.06481149999999, "maps_url": "https://www.google.com/maps/place/?q=place_id:0x390d190e40355443:0xb149b16212ffb798"}, {"place_id": "0x484025b6488f98dd:0x648bed1c75013da8", "name": "Codevio Digital \u2013 IT & Software Company in Gurgaon", "category": "Software company", "street": "UNITECH CYBER PARK", "city": "Durga Colony, Sector 39", "phone": "07428036870", "website": "https://codevio.io/", "rating": 4.8, "review_count": "", "latitude": 28.443307899999997, "longitude": 77.0561005, "maps_url": "https://www.google.com/maps/place/?q=place_id:0x484025b6488f98dd:0x648bed1c75013da8"}, {"place_id": "0x390d191d0bb8a9db:0xf6295047e107a843", "name": "Robust Infotech - IT Services | Digital Transformation | Best Website/Software Development Company", "category": "Software company", "street": "90B, Delhi - Jaipur Expy", "city": "Nitin Vihar, Udyog Vihar, Sector 18", "phone": "07982914476", "website": "", "rating": 5, "review_count": "", "latitude": 28.441292299999997, "longitude": 77.0148859, "maps_url": "https://www.google.com/maps/place/?q=place_id:0x390d191d0bb8a9db:0xf6295047e107a843"}, {"place_id": "0x390d196afa4ef041:0xab97b1e2b11c55ff", "name": "Altudo", "category": "Internet marketing service", "street": "Plot 29", "city": "Sector 18", "phone": "01244951900", "website": "https://www.altudo.co/", "rating": 4, "review_count": "", "latitude": 28.4906328, "longitude": 77.07472949999999, "maps_url": "https://www.google.com/maps/place/?q=place_id:0x390d196afa4ef041:0xab97b1e2b11c55ff"}, {"place_id": "0x390d1846bf95334b:0xdb60e62cb25dbc6a", "name": "ALPHA INFOTECH - A Total IT Solution Company", "category": "Software company", "street": "Plot No-36", "city": "Sector 15 Part 2, 1", "phone": "01244004035", "website": "https://alphainfotech.co.in/", "rating": 4.1, "review_count": "", "latitude": 28.4577043, "longitude": 77.045251, "maps_url": "https://www.google.com/maps/place/?q=place_id:0x390d1846bf95334b:0xdb60e62cb25dbc6a"}, {"place_id": "0x390d190dc177fca5:0x17f32933dc359766", "name": "ALP Nishikawa Pvt Ltd", "category": "Industrial consultant", "street": "Plot No 32", "city": "Sarhaul, Sector 18", "phone": "01244731600", "website": "https://alpgroup.in/", "rating": 4.2, "review_count": "", "latitude": 28.4895104, "longitude": 77.0663345, "maps_url": "https://www.google.com/maps/place/?q=place_id:0x390d190dc177fca5:0x17f32933dc359766"}, {"place_id": "0x390ce1e2f2a90237:0x9ea00ec25e9f8061", "name": "IndiaLends", "category": "Loan agency", "street": "Plot no. 31, First Floor", "city": "Udyog Vihar, Sector 18", "phone": "", "website": "https://indialends.com/", "rating": 4.5, "review_count": "", "latitude": 28.490586699999998, "longitude": 77.0738841, "maps_url": "https://www.google.com/maps/place/?q=place_id:0x390ce1e2f2a90237:0x9ea00ec25e9f8061"}, {"place_id": "0x390d19c4f81c373b:0x569790526001fe47", "name": "Pasenture Technologies - Web Development Company in Gurugram, Software Development Company in Gurgaon for CRM & Saas Software", "category": "Software company", "street": "2nd Floor", "city": "90, IDC", "phone": "09717197498", "website": "https://pasenture.in/", "rating": 4, "review_count": "", "latitude": 28.4716508, "longitude": 77.0509349, "maps_url": "https://www.google.com/maps/place/?q=place_id:0x390d19c4f81c373b:0x569790526001fe47"}, {"place_id": "0x390d19138a5ab39f:0x5c84685984b1dbad", "name": "PDS International Pvt. Ltd.", "category": "Corporate office", "street": "Plot No.31, Sector 18, Udoyg Vihar IV", "city": "Near Passport Office", "phone": "01242343020", "website": "https://www.pdsinternational.in/", "rating": 4.2, "review_count": "", "latitude": 28.4906352, "longitude": 77.0733219, "maps_url": "https://www.google.com/maps/place/?q=place_id:0x390d19138a5ab39f:0x5c84685984b1dbad"}, {"place_id": "0x390d17baf1d91a9b:0x7857ae3c25b3e384", "name": "ALP Group", "category": "Manufacturer", "street": "Plot Number 32", "city": "Sarhaul, Sector 18", "phone": "01244731500", "website": "https://www.alpgroup.in/", "rating": 4.3, "review_count": "", "latitude": 28.489551, "longitude": 77.0665315, "maps_url": "https://www.google.com/maps/place/?q=place_id:0x390d17baf1d91a9b:0x7857ae3c25b3e384"}, {"place_id": "0x390d195b82955c11:0x4ac608c95db239fa", "name": "Worxpertise (Edge Business Solutions Pvt. Ltd.)", "category": "Business to business service", "street": "4th Floor, WING-B", "city": "AIHP Tower", "phone": "", "website": "https://worxpertise.com/", "rating": 4.1, "review_count": "", "latitude": 28.497374899999997, "longitude": 77.0827276, "maps_url": "https://www.google.com/maps/place/?q=place_id:0x390d195b82955c11:0x4ac608c95db239fa"}, {"place_id": "0x390d1e78179e91b1:0x22d145b4609d73ee", "name": "GR Infraprojects Limited", "category": "Real Estate Builders & Construction Company", "street": "Maruti Industrial Complex", "city": "GR One", "phone": "01246435000", "website": "http://www.grinfra.com/", "rating": 4.5, "review_count": "", "latitude": 28.4916491, "longitude": 77.0776921, "maps_url": "https://www.google.com/maps/place/?q=place_id:0x390d1e78179e91b1:0x22d145b4609d73ee"}, {"place_id": "0x390cfb4bf15a6733:0xaf50e6f3c5fb7641", "name": "Digitals Daddy: Web & App Development Company", "category": "Software company", "street": "Metro Gate No. 2", "city": "Nearest Sikandarpur", "phone": "09818286609", "website": "https://www.digitalsdaddy.com/", "rating": 4.9, "review_count": "", "latitude": 28.4847884, "longitude": 77.0922192, "maps_url": "https://www.google.com/maps/place/?q=place_id:0x390cfb4bf15a6733:0xaf50e6f3c5fb7641"}, {"place_id": "0x390d1adc6aaaaaab:0x18be755d32201133", "name": "Aakash Educational Services Limited - Corporate Office - Udyog Vihar, Gurugram", "category": "Corporate office", "street": "Plot No. 13", "city": "Udyog Vihar, Sector 18", "phone": "01147623456", "website": "https://iacst.aakash.ac.in/iacstexam/?utm_source=google_local&utm_medium=organic", "rating": 4.1, "review_count": "", "latitude": 28.4914529, "longitude": 77.0743172, "maps_url": "https://www.google.com/maps/place/?q=place_id:0x390d1adc6aaaaaab:0x18be755d32201133"}, {"place_id": "0x390d1905cf9418ab:0x68c73ef2c55c6a92", "name": "Dixinfotech | Best Web Development Company in Gurgaon", "category": "Software company", "street": "Plot No. 96, 1st Floor", "city": "Udyog Vihar Phase 1, Sector 20", "phone": "09717106162", "website": "https://www.dixinfotech.com/website-designing-company-in-gurgaon", "rating": 5, "review_count": "", "latitude": 28.5169219, "longitude": 77.0803425, "maps_url": "https://www.google.com/maps/place/?q=place_id:0x390d1905cf9418ab:0x68c73ef2c55c6a92"}, {"place_id": "0x390d19e053e401e5:0xd91a4cbd07c1d249", "name": "Entra solutions Pvt. Ltd", "category": "Corporate office", "street": "1st Floor", "city": "Plot no 13", "phone": "", "website": "http://www.bsifinancial.com/", "rating": 4.8, "review_count": "", "latitude": 28.4914943, "longitude": 77.07433139999999, "maps_url": "https://www.google.com/maps/place/?q=place_id:0x390d19e053e401e5:0xd91a4cbd07c1d249"}, {"place_id": "0x390d19965573cd17:0x1b00f98b620a1705", "name": "BAKSON COMPANY", "category": "Corporate office", "street": "Plot No 145", "city": "Phase IV, Udyog Vihar, Sector 18", "phone": "", "website": "", "rating": 4.8, "review_count": "", "latitude": 28.4970067, "longitude": 77.0789631, "maps_url": "https://www.google.com/maps/place/?q=place_id:0x390d19965573cd17:0x1b00f98b620a1705"}, {"place_id": "0x390d191300000001:0xa92a4d1f909a5391", "name": "Networth Projects (A Solar Power Company)", "category": "Solar Energy Company", "street": "Networth Projects Pvt Ltd", "city": "G.P-45", "phone": "09811268698", "website": "http://networthprojects.com/", "rating": 4.8, "review_count": "", "latitude": 28.4893799, "longitude": 77.06375799999999, "maps_url": "https://www.google.com/maps/place/?q=place_id:0x390d191300000001:0xa92a4d1f909a5391"}, {"place_id": "0x390d19345bcdc4f3:0x61d5221ed2c17f35", "name": "Cognizant", "category": "Software company", "street": "Tower C, SEZ Building, Building No 6, 5th & 6th Floor DLF C yber City Rd W Block", "city": "Near Shankar Chowk", "phone": "", "website": "http://www.cognizant.com/india", "rating": 4.1, "review_count": "", "latitude": 28.4964521, "longitude": 77.096576, "maps_url": "https://www.google.com/maps/place/?q=place_id:0x390d19345bcdc4f3:0x61d5221ed2c17f35"}, {"place_id": "0x390d193c3a36e523:0xe68f8d2568faeaad", "name": "Espire Infolabs Pvt. Ltd.", "category": "Software company", "street": "486 & 487", "city": "Phase III, Udyog Vihar III, Sector 20", "phone": "01247173000", "website": "http://www.espire.com/", "rating": 4.1, "review_count": "", "latitude": 28.5119516, "longitude": 77.0899661, "maps_url": "https://www.google.com/maps/place/?q=place_id:0x390d193c3a36e523:0xe68f8d2568faeaad"}, {"place_id": "0x390d19ccdddf8c25:0x3068454491716887", "name": "Machino Plastics Limited", "category": "Plastic Injection Molding Workshop", "street": "Place No 3, Maruti Join Venture Complex", "city": "Sector 18, Delhi - Jaipur Expy", "phone": "01242341218", "website": "http://www.machino.com/", "rating": 4.3, "review_count": "", "latitude": 28.4951875, "longitude": 77.0783182, "maps_url": "https://www.google.com/maps/place/?q=place_id:0x390d19ccdddf8c25:0x3068454491716887"}, {"place_id": "0x390d1927b07807c3:0xe807c871bbf6b9b3", "name": "Corewave- CRM, ERP, Mobile app, Software Development Company Gurgaon, Digital Marketing, SEO Company in Gurgaon", "category": "Software company", "street": "Tower B1, Sector 30 DLF", "city": "Silokhera, SEZ", "phone": "09810676072", "website": "https://corewave.io/", "rating": 4.6, "review_count": "", "latitude": 28.4606674, "longitude": 77.0518158, "maps_url": "https://www.google.com/maps/place/?q=place_id:0x390d1927b07807c3:0xe807c871bbf6b9b3"}, {"place_id": "0x390d199136403043:0x2b1694bb78c06df4", "name": "LINETECH IT SOLUTIONS PVT LTD", "category": "Software company", "street": "645/38,Ground Floor", "city": "Ashok Vihar Phase- 1", "phone": "09311733006", "website": "http://www.linetech.in/", "rating": 5, "review_count": "", "latitude": 28.4855302, "longitude": 77.018385, "maps_url": "https://www.google.com/maps/place/?q=place_id:0x390d199136403043:0x2b1694bb78c06df4"}, {"place_id": "0x390d195483e39b25:0xdb284651b4ad712", "name": "Defitex Innovative Solutions Pvt Ltd", "category": "Consultant", "street": "MiQB", "city": "Maruti Industrial Development Area", "phone": "04069867149", "website": "", "rating": 4.5, "review_count": "", "latitude": 28.4895772, "longitude": 77.06224379999999, "maps_url": "https://www.google.com/maps/place/?q=place_id:0x390d195483e39b25:0xdb284651b4ad712"}, {"place_id": "0x390d193c3a36fabd:0x8bd7aacd8793bdb7", "name": "Orange Business Services", "category": "Public relations firm", "street": "Infinity Tower 8, Tower B", "city": "DLF Cyber City, DLF Phase 2, Sector 25", "phone": "", "website": "http://www.orange-business.com/", "rating": 4.5, "review_count": "", "latitude": 28.495814199999998, "longitude": 77.0910088, "maps_url": "https://www.google.com/maps/place/?q=place_id:0x390d193c3a36fabd:0x8bd7aacd8793bdb7"}, {"place_id": "0x390d19d28a207fb1:0xe90aac3649a191c9", "name": "RegisterKaro - Best Company Registration, Compliance & CA Services in Sector 18, Gurgaon", "category": "Accounting firm", "street": "Udyog Vihar, Sector 18", "city": "Gurugram, Sarhol, Haryana 122015", "phone": "", "website": "https://www.registerkaro.in/", "rating": 4.3, "review_count": "", "latitude": 28.4906667, "longitude": 77.0733168, "maps_url": "https://www.google.com/maps/place/?q=place_id:0x390d19d28a207fb1:0xe90aac3649a191c9"}, {"place_id": "0x390d19158765706b:0x7940981b18929c00", "name": "Infogix International Pvt. Ltd.", "category": "Software company", "street": "5 th floor", "city": "Tower 10", "phone": "01244802900", "website": "https://www.infogix.com/", "rating": 4, "review_count": "", "latitude": 28.4945511, "longitude": 77.08714619999999, "maps_url": "https://www.google.com/maps/place/?q=place_id:0x390d19158765706b:0x7940981b18929c00"}, {"place_id": "0xa3201c15251f37f:0x7117eb0ec740a161", "name": "Precision Asset Solutions Private Limited", "category": "Leasing service", "street": "6th Floor", "city": "Maruti Industrial Complex", "phone": "", "website": "https://precisionasset.in/", "rating": 5, "review_count": "", "latitude": 28.4920188, "longitude": 77.0752547, "maps_url": "https://www.google.com/maps/place/?q=place_id:0xa3201c15251f37f:0x7117eb0ec740a161"}, {"place_id": "0x390d19133f1a89cb:0x5aa639df95e5848b", "name": "V2 Retail Limited (Corporate Office)", "category": "Corporate office", "street": "2nd Floor", "city": "13, Sub. Major Laxmi Chand Rd", "phone": "08130907705", "website": "https://v2retail.com/", "rating": 4.3, "review_count": "", "latitude": 28.4916323, "longitude": 77.0743444, "maps_url": "https://www.google.com/maps/place/?q=place_id:0x390d19133f1a89cb:0x5aa639df95e5848b"}, {"place_id": "0x390d197ce59fc911:0x12397f04c12d7c17", "name": "Incuspaze Gurgaon Campus 2", "category": "Coworking space", "street": "Plot No. 13", "city": "Phase IV, Maruti Udyog, Sector 18", "phone": "09930662621", "website": "https://www.incuspaze.com/gurugram/space-details/incuspaze-campus-2?utm_source=gmb&utm_medium=organic&utm_campaign=incuspaze&utm_content=gurgaon_Campus_2", "rating": 4.5, "review_count": "", "latitude": 28.4916269, "longitude": 77.07434219999999, "maps_url": "https://www.google.com/maps/place/?q=place_id:0x390d197ce59fc911:0x12397f04c12d7c17"}, {"place_id": "0x390d196ef0493d6b:0xaef80ac4c4873fae", "name": "QUARTH IT SOLUTIONS PVT. LTD.", "category": "Software company", "street": "M-18, Ground Floor", "city": "near Sani Mandir", "phone": "01244324094", "website": "", "rating": 4.5, "review_count": "", "latitude": 28.4698493, "longitude": 77.0442382, "maps_url": "https://www.google.com/maps/place/?q=place_id:0x390d196ef0493d6b:0xaef80ac4c4873fae"}]}