{"timestamp": 1773730629.8074725, "keyword": "IT company", "location": "delhi", "cell_idx": 269, "results": [{"place_id": "0x390ce3f20c6829af:0x2eae6f32c0e7c919", "name": "PredCo", "category": "Software company", "street": "Third Floor", "city": "Building", "phone": "", "website": "https://www.predco.ai/", "rating": 5, "review_count": "", "latitude": 28.550630899999998, "longitude": 77.2141618, "maps_url": "https://www.google.com/maps/place/?q=place_id:0x390ce3f20c6829af:0x2eae6f32c0e7c919"}, {"place_id": "0x390ce3145be49c05:0x6b98d67ff89ba24f", "name": "Kraya AI", "category": "Software company", "street": "Fourth floor", "city": "Vijay Tower", "phone": "", "website": "https://kraya-ai.com/", "rating": 4.8, "review_count": "", "latitude": 28.5481184, "longitude": 77.2114849, "maps_url": "https://www.google.com/maps/place/?q=place_id:0x390ce3145be49c05:0x6b98d67ff89ba24f"}, {"place_id": "0x390ce21432814f0d:0xbbfd1c84a5a1e545", "name": "HV Computers Pvt. Ltd.", "category": "Computer service", "street": "No. 87, 1st Floor", "city": "behind UCO Bank", "phone": "09716000500", "website": "http://www.hvcomputers.net/", "rating": 4.9, "review_count": "", "latitude": 28.549256099999997, "longitude": 77.21482449999999, "maps_url": "https://www.google.com/maps/place/?q=place_id:0x390ce21432814f0d:0xbbfd1c84a5a1e545"}, {"place_id": "0x390ce2126401135d:0x74f220164da1dab8", "name": "COMPUTER ENGINEERING , BASEMENT , C27 HAUZ KHAS , NEW DELHI 110016", "category": "Computer service", "street": "C27", "city": "Hauz Khas", "phone": "01146067678", "website": "http://www.ceindia.com/", "rating": 4.7, "review_count": "", "latitude": 28.550294899999997, "longitude": 77.2071457, "maps_url": "https://www.google.com/maps/place/?q=place_id:0x390ce2126401135d:0x74f220164da1dab8"}, {"place_id": "0x390ce3a4855a7325:0x2be49ea9a99689cd", "name": "Fort Infraservices LLP", "category": "Computer support and services", "street": "E-25/A", "city": "Hauz Khas Market, Kharera, Hauz Khas", "phone": "09654200066", "website": "https://www.fortinfraservices.com/", "rating": 5, "review_count": "", "latitude": 28.5508943, "longitude": 77.2080639, "maps_url": "https://www.google.com/maps/place/?q=place_id:0x390ce3a4855a7325:0x2be49ea9a99689cd"}, {"place_id": "0x390ce358bf78707b:0xfe006a85cdf81065", "name": "TechieXperts", "category": "Computer repair service", "street": "E-41", "city": "Hauz Khas Market, Kharera, Hauz Khas", "phone": "09911610669", "website": "https://www.techiexperts.com/", "rating": 4.9, "review_count": "", "latitude": 28.5516732, "longitude": 77.207033, "maps_url": "https://www.google.com/maps/place/?q=place_id:0x390ce358bf78707b:0xfe006a85cdf81065"}, {"place_id": "0x390ce458d0000001:0xf2123bd299ec4501", "name": "IT Company India", "category": "Software company", "street": "D56", "city": "D Block, Sector 10", "phone": "09999244854", "website": "https://www.itcompanyindia.in/", "rating": 4.7, "review_count": "", "latitude": 28.589917699999997, "longitude": 77.3351153, "maps_url": "https://www.google.com/maps/place/?q=place_id:0x390ce458d0000001:0xf2123bd299ec4501"}, {"place_id": "0x390ce3228c86875f:0x515f5d319a314681", "name": "Awizom IT Solutions Pvt Ltd", "category": "Corporate office", "street": "253-a/3c", "city": "Shahpur Jat, Siri Fort", "phone": "", "website": "", "rating": 1, "review_count": "", "latitude": 28.548753899999998, "longitude": 77.2108784, "maps_url": "https://www.google.com/maps/place/?q=place_id:0x390ce3228c86875f:0x515f5d319a314681"}, {"place_id": "0x390d1d1ceb3c5b05:0xa7db44998ead62f6", "name": "EONEPAY LSP PVT. LTD", "category": "Software company", "street": "A-52, Hauz Khas Rd", "city": "Main Market, Block A, Nipccd Campus, Hauz Khas", "phone": "01145128999", "website": "https://www.eonepay.in/", "rating": 4.8, "review_count": "", "latitude": 28.5498774, "longitude": 77.20831799999999, "maps_url": "https://www.google.com/maps/place/?q=place_id:0x390d1d1ceb3c5b05:0xa7db44998ead62f6"}, {"place_id": "0x390ce39582126e7b:0x7f5a1f70a42a3438", "name": "EbbStone Consulting Private Limited", "category": "Computer support and services", "street": "2nd Floor", "city": "125", "phone": "01147041329", "website": "http://www.ebbstoneconsulting.com/", "rating": 5, "review_count": "", "latitude": 28.549056, "longitude": 77.21380479999999, "maps_url": "https://www.google.com/maps/place/?q=place_id:0x390ce39582126e7b:0x7f5a1f70a42a3438"}, {"place_id": "0x390ce2142e0e2445:0xf7ecd95685233d09", "name": "Sanskrit e Solutions & Services Pvt. Ltd.", "category": "Corporate office", "street": "2nd Floor", "city": "86-B, Shahpur Jat", "phone": "01142220301", "website": "http://www.sansol.in/", "rating": 4.9, "review_count": "", "latitude": 28.5491593, "longitude": 77.21424549999999, "maps_url": "https://www.google.com/maps/place/?q=place_id:0x390ce2142e0e2445:0xf7ecd95685233d09"}, {"place_id": "0x390ce3f6a9002a59:0xd7a237cb96cc865d", "name": "Dot Sphere", "category": "Design agency", "street": "Shahpur Jat, Hauz Khas", "city": "New Delhi, Delhi 110017", "phone": "07903075910", "website": "https://www.dotsphere.in/", "rating": 4.7, "review_count": "", "latitude": 28.5489417, "longitude": 77.2125779, "maps_url": "https://www.google.com/maps/place/?q=place_id:0x390ce3f6a9002a59:0xd7a237cb96cc865d"}, {"place_id": "0x390ce389dbd3f6c9:0x3139c303827b5f4d", "name": "Sky Network Security Surveillance", "category": "Computer service", "street": "416-A", "city": "nearby Dada Jungi House Lane", "phone": "09354050510", "website": "", "rating": 5, "review_count": "", "latitude": 28.5489201, "longitude": 77.21255579999999, "maps_url": "https://www.google.com/maps/place/?q=place_id:0x390ce389dbd3f6c9:0x3139c303827b5f4d"}, {"place_id": "0x390ce3a5d552ff5d:0x16a61d84b0a041ac", "name": "Havmi India Pvt Ltd", "category": "Food manufacturer", "street": "253, 5th Floor", "city": "opposite Govindam Sweet", "phone": "", "website": "https://www.havmiindia.com/", "rating": 4.9, "review_count": "", "latitude": 28.5490469, "longitude": 77.2138251, "maps_url": "https://www.google.com/maps/place/?q=place_id:0x390ce3a5d552ff5d:0x16a61d84b0a041ac"}, {"place_id": "0x390ce354d8ed6c69:0x9c16323b8d149c2d", "name": "Top Docs", "category": "Software company", "street": "A 47", "city": "Block A, Nipccd Campus, Hauz Khas", "phone": "", "website": "https://www.top-docs.in/", "rating": 5, "review_count": "", "latitude": 28.5505273, "longitude": 77.2088775, "maps_url": "https://www.google.com/maps/place/?q=place_id:0x390ce354d8ed6c69:0x9c16323b8d149c2d"}, {"place_id": "0x390ce2131d286911:0x625756fa0d145089", "name": "SR Solutions", "category": "Consultant", "street": "D-55C", "city": "Block D, Hauz Khas", "phone": "01146070366", "website": "http://www.srsolutions.org/", "rating": 4.6, "review_count": "", "latitude": 28.551616499999998, "longitude": 77.2091765, "maps_url": "https://www.google.com/maps/place/?q=place_id:0x390ce2131d286911:0x625756fa0d145089"}, {"place_id": "0x390ce33eaaf98b69:0xeb099e18286eb9d0", "name": "DLF Safe Shifting Expert", "category": "Packaging company", "street": "38/1", "city": "near Mother Dairy", "phone": "09560344225", "website": "https://www.dlfsafeshifting.in/", "rating": 5, "review_count": "", "latitude": 28.5517333, "longitude": 77.20752449999999, "maps_url": "https://www.google.com/maps/place/?q=place_id:0x390ce33eaaf98b69:0xeb099e18286eb9d0"}, {"place_id": "0x390d1ddb3dd244b1:0x1657360b9454b145", "name": "Antatah fashion Pvt. Ltd.", "category": "Fashion designer", "street": "1st floor", "city": "A2", "phone": "07042382895", "website": "", "rating": 4.9, "review_count": "", "latitude": 28.5487707, "longitude": 77.2118668, "maps_url": "https://www.google.com/maps/place/?q=place_id:0x390d1ddb3dd244b1:0x1657360b9454b145"}, {"place_id": "0x390cdc3c15555547:0x3b7a96d09bf26bdb", "name": "Sunil Healthcare Limited", "category": "Corporate office", "street": "Tower, 38 E, Commercial Complex", "city": "3rd Floor, Vijay", "phone": "01149435555", "website": "http://www.sunilhealthcare.com/", "rating": 4, "review_count": "", "latitude": 28.5479614, "longitude": 77.21131319999999, "maps_url": "https://www.google.com/maps/place/?q=place_id:0x390cdc3c15555547:0x3b7a96d09bf26bdb"}, {"place_id": "0x390d1e15757dcef7:0xf85ed6b8eb6000a2", "name": "Central Warehousing Corporation", "category": "Corporate office", "street": "PHD House", "city": "August Kranti Marg", "phone": "01122444344", "website": "https://cewacor.nic.in/", "rating": 4.5, "review_count": "", "latitude": 28.550739999999998, "longitude": 77.2104791, "maps_url": "https://www.google.com/maps/place/?q=place_id:0x390d1e15757dcef7:0xf85ed6b8eb6000a2"}, {"place_id": "0x390d1ddb3dd244b1:0x1657360b9454b145", "name": "Antatah fashion Pvt. Ltd.", "category": "Fashion designer", "street": "1st floor", "city": "A2", "phone": "07042382895", "website": "", "rating": 4.9, "review_count": "", "latitude": 28.5487707, "longitude": 77.2118668, "maps_url": "https://www.google.com/maps/place/?q=place_id:0x390d1ddb3dd244b1:0x1657360b9454b145"}, {"place_id": "0x390cdc3c15555547:0x3b7a96d09bf26bdb", "name": "Sunil Healthcare Limited", "category": "Corporate office", "street": "Tower, 38 E, Commercial Complex", "city": "3rd Floor, Vijay", "phone": "01149435555", "website": "http://www.sunilhealthcare.com/", "rating": 4, "review_count": "", "latitude": 28.5479614, "longitude": 77.21131319999999, "maps_url": "https://www.google.com/maps/place/?q=place_id:0x390cdc3c15555547:0x3b7a96d09bf26bdb"}, {"place_id": "0x390d1e15757dcef7:0xf85ed6b8eb6000a2", "name": "Central Warehousing Corporation", "category": "Corporate office", "street": "PHD House", "city": "August Kranti Marg", "phone": "01122444344", "website": "https://cewacor.nic.in/", "rating": 4.5, "review_count": "", "latitude": 28.550739999999998, "longitude": 77.2104791, "maps_url": "https://www.google.com/maps/place/?q=place_id:0x390d1e15757dcef7:0xf85ed6b8eb6000a2"}, {"place_id": "0x390ce2130ae03a35:0x3d273dd126f2c622", "name": "National Co-operative Development Corporation", "category": "Corporate office", "street": "National Cooperative Development Corporation", "city": "4", "phone": "", "website": "", "rating": 4.5, "review_count": "", "latitude": 28.5511639, "longitude": 77.2102384, "maps_url": "https://www.google.com/maps/place/?q=place_id:0x390ce2130ae03a35:0x3d273dd126f2c622"}, {"place_id": "0x390ce399ebc466c3:0x5b912bd044a4cd5c", "name": "E Global Soft Solutions", "category": "Software company", "street": "Corporate Office - 252/1", "city": "T/F, Shahpur Jat, Siri Fort", "phone": "01145622642", "website": "https://eglobalsoftsolutions.com/", "rating": 4, "review_count": "", "latitude": 28.5484539, "longitude": 77.2111137, "maps_url": "https://www.google.com/maps/place/?q=place_id:0x390ce399ebc466c3:0x5b912bd044a4cd5c"}, {"place_id": "0x390d1d8baaaaaaab:0xb4bced5f90d3f763", "name": "Perfect Accounting & Shared Services Private Limited", "category": "Consultant", "street": "E-20, Market Ln", "city": "E Block, Kharera, Hauz Khas", "phone": "09910263863", "website": "http://www.perfectaccounting.in/", "rating": 4.6, "review_count": "", "latitude": 28.550954599999997, "longitude": 77.2082142, "maps_url": "https://www.google.com/maps/place/?q=place_id:0x390d1d8baaaaaaab:0xb4bced5f90d3f763"}, {"place_id": "0x390ce22c7a7db8ed:0x8cd7c0c17e317dd0", "name": "zlait Sports Management Pvt Ltd", "category": "Business management consultant", "street": "D", "city": "1/8", "phone": "09899485582", "website": "https://zlait.com/", "rating": 5, "review_count": "", "latitude": 28.5522197, "longitude": 77.20689709999999, "maps_url": "https://www.google.com/maps/place/?q=place_id:0x390ce22c7a7db8ed:0x8cd7c0c17e317dd0"}, {"place_id": "0x390ce21430000001:0xcba74a5444025120", "name": "Crystal Presentation Solutions Pvt. Ltd.", "category": "Audio visual equipment supplier", "street": "2nd Floor", "city": "87-A, Shahpur Jat", "phone": "", "website": "http://www.crystalsolutions.in/", "rating": 4.7, "review_count": "", "latitude": 28.549266399999997, "longitude": 77.2148777, "maps_url": "https://www.google.com/maps/place/?q=place_id:0x390ce21430000001:0xcba74a5444025120"}, {"place_id": "0x390ce3a2740b6b31:0x603cd65425552a67", "name": "CIN Universe - India's Largest Hotel Mar-Tech & Digital Marketing Agency", "category": "Marketing agency", "street": "R/16", "city": "Block R, Padmini Enclave, Hauz Khas", "phone": "", "website": "https://www.cinuniverse.com/", "rating": 3.8, "review_count": "", "latitude": 28.5489264, "longitude": 77.2056219, "maps_url": "https://www.google.com/maps/place/?q=place_id:0x390ce3a2740b6b31:0x603cd65425552a67"}, {"place_id": "0x390ce2166c7677ad:0x202e0ddc1fe5a036", "name": "Shaksham Inc/ Landline Phone/ Cctv/ Epabx supplier dealer distributor delhi gurgaon Alcatel NEC Matrix Syntel Grandstream", "category": "Computer support and services", "street": "253A/3 ,1st Floor", "city": "Take Right from Auto Stand", "phone": "09910366323", "website": "https://intercomsystem.in/", "rating": 4.8, "review_count": "", "latitude": 28.5487471, "longitude": 77.210824, "maps_url": "https://www.google.com/maps/place/?q=place_id:0x390ce2166c7677ad:0x202e0ddc1fe5a036"}, {"place_id": "0x390ce212cffb5287:0xd6e054be20dacc4b", "name": "NexEdge Pvt. Ltd.", "category": "Marketing agency", "street": "D - 55A, Basement", "city": "Hauz Khas", "phone": "09999692303", "website": "https://nex-edge.com/", "rating": 4.1, "review_count": "", "latitude": 28.5517522, "longitude": 77.20899949999999, "maps_url": "https://www.google.com/maps/place/?q=place_id:0x390ce212cffb5287:0xd6e054be20dacc4b"}, {"place_id": "0x390d1d8baaaaaaab:0xac7565e292ddc7f8", "name": "Norisys Technology", "category": "Electrical supply store", "street": "A-62", "city": "Police Station Colony, Mayfair Gardens, Hauz Khas", "phone": "01126966162", "website": "http://www.norisys.com/", "rating": 4.1, "review_count": "", "latitude": 28.547981999999998, "longitude": 77.2084617, "maps_url": "https://www.google.com/maps/place/?q=place_id:0x390d1d8baaaaaaab:0xac7565e292ddc7f8"}, {"place_id": "0x390ce3798bb84555:0xc300e0512095cd70", "name": "Spaced Out", "category": "Coworking space", "street": "1st Floor", "city": "416, Shahpur Jat", "phone": "09205547663", "website": "", "rating": 4.2, "review_count": "", "latitude": 28.5485185, "longitude": 77.2132024, "maps_url": "https://www.google.com/maps/place/?q=place_id:0x390ce3798bb84555:0xc300e0512095cd70"}, {"place_id": "0x390ce5ec15555555:0xbb8b63bde86b3b3c", "name": "Wonderland Vacations India Pvt Ltd", "category": "Corporate office", "street": "125/1, FOURTH FLOOR VILLAGE", "city": "Shahpur Jat", "phone": "09205102473", "website": "", "rating": 2.8, "review_count": "", "latitude": 28.548903199999998, "longitude": 77.21394269999999, "maps_url": "https://www.google.com/maps/place/?q=place_id:0x390ce5ec15555555:0xbb8b63bde86b3b3c"}, {"place_id": "0x390d1d8bb3c4d259:0x98f38deadf43e9a2", "name": "Airwave Communication", "category": "Computer support and services", "street": "1st Floor", "city": "E Block", "phone": "01141030808", "website": "http://iphonerepairdelhi.com/", "rating": 4.1, "review_count": "", "latitude": 28.550805999999998, "longitude": 77.20797809999999, "maps_url": "https://www.google.com/maps/place/?q=place_id:0x390d1d8bb3c4d259:0x98f38deadf43e9a2"}, {"place_id": "0x390ce213e516ab83:0x59011104853c57db", "name": "Cinnamon Sprinkle LLP", "category": "Foreign Trade Consultant", "street": "4-A", "city": "Shahpur Jat, Siri Fort", "phone": "09810211159", "website": "http://cinnamon-sprinkle.com/", "rating": 4.1, "review_count": "", "latitude": 28.5493444, "longitude": 77.2121999, "maps_url": "https://www.google.com/maps/place/?q=place_id:0x390ce213e516ab83:0x59011104853c57db"}, {"place_id": "0x390ce3f198af8479:0xa418c7f56914c853", "name": "Mudra Finance Limited", "category": "Real Estate Builders & Construction Company", "street": "Hauz Khas Market, G-12A, Hauz Khas", "city": "New Delhi, Delhi 110016", "phone": "01244068880", "website": "", "rating": 5, "review_count": "", "latitude": 28.5506241, "longitude": 77.205454, "maps_url": "https://www.google.com/maps/place/?q=place_id:0x390ce3f198af8479:0xa418c7f56914c853"}, {"place_id": "0x390ce2149a4c17df:0x6235d8877408b9b5", "name": "BHEL ASIAD SIRI FORT", "category": "Government office", "street": "Siri Institutional Area, Siri Fort Institutional Area, Siri Fort", "city": "New Delhi, Delhi 110049", "phone": "", "website": "http://bhel.com/", "rating": 4.5, "review_count": "", "latitude": 28.5519066, "longitude": 77.2123342, "maps_url": "https://www.google.com/maps/place/?q=place_id:0x390ce2149a4c17df:0x6235d8877408b9b5"}, {"place_id": "0x390d1d8baaaaaaab:0xa272904374d06eac", "name": "MAIT", "category": "Association / Organization", "street": "4th Floor", "city": "August Kranti Marg", "phone": "01135083269", "website": "http://www.mait.com/", "rating": 4.2, "review_count": "", "latitude": 28.5502734, "longitude": 77.21015059999999, "maps_url": "https://www.google.com/maps/place/?q=place_id:0x390d1d8baaaaaaab:0xa272904374d06eac"}, {"place_id": "0x390ce3741ad914f7:0x4c9b9375347110f5", "name": "Label Snowflake", "category": "Clothing manufacturer", "street": "First floor, Haveli, Middle Portion", "city": "256", "phone": "08700145887", "website": "https://labelsnowflake.com/", "rating": 5, "review_count": "", "latitude": 28.5490133, "longitude": 77.213814, "maps_url": "https://www.google.com/maps/place/?q=place_id:0x390ce3741ad914f7:0x4c9b9375347110f5"}, {"place_id": "0x390ce326f04ff3cb:0x4b38940afd6b8ea1", "name": "Visions Play", "category": "Manufacturer", "street": "68-A, DDA", "city": "Shahpur Jat, Siri Fort", "phone": "08448061598", "website": "http://www.visionsplay.in/", "rating": 3.3, "review_count": "", "latitude": 28.549049999999998, "longitude": 77.2138165, "maps_url": "https://www.google.com/maps/place/?q=place_id:0x390ce326f04ff3cb:0x4b38940afd6b8ea1"}, {"place_id": "0x390ce383f23ffe43:0xe0e08cc328a61d25", "name": "Experience Vacations India Private Limited", "category": "Tour operator", "street": "4Th Floor", "city": "253", "phone": "", "website": "https://www.evacationsindia.com/", "rating": 4.7, "review_count": "", "latitude": 28.548840199999997, "longitude": 77.2114417, "maps_url": "https://www.google.com/maps/place/?q=place_id:0x390ce383f23ffe43:0xe0e08cc328a61d25"}, {"place_id": "0x390ce3ad9d83b1db:0xb4f58dcc596e0be6", "name": "Stratsmith Private Limited", "category": "Business management consultant", "street": "First Floor", "city": "87-B", "phone": "08800877320", "website": "http://stratsmith.co/", "rating": "", "review_count": "", "latitude": 28.5492782, "longitude": 77.21466, "maps_url": "https://www.google.com/maps/place/?q=place_id:0x390ce3ad9d83b1db:0xb4f58dcc596e0be6"}, {"place_id": "0x390ce376cab79555:0x5d029177e172400c", "name": "ADEEP MY IT SOLUTION", "category": "Software company", "street": "Ground floor", "city": "209C, Masjid Moth Rd", "phone": "09791492742", "website": "", "rating": 4.9, "review_count": "", "latitude": 28.5629876, "longitude": 77.2205724, "maps_url": "https://www.google.com/maps/place/?q=place_id:0x390ce376cab79555:0x5d029177e172400c"}, {"place_id": "0x390ce32f08083087:0x27d5856a8c3498d7", "name": "Qiggle Technologies", "category": "Software company", "street": "252 A, Ist Floor, Vijay Tower, Opp: Panchsheel Commercial Complex", "city": "Shahpur Jat", "phone": "", "website": "", "rating": "", "review_count": "", "latitude": 28.5480317, "longitude": 77.2115934, "maps_url": "https://www.google.com/maps/place/?q=place_id:0x390ce32f08083087:0x27d5856a8c3498d7"}, {"place_id": "0x390ce215d376e847:0x87d991cc8902dd4d", "name": "Ascertain Solutions", "category": "Intelligence Agency", "street": "#5E, 3rd Floor, Dada Jungi House, Street No. 5", "city": "Shahpur Jat", "phone": "01126495662", "website": "http://www.orionsecure.co.in/ascertain-solutions.html", "rating": "", "review_count": "", "latitude": 28.549063999999998, "longitude": 77.212561, "maps_url": "https://www.google.com/maps/place/?q=place_id:0x390ce215d376e847:0x87d991cc8902dd4d"}, {"place_id": "0x390ce213fcb389f3:0x16a84f011049cbe1", "name": "The Next Level Fabricators", "category": "Manufacturer", "street": "F-6/3", "city": "Shahpur Jat, Siri Fort", "phone": "09811968796", "website": "http://www.thenextlevelfabricators.com/", "rating": 5, "review_count": "", "latitude": 28.5485017, "longitude": 77.2110909, "maps_url": "https://www.google.com/maps/place/?q=place_id:0x390ce213fcb389f3:0x16a84f011049cbe1"}, {"place_id": "0x390ce21424a5fe5f:0xba88dbe12a9ff125", "name": "PrintOctopus", "category": "E-commerce service", "street": "35-B, First Floor, Leela House, Fashion Street,", "city": "Shahpur Jat", "phone": "01149052434", "website": "http://www.printoctopus.com/", "rating": 4.7, "review_count": "", "latitude": 28.549111, "longitude": 77.213593, "maps_url": "https://www.google.com/maps/place/?q=place_id:0x390ce21424a5fe5f:0xba88dbe12a9ff125"}, {"place_id": "0x390ce2130ae03a35:0x3d273dd126f2c622", "name": "National Co-operative Development Corporation", "category": "Corporate office", "street": "National Cooperative Development Corporation", "city": "4", "phone": "", "website": "", "rating": 4.5, "review_count": "", "latitude": 28.5511639, "longitude": 77.2102384, "maps_url": "https://www.google.com/maps/place/?q=place_id:0x390ce2130ae03a35:0x3d273dd126f2c622"}, {"place_id": "0x390ce213fbdf049f:0xf62d0805ff9308ea", "name": "World Travel Experiences", "category": "Travel agency", "street": "1st Floor, Studio", "city": "No 6", "phone": "09999477944", "website": "https://www.worldtravelexperiences.com/", "rating": 4.6, "review_count": "", "latitude": 28.5484923, "longitude": 77.2113839, "maps_url": "https://www.google.com/maps/place/?q=place_id:0x390ce213fbdf049f:0xf62d0805ff9308ea"}, {"place_id": "0x390d1d8baaaaaaab:0xe57682048272d455", "name": "The Printways", "category": "Print shop", "street": "E-31, Hauz Khas Market Rd", "city": "Hauz Khas Market, Kharera, Hauz Khas", "phone": "01141655656", "website": "http://www.printways.com/", "rating": 4.1, "review_count": "", "latitude": 28.5510919, "longitude": 77.2074196, "maps_url": "https://www.google.com/maps/place/?q=place_id:0x390d1d8baaaaaaab:0xe57682048272d455"}, {"place_id": "0x390ce3956d6c240d:0xa67a1709317408ad", "name": "Disha Wadekar, Advocate", "category": "Legal services", "street": "Madan Lal Block", "city": "Asian Games Village Complex, Siri Fort", "phone": "01135866711", "website": "", "rating": 5, "review_count": "", "latitude": 28.5480819, "longitude": 77.2135827, "maps_url": "https://www.google.com/maps/place/?q=place_id:0x390ce3956d6c240d:0xa67a1709317408ad"}, {"place_id": "0x390ce2134424e1cb:0xd08c626a0e60f5c1", "name": "Films Rajendraa", "category": "Film Production Company", "street": "A-62, LGF", "city": "Hauz Khas", "phone": "09953475113", "website": "http://filmsrajendraa.com/", "rating": 4.5, "review_count": "", "latitude": 28.552682899999997, "longitude": 77.2106373, "maps_url": "https://www.google.com/maps/place/?q=place_id:0x390ce2134424e1cb:0xd08c626a0e60f5c1"}, {"place_id": "0x390ce326f04ff3cb:0x4b38940afd6b8ea1", "name": "Visions Play", "category": "Manufacturer", "street": "68-A, DDA", "city": "Shahpur Jat, Siri Fort", "phone": "08448061598", "website": "http://www.visionsplay.in/", "rating": 3.3, "review_count": "", "latitude": 28.549049999999998, "longitude": 77.2138165, "maps_url": "https://www.google.com/maps/place/?q=place_id:0x390ce326f04ff3cb:0x4b38940afd6b8ea1"}, {"place_id": "0x390ce5ec15555555:0xbb8b63bde86b3b3c", "name": "Wonderland Vacations India Pvt Ltd", "category": "Corporate office", "street": "125/1, FOURTH FLOOR VILLAGE", "city": "Shahpur Jat", "phone": "09205102473", "website": "", "rating": 2.8, "review_count": "", "latitude": 28.548903199999998, "longitude": 77.21394269999999, "maps_url": "https://www.google.com/maps/place/?q=place_id:0x390ce5ec15555555:0xbb8b63bde86b3b3c"}, {"place_id": "0x390ce213fd9c3e2f:0xf310c36b649202ef", "name": "DTDC - Shahpur Jat", "category": "Courier service", "street": "254", "city": "Shahpur Jat, Siri Fort", "phone": "09311443233", "website": "http://dtdc.com/", "rating": 4.8, "review_count": "", "latitude": 28.548167, "longitude": 77.2121799, "maps_url": "https://www.google.com/maps/place/?q=place_id:0x390ce213fd9c3e2f:0xf310c36b649202ef"}, {"place_id": "0x390ce38df13c5567:0x1a8e987608c626b2", "name": "The Lightscape Studio | Photoshoots & Video Production House", "category": "Photography service", "street": "113A, First Floor", "city": "next to Sugarama", "phone": "09910186610", "website": "http://www.thelightscapestudio.com/?utm_source=organic&utm_medium=gmblisting&utm_campaign=gmblisting", "rating": 4.9, "review_count": "", "latitude": 28.5492787, "longitude": 77.2148428, "maps_url": "https://www.google.com/maps/place/?q=place_id:0x390ce38df13c5567:0x1a8e987608c626b2"}, {"place_id": "0x390ce30359c19f93:0x97b69b88fa731a08", "name": "Janki India", "category": "Clothing manufacturer", "street": "Shahpur Jat, Siri Fort", "city": "New Delhi, Delhi 110049", "phone": "09315010474", "website": "https://jankiindia.com/", "rating": 5, "review_count": "", "latitude": 28.549056, "longitude": 77.21380479999999, "maps_url": "https://www.google.com/maps/place/?q=place_id:0x390ce30359c19f93:0x97b69b88fa731a08"}, {"place_id": "0x390ce34f82052c65:0xc8b6a34c9c37a690", "name": "Yaza LifeStyle", "category": "Corporate gift supplier", "street": "124, 3rd Floor", "city": "Shahpur Jat", "phone": "", "website": "http://yazalifestyle.com/", "rating": 5, "review_count": "", "latitude": 28.5490501, "longitude": 77.2138165, "maps_url": "https://www.google.com/maps/place/?q=place_id:0x390ce34f82052c65:0xc8b6a34c9c37a690"}, {"place_id": "0x390ce35030c41765:0x6b0142a24a885c84", "name": "Me The Beauty", "category": "Cosmetic Products Manufacturer", "street": "First Floor", "city": "5/G", "phone": "09625789393", "website": "https://www.methebeauty.com/", "rating": 4.9, "review_count": "", "latitude": 28.549081899999997, "longitude": 77.2126948, "maps_url": "https://www.google.com/maps/place/?q=place_id:0x390ce35030c41765:0x6b0142a24a885c84"}, {"place_id": "0x390ce2140b9f6605:0x1d4ce66f8c145e73", "name": "BSES Office", "category": "Company", "street": "5D, Dada Jungi House Ln", "city": "Shahpur Jat, Siri Fort", "phone": "08468937296", "website": "http://www.bsesdelhi.com/", "rating": 3.7, "review_count": "", "latitude": 28.5494745, "longitude": 77.2122224, "maps_url": "https://www.google.com/maps/place/?q=place_id:0x390ce2140b9f6605:0x1d4ce66f8c145e73"}, {"place_id": "0x390ce3fb15a1174f:0x4cf85580b5270d2c", "name": "Oral Health Cart - Best Supplier of Dental Equipments, Instruments and Consumables Worldwide.", "category": "Dental supply store", "street": "A 28", "city": "Block A, Hauz Khas", "phone": "08800886359", "website": "http://www.oralhealthcart.com/", "rating": 4.7, "review_count": "", "latitude": 28.5519431, "longitude": 77.20980019999999, "maps_url": "https://www.google.com/maps/place/?q=place_id:0x390ce3fb15a1174f:0x4cf85580b5270d2c"}, {"place_id": "0x390ce35134e8d171:0x4cda2b487b7f1e1f", "name": "Yahvi Healthcare Pvt Ltd", "category": "Home health care service", "street": "R1/301", "city": "Block R, Hauz Khas Enclave, Hauz Khas", "phone": "09871373742", "website": "http://www.healthhomecares.in/", "rating": 4.9, "review_count": "", "latitude": 28.549491399999997, "longitude": 77.2058454, "maps_url": "https://www.google.com/maps/place/?q=place_id:0x390ce35134e8d171:0x4cda2b487b7f1e1f"}, {"place_id": "0x390d1d8baaaaaaab:0x794843147ac2cb53", "name": "PHD Chamber of Commerce and Industry", "category": "Chamber of Commerce", "street": "PHD House", "city": "4/2, August Kranti Marg", "phone": "01149545400", "website": "http://www.phdcci.in/", "rating": 4.5, "review_count": "", "latitude": 28.5503817, "longitude": 77.2101361, "maps_url": "https://www.google.com/maps/place/?q=place_id:0x390d1d8baaaaaaab:0x794843147ac2cb53"}, {"place_id": "0x390ce3b8a0a2e3cf:0x7faeae645d4bba9b", "name": "Dilseshaadi", "category": "Wedding planner", "street": "2nd floor", "city": "Spaced Out Caf\u00e9", "phone": "09899831669", "website": "https://www.dilseshaadi.com/", "rating": 5, "review_count": "", "latitude": 28.549056, "longitude": 77.21380479999999, "maps_url": "https://www.google.com/maps/place/?q=place_id:0x390ce3b8a0a2e3cf:0x7faeae645d4bba9b"}, {"place_id": "0x390ce21694099641:0xf704601d4dfd8053", "name": "ShaadiSaga", "category": "Corporate office", "street": "212, 2nd Floor, NCBA Building,. Dilip Singh Chowk", "city": "Shahpur Jat", "phone": "", "website": "https://www.shaadisaga.com/", "rating": 3.7, "review_count": "", "latitude": 28.5491641, "longitude": 77.2138569, "maps_url": "https://www.google.com/maps/place/?q=place_id:0x390ce21694099641:0xf704601d4dfd8053"}, {"place_id": "0x390ce3c506100001:0x19f0c8eb19f8bab2", "name": "World Axis", "category": "Visa Agent", "street": "", "city": "", "phone": "08368297770", "website": "http://worldaxis.in/", "rating": "", "review_count": "", "latitude": 21.0680074, "longitude": 82.7525294, "maps_url": "https://www.google.com/maps/place/?q=place_id:0x390ce3c506100001:0x19f0c8eb19f8bab2"}, {"place_id": "0x390ce35f71fbe797:0xf3446a3b6fb31dcd", "name": "Naseebo | Womens Clothing Store in Shahpur Jat", "category": "Clothing store", "street": "First Floor", "city": "40A, Shahpur Jat Outer Road E", "phone": "09773799185", "website": "https://www.naseebo.com/", "rating": 4.3, "review_count": "", "latitude": 28.549473, "longitude": 77.2138416, "maps_url": "https://www.google.com/maps/place/?q=place_id:0x390ce35f71fbe797:0xf3446a3b6fb31dcd"}]}