{"timestamp": 1773730483.4456286, "keyword": "IT company", "location": "delhi", "cell_idx": 246, "results": [{"place_id": "0x390ce227b000003f:0x68c684a3cbf810b", "name": "IT Solution INDIA", "category": "Computer support and services", "street": "Triveni Commercial Complex", "city": "Sheikh Sarai Phase 1, Sheikh Sarai", "phone": "09312209167", "website": "https://itsolutionindia.in/", "rating": 4.8, "review_count": "", "latitude": 28.5364054, "longitude": 77.22372, "maps_url": "https://www.google.com/maps/place/?q=place_id:0x390ce227b000003f:0x68c684a3cbf810b"}, {"place_id": "0x390ce3c153b89811:0xe7a279685777e9ca", "name": "IT Company", "category": "Automation company", "street": "A-14", "city": "near iskcon temple", "phone": "", "website": "http://www.opuswiz.com/", "rating": 3, "review_count": "", "latitude": 28.557167, "longitude": 77.25424819999999, "maps_url": "https://www.google.com/maps/place/?q=place_id:0x390ce3c153b89811:0xe7a279685777e9ca"}, {"place_id": "0x390d053ee4271333:0x64c61924be17de78", "name": "WebOConnect Technologies Pvt. Ltd.", "category": "Software company", "street": "T", "city": "Press Enclave Marg", "phone": "08447141991", "website": "https://weboconnect.com/", "rating": 4.6, "review_count": "", "latitude": 28.5313457, "longitude": 77.2208345, "maps_url": "https://www.google.com/maps/place/?q=place_id:0x390d053ee4271333:0x64c61924be17de78"}, {"place_id": "0x390ce226100110ef:0xe529d399458dbf03", "name": "First IT", "category": "Software company", "street": "S/F 776-A", "city": "Chirag Dilli", "phone": "", "website": "https://www.firstit.in/", "rating": 5, "review_count": "", "latitude": 28.5376318, "longitude": 77.2282863, "maps_url": "https://www.google.com/maps/place/?q=place_id:0x390ce226100110ef:0xe529d399458dbf03"}, {"place_id": "0x390ce21425118e25:0x70fb9d80e6685fad", "name": "Ananta Business Services", "category": "Software company", "street": "125, South", "city": "Shahpur Jat, Siri Fort", "phone": "09289371171", "website": "http://www.absite.in/", "rating": 4.7, "review_count": "", "latitude": 28.5490721, "longitude": 77.2159506, "maps_url": "https://www.google.com/maps/place/?q=place_id:0x390ce21425118e25:0x70fb9d80e6685fad"}, {"place_id": "0x390ce1597b5509e5:0xfd8209b937b44d3c", "name": "IT Solutions India Private Limited", "category": "Software company", "street": "D-88/5", "city": "Pocket D, Okhla Phase I, Okhla Industrial Estate", "phone": "09810017429", "website": "https://www.itsipl.com/", "rating": 4.2, "review_count": "", "latitude": 28.520146, "longitude": 77.280431, "maps_url": "https://www.google.com/maps/place/?q=place_id:0x390ce1597b5509e5:0xfd8209b937b44d3c"}, {"place_id": "0x390ce458d0000001:0xf2123bd299ec4501", "name": "IT Company India", "category": "Software company", "street": "D56", "city": "D Block, Sector 10", "phone": "09999244854", "website": "https://www.itcompanyindia.in/", "rating": 4.7, "review_count": "", "latitude": 28.589917699999997, "longitude": 77.3351153, "maps_url": "https://www.google.com/maps/place/?q=place_id:0x390ce458d0000001:0xf2123bd299ec4501"}, {"place_id": "0x390ce2305c00002d:0x9f7efbacdc0d8271", "name": "ICO WebTech Pvt. Ltd. - Website Designing Company in Delhi", "category": "Website designer", "street": "J E 5, Ground Floor, Khirki Extension, Malviya Nagar", "city": "New Delhi, Delhi 110017", "phone": "08447380262", "website": "https://www.icowebsolutions.com/", "rating": 4.6, "review_count": "", "latitude": 28.535594, "longitude": 77.21577099999999, "maps_url": "https://www.google.com/maps/place/?q=place_id:0x390ce2305c00002d:0x9f7efbacdc0d8271"}, {"place_id": "0x396db583ecc187c9:0x9fd07aff31653778", "name": "Fatcamel", "category": "Software company", "street": "A, A1/13", "city": "S11 DDA Flats", "phone": "", "website": "https://www.fatcamel.ai/", "rating": 5, "review_count": "", "latitude": 28.5451558, "longitude": 77.225, "maps_url": "https://www.google.com/maps/place/?q=place_id:0x396db583ecc187c9:0x9fd07aff31653778"}, {"place_id": "0x390ce23eeab015ab:0x92d6a7e8dbc46e1a", "name": "Odyssey Website Development Company", "category": "Website designer", "street": "B-59", "city": "Block B, Soami Nagar South, Soami Nagar", "phone": "09654486464", "website": "http://odysseyin.com/?utm_source=GMB&utm_medium=Organic&utm_term=Odyssey&utm_content=Listing&utm_campaign=GMB1", "rating": 3.6, "review_count": "", "latitude": 28.541823599999997, "longitude": 77.2262008, "maps_url": "https://www.google.com/maps/place/?q=place_id:0x390ce23eeab015ab:0x92d6a7e8dbc46e1a"}, {"place_id": "0x390cfd9627f1ef6f:0x2ceaf9a99dfc7b29", "name": "QuaintX Innovations", "category": "Software company", "street": "3rd Floor, Building", "city": "125, Savitri Nagar Rd", "phone": "07015149213", "website": "https://quaintx.com/", "rating": 5, "review_count": "", "latitude": 28.5394647, "longitude": 77.21983519999999, "maps_url": "https://www.google.com/maps/place/?q=place_id:0x390cfd9627f1ef6f:0x2ceaf9a99dfc7b29"}, {"place_id": "0x390ce3d3caa305a3:0x25daafe821cab590", "name": "NITA INFOTECH", "category": "Website designer", "street": "Gupta Colony, Khirki Extension, Malviya Nagar", "city": "New Delhi, Delhi 110017", "phone": "09582699555", "website": "https://nitainfotech.com/", "rating": 5, "review_count": "", "latitude": 28.5346342, "longitude": 77.2169517, "maps_url": "https://www.google.com/maps/place/?q=place_id:0x390ce3d3caa305a3:0x25daafe821cab590"}, {"place_id": "0x390ce1fb44618b65:0x8e06b2a6128352d1", "name": "Acropolis Infotech - Delhi Office", "category": "Software company", "street": "metro station gate", "city": "55, 2nd Floor, Lane 2", "phone": "09999876593", "website": "https://www.acropolisinfotech.com/", "rating": 4.6, "review_count": "", "latitude": 28.518907, "longitude": 77.2015435, "maps_url": "https://www.google.com/maps/place/?q=place_id:0x390ce1fb44618b65:0x8e06b2a6128352d1"}, {"place_id": "0x390ce21e692e0283:0xe1908ca6b243ae5", "name": "Satyam Solutions Pvt. Ltd.", "category": "Software company", "street": "Plot No. 11A", "city": "2nd Floor", "phone": "09810311011", "website": "https://www.satyamsolutions.com/", "rating": 5, "review_count": "", "latitude": 28.539084199999998, "longitude": 77.21761289999999, "maps_url": "https://www.google.com/maps/place/?q=place_id:0x390ce21e692e0283:0xe1908ca6b243ae5"}, {"place_id": "0x390ce31a134804c3:0x1efe0384e9410898", "name": "CINCHIS DIGITAL INDIA PVT. LTD.", "category": "Computer support and services", "street": "Hemkunt Chambers", "city": "Nehru Place", "phone": "09667339664", "website": "https://cinchis.com/", "rating": 4.9, "review_count": "", "latitude": 28.547605299999997, "longitude": 77.25241419999999, "maps_url": "https://www.google.com/maps/place/?q=place_id:0x390ce31a134804c3:0x1efe0384e9410898"}, {"place_id": "0x390ce3b48e27a563:0x4ec8ae3c524366b", "name": "iSOFT INDIA TECHNOLOGIES", "category": "Software company", "street": "E-168|169, Amar Colony, Lajpat Nagar", "city": "New Delhi, Delhi 110024", "phone": "09717978320", "website": "", "rating": 4.9, "review_count": "", "latitude": 28.5657368, "longitude": 77.23946029999999, "maps_url": "https://www.google.com/maps/place/?q=place_id:0x390ce3b48e27a563:0x4ec8ae3c524366b"}, {"place_id": "0x390ce22c021eaa3f:0x8fff197cd24f0daf", "name": "Art Attackk-Website Designing Company In Delhi", "category": "Software company", "street": "E-92, Block E Greater Kailash Rd Number 3", "city": "Greater Kailash Part 3, Masjid Moth, Greater Kailash", "phone": "09499399914", "website": "https://www.artattackk.com/", "rating": 4.2, "review_count": "", "latitude": 28.5394227, "longitude": 77.2349143, "maps_url": "https://www.google.com/maps/place/?q=place_id:0x390ce22c021eaa3f:0x8fff197cd24f0daf"}, {"place_id": "0x390ce30c10b0eaa1:0xe7ad99a81f58b8ff", "name": "DND Infotech", "category": "Software company", "street": "H-12", "city": "8", "phone": "09501651992", "website": "", "rating": 4.9, "review_count": "", "latitude": 28.5340641, "longitude": 77.2091579, "maps_url": "https://www.google.com/maps/place/?q=place_id:0x390ce30c10b0eaa1:0xe7ad99a81f58b8ff"}, {"place_id": "0x390d1e2895a5a193:0xc8a11377898c5b0f", "name": "GALAXY IT CORPORATION", "category": "Computer service", "street": "B-6, Annexe", "city": "Shivalik Colony, Malviya Nagar", "phone": "09990560588", "website": "http://www.galaxyitcorp.in/", "rating": 5, "review_count": "", "latitude": 28.533527, "longitude": 77.206172, "maps_url": "https://www.google.com/maps/place/?q=place_id:0x390d1e2895a5a193:0xc8a11377898c5b0f"}, {"place_id": "0x390d1d86a4f12173:0x3a6b42ea6f4b8260", "name": "Softvanz Technologies Private Limited", "category": "Software company", "street": "Somdutt Chamber 1", "city": "BT-22/9", "phone": "", "website": "https://softvanz.com/", "rating": 5, "review_count": "", "latitude": 28.567948899999998, "longitude": 77.1889269, "maps_url": "https://www.google.com/maps/place/?q=place_id:0x390d1d86a4f12173:0x3a6b42ea6f4b8260"}, {"place_id": "0x390ce3c50d455555:0x625e4cf2def0b6ac", "name": "Infonative Solutions Limited", "category": "Computer support and services", "street": "107, 108", "city": "DLF South Court", "phone": "08448141818", "website": "https://infonative.net/", "rating": 4.7, "review_count": "", "latitude": 28.5274255, "longitude": 77.2209031, "maps_url": "https://www.google.com/maps/place/?q=place_id:0x390ce3c50d455555:0x625e4cf2def0b6ac"}, {"place_id": "0x390ce38ed46e508b:0xc485469ec54906b0", "name": "Inkerr Brand Solutions Pvt. Ltd.", "category": "Manufacturer", "street": "B 57 LGF, Outer Ring Rd", "city": "Block B, Soami Nagar South, Soami Nagar", "phone": "08882674034", "website": "", "rating": 3.5, "review_count": "", "latitude": 28.5418275, "longitude": 77.22586199999999, "maps_url": "https://www.google.com/maps/place/?q=place_id:0x390ce38ed46e508b:0xc485469ec54906b0"}, {"place_id": "0x390ce5fdcc79e755:0x309ce99251b84ef6", "name": "Optyminds IT Solutions - Top AI and IT company I Best Digital agency in Noida | Delhi NCR | India", "category": "Software company", "street": "1st Floor", "city": "B-70", "phone": "08929075975", "website": "https://optyminds.com/", "rating": 4.9, "review_count": "", "latitude": 28.584679599999998, "longitude": 77.3135042, "maps_url": "https://www.google.com/maps/place/?q=place_id:0x390ce5fdcc79e755:0x309ce99251b84ef6"}, {"place_id": "0x390ce1ce534cb1e5:0x39fe77c42bc52616", "name": "ITeSolution- Odoo ERP , Mobile/Web Application Development Software Company in Noida, Delhi NCR India.", "category": "Software company", "street": "RZ60/9", "city": "T/F, Tughlakabad Extension, Tughlakabad", "phone": "09889294124", "website": "https://www.itesolution.co.in/", "rating": 4.9, "review_count": "", "latitude": 28.520523899999997, "longitude": 77.2570535, "maps_url": "https://www.google.com/maps/place/?q=place_id:0x390ce1ce534cb1e5:0x39fe77c42bc52616"}, {"place_id": "0x390ce3c8e5555555:0xc908f703f65324ea", "name": "Vinayak Compserve Pvt.Ltd", "category": "Computer service", "street": "220", "city": "Sant Nagar, East of Kailash", "phone": "01126430397", "website": "https://vinayakit.com/", "rating": 3.7, "review_count": "", "latitude": 28.5536721, "longitude": 77.2494229, "maps_url": "https://www.google.com/maps/place/?q=place_id:0x390ce3c8e5555555:0xc908f703f65324ea"}, {"place_id": "0x390ce3cfe91504eb:0x55346c5c499223d7", "name": "CCS Computers Private Limited", "category": "Computer support and services", "street": "2nd-3rd Floor Skipper House", "city": "Nehru Place", "phone": "01126463959", "website": "http://www.ccscomputers.co.in/", "rating": 4, "review_count": "", "latitude": 28.550090599999997, "longitude": 77.2537834, "maps_url": "https://www.google.com/maps/place/?q=place_id:0x390ce3cfe91504eb:0x55346c5c499223d7"}, {"place_id": "0x390ce3b7c0000001:0x46ddd80ee502d937", "name": "Amtrak Technologies Private Limited", "category": "Computer support and services", "street": "6, Community Centre", "city": "East of Kailash", "phone": "01126448000", "website": "https://amtrak.co.in/", "rating": 4.4, "review_count": "", "latitude": 28.558434899999998, "longitude": 77.2463302, "maps_url": "https://www.google.com/maps/place/?q=place_id:0x390ce3b7c0000001:0x46ddd80ee502d937"}, {"place_id": "0x390ce1f700000001:0xff8e31165bb9abad", "name": "DeviceDisk", "category": "Software company", "street": "2nd Floor, Building No. 40A", "city": "S-212", "phone": "09873015155", "website": "http://www.devicedisk.in/", "rating": 4.7, "review_count": "", "latitude": 28.538749, "longitude": 77.214867, "maps_url": "https://www.google.com/maps/place/?q=place_id:0x390ce1f700000001:0xff8e31165bb9abad"}, {"place_id": "0x390ce22f5e12297b:0x6119ffb8c9a198a5", "name": "G.I.Group Network Security Technology (P) Ltd.", "category": "Security guard service", "street": "581/3 Third Floor", "city": "Chirag Delhi", "phone": "09810100413", "website": "https://www.getgi.com/", "rating": 4.3, "review_count": "", "latitude": 28.5397769, "longitude": 77.2295943, "maps_url": "https://www.google.com/maps/place/?q=place_id:0x390ce22f5e12297b:0x6119ffb8c9a198a5"}, {"place_id": "0x4215c6da63b4b82f:0x794ba814a6ada964", "name": "Asha Tech | Website Design, App Development & IT Solutions Delhi", "category": "Software company", "street": "no 2", "city": "195, Lane No. 1", "phone": "07531080874", "website": "https://ashatech.co.in/", "rating": 4.7, "review_count": "", "latitude": 28.519994099999998, "longitude": 77.2008791, "maps_url": "https://www.google.com/maps/place/?q=place_id:0x4215c6da63b4b82f:0x794ba814a6ada964"}, {"place_id": "0x390ce21e45e14bd1:0xfa94cf04807bfac5", "name": "MyCorporation Consultants Private Limited", "category": "Certified public accountant", "street": "B- 34", "city": "Panchsheel Enclave, Block B, Soami Nagar", "phone": "08882101000", "website": "https://www.mycorporation.in/", "rating": 4.5, "review_count": "", "latitude": 28.543578399999998, "longitude": 77.2290135, "maps_url": "https://www.google.com/maps/place/?q=place_id:0x390ce21e45e14bd1:0xfa94cf04807bfac5"}, {"place_id": "0x390ce456aaaaaaab:0x6e4e087895622564", "name": "Klasiinn", "category": "Software company", "street": "E-506, Inder Mohan Bhardwaj Marg", "city": "Block E, Greater Kailash II, Greater Kailash", "phone": "07827882870", "website": "http://klasiinn.in/", "rating": 5, "review_count": "", "latitude": 28.5358657, "longitude": 77.2384798, "maps_url": "https://www.google.com/maps/place/?q=place_id:0x390ce456aaaaaaab:0x6e4e087895622564"}, {"place_id": "0x390ce1656fbb7b65:0x7f0e4b2c21935a5c", "name": "Lynkit Solutions Pvt. Ltd.", "category": "Software company", "street": "246", "city": "Block A, Okhla Phase I, Okhla Industrial Estate", "phone": "01140824028", "website": "http://www.lynkit.in/", "rating": 4.3, "review_count": "", "latitude": 28.5254729, "longitude": 77.2754985, "maps_url": "https://www.google.com/maps/place/?q=place_id:0x390ce1656fbb7b65:0x7f0e4b2c21935a5c"}, {"place_id": "0x2a72b8b69d7b6493:0x11251466d4d34cac", "name": "WebZonal IT Company", "category": "Website designer", "street": "Wz-258/2-3, D Block Rd", "city": "Khazan Basti, Nangal Raya, Janakpuri", "phone": "09811170903", "website": "http://webzonal.com/", "rating": 5, "review_count": "", "latitude": 28.6122102, "longitude": 77.11159549999999, "maps_url": "https://www.google.com/maps/place/?q=place_id:0x2a72b8b69d7b6493:0x11251466d4d34cac"}, {"place_id": "0x390ce218dfafac15:0x72ffd0731133a8c8", "name": "Thermosun Engineering and Power India Pvt. Ltd.", "category": "Solar energy system service", "street": "1st Floor", "city": "D-2/208", "phone": "08077914097", "website": "https://thermosun.in/", "rating": 4.9, "review_count": "", "latitude": 28.540034, "longitude": 77.22037, "maps_url": "https://www.google.com/maps/place/?q=place_id:0x390ce218dfafac15:0x72ffd0731133a8c8"}, {"place_id": "0x390ce361b85d45af:0xa4ae4cd320377b4e", "name": "Gazillio Concepts Pvt ltd", "category": "Computer Hardware Company", "street": "Lower ground", "city": "385 A", "phone": "09569927028", "website": "http://www.gazillio.com/", "rating": 4.9, "review_count": "", "latitude": 28.535964099999998, "longitude": 77.2298253, "maps_url": "https://www.google.com/maps/place/?q=place_id:0x390ce361b85d45af:0xa4ae4cd320377b4e"}, {"place_id": "0x390ce23aa5555555:0xbe03d402b48610c3", "name": "Drone Destination Limited", "category": "Aerospace company", "street": "C-13 Ground", "city": "Block C, Panchsheel Enclave", "phone": "09990060650", "website": "http://thedronedestination.com/", "rating": 4.4, "review_count": "", "latitude": 28.542793699999997, "longitude": 77.2310152, "maps_url": "https://www.google.com/maps/place/?q=place_id:0x390ce23aa5555555:0xbe03d402b48610c3"}, {"place_id": "0x390ce3932eaaaaab:0xb308d9aae0d93852", "name": "Al Hadaf Technologies\u2013 ERP, CRM, HRM, Hospital, School, Billing Software Development Company in Delhi NCR", "category": "Software company", "street": "96, Gate No-2", "city": "opp. Escort Hospital", "phone": "08586972994", "website": "https://www.alhadaftech.com/", "rating": 4.9, "review_count": "", "latitude": 28.5562397, "longitude": 77.2762099, "maps_url": "https://www.google.com/maps/place/?q=place_id:0x390ce3932eaaaaab:0xb308d9aae0d93852"}, {"place_id": "0x390ce23aa8583941:0xbaa0eb521fff8b3c", "name": "eSCV Consulting Services Pvt. Ltd.", "category": "Consultant", "street": "41", "city": "Block B, Panchsheel Enclave", "phone": "01141749257", "website": "https://www.escvconsulting.com/", "rating": 4.8, "review_count": "", "latitude": 28.543631899999998, "longitude": 77.22805559999999, "maps_url": "https://www.google.com/maps/place/?q=place_id:0x390ce23aa8583941:0xbaa0eb521fff8b3c"}, {"place_id": "0x390ce3860c81c723:0xc5f50e43c0a86a3e", "name": "Nextr Technology", "category": "Software company", "street": "2nd Floor", "city": "1483/A-1", "phone": "09911751575", "website": "http://www.nextr.in/", "rating": 4.9, "review_count": "", "latitude": 28.574374, "longitude": 77.224284, "maps_url": "https://www.google.com/maps/place/?q=place_id:0x390ce3860c81c723:0xc5f50e43c0a86a3e"}, {"place_id": "0x390ce21e692e0283:0xa33efbc3468a3d7d", "name": "Tally Software Services", "category": "Software company", "street": "C 220/4, Savtri Nagar, Malviya Nagar", "city": "New Delhi, Delhi 110017", "phone": "09810311011", "website": "", "rating": 3.8, "review_count": "", "latitude": 28.533087, "longitude": 77.2128759, "maps_url": "https://www.google.com/maps/place/?q=place_id:0x390ce21e692e0283:0xa33efbc3468a3d7d"}, {"place_id": "0x390ce25e35e99b33:0xf443abe69b4e8fcc", "name": "Synapse Valuetech Private Limited", "category": "Software company", "street": "Lower Ground Floor", "city": "221", "phone": "01146628882", "website": "https://www.synapsevaluetech.com/", "rating": 4.3, "review_count": "", "latitude": 28.558165, "longitude": 77.2592385, "maps_url": "https://www.google.com/maps/place/?q=place_id:0x390ce25e35e99b33:0xf443abe69b4e8fcc"}, {"place_id": "0x390ce23aa5555555:0xf9be19f675f3ae5f", "name": "Artemedy Business Innovations", "category": "Media company", "street": "C-28, II Floor", "city": "Panchsheel Enclave", "phone": "09811282335", "website": "http://artemedy.com/", "rating": 4.7, "review_count": "", "latitude": 28.5448232, "longitude": 77.2282476, "maps_url": "https://www.google.com/maps/place/?q=place_id:0x390ce23aa5555555:0xf9be19f675f3ae5f"}, {"place_id": "0x390ce21641cbbb5d:0x2c773a890f1e4a19", "name": "Mark Design", "category": "Website designer", "street": "DDA Flats", "city": "92-B, Shahpur Jat", "phone": "09818371797", "website": "http://www.mark-design.net/", "rating": 4.5, "review_count": "", "latitude": 28.5471112, "longitude": 77.21588969999999, "maps_url": "https://www.google.com/maps/place/?q=place_id:0x390ce21641cbbb5d:0x2c773a890f1e4a19"}, {"place_id": "0x390d1f5abfb25fe1:0x7d9c4d5e159f2955", "name": "Jaimru Technology Pvt Ltd", "category": "Software company", "street": "WARD NO. 2", "city": "Plot No. 178 M 33 A/1", "phone": "07838153420", "website": "https://www.jaimru.com/", "rating": 4.9, "review_count": "", "latitude": 28.524347499999998, "longitude": 77.1731889, "maps_url": "https://www.google.com/maps/place/?q=place_id:0x390d1f5abfb25fe1:0x7d9c4d5e159f2955"}, {"place_id": "0x390ce3007406b82b:0x738cc0549729d9b1", "name": "Samarambh Infratech", "category": "Real Estate Builders & Construction Company", "street": "Block C, Panchsheel Enclave", "city": "New Delhi, Delhi 110017", "phone": "", "website": "http://www.samarambhinfra.com/", "rating": 4.5, "review_count": "", "latitude": 28.5421151, "longitude": 77.2301212, "maps_url": "https://www.google.com/maps/place/?q=place_id:0x390ce3007406b82b:0x738cc0549729d9b1"}, {"place_id": "0x390ce3c577996141:0x6f0e309d0c4c2de1", "name": "Eagle Information Systems Pvt. Ltd.", "category": "Computer support and services", "street": "Madhuban Building", "city": "705", "phone": "09818188012", "website": "http://www.eagle.in/", "rating": 4.5, "review_count": "", "latitude": 28.5486501, "longitude": 77.2520914, "maps_url": "https://www.google.com/maps/place/?q=place_id:0x390ce3c577996141:0x6f0e309d0c4c2de1"}, {"place_id": "0x390ce30033d95957:0x32e431c65720c158", "name": "Enhaz Beverages Pvt Ltd", "category": "Corporate office", "street": "9", "city": "above hdfc bank", "phone": "", "website": "", "rating": 4.8, "review_count": "", "latitude": 28.5435572, "longitude": 77.2241349, "maps_url": "https://www.google.com/maps/place/?q=place_id:0x390ce30033d95957:0x32e431c65720c158"}, {"place_id": "0x390ce45a25555555:0x83a27490bba534a7", "name": "Parangat Technologies", "category": "Software company", "street": "", "city": "", "phone": "08700213345", "website": "https://www.parangat.com/", "rating": 4.1, "review_count": "", "latitude": 9.374110199999999, "longitude": -74.9524576, "maps_url": "https://www.google.com/maps/place/?q=place_id:0x390ce45a25555555:0x83a27490bba534a7"}, {"place_id": "0x390ce225ab8c495f:0xc64ad4d526d20c01", "name": "MDG ASSOCIATES PVT LTD", "category": "Corporate office", "street": "573, Chirag Delhi Main Rd", "city": "Block A, Soami Nagar South, Soami Nagar", "phone": "01141834411", "website": "", "rating": 4.8, "review_count": "", "latitude": 28.5407267, "longitude": 77.22639889999999, "maps_url": "https://www.google.com/maps/place/?q=place_id:0x390ce225ab8c495f:0xc64ad4d526d20c01"}, {"place_id": "0x390ce276135bdc6d:0x3022c7d8f3b7309a", "name": "Koan Advisory Group", "category": "Consultant", "street": "B40", "city": "Block B, Soami Nagar South, Soami Nagar", "phone": "01141834471", "website": "http://koanadvisory.com/", "rating": 4.4, "review_count": "", "latitude": 28.542137, "longitude": 77.2231686, "maps_url": "https://www.google.com/maps/place/?q=place_id:0x390ce276135bdc6d:0x3022c7d8f3b7309a"}, {"place_id": "0x390ce45bcd61048f:0x5f6a5602f4155df7", "name": "JK Technosoft Limited", "category": "Software company", "street": "F", "city": "3", "phone": "01204606300", "website": "https://jktech.com/", "rating": 4.2, "review_count": "", "latitude": 28.5802509, "longitude": 77.31793329999999, "maps_url": "https://www.google.com/maps/place/?q=place_id:0x390ce45bcd61048f:0x5f6a5602f4155df7"}, {"place_id": "0x390ce23b35c65cd3:0x791ec1c578c98a71", "name": "Systems Society of India", "category": "Corporate office", "street": "Shandilya Pg For Boys And Girls", "city": "IT CENTRE, DEI (Deemed University), SOAMI NAGAR, New Delhi Campus", "phone": "09319211217", "website": "http://sysi.org/", "rating": 5, "review_count": "", "latitude": 28.5440558, "longitude": 77.22486359999999, "maps_url": "https://www.google.com/maps/place/?q=place_id:0x390ce23b35c65cd3:0x791ec1c578c98a71"}, {"place_id": "0x390ce19d6aaaaaab:0x322f66cd91e8f6cd", "name": "Vikas Gupta Web Developer", "category": "Website designer", "street": "A-454 Dakshinpuri", "city": "New Delhi, Delhi 110062", "phone": "09643269244", "website": "https://itcrafterhub.com/website-developer-delhi/", "rating": 5, "review_count": "", "latitude": 28.522017599999998, "longitude": 77.2366923, "maps_url": "https://www.google.com/maps/place/?q=place_id:0x390ce19d6aaaaaab:0x322f66cd91e8f6cd"}, {"place_id": "0x390ce2213470cc43:0x45347cf3b89e6619", "name": "Brandwidth Events", "category": "Event management company", "street": "1st Floor", "city": "B - 103", "phone": "01145623070", "website": "", "rating": 4.3, "review_count": "", "latitude": 28.5384057, "longitude": 77.21835089999999, "maps_url": "https://www.google.com/maps/place/?q=place_id:0x390ce2213470cc43:0x45347cf3b89e6619"}, {"place_id": "0x390ce27611b460db:0x8879e233c1d66b97", "name": "FIRST FIDDLE F&B PRIVATE LIMITED", "category": "Corporate office", "street": "S-357 2nd floor", "city": "Block S, Panchsheel Park South, Panchsheel Park", "phone": "", "website": "https://www.firstfiddle.in/", "rating": 4.7, "review_count": "", "latitude": 28.5423938, "longitude": 77.21887629999999, "maps_url": "https://www.google.com/maps/place/?q=place_id:0x390ce27611b460db:0x8879e233c1d66b97"}, {"place_id": "0x390ce1e92eec0d49:0x8b4c598e70e40b8", "name": "Kito Infocom Pvt. Ltd", "category": "Internet marketing service", "street": "2nd Floor", "city": "B-38", "phone": "08826845665", "website": "https://kitoinfocom.com/", "rating": 4.6, "review_count": "", "latitude": 28.5302415, "longitude": 77.2719123, "maps_url": "https://www.google.com/maps/place/?q=place_id:0x390ce1e92eec0d49:0x8b4c598e70e40b8"}, {"place_id": "0x390cdda0937a36df:0x350a8716d5f40b92", "name": "VS Square Info Solutions", "category": "Computer support and services", "street": "Govardhan Building", "city": "Nehru Place", "phone": "09319173336", "website": "http://www.vssquareinfo.com/", "rating": 4.9, "review_count": "", "latitude": 28.5490526, "longitude": 77.251606, "maps_url": "https://www.google.com/maps/place/?q=place_id:0x390cdda0937a36df:0x350a8716d5f40b92"}, {"place_id": "0x390d1ed3c6e9f579:0x322eccdb00f350d2", "name": "Techjockey", "category": "Software company", "street": "Ground floor, Habitat India", "city": "C-3", "phone": "01142213003", "website": "https://www.techjockey.com/", "rating": 4, "review_count": "", "latitude": 28.536615299999998, "longitude": 77.1902978, "maps_url": "https://www.google.com/maps/place/?q=place_id:0x390d1ed3c6e9f579:0x322eccdb00f350d2"}, {"place_id": "0x390ce22fe5555555:0x2c710f339c2288ee", "name": "SCV & Co. LLP", "category": "Chartered accountant", "street": "B-41", "city": "Panchsheel Enclave, Block D, Malviya Nagar", "phone": "01126499111", "website": "http://scvindia.com/", "rating": 4.4, "review_count": "", "latitude": 28.5442176, "longitude": 77.2284816, "maps_url": "https://www.google.com/maps/place/?q=place_id:0x390ce22fe5555555:0x2c710f339c2288ee"}, {"place_id": "0x390ce1be2d2a7377:0x5020cce4790298e1", "name": "AJWA KAIF PVT LTD", "category": "Computer support and services", "street": "Ground Floor", "city": "Khirki Vill", "phone": "01142502100", "website": "https://www.ajwakaif.com/", "rating": 5, "review_count": "", "latitude": 28.5309287, "longitude": 77.2194186, "maps_url": "https://www.google.com/maps/place/?q=place_id:0x390ce1be2d2a7377:0x5020cce4790298e1"}, {"place_id": "0x390ce30744a1580d:0x6bcdce1aa6570469", "name": "Medusa EXIM", "category": "Corporate office", "street": "Block C, Panchsheel Enclave", "city": "New Delhi, Delhi 110017", "phone": "", "website": "", "rating": 5, "review_count": "", "latitude": 28.5424808, "longitude": 77.2300971, "maps_url": "https://www.google.com/maps/place/?q=place_id:0x390ce30744a1580d:0x6bcdce1aa6570469"}, {"place_id": "0x390ce1bef0c8c071:0xb0a64e46c6405fc6", "name": "Tech rise dynamics", "category": "Website designer", "street": "293, Lane-2, Westend Marg", "city": "near Saket Metro Station", "phone": "08750557052", "website": "https://www.techrisedynamics.com/", "rating": 5, "review_count": "", "latitude": 28.5177321, "longitude": 77.1986237, "maps_url": "https://www.google.com/maps/place/?q=place_id:0x390ce1bef0c8c071:0xb0a64e46c6405fc6"}, {"place_id": "0x390ce39a24b89521:0x6e886c5e28fd05a9", "name": "Cloude Data Delhi | Best Cloud Service Provider company in India", "category": "Web hosting company", "street": "First Floor", "city": "A 212, Okhla Phase 3 Rd", "phone": "08882353612", "website": "https://cloudedata.com/", "rating": 4.4, "review_count": "", "latitude": 28.548515, "longitude": 77.2712834, "maps_url": "https://www.google.com/maps/place/?q=place_id:0x390ce39a24b89521:0x6e886c5e28fd05a9"}, {"place_id": "0x7f4b3ca25fc9b73:0x317c8405b30f2fc3", "name": "Auriga Accounting Pvt.Ltd", "category": "Accounting firm", "street": "163 D/1", "city": "Khirki Extension, Malviya Nagar", "phone": "07982044611", "website": "http://www.aurigaaccounting.in/", "rating": 4.9, "review_count": "", "latitude": 28.532131999999997, "longitude": 77.2188195, "maps_url": "https://www.google.com/maps/place/?q=place_id:0x7f4b3ca25fc9b73:0x317c8405b30f2fc3"}, {"place_id": "0x390ce2160c350ae7:0x769ee9e445eca4d6", "name": "The Sports Company", "category": "Corporate office", "street": "141-A, Fourth Floor", "city": "Shahpur Jat, Siri Fort", "phone": "09821384210", "website": "http://tscglobal.in/", "rating": 4.8, "review_count": "", "latitude": 28.548057999999997, "longitude": 77.216359, "maps_url": "https://www.google.com/maps/place/?q=place_id:0x390ce2160c350ae7:0x769ee9e445eca4d6"}, {"place_id": "0x390cef0e6abd6c7f:0xdcdc4e844cfb0528", "name": "Accurate Maintenance Co. Pvt. Ltd", "category": "Audio visual equipment supplier", "street": "Building no. 7", "city": "Savitri Nagar, Savitri Nagar Village, Malviya Nagar", "phone": "09818022335", "website": "https://www.accuratesmartclass.com/", "rating": 4.9, "review_count": "", "latitude": 28.540156, "longitude": 77.2179625, "maps_url": "https://www.google.com/maps/place/?q=place_id:0x390cef0e6abd6c7f:0xdcdc4e844cfb0528"}, {"place_id": "0x390ce223cfffffed:0x7a1b48618ba9ba36", "name": "Red Cube Digital Media", "category": "Internet marketing service", "street": "B-102,104 First Floor Phase 1", "city": "Panchsheel Vihar, Sheikh Sarai", "phone": "08588832141", "website": "https://www.redcubedigital.com/", "rating": 4.1, "review_count": "", "latitude": 28.535821199999997, "longitude": 77.22323879999999, "maps_url": "https://www.google.com/maps/place/?q=place_id:0x390ce223cfffffed:0x7a1b48618ba9ba36"}, {"place_id": "0x390ce3b5e9981665:0x6ed3916f90d5be3c", "name": "Netsoft Consulting Services", "category": "Information services", "street": "24, IInd Floor, Community Center, East Of Kailash", "city": "behind Sapna Cinema", "phone": "01145330000", "website": "https://netsoftit.com/contact-us/", "rating": 3.5, "review_count": "", "latitude": 28.5583678, "longitude": 77.24568579999999, "maps_url": "https://www.google.com/maps/place/?q=place_id:0x390ce3b5e9981665:0x6ed3916f90d5be3c"}, {"place_id": "0x390d1d8baaaaaaab:0x81e02841f207d0f0", "name": "S SONY & COMPANY PVT. LTD", "category": "Real Estate Builders & Construction Company", "street": "G-4, ANUPAMA BUILDING II FLOOR", "city": "Hauz Khas", "phone": "01135002651", "website": "http://ssony.in/", "rating": 4.9, "review_count": "", "latitude": 28.5510508, "longitude": 77.2048471, "maps_url": "https://www.google.com/maps/place/?q=place_id:0x390d1d8baaaaaaab:0x81e02841f207d0f0"}, {"place_id": "0xa3f7b500ba6bee9b:0xbf6f44de92b28de", "name": "Yuvocreations Private Limited ( \u092f\u0941\u0935\u094b\u0915\u094d\u0930\u093f\u090f\u0936\u0928\u094d\u0938 \u092a\u094d\u0930\u093e\u0907\u0935\u0947\u091f \u0932\u093f\u092e\u093f\u091f\u0947\u0921 ) - Website Designing & Digital Marketing Agency", "category": "Software company", "street": "Lane no.4", "city": "Khasra no. 258, Westend Marg", "phone": "07042123166", "website": "https://yuvocreations.com/", "rating": 5, "review_count": "", "latitude": 28.5169774, "longitude": 77.19925789999999, "maps_url": "https://www.google.com/maps/place/?q=place_id:0xa3f7b500ba6bee9b:0xbf6f44de92b28de"}, {"place_id": "0x390ce100f5e94809:0xd78d6863269ad2a1", "name": "Taom Solutions", "category": "Software company", "street": "E- 44/3 Ground Floor", "city": "F Block, Pocket X, Okhla Phase II, Okhla Industrial Estate", "phone": "", "website": "https://www.taomsolutions.com/", "rating": 5, "review_count": "", "latitude": 28.535762799999997, "longitude": 77.2764329, "maps_url": "https://www.google.com/maps/place/?q=place_id:0x390ce100f5e94809:0xd78d6863269ad2a1"}, {"place_id": "0x390ce328ff1f0bf9:0x766c6097327c6180", "name": "signage company in Delhi ncr", "category": "Sign shop", "street": "459, 17", "city": "Chirag Dilli", "phone": "08860566127", "website": "http://www.signageworkssolution.com/", "rating": 4.5, "review_count": "", "latitude": 28.537688499999998, "longitude": 77.2299632, "maps_url": "https://www.google.com/maps/place/?q=place_id:0x390ce328ff1f0bf9:0x766c6097327c6180"}, {"place_id": "0x390ce3ca2a26c269:0x5abe1b30660c1627", "name": "Film Production House | Getintofilm\u00ae Film Production Company", "category": "Film Production Company", "street": "Gate 3, Magenta) Metro Station", "city": "1st Floor, Above Fish Zone, B1", "phone": "09910239660", "website": "https://getintofilm.com/", "rating": 4.8, "review_count": "", "latitude": 28.5414848, "longitude": 77.2395519, "maps_url": "https://www.google.com/maps/place/?q=place_id:0x390ce3ca2a26c269:0x5abe1b30660c1627"}, {"place_id": "0x390ce371e6bc7eed:0x2cb83cadb6a0e240", "name": "Advocate Ishita Sinha I Supreme Court I Divorce & Family Lawyer I Criminal & Corporate lawyer in Delhi", "category": "Corporate office", "street": "LGF", "city": "D 124", "phone": "09871447604", "website": "http://www.sandslegalists.com/", "rating": 5, "review_count": 43, "latitude": 28.545370899999998, "longitude": 77.2285077, "maps_url": "https://www.google.com/maps/place/?q=place_id:0x390ce371e6bc7eed:0x2cb83cadb6a0e240"}, {"place_id": "0x390ce10972701b43:0x88fbfcfafdaf00f3", "name": "SearchingYard Group Corporate HQ", "category": "Software company", "street": "Tower 1st Floor, A", "city": "Nagpal Business", "phone": "", "website": "http://www.searchingyard.com/", "rating": 1.7, "review_count": "", "latitude": 28.538387699999998, "longitude": 77.27080029999999, "maps_url": "https://www.google.com/maps/place/?q=place_id:0x390ce10972701b43:0x88fbfcfafdaf00f3"}, {"place_id": "0x390ce3a840ea11c1:0xdf76e01fa07971ea", "name": "Camsol Advisory | Best Online CA Services in Delhi | Company Registration Services", "category": "Accounting firm", "street": "Basement, N Block", "city": "N-22, Guru Ravidas Marg", "phone": "09873895537", "website": "https://camsoladvisory.com/", "rating": 4.9, "review_count": "", "latitude": 28.537281, "longitude": 77.2591806, "maps_url": "https://www.google.com/maps/place/?q=place_id:0x390ce3a840ea11c1:0xdf76e01fa07971ea"}, {"place_id": "0x390ce21e4d3f5423:0x1b11a07bc5c2bbc0", "name": "Burning Desire Inclusive", "category": "Software company", "street": "", "city": "", "phone": "09999145527", "website": "", "rating": 4.6, "review_count": "", "latitude": 33.0797494, "longitude": 35.7175981, "maps_url": "https://www.google.com/maps/place/?q=place_id:0x390ce21e4d3f5423:0x1b11a07bc5c2bbc0"}, {"place_id": "0x390ce21e31d0e221:0xc6d2034bec008db", "name": "7 Seas Business Solution", "category": "Human resource consulting", "street": "40A, 3rd Floor", "city": "Corner Market, Malviya Nagar", "phone": "09990029966", "website": "https://7cbiz.com/", "rating": 4.7, "review_count": "", "latitude": 28.538402599999998, "longitude": 77.21481519999999, "maps_url": "https://www.google.com/maps/place/?q=place_id:0x390ce21e31d0e221:0xc6d2034bec008db"}, {"place_id": "0x390ce39a3aaaaaef:0xca57821ce7ee09b0", "name": "Smart IT Technologies", "category": "Website designer", "street": "Saroj Sadan", "city": "100", "phone": "08840274824", "website": "https://smartittechnologies.com/", "rating": 5, "review_count": "", "latitude": 28.5697218, "longitude": 77.2680354, "maps_url": "https://www.google.com/maps/place/?q=place_id:0x390ce39a3aaaaaef:0xca57821ce7ee09b0"}, {"place_id": "0x390ce3ade6a8fec7:0xaae376c2babf7f73", "name": "Heiler Healthcare\u2122 - Home Healthcare Solutions", "category": "Home health care service", "street": "B", "city": "67", "phone": "09741342014", "website": "http://heilerhealthcare.in/", "rating": 4.9, "review_count": "", "latitude": 28.542550499999997, "longitude": 77.22496439999999, "maps_url": "https://www.google.com/maps/place/?q=place_id:0x390ce3ade6a8fec7:0xaae376c2babf7f73"}, {"place_id": "0x390ce39307063999:0xb115a5e9663792f0", "name": "Eagle Hunter Solutions Limited", "category": "Security guard service", "street": "61, Kalu Sarai Rd, Sarvpriya vihar", "city": "61, Kalu Sarai Rd", "phone": "01140748000", "website": "https://eaglehuntersgroup.com/", "rating": 4, "review_count": "", "latitude": 28.542211499999997, "longitude": 77.2036753, "maps_url": "https://www.google.com/maps/place/?q=place_id:0x390ce39307063999:0xb115a5e9663792f0"}, {"place_id": "0x390d1b50b5c3a6ab:0xda8ba4e1f9ef8aca", "name": "The Buzz Media Company", "category": "Marketing agency", "street": "C79", "city": "Shivalik Colony, Malviya Nagar", "phone": "09311298369", "website": "https://thebuzzmediacompany.com/", "rating": 4.9, "review_count": "", "latitude": 28.5404196, "longitude": 77.2121341, "maps_url": "https://www.google.com/maps/place/?q=place_id:0x390d1b50b5c3a6ab:0xda8ba4e1f9ef8aca"}, {"place_id": "0x390ce3b1eacf4a91:0xff639c2cdb0656b8", "name": "Greatway Cargo And Movers", "category": "Transportation service", "street": "SHOP NO-260", "city": "Block D, Panchsheel Enclave", "phone": "09211014442", "website": "http://greatwaycargomovers.com/", "rating": 5, "review_count": "", "latitude": 28.545929899999997, "longitude": 77.2286601, "maps_url": "https://www.google.com/maps/place/?q=place_id:0x390ce3b1eacf4a91:0xff639c2cdb0656b8"}, {"place_id": "0x390ce3c273658277:0x5e5150780f1ea710", "name": "CPC Construction Group", "category": "Real Estate Builders & Construction Company", "street": "Office No-A 126", "city": "Second Floor", "phone": "09433554363", "website": "", "rating": 4.6, "review_count": "", "latitude": 28.5502164, "longitude": 77.2397968, "maps_url": "https://www.google.com/maps/place/?q=place_id:0x390ce3c273658277:0x5e5150780f1ea710"}, {"place_id": "0x390ce3ad1110066f:0x6b379fb5729821ac", "name": "Tssg-Tech", "category": "Website designer", "street": "Block B, Kalkaji", "city": "New Delhi, Delhi, 110019", "phone": "09599669486", "website": "https://tssgtech.info/", "rating": 5, "review_count": "", "latitude": 28.541919399999998, "longitude": 77.2523604, "maps_url": "https://www.google.com/maps/place/?q=place_id:0x390ce3ad1110066f:0x6b379fb5729821ac"}, {"place_id": "0x390ce37cc9b359c7:0xb5e1f6b4e36f247d", "name": "Pacecourt - Premium Sports Flooring Materials Manufacturer", "category": "Manufacturer", "street": "282, S Block Rd", "city": "Block S, Greater Kailash I, Greater Kailash", "phone": "07878365365", "website": "http://www.pacecourt.com/", "rating": 4.8, "review_count": "", "latitude": 28.5478913, "longitude": 77.2333791, "maps_url": "https://www.google.com/maps/place/?q=place_id:0x390ce37cc9b359c7:0xb5e1f6b4e36f247d"}, {"place_id": "0x390ce119f672935f:0xc21f713864406965", "name": "Prakhar Consulting Group", "category": "Human resource consulting", "street": "B 1/44, Smt. Ram Pyari Bhalla Marg", "city": "opposite Spark GYM", "phone": "08826665842", "website": "https://pcginternational.in/", "rating": 4.9, "review_count": "", "latitude": 28.5356946, "longitude": 77.2155061, "maps_url": "https://www.google.com/maps/place/?q=place_id:0x390ce119f672935f:0xc21f713864406965"}, {"place_id": "0x390ce31f8414d201:0xd94fa7c34d7873a2", "name": "Bhardwaj And Company (Steel Shuttering and Scaffolding Material Supplier)", "category": "Construction equipment supplier", "street": "85-A , Ground Floor", "city": "Bhardwaj Plaza", "phone": "09811109106", "website": "http://bhardwajandcompany.com/", "rating": 4.9, "review_count": "", "latitude": 28.557116399999998, "longitude": 77.23596979999999, "maps_url": "https://www.google.com/maps/place/?q=place_id:0x390ce31f8414d201:0xd94fa7c34d7873a2"}, {"place_id": "0x390ce35595f71271:0x4341d129c60d30d", "name": "Corporate Investigations India Pvt Ltd -Background Verification services in India", "category": "Corporate office", "street": "J-27, Zamrudpur", "city": "Kailash Colony", "phone": "07982797109", "website": "https://www.corporateinvestigationsindia.com/", "rating": 4.5, "review_count": "", "latitude": 28.5559744, "longitude": 77.2389614, "maps_url": "https://www.google.com/maps/place/?q=place_id:0x390ce35595f71271:0x4341d129c60d30d"}, {"place_id": "0x390ce15795555555:0x9bb8a801d00d7573", "name": "DreamSoft Infotech - Website Development Company in India", "category": "Software company", "street": "A-75 Third Floor", "city": "A Block, Sector 5", "phone": "01204380622", "website": "https://dreamsoftinfotech.com/", "rating": 3.4, "review_count": "", "latitude": 28.591018899999998, "longitude": 77.32201529999999, "maps_url": "https://www.google.com/maps/place/?q=place_id:0x390ce15795555555:0x9bb8a801d00d7573"}, {"place_id": "0x390ce32f7f91b893:0xf7c2be7eb729f502", "name": "Digital marketing Company, website Designing Company ( Logo Designing Company ) ( Online Marketplace )", "category": "Website designer", "street": "120-G", "city": "Hari Nagar Ashram", "phone": "08920138925", "website": "https://royalcruiselimos.com/", "rating": 5, "review_count": "", "latitude": 28.5718902, "longitude": 77.2559809, "maps_url": "https://www.google.com/maps/place/?q=place_id:0x390ce32f7f91b893:0xf7c2be7eb729f502"}, {"place_id": "0x390ce3325d78a4d7:0xcbc421a5a6d85e19", "name": "SEO SERVICES IT", "category": "Website designer", "street": "Gate No 1", "city": "D1 30", "phone": "", "website": "https://www.seoservicesit.com/", "rating": "", "review_count": "", "latitude": 28.544821, "longitude": 77.22490599999999, "maps_url": "https://www.google.com/maps/place/?q=place_id:0x390ce3325d78a4d7:0xcbc421a5a6d85e19"}, {"place_id": "0x390ce3a6280a6071:0x878a0b2288524571", "name": "ANG Partners, Advocates and Solicitors", "category": "Bankruptcy attorney", "street": "C 38 LGF", "city": "Block C, Panchsheel Enclave", "phone": "09205089671", "website": "https://angpartners.co.in/", "rating": 4.9, "review_count": 61, "latitude": 28.5427136, "longitude": 77.2292022, "maps_url": "https://www.google.com/maps/place/?q=place_id:0x390ce3a6280a6071:0x878a0b2288524571"}, {"place_id": "0xa8b95425fd314d69:0xacd9de24718ef6d6", "name": "BR Travels", "category": "Travel agency", "street": "2nd Floor", "city": "B-12", "phone": "", "website": "https://brtravels.co.in/", "rating": 5, "review_count": "", "latitude": 28.545236499999998, "longitude": 77.2263296, "maps_url": "https://www.google.com/maps/place/?q=place_id:0xa8b95425fd314d69:0xacd9de24718ef6d6"}, {"place_id": "0x390ce3ed50712e4f:0xc576b836f883d069", "name": "SB Constructions", "category": "Real Estate Builders & Construction Company", "street": "B-215", "city": "Block B, Greater Kailash I, Greater Kailash", "phone": "", "website": "http://www.sbconstruct.co.in/", "rating": 4.8, "review_count": "", "latitude": 28.5548543, "longitude": 77.2309396, "maps_url": "https://www.google.com/maps/place/?q=place_id:0x390ce3ed50712e4f:0xc576b836f883d069"}, {"place_id": "0x390ce3b3d458c803:0x2fe64486e2439b83", "name": "Djnni Retail Pvt ltd", "category": "Mobility equipment supplier", "street": "125, Shahpur Jat", "city": "Siri Fort", "phone": "", "website": "http://www.djnniretail.com/", "rating": 3.7, "review_count": "", "latitude": 28.5491395, "longitude": 77.21585639999999, "maps_url": "https://www.google.com/maps/place/?q=place_id:0x390ce3b3d458c803:0x2fe64486e2439b83"}, {"place_id": "0x390ce1fb6c608877:0x254b4f46d3d3a13d", "name": "adivaha\u00ae -Travel Technology Company", "category": "Software company", "street": "E 252 1st Floor Sant Nagar, East Of Kailsh", "city": "New Delhi, Delhi 110065", "phone": "", "website": "https://www.adivaha.com/", "rating": 3, "review_count": "", "latitude": 28.555513899999998, "longitude": 77.2502335, "maps_url": "https://www.google.com/maps/place/?q=place_id:0x390ce1fb6c608877:0x254b4f46d3d3a13d"}, {"place_id": "0x390ce22f8aedad69:0x613ac7bba2ae7cfd", "name": "Aditya Parolia", "category": "Legal services", "street": "D-18, Josip Broz Tito Marg", "city": "Block D, Panchsheel Enclave", "phone": "09868012992", "website": "https://psplegal.org/aditya-parolia/", "rating": 5, "review_count": "", "latitude": 28.544352099999998, "longitude": 77.23023859999999, "maps_url": "https://www.google.com/maps/place/?q=place_id:0x390ce22f8aedad69:0x613ac7bba2ae7cfd"}, {"place_id": "0x390ce352ae7931a7:0x14d9ab74f409f0fe", "name": "RD Service", "category": "Computer support and services", "street": "Hemkunt Chambers", "city": "Nehru Pl Market Rd", "phone": "09702684343", "website": "https://rdservice.in/", "rating": 4.4, "review_count": "", "latitude": 28.547605299999997, "longitude": 77.25241419999999, "maps_url": "https://www.google.com/maps/place/?q=place_id:0x390ce352ae7931a7:0x14d9ab74f409f0fe"}]}