{"timestamp": 1773731243.956039, "keyword": "IT company", "location": "delhi", "cell_idx": 363, "results": [{"place_id": "0x390d05c93dd3d17d:0x9398f4859dcfb0f1", "name": "BBB- Website Designing Company in Delhi, India", "category": "Software company", "street": "22/22", "city": "22/22, B-1", "phone": "09149039480", "website": "https://bigbrandbucket.com/", "rating": 4.9, "review_count": "", "latitude": 28.5668907, "longitude": 77.164493, "maps_url": "https://www.google.com/maps/place/?q=place_id:0x390d05c93dd3d17d:0x9398f4859dcfb0f1"}, {"place_id": "0x390d1d95931171db:0xf4c24d49d831b27", "name": "Muniwar Technologies Private Limited", "category": "Software company", "street": "2nd Floor", "city": "Hanuman Mandir Market", "phone": "01143050611", "website": "https://www.muniwar.com/", "rating": 4.4, "review_count": "", "latitude": 28.557070699999997, "longitude": 77.1732794, "maps_url": "https://www.google.com/maps/place/?q=place_id:0x390d1d95931171db:0xf4c24d49d831b27"}, {"place_id": "0x390ce458d0000001:0xf2123bd299ec4501", "name": "IT Company India", "category": "Software company", "street": "D56", "city": "D Block, Sector 10", "phone": "09999244854", "website": "https://www.itcompanyindia.in/", "rating": 4.7, "review_count": "", "latitude": 28.589917699999997, "longitude": 77.3351153, "maps_url": "https://www.google.com/maps/place/?q=place_id:0x390ce458d0000001:0xf2123bd299ec4501"}, {"place_id": "0x390d1d9ce0eaada3:0xc5a1a0a2458099e3", "name": "CODENCREATIVE TECH PVT LTD", "category": "Software company", "street": "DDA Flat", "city": "RBI Officers Colony, Vasant Vihar", "phone": "09717047610", "website": "https://codencreative.com/", "rating": 4.9, "review_count": "", "latitude": 28.563302099999998, "longitude": 77.1519732, "maps_url": "https://www.google.com/maps/place/?q=place_id:0x390d1d9ce0eaada3:0xc5a1a0a2458099e3"}, {"place_id": "0x390d1daf5bbb6d71:0xd493e8d457a28388", "name": "DPM IT SOLUTIONS", "category": "Software company", "street": "2nd floor, madangiri", "city": "111, E-2", "phone": "09650413450", "website": "https://dpmitsolutions.com/", "rating": 5, "review_count": "", "latitude": 28.565620799999998, "longitude": 77.16005679999999, "maps_url": "https://www.google.com/maps/place/?q=place_id:0x390d1daf5bbb6d71:0xd493e8d457a28388"}, {"place_id": "0x390d1d86a4f12173:0x3a6b42ea6f4b8260", "name": "Softvanz Technologies Private Limited", "category": "Software company", "street": "Somdutt Chamber 1", "city": "BT-22/9", "phone": "", "website": "https://softvanz.com/", "rating": 5, "review_count": "", "latitude": 28.567948899999998, "longitude": 77.1889269, "maps_url": "https://www.google.com/maps/place/?q=place_id:0x390d1d86a4f12173:0x3a6b42ea6f4b8260"}, {"place_id": "0x390ce3c153b89811:0xe7a279685777e9ca", "name": "IT Company", "category": "Automation company", "street": "A-14", "city": "near iskcon temple", "phone": "", "website": "http://www.opuswiz.com/", "rating": 3, "review_count": "", "latitude": 28.557167, "longitude": 77.25424819999999, "maps_url": "https://www.google.com/maps/place/?q=place_id:0x390ce3c153b89811:0xe7a279685777e9ca"}, {"place_id": "0x390d165555555555:0xf57c20f7d07d8fd1", "name": "Teckinfo Solutions Pvt Ltd", "category": "Software company", "street": "1/1 BA, 3rd Floor, Mohammadpur,", "city": "Bhikaji Cama Place", "phone": "01149605500", "website": "https://www.teckinfo.com/", "rating": 4.6, "review_count": "", "latitude": 28.566004099999997, "longitude": 77.187579, "maps_url": "https://www.google.com/maps/place/?q=place_id:0x390d165555555555:0xf57c20f7d07d8fd1"}, {"place_id": "0x390d1d0f2b039873:0x1254da1c0b3da26", "name": "IPRA Security Solutions Pvt. Ltd.", "category": "Security guard service", "street": "11 CSC", "city": "Anand Niketan", "phone": "01141028951", "website": "https://iprasecurity.com/", "rating": 4.7, "review_count": "", "latitude": 28.578773599999998, "longitude": 77.1649467, "maps_url": "https://www.google.com/maps/place/?q=place_id:0x390d1d0f2b039873:0x1254da1c0b3da26"}, {"place_id": "0x2a72b8b69d7b6493:0x11251466d4d34cac", "name": "WebZonal IT Company", "category": "Website designer", "street": "Wz-258/2-3, D Block Rd", "city": "Khazan Basti, Nangal Raya, Janakpuri", "phone": "09811170903", "website": "http://webzonal.com/", "rating": 5, "review_count": "", "latitude": 28.6122102, "longitude": 77.11159549999999, "maps_url": "https://www.google.com/maps/place/?q=place_id:0x2a72b8b69d7b6493:0x11251466d4d34cac"}, {"place_id": "0x390ce1fb44618b65:0x8e06b2a6128352d1", "name": "Acropolis Infotech - Delhi Office", "category": "Software company", "street": "metro station gate", "city": "55, 2nd Floor, Lane 2", "phone": "09999876593", "website": "https://www.acropolisinfotech.com/", "rating": 4.6, "review_count": "", "latitude": 28.518907, "longitude": 77.2015435, "maps_url": "https://www.google.com/maps/place/?q=place_id:0x390ce1fb44618b65:0x8e06b2a6128352d1"}, {"place_id": "0x390d02994de5e515:0xd908bc03409a0d37", "name": "Himalayan IT Solutions | Best Website Designing Company in Delhi | SEO/Digital Marketing Company in Delhi NCR, India", "category": "Software company", "street": "61/4255, Padam Singh Rd", "city": "Block 29, Block 1, Regar Pura, Karol Bagh", "phone": "09899098509", "website": "http://www.himalayanitsolutions.com/", "rating": 3.9, "review_count": "", "latitude": 28.649673999999997, "longitude": 77.186599, "maps_url": "https://www.google.com/maps/place/?q=place_id:0x390d02994de5e515:0xd908bc03409a0d37"}, {"place_id": "0x390ce5fdcc79e755:0x309ce99251b84ef6", "name": "Optyminds IT Solutions - Top AI and IT company I Best Digital agency in Noida | Delhi NCR | India", "category": "Software company", "street": "1st Floor", "city": "B-70", "phone": "08929075975", "website": "https://optyminds.com/", "rating": 4.9, "review_count": "", "latitude": 28.584679599999998, "longitude": 77.3135042, "maps_url": "https://www.google.com/maps/place/?q=place_id:0x390ce5fdcc79e755:0x309ce99251b84ef6"}, {"place_id": "0x390ce3ad10000061:0xeff7e6017a22cce7", "name": "Alpinesoft IT Solutions Authorized Google Workspace Reseller", "category": "Software company", "street": "162/9 Ist Floor, KIshangarh - Gaushala Marg", "city": "Lakhi Nath Kuti, Mehrauli, Vasant Kunj", "phone": "09999011157", "website": "https://www.alpinesoftit.com/", "rating": 4.3, "review_count": "", "latitude": 28.515394399999998, "longitude": 77.16460359999999, "maps_url": "https://www.google.com/maps/place/?q=place_id:0x390ce3ad10000061:0xeff7e6017a22cce7"}, {"place_id": "0x390ce26dc4d4ba2d:0x9486a6d620e379f9", "name": "Akal Information Systems Ltd.", "category": "Software company", "street": "Tower J, World Trade Center", "city": "103", "phone": "01146503545", "website": "https://www.akalinfo.com/", "rating": 3.9, "review_count": "", "latitude": 28.567935499999997, "longitude": 77.1923202, "maps_url": "https://www.google.com/maps/place/?q=place_id:0x390ce26dc4d4ba2d:0x9486a6d620e379f9"}, {"place_id": "0x390d1df079759d1f:0x8bfa70033f6c672a", "name": "NR Technoserve Pvt. Ltd.", "category": "Software company", "street": "133, Katwaria Sarai", "city": "Phase-2, Qutab Institutional Area", "phone": "07289096762", "website": "http://www.nrtechnoserve.co.in/", "rating": 4.4, "review_count": "", "latitude": 28.5413306, "longitude": 77.18495519999999, "maps_url": "https://www.google.com/maps/place/?q=place_id:0x390d1df079759d1f:0x8bfa70033f6c672a"}, {"place_id": "0x390d1d0eafffffff:0x79c98fab8def11cd", "name": "Osmat India Limited", "category": "Corporate office", "street": "Shop No.- 1", "city": "DDA MARKET", "phone": "", "website": "", "rating": 5, "review_count": "", "latitude": 28.5789831, "longitude": 77.165088, "maps_url": "https://www.google.com/maps/place/?q=place_id:0x390d1d0eafffffff:0x79c98fab8def11cd"}, {"place_id": "0x390ce379c100ae01:0xf4cee3ee4a8e368e", "name": "Luezoid Technologies Private Limited", "category": "Software company", "street": "3rd Floor", "city": "10, Satya Niketan Rd", "phone": "09666718620", "website": "http://www.luezoid.com/", "rating": 4.1, "review_count": "", "latitude": 28.5877226, "longitude": 77.1671204, "maps_url": "https://www.google.com/maps/place/?q=place_id:0x390ce379c100ae01:0xf4cee3ee4a8e368e"}, {"place_id": "0x390d1f5abfb25fe1:0x7d9c4d5e159f2955", "name": "Jaimru Technology Pvt Ltd", "category": "Software company", "street": "WARD NO. 2", "city": "Plot No. 178 M 33 A/1", "phone": "07838153420", "website": "https://www.jaimru.com/", "rating": 4.9, "review_count": "", "latitude": 28.524347499999998, "longitude": 77.1731889, "maps_url": "https://www.google.com/maps/place/?q=place_id:0x390d1f5abfb25fe1:0x7d9c4d5e159f2955"}, {"place_id": "0x390d04afaaaaaaab:0xa0a133d0075e6be5", "name": "Website Development company", "category": "Software company", "street": "705/A/1", "city": "Bhikaji Cama Place", "phone": "01126100386", "website": "https://direct-i.com/", "rating": 4.8, "review_count": "", "latitude": 28.5681396, "longitude": 77.18618649999999, "maps_url": "https://www.google.com/maps/place/?q=place_id:0x390d04afaaaaaaab:0xa0a133d0075e6be5"}, {"place_id": "0x390d04afaaaaaaab:0xa0a133d0075e6be5", "name": "Website Development company", "category": "Software company", "street": "705/A/1", "city": "Bhikaji Cama Place", "phone": "01126100386", "website": "https://direct-i.com/", "rating": 4.8, "review_count": "", "latitude": 28.5681396, "longitude": 77.18618649999999, "maps_url": "https://www.google.com/maps/place/?q=place_id:0x390d04afaaaaaaab:0xa0a133d0075e6be5"}, {"place_id": "0x390d1b94e83ad411:0x58872ab25a7bf4c", "name": "WebpromoTech", "category": "Software company", "street": "Wz-13, B-3", "city": "near Maruti Chowk", "phone": "09560381801", "website": "https://webpromotech.com/", "rating": 5, "review_count": "", "latitude": 28.5683872, "longitude": 77.16313389999999, "maps_url": "https://www.google.com/maps/place/?q=place_id:0x390d1b94e83ad411:0x58872ab25a7bf4c"}, {"place_id": "0x390d1be7f1a44f95:0x84524a5425f8930d", "name": "InfraDost Technologies Pvt Ltd.- Microsoft Adobe Corel Draw & Security Solution Provider", "category": "Software company", "street": "Gurgaon - Delhi Expy", "city": "Block B, Mahipalpur Village, Mahipalpur", "phone": "08287792542", "website": "http://www.infradost.com/", "rating": 4.6, "review_count": "", "latitude": 28.5485743, "longitude": 77.1264697, "maps_url": "https://www.google.com/maps/place/?q=place_id:0x390d1be7f1a44f95:0x84524a5425f8930d"}, {"place_id": "0x390ce22b0fca41ed:0x6f961b3e663b8023", "name": "Tollman International Pvt Ltd", "category": "Software company", "street": "13, Palam Marg", "city": "Block B, Vasant Vihar", "phone": "01141024370", "website": "http://www.tollman.co.in/", "rating": 4, "review_count": "", "latitude": 28.5684263, "longitude": 77.16417249999999, "maps_url": "https://www.google.com/maps/place/?q=place_id:0x390ce22b0fca41ed:0x6f961b3e663b8023"}, {"place_id": "0x390ce3860c81c723:0xc5f50e43c0a86a3e", "name": "Nextr Technology", "category": "Software company", "street": "2nd Floor", "city": "1483/A-1", "phone": "09911751575", "website": "http://www.nextr.in/", "rating": 4.9, "review_count": "", "latitude": 28.574374, "longitude": 77.224284, "maps_url": "https://www.google.com/maps/place/?q=place_id:0x390ce3860c81c723:0xc5f50e43c0a86a3e"}, {"place_id": "0x390d1d1304e672cb:0x8a5cb3a2685781e5", "name": "Createch Software Pvt Ltd", "category": "Software company", "street": "4,5 2nd Floor", "city": "Moti Bagh II, Satya Niketan", "phone": "09810079450", "website": "http://createch-software.com/", "rating": 4.6, "review_count": "", "latitude": 28.5877205, "longitude": 77.16924159999999, "maps_url": "https://www.google.com/maps/place/?q=place_id:0x390d1d1304e672cb:0x8a5cb3a2685781e5"}, {"place_id": "0x390d1d0102fb2263:0x755b5c2fa610690c", "name": "Niryat Bhawan", "category": "Corporate office", "street": "Rao Tularam Marg", "city": "opp. Army Hospital Research&Referral", "phone": "18001219000", "website": "http://www.fieo.org/", "rating": 4.2, "review_count": "", "latitude": 28.5751228, "longitude": 77.1574144, "maps_url": "https://www.google.com/maps/place/?q=place_id:0x390d1d0102fb2263:0x755b5c2fa610690c"}, {"place_id": "0x390d1d084f6aaaab:0x3668c5285f840001", "name": "ART OF MASALA FOODS PRIVATE LIMITED", "category": "Corporate office", "street": "H5F6+MV3", "city": "Club", "phone": "09873833007", "website": "http://artofmasala.com/", "rating": 4.7, "review_count": "", "latitude": 28.5741317, "longitude": 77.1621686, "maps_url": "https://www.google.com/maps/place/?q=place_id:0x390d1d084f6aaaab:0x3668c5285f840001"}, {"place_id": "0x390d1db0aef40171:0xb748a2e6079dd53d", "name": "YB INFORMATICS", "category": "Computer support and services", "street": "43, Poorvi Marg", "city": "Block A, Vasant Vihar", "phone": "09650920040", "website": "http://www.ybinformatics.com/", "rating": 5, "review_count": "", "latitude": 28.560817399999998, "longitude": 77.1666408, "maps_url": "https://www.google.com/maps/place/?q=place_id:0x390d1db0aef40171:0xb748a2e6079dd53d"}, {"place_id": "0x390cfcacae4e5a67:0x961a9738d8ff3f7c", "name": "Need Infotech", "category": "Software company", "street": "110012", "city": "E-557", "phone": "08860808752", "website": "https://www.needinfotech.com/", "rating": 4.8, "review_count": "", "latitude": 28.631518, "longitude": 77.1436078, "maps_url": "https://www.google.com/maps/place/?q=place_id:0x390cfcacae4e5a67:0x961a9738d8ff3f7c"}, {"place_id": "0x390d1d07da1b4d67:0x1ad77af3b6fc8b0f", "name": "East India Company", "category": "Furniture store", "street": "201, Rao Tularam Flyover", "city": "Vasant Enclave, Vasant Vihar", "phone": "09810038050", "website": "", "rating": 3.7, "review_count": "", "latitude": 28.5740731, "longitude": 77.1596352, "maps_url": "https://www.google.com/maps/place/?q=place_id:0x390d1d07da1b4d67:0x1ad77af3b6fc8b0f"}, {"place_id": "0x390d036a16f841d9:0x9b91311b1453f4c0", "name": "Zon Tec Solutions", "category": "Software company", "street": "3rd Floor", "city": "302 - 302 A, West", "phone": "09599902185", "website": "https://zontecsolutions.com/", "rating": 4.1, "review_count": "", "latitude": 28.6382303, "longitude": 77.1205162, "maps_url": "https://www.google.com/maps/place/?q=place_id:0x390d036a16f841d9:0x9b91311b1453f4c0"}, {"place_id": "0x390d1d8223a70eb7:0x1805ae8b8c3c09c0", "name": "Singh Computerised Key Maker Homes Service", "category": "Key duplication service", "street": "Shop No. D", "city": "Mohan Singh Market", "phone": "08950210295", "website": "", "rating": 5, "review_count": "", "latitude": 28.5739865, "longitude": 77.1613007, "maps_url": "https://www.google.com/maps/place/?q=place_id:0x390d1d8223a70eb7:0x1805ae8b8c3c09c0"}, {"place_id": "0x390ce45bcd61048f:0x5f6a5602f4155df7", "name": "JK Technosoft Limited", "category": "Software company", "street": "F", "city": "3", "phone": "01204606300", "website": "https://jktech.com/", "rating": 4.2, "review_count": "", "latitude": 28.5802509, "longitude": 77.31793329999999, "maps_url": "https://www.google.com/maps/place/?q=place_id:0x390ce45bcd61048f:0x5f6a5602f4155df7"}, {"place_id": "0x390d1d841aaaaaab:0xa32856a97de4096b", "name": "BI Biotech India Pvt. Ltd. (Corporate Office)", "category": "Biotechnology company", "street": "328", "city": "Ansal Chamber-2", "phone": "01126101271", "website": "http://www.biotechindia.com/", "rating": 3.9, "review_count": "", "latitude": 28.5677649, "longitude": 77.187382, "maps_url": "https://www.google.com/maps/place/?q=place_id:0x390d1d841aaaaaab:0xa32856a97de4096b"}, {"place_id": "0x390d1d0eae1da931:0xe70fb584621a0c3e", "name": "V. Yadav & Co.", "category": "Chartered accountant", "street": "DDA Market", "city": "1", "phone": "01141661511", "website": "http://www.vyadavco.com/", "rating": 3.9, "review_count": "", "latitude": 28.578680799999997, "longitude": 77.16503829999999, "maps_url": "https://www.google.com/maps/place/?q=place_id:0x390d1d0eae1da931:0xe70fb584621a0c3e"}, {"place_id": "0x390d1ed3c6e9f579:0x322eccdb00f350d2", "name": "Techjockey", "category": "Software company", "street": "Ground floor, Habitat India", "city": "C-3", "phone": "01142213003", "website": "https://www.techjockey.com/", "rating": 4, "review_count": "", "latitude": 28.536615299999998, "longitude": 77.1902978, "maps_url": "https://www.google.com/maps/place/?q=place_id:0x390d1ed3c6e9f579:0x322eccdb00f350d2"}, {"place_id": "0x390d1d07c297c71f:0x839357e21bb42f5e", "name": "Gaur Computers", "category": "Printing equipment supplier", "street": "83", "city": "Basant Gaon, Vasant Vihar", "phone": "", "website": "", "rating": 5, "review_count": "", "latitude": 28.5727732, "longitude": 77.1583591, "maps_url": "https://www.google.com/maps/place/?q=place_id:0x390d1d07c297c71f:0x839357e21bb42f5e"}, {"place_id": "0x390d1d13ebffffe1:0xe35273206cc9bd89", "name": "Detective Guru Rahul Rai Gupta - Secret Watch Detectives Pvt. Ltd.", "category": "Corporate office", "street": "284, 3rd Floor", "city": "Satya Niketan", "phone": "08826267700", "website": "https://secretwatchdetectives.com/", "rating": 4.9, "review_count": "", "latitude": 28.588499799999997, "longitude": 77.1687652, "maps_url": "https://www.google.com/maps/place/?q=place_id:0x390d1d13ebffffe1:0xe35273206cc9bd89"}, {"place_id": "0x390d1d0b218e3cdf:0x555f005e3b1d7a5a", "name": "Law Offices of India", "category": "Consultant", "street": "H 1", "city": "Block D, Anand Niketan", "phone": "01141436091", "website": "http://www.lawofficesofindia.com/", "rating": 4.5, "review_count": "", "latitude": 28.575654999999998, "longitude": 77.16108799999999, "maps_url": "https://www.google.com/maps/place/?q=place_id:0x390d1d0b218e3cdf:0x555f005e3b1d7a5a"}, {"place_id": "0x390d1d416f763f41:0x4c49eab3ad1a80cd", "name": "G L A & Co.", "category": "Chartered accountant", "street": "1-E, F/F", "city": "Street 1", "phone": "", "website": "https://glaandco.exlyapp.com/", "rating": 4.9, "review_count": "", "latitude": 28.5736861, "longitude": 77.1578588, "maps_url": "https://www.google.com/maps/place/?q=place_id:0x390d1d416f763f41:0x4c49eab3ad1a80cd"}, {"place_id": "0x390d0302af76c545:0x97d6a46d40086acd", "name": "Solarman Technology Project Pvt Ltd - Digital Marketing Company in Delhi, India |Software Development Company | IT Company", "category": "Software company", "street": "6/14", "city": "Block 5, Kirti Nagar Industrial Area, Kirti Nagar", "phone": "07428086779", "website": "https://solarmantech.in/", "rating": 5, "review_count": "", "latitude": 28.6517841, "longitude": 77.14799649999999, "maps_url": "https://www.google.com/maps/place/?q=place_id:0x390d0302af76c545:0x97d6a46d40086acd"}, {"place_id": "0x390d1d081ff33ef7:0xb4ad4b926dcdc4a5", "name": "DHL Express (India) Pvt. Ltd", "category": "Courier service", "street": "13, Rao Tularam Marg", "city": "near Rao Travels", "phone": "08035469394", "website": "https://locations-in.express.dhl.com/courier-service-in-vasant-vihar-new-delhi-delhi/home", "rating": 4.8, "review_count": "", "latitude": 28.572380199999998, "longitude": 77.16162, "maps_url": "https://www.google.com/maps/place/?q=place_id:0x390d1d081ff33ef7:0xb4ad4b926dcdc4a5"}, {"place_id": "0x390d1d0fdaaaaaab:0xc9163ed34d31e12", "name": "4th Dimension", "category": "Corporate office", "street": "C-17, Benito Juarez Marg", "city": "Block C, South Campus, Anand Niketan", "phone": "01141661137", "website": "http://www.4da.in/", "rating": 4.3, "review_count": "", "latitude": 28.5797502, "longitude": 77.1629689, "maps_url": "https://www.google.com/maps/place/?q=place_id:0x390d1d0fdaaaaaab:0xc9163ed34d31e12"}, {"place_id": "0x390d0331f8fa9037:0xbf316ec71fe5896d", "name": "Web Development Company in South West Delhi - MSN Technologies", "category": "Software company", "street": "Mahatma Gandhi Rd", "city": "Block WZ, Naraina", "phone": "08800388071", "website": "http://www.msntechnologies.org/", "rating": 5, "review_count": "", "latitude": 28.621692, "longitude": 77.1363598, "maps_url": "https://www.google.com/maps/place/?q=place_id:0x390d0331f8fa9037:0xbf316ec71fe5896d"}, {"place_id": "0x390ce55ffe34c78d:0x5e0691a2f679aa6a", "name": "ANR Software Private Limited", "category": "Software company", "street": "B 103-104, Sector 63 Rd", "city": "B Block, Sector 63", "phone": "", "website": "https://www.anrsoftware.com/", "rating": 3.9, "review_count": "", "latitude": 28.615819, "longitude": 77.3785242, "maps_url": "https://www.google.com/maps/place/?q=place_id:0x390ce55ffe34c78d:0x5e0691a2f679aa6a"}, {"place_id": "0x390d1dcc0b7042df:0xe8beed015fc6dd94", "name": "Chicken Company", "category": "Meat products store", "street": "Shop no.18", "city": "Market", "phone": "09711608446", "website": "https://chicken-company.grexa.site/", "rating": 4.9, "review_count": "", "latitude": 28.5806498, "longitude": 77.1684841, "maps_url": "https://www.google.com/maps/place/?q=place_id:0x390d1dcc0b7042df:0xe8beed015fc6dd94"}, {"place_id": "0x390d1d0b0bc6c5c7:0xf07b58176e8334be", "name": "Royale Realtors India", "category": "Real estate agency", "street": "19 DDA Market", "city": "Shanti Niketan", "phone": "09818312077", "website": "http://www.royalerealtorsindia.com/", "rating": 4.3, "review_count": "", "latitude": 28.576855899999998, "longitude": 77.16863649999999, "maps_url": "https://www.google.com/maps/place/?q=place_id:0x390d1d0b0bc6c5c7:0xf07b58176e8334be"}, {"place_id": "0xac577056c2b5ff3d:0xaf00253141553d04", "name": "Devnotam | IT Company", "category": "Internet marketing service", "street": "", "city": "", "phone": "", "website": "https://devnotam.com/", "rating": 5, "review_count": "", "latitude": 28.692404999999997, "longitude": 77.090042, "maps_url": "https://www.google.com/maps/place/?q=place_id:0xac577056c2b5ff3d:0xaf00253141553d04"}, {"place_id": "0x390d1da673243f53:0x479019021bdeae7e", "name": "Epistle", "category": "Marketing agency", "street": "C 8 / 7", "city": "Block C, Vasant Vihar", "phone": "01141604180", "website": "http://www.epistle.co/", "rating": 4.8, "review_count": "", "latitude": 28.5687574, "longitude": 77.1583103, "maps_url": "https://www.google.com/maps/place/?q=place_id:0x390d1da673243f53:0x479019021bdeae7e"}, {"place_id": "0x390d1d2e275d2c75:0xcf8e43d3f44689ee", "name": "Dorma Sensor Door", "category": "Automation company", "street": "Nanak Pura Market", "city": "West", "phone": "09990009980", "website": "https://www.dvsautodoors.com/", "rating": 5, "review_count": "", "latitude": 28.583533499999998, "longitude": 77.1687156, "maps_url": "https://www.google.com/maps/place/?q=place_id:0x390d1d2e275d2c75:0xcf8e43d3f44689ee"}, {"place_id": "0x390d1d1b7cb96ead:0x1df33f1fd27504db", "name": "Drapped Designed Tailoring", "category": "Tailor", "street": "New Delhi 37", "city": "L 172/c, Street ist mahipalpur", "phone": "", "website": "", "rating": 4.9, "review_count": "", "latitude": 28.573628099999997, "longitude": 77.1670999, "maps_url": "https://www.google.com/maps/place/?q=place_id:0x390d1d1b7cb96ead:0x1df33f1fd27504db"}, {"place_id": "0x390d1d08201109ab:0xa9408e5341757180", "name": "Rao Travels Head Office", "category": "Corporate office", "street": "Vasant Enclave, Market", "city": "17, Rao Tularam Marg", "phone": "01146131313", "website": "http://www.raotravels.com/", "rating": 3.1, "review_count": "", "latitude": 28.5722389, "longitude": 77.1615447, "maps_url": "https://www.google.com/maps/place/?q=place_id:0x390d1d08201109ab:0xa9408e5341757180"}, {"place_id": "0x390d1d0102a71da7:0xdac8f5e4407a2325", "name": "Fortune Institute of International Business | FIIB Delhi | AACSB Accredited Business School", "category": "Business school", "street": "Plot No. 5, Rao Tula Ram Marg", "city": "Opposite Army R&R Hospital, Vasant Vihar", "phone": "07428344339", "website": "https://www.fiib.edu.in/", "rating": 4.1, "review_count": "", "latitude": 28.5742627, "longitude": 77.1569494, "maps_url": "https://www.google.com/maps/place/?q=place_id:0x390d1d0102a71da7:0xdac8f5e4407a2325"}, {"place_id": "0x390d1d0f26ddd79f:0x4cd8b812c20065aa", "name": "Delhi Institute of Digital Marketing", "category": "Training center", "street": "near", "city": "3rd Floor, Plot no 12", "phone": "08800505151", "website": "https://www.didm.in/digital-marketing-course-in-satya-niketan", "rating": 4.5, "review_count": "", "latitude": 28.5877041, "longitude": 77.1671842, "maps_url": "https://www.google.com/maps/place/?q=place_id:0x390d1d0f26ddd79f:0x4cd8b812c20065aa"}, {"place_id": "0x390d1d22fbe05c07:0x29db23f7235a43f4", "name": "SAARK Consulting Private Limited", "category": "Information services", "street": "Golden Dragon Complex, Green Park", "city": "12 Ajit Singh House", "phone": "", "website": "https://saarkconsulting.com/", "rating": 5, "review_count": "", "latitude": 28.567831599999998, "longitude": 77.158908, "maps_url": "https://www.google.com/maps/place/?q=place_id:0x390d1d22fbe05c07:0x29db23f7235a43f4"}, {"place_id": "0x390cfb4bf15a6733:0xaf50e6f3c5fb7641", "name": "Digitals Daddy: Web & App Development Company", "category": "Software company", "street": "Metro Gate No. 2", "city": "Nearest Sikandarpur", "phone": "09818286609", "website": "https://www.digitalsdaddy.com/", "rating": 4.9, "review_count": "", "latitude": 28.4847884, "longitude": 77.0922192, "maps_url": "https://www.google.com/maps/place/?q=place_id:0x390cfb4bf15a6733:0xaf50e6f3c5fb7641"}, {"place_id": "0x390d1d0f14df67df:0xb7bdd4849597cdca", "name": "Saramati PG Men's Hostel", "category": "Boys' hostel", "street": "Saramati PG", "city": "MEN'S HOSTEL, UNIVERSITY OF DELHI SOUTH CAMPUS", "phone": "", "website": "https://pgmenhosteludsc.du.ac.in/", "rating": 4.5, "review_count": "", "latitude": 28.579867399999998, "longitude": 77.1611945, "maps_url": "https://www.google.com/maps/place/?q=place_id:0x390d1d0f14df67df:0xb7bdd4849597cdca"}, {"place_id": "0x390d0348be373921:0xdab0e6afc72090d6", "name": "\ud835\udc16\ud835\udc1e\ud835\udc1b\ud835\udc24\ud835\udc1a\ud835\udc2b\ud835\udc2d \ud835\udc03\ud835\udc22\ud835\udc20\ud835\udc22\ud835\udc2d\ud835\udc1a\ud835\udc25 \ud835\udc0f\ud835\udc2f\ud835\udc2d. \ud835\udc0b\ud835\udc2d\ud835\udc1d", "category": "Website designer", "street": "2nd Floor", "city": "C-127", "phone": "09711110321", "website": "https://webkartindia.com/", "rating": 4.9, "review_count": "", "latitude": 28.628981399999997, "longitude": 77.1369867, "maps_url": "https://www.google.com/maps/place/?q=place_id:0x390d0348be373921:0xdab0e6afc72090d6"}, {"place_id": "0x390d1ad0c0f06d77:0x560ddecee480bf6a", "name": "Aquafresh RO System", "category": "Water treatment plant", "street": "h.o f-5 plot, No \u2013 10", "city": "Sector 5, Dwarka", "phone": "09999456723", "website": "", "rating": 3.3, "review_count": "", "latitude": 28.57874, "longitude": 77.1672339, "maps_url": "https://www.google.com/maps/place/?q=place_id:0x390d1ad0c0f06d77:0x560ddecee480bf6a"}, {"place_id": "0x390d1da895dbedfd:0x216639aec9027452", "name": "Gupta Airconditioning Company", "category": "Air conditioning repair service", "street": "C-8, Main Shopping Centre", "city": "Cross Rd 7", "phone": "01126147307", "website": "http://www.guptaac.com/", "rating": 4.5, "review_count": "", "latitude": 28.567691699999997, "longitude": 77.15893059999999, "maps_url": "https://www.google.com/maps/place/?q=place_id:0x390d1da895dbedfd:0x216639aec9027452"}, {"place_id": "0x390d1dae4061f983:0x12d1906436a6f532", "name": "Federation of Indian Export Organisations", "category": "Government office", "street": "H5G5+435", "city": "Niryat Bhawan", "phone": "01146042222", "website": "https://www.fieo.org/view_section.php?lang=0&id=0,8", "rating": 4.7, "review_count": "", "latitude": 28.575263399999997, "longitude": 77.1577306, "maps_url": "https://www.google.com/maps/place/?q=place_id:0x390d1dae4061f983:0x12d1906436a6f532"}, {"place_id": "0x390d1d4d0e50913d:0xdb1cf17eefded4e8", "name": "Future Built", "category": "Interior designer", "street": "Type IV, Block E, South Moti Bagh", "city": "New Delhi, Delhi 110021", "phone": "08802728729", "website": "", "rating": 5, "review_count": "", "latitude": 28.5814272, "longitude": 77.1686859, "maps_url": "https://www.google.com/maps/place/?q=place_id:0x390d1d4d0e50913d:0xdb1cf17eefded4e8"}, {"place_id": "0x390d1d9ee67152bb:0xa3855a032504d6c7", "name": "C-124, block C, anand Niketan colony", "category": "Corporate office", "street": "A-175", "city": "Block C, Anand Niketan", "phone": "", "website": "http://mrmassociates.in/", "rating": 4.6, "review_count": "", "latitude": 28.576815999999997, "longitude": 77.164142, "maps_url": "https://www.google.com/maps/place/?q=place_id:0x390d1d9ee67152bb:0xa3855a032504d6c7"}, {"place_id": "0x390d1db570282719:0x1948fad95f227beb", "name": "Sai Cyber Cafe", "category": "Internet cafe", "street": "H5F5+3JP", "city": "Unnamed Road", "phone": "", "website": "", "rating": 3.5, "review_count": "", "latitude": 28.572723099999997, "longitude": 77.1590708, "maps_url": "https://www.google.com/maps/place/?q=place_id:0x390d1db570282719:0x1948fad95f227beb"}, {"place_id": "0x390d1dbca997176d:0x57e66bed722428a", "name": "Earthz Urban Spaces Pvt. Ltd.", "category": "Real Estate Builders & Construction Company", "street": "gate no 4", "city": "metro station", "phone": "09810313009", "website": "http://earthzurbanspaces.com/", "rating": 3.9, "review_count": "", "latitude": 28.5580338, "longitude": 77.1619972, "maps_url": "https://www.google.com/maps/place/?q=place_id:0x390d1dbca997176d:0x57e66bed722428a"}, {"place_id": "0x390d1dd4496f6ca5:0x14b7c597de23d71b", "name": "Bluedart", "category": "Courier service", "street": "Rao Tularam Marg", "city": "West End Colony, Vasant Enclave, Vasant Vihar", "phone": "", "website": "https://www.bluedart.com/", "rating": 4, "review_count": "", "latitude": 28.5722898, "longitude": 77.1615301, "maps_url": "https://www.google.com/maps/place/?q=place_id:0x390d1dd4496f6ca5:0x14b7c597de23d71b"}, {"place_id": "0x390d1d1b6d126127:0xb42db8a3bd199527", "name": "Mediator Vikram", "category": "Mediation service", "street": "Anand Niketan", "city": "C-17, Benito Juarez Marg", "phone": "09810616644", "website": "https://mediatorvikram.com/", "rating": 5, "review_count": "", "latitude": 28.579834199999997, "longitude": 77.16290959999999, "maps_url": "https://www.google.com/maps/place/?q=place_id:0x390d1d1b6d126127:0xb42db8a3bd199527"}, {"place_id": "0x390d1d8baaaaaaab:0x81e02841f207d0f0", "name": "S SONY & COMPANY PVT. LTD", "category": "Real Estate Builders & Construction Company", "street": "G-4, ANUPAMA BUILDING II FLOOR", "city": "Hauz Khas", "phone": "01135002651", "website": "http://ssony.in/", "rating": 4.9, "review_count": "", "latitude": 28.5510508, "longitude": 77.2048471, "maps_url": "https://www.google.com/maps/place/?q=place_id:0x390d1d8baaaaaaab:0x81e02841f207d0f0"}, {"place_id": "0x390ce21b1531e42f:0xd058b59b5c7810fc", "name": "Urban Drive", "category": "Car rental agency", "street": "D Block, H No.831, Khasra No. 27/19/20 Rao Mathura", "city": "Parsad Marg", "phone": "09773881881", "website": "https://www.myurbandrive.com/", "rating": 3.3, "review_count": "", "latitude": 28.574072599999997, "longitude": 77.1643452, "maps_url": "https://www.google.com/maps/place/?q=place_id:0x390ce21b1531e42f:0xd058b59b5c7810fc"}, {"place_id": "0x390d1d093d2759ef:0xc62cc2abb31fc6b7", "name": "Love Change - Sustainable Luxury", "category": "Designer Clothing Store", "street": "G-7", "city": "Block D, Anand Niketan", "phone": "09999170503", "website": "https://lovechange.in/", "rating": 5, "review_count": "", "latitude": 28.5761704, "longitude": 77.16149639999999, "maps_url": "https://www.google.com/maps/place/?q=place_id:0x390d1d093d2759ef:0xc62cc2abb31fc6b7"}, {"place_id": "0x390d1d1cfb866583:0x2bad9ebc0a990b11", "name": "RankFast", "category": "Marketing agency", "street": "26, LGF", "city": "D6 St", "phone": "09711945770", "website": "https://rankfast.co/", "rating": 4.8, "review_count": "", "latitude": 28.5620388, "longitude": 77.15334419999999, "maps_url": "https://www.google.com/maps/place/?q=place_id:0x390d1d1cfb866583:0x2bad9ebc0a990b11"}, {"place_id": "0x3962fd7221978859:0xf7a3ac341920f06f", "name": "Parkhya Solutions Pvt. Ltd.", "category": "Software company", "street": "121, Devi Ahilya Marg", "city": "Sahakar Nagar, Snehlataganj", "phone": "", "website": "http://www.parkhya.com/", "rating": 4.4, "review_count": "", "latitude": 22.729563499999998, "longitude": 75.863581, "maps_url": "https://www.google.com/maps/place/?q=place_id:0x3962fd7221978859:0xf7a3ac341920f06f"}, {"place_id": "0x390d1d5a12f7057d:0x330ef9faaf9a9fa4", "name": "Emoha Elder Care", "category": "Home health care service", "street": "3rd Floor", "city": "No C13, Benito Juarez Marg", "phone": "09811952799", "website": "http://www.emoha.com/", "rating": 4.9, "review_count": "", "latitude": 28.5801049, "longitude": 77.1630754, "maps_url": "https://www.google.com/maps/place/?q=place_id:0x390d1d5a12f7057d:0x330ef9faaf9a9fa4"}, {"place_id": "0x390d1b0010fc2321:0x12e9154c815cf007", "name": "Prashant Dwivedi IT company", "category": "Warehouse", "street": "G3P5+GVC", "city": "Nayak Pura, Bijwasan", "phone": "", "website": "", "rating": "", "review_count": "", "latitude": 28.536316, "longitude": 77.059649, "maps_url": "https://www.google.com/maps/place/?q=place_id:0x390d1b0010fc2321:0x12e9154c815cf007"}, {"place_id": "0x390d1ddd251afd85:0xc2778690e49cd8c0", "name": "Urban Club Logistics India Pvt Ltd", "category": "Freight Forwarding Agency", "street": "movers and packers", "city": "packers and movers in vasant vihar movers and packers in vasant vihar C-2/14, Cross Rd 2, Block C, packers and movers", "phone": "", "website": "https://urbanclub.co.in/", "rating": 5, "review_count": "", "latitude": 28.568800699999997, "longitude": 77.1604491, "maps_url": "https://www.google.com/maps/place/?q=place_id:0x390d1ddd251afd85:0xc2778690e49cd8c0"}, {"place_id": "0x390d1dd72ae93e6b:0xcc10e9709882fe52", "name": "Property Management in Delhi by nobroker", "category": "Property management company", "street": "Sangam Courtyard", "city": "opp. Delhi Club House", "phone": "09036015272", "website": "https://www.nobroker.in/prophub/property-management/property-management-in-india/", "rating": 3.3, "review_count": "", "latitude": 28.573838199999997, "longitude": 77.17074629999999, "maps_url": "https://www.google.com/maps/place/?q=place_id:0x390d1dd72ae93e6b:0xcc10e9709882fe52"}, {"place_id": "0xd1516b679f60d2f:0x9458c47d907b59a8", "name": "MarkTech Company", "category": "Marketing agency", "street": "INA, Laxmi Bai Nagar", "city": "New Delhi, Delhi 110023", "phone": "08527880385", "website": "https://markteches.com/", "rating": 3.9, "review_count": "", "latitude": 28.5754463, "longitude": 77.2077127, "maps_url": "https://www.google.com/maps/place/?q=place_id:0xd1516b679f60d2f:0x9458c47d907b59a8"}, {"place_id": "0x390ce15795555555:0x9bb8a801d00d7573", "name": "DreamSoft Infotech - Website Development Company in India", "category": "Software company", "street": "A-75 Third Floor", "city": "A Block, Sector 5", "phone": "01204380622", "website": "https://dreamsoftinfotech.com/", "rating": 3.4, "review_count": "", "latitude": 28.591018899999998, "longitude": 77.32201529999999, "maps_url": "https://www.google.com/maps/place/?q=place_id:0x390ce15795555555:0x9bb8a801d00d7573"}, {"place_id": "0x390d1d07de034001:0xa6217686a8618b2c", "name": "AY IT SOLUTION", "category": "Software company", "street": "107, Vasant Vihar, Near TCS Yantra Park, Pokharan Road. 2, Thane, MS", "city": "110057", "phone": "07400100208", "website": "http://ayitsolution.com/", "rating": "", "review_count": "", "latitude": 28.5734201, "longitude": 77.1596907, "maps_url": "https://www.google.com/maps/place/?q=place_id:0x390d1d07de034001:0xa6217686a8618b2c"}, {"place_id": "0x3962fd7221978859:0xf7a3ac341920f06f", "name": "Parkhya Solutions Pvt. Ltd.", "category": "Software company", "street": "121, Devi Ahilya Marg", "city": "Sahakar Nagar, Snehlataganj", "phone": "", "website": "http://www.parkhya.com/", "rating": 4.4, "review_count": "", "latitude": 22.729563499999998, "longitude": 75.863581, "maps_url": "https://www.google.com/maps/place/?q=place_id:0x3962fd7221978859:0xf7a3ac341920f06f"}, {"place_id": "0x390d1d919c5916e1:0x457b3975c0a33824", "name": "Edu Brain Academy of Design Media & Management", "category": "Design institute", "street": "81/2", "city": "Basant Nagar, Vasant Vihar", "phone": "09319338333", "website": "https://www.edubrainacademy.com/", "rating": 5, "review_count": "", "latitude": 28.5728118, "longitude": 77.1585549, "maps_url": "https://www.google.com/maps/place/?q=place_id:0x390d1d919c5916e1:0x457b3975c0a33824"}, {"place_id": "0x390d1e748ef61961:0x754ceb660996cfdb", "name": "ACS System Solutions", "category": "Software company", "street": "Kishangarh, Kishangarh Village, Vasant Kunj", "city": "New Delhi, Delhi 110070", "phone": "01149858620", "website": "http://acssystem.in/", "rating": 3.4, "review_count": "", "latitude": 28.522178699999998, "longitude": 77.1692609, "maps_url": "https://www.google.com/maps/place/?q=place_id:0x390d1e748ef61961:0x754ceb660996cfdb"}, {"place_id": "0x390ce233aaaaaaab:0x47b23c0ac1afb897", "name": "Zeus Law Associates", "category": "Legal services", "street": "2, Palam Marg", "city": "Block C, Vasant Vihar", "phone": "01141733090", "website": "http://zeus.firm.in/", "rating": 4.5, "review_count": "", "latitude": 28.5713251, "longitude": 77.1622063, "maps_url": "https://www.google.com/maps/place/?q=place_id:0x390ce233aaaaaaab:0x47b23c0ac1afb897"}, {"place_id": "0x390d1d0eb0eeca9b:0xa6bc01b13a9c086a", "name": "Petfly - Relocating Pets Worldwide", "category": "Pet moving service", "street": "DDA MARKET", "city": "29-31, Lower Ground Floor", "phone": "01124113000", "website": "http://petfly.in/", "rating": 4.8, "review_count": "", "latitude": 28.5787357, "longitude": 77.164855, "maps_url": "https://www.google.com/maps/place/?q=place_id:0x390d1d0eb0eeca9b:0xa6bc01b13a9c086a"}, {"place_id": "0x390d1dbc1ac41e5b:0x9d584173b97d7340", "name": "Vasant Apartments, Vasant Vihar", "category": "Housing society", "street": "Vasant Apartments", "city": "33", "phone": "", "website": "", "rating": 4.1, "review_count": "", "latitude": 28.5731391, "longitude": 77.1564913, "maps_url": "https://www.google.com/maps/place/?q=place_id:0x390d1dbc1ac41e5b:0x9d584173b97d7340"}, {"place_id": "0x390ce15795555555:0x9bb8a801d00d7573", "name": "DreamSoft Infotech - Website Development Company in India", "category": "Software company", "street": "A-75 Third Floor", "city": "A Block, Sector 5", "phone": "01204380622", "website": "https://dreamsoftinfotech.com/", "rating": 3.4, "review_count": "", "latitude": 28.591018899999998, "longitude": 77.32201529999999, "maps_url": "https://www.google.com/maps/place/?q=place_id:0x390ce15795555555:0x9bb8a801d00d7573"}, {"place_id": "0x390d1d07de034001:0xa6217686a8618b2c", "name": "AY IT SOLUTION", "category": "Software company", "street": "107, Vasant Vihar, Near TCS Yantra Park, Pokharan Road. 2, Thane, MS", "city": "110057", "phone": "07400100208", "website": "http://ayitsolution.com/", "rating": "", "review_count": "", "latitude": 28.5734201, "longitude": 77.1596907, "maps_url": "https://www.google.com/maps/place/?q=place_id:0x390d1d07de034001:0xa6217686a8618b2c"}, {"place_id": "0x390d1da335338a61:0x953daadb9020b02d", "name": "Syal Properties", "category": "Commercial agent", "street": "G-12", "city": "Vasant Enclave, Vasant Vihar", "phone": "09811130012", "website": "http://facebook.com/syalproperties", "rating": 4.1, "review_count": "", "latitude": 28.574874299999998, "longitude": 77.1581432, "maps_url": "https://www.google.com/maps/place/?q=place_id:0x390d1da335338a61:0x953daadb9020b02d"}, {"place_id": "0x390d1d16969499c7:0x3947b2241721da75", "name": "Nirmaan Associates Architects", "category": "Architecture firm", "street": "G-2, Hanuman Mandir Marg", "city": "opposite Flat No 35", "phone": "", "website": "http://www.nirmaanarchitects.in/", "rating": 5, "review_count": "", "latitude": 28.574512499999997, "longitude": 77.1591976, "maps_url": "https://www.google.com/maps/place/?q=place_id:0x390d1d16969499c7:0x3947b2241721da75"}, {"place_id": "0x390d1937d09e1231:0xf61423f219ef1d41", "name": "IntellyLabs Technologies", "category": "Software company", "street": "3rd Floor, Building Number: 9", "city": "DLF Cyber City, DLF Phase 2, Sector 24", "phone": "01244081571", "website": "http://intellylabs.com/", "rating": 5, "review_count": "", "latitude": 28.496289299999997, "longitude": 77.0931434, "maps_url": "https://www.google.com/maps/place/?q=place_id:0x390d1937d09e1231:0xf61423f219ef1d41"}]}