{"timestamp": 1773733465.5636816, "keyword": "IT company", "location": "Indore", "cell_idx": 59, "results": [{"place_id": "0x3963179ba819d679:0x97d67928bba81e05", "name": "ITGeeks Technologies Pvt. Ltd.", "category": "Software company", "street": "ITGeeks Technologies Pvt. Ltd", "city": "02, Yamuna nagar", "phone": "09179880603", "website": "http://www.itgeeks.com/", "rating": 4.6, "review_count": "", "latitude": 22.9538781, "longitude": 76.03808699999999, "maps_url": "https://www.google.com/maps/place/?q=place_id:0x3963179ba819d679:0x97d67928bba81e05"}, {"place_id": "0x3963179ca584a047:0xba87fc574f813753", "name": "Xlligent Softwares Pvt Ltd", "category": "Software company", "street": "111", "city": "near front of DCB Bank", "phone": "06261900209", "website": "https://www.xlligent-softwares.com/", "rating": 4.9, "review_count": "", "latitude": 22.9666632, "longitude": 76.0492101, "maps_url": "https://www.google.com/maps/place/?q=place_id:0x3963179ca584a047:0xba87fc574f813753"}, {"place_id": "0x3963171787e17b59:0x307a92533e921d11", "name": "Edithtech Softwares", "category": "Software company", "street": "44", "city": "Shourya Complex", "phone": "09109260321", "website": "https://edithtechsoftwares.com/", "rating": 4.8, "review_count": "", "latitude": 22.9547074, "longitude": 76.0365456, "maps_url": "https://www.google.com/maps/place/?q=place_id:0x3963171787e17b59:0x307a92533e921d11"}, {"place_id": "0x3962fd71266aaa83:0x82398caa17930a40", "name": "Octavian InfoTech LLP", "category": "Software company", "street": "A 41 Ayodhya Puri", "city": "Kodriya", "phone": "09977741168", "website": "https://www.octavianinfotech.com/", "rating": 5, "review_count": "", "latitude": 22.537258599999998, "longitude": 75.7726136, "maps_url": "https://www.google.com/maps/place/?q=place_id:0x3962fd71266aaa83:0x82398caa17930a40"}, {"place_id": "0x390ce458d0000001:0xf2123bd299ec4501", "name": "IT Company India", "category": "Software company", "street": "D56", "city": "D Block, Sector 10", "phone": "09999244854", "website": "https://www.itcompanyindia.in/", "rating": 4.7, "review_count": "", "latitude": 28.589917699999997, "longitude": 77.3351153, "maps_url": "https://www.google.com/maps/place/?q=place_id:0x390ce458d0000001:0xf2123bd299ec4501"}, {"place_id": "0x39631772fb57fa4d:0x1aeaaccddfab1b64", "name": "ITWEBINFO", "category": "Software company", "street": "103", "city": "Shivaji Nagar, Moti Bunglow", "phone": "07582995555", "website": "http://itwebinfo.com/", "rating": 5, "review_count": "", "latitude": 22.9710605, "longitude": 76.0480532, "maps_url": "https://www.google.com/maps/place/?q=place_id:0x39631772fb57fa4d:0x1aeaaccddfab1b64"}, {"place_id": "0x3963178ff220a477:0x51910ecd6deaed53", "name": "Cyber Elite Pvt Ltd.", "category": "Software company", "street": "226 LIG", "city": "Jawahar Nagar, Gomti Nagar", "phone": "07089899090", "website": "https://cyberelite.in/", "rating": 4.2, "review_count": "", "latitude": 22.953131199999998, "longitude": 76.0426221, "maps_url": "https://www.google.com/maps/place/?q=place_id:0x3963178ff220a477:0x51910ecd6deaed53"}, {"place_id": "0x396317226b2c42df:0x47098e396f961017", "name": "Expound Coderz Private Limited", "category": "Software company", "street": "267", "city": "Ram Nagar Extension, Mishrilal Nagar, Ganga Nagar", "phone": "07415752727", "website": "https://expoundcoderz.com/", "rating": 4.8, "review_count": "", "latitude": 22.9577816, "longitude": 76.0379663, "maps_url": "https://www.google.com/maps/place/?q=place_id:0x396317226b2c42df:0x47098e396f961017"}, {"place_id": "0x39631792ea7d9083:0xc90228718db1b1af", "name": "Sypnosis Technologies - IT Company.", "category": "Software company", "street": "2nd Floor", "city": "10", "phone": "09039239604", "website": "https://sypnosistechnologies.com/", "rating": "", "review_count": "", "latitude": 22.955443499999998, "longitude": 76.0369978, "maps_url": "https://www.google.com/maps/place/?q=place_id:0x39631792ea7d9083:0xc90228718db1b1af"}, {"place_id": "0x39631736a0f7d871:0xf0f334accf365a3a", "name": "Ayat infotech", "category": "Software company", "street": "51", "city": "Anand nagar, Itawa", "phone": "09589981295", "website": "http://ayatinfotech.com/", "rating": 5, "review_count": "", "latitude": 22.9726128, "longitude": 76.05058269999999, "maps_url": "https://www.google.com/maps/place/?q=place_id:0x39631736a0f7d871:0xf0f334accf365a3a"}, {"place_id": "0x39630239f26f44ff:0x9990e42765534532", "name": "Hybrid Infotech Pvt Ltd", "category": "Software company", "street": "Forest colony, Shivaji Nagar, Moti Bunglow", "city": "Dewas, Madhya Pradesh 455001", "phone": "09993031042", "website": "http://hybridinfotech.com/", "rating": 5, "review_count": "", "latitude": 22.9662243, "longitude": 76.0484005, "maps_url": "https://www.google.com/maps/place/?q=place_id:0x39630239f26f44ff:0x9990e42765534532"}, {"place_id": "0x3be7c21b5901e181:0x7fe794585addc1f6", "name": "Smartinfologiks - Software Development Company in India | IT Solutions", "category": "Software company", "street": "Hilton Center", "city": "514", "phone": "07400064691", "website": "https://www.smartinfologiks.com/", "rating": 4.6, "review_count": "", "latitude": 19.0139592, "longitude": 73.0382705, "maps_url": "https://www.google.com/maps/place/?q=place_id:0x3be7c21b5901e181:0x7fe794585addc1f6"}, {"place_id": "0x3bc2becdc35b6937:0x515ac559c349eee3", "name": "Thinkitive Technologies Private Limited", "category": "Software company", "street": "4th Floor", "city": "ABIL IMPERIAL COMMERCIAL SPACES", "phone": "08956467327", "website": "https://www.thinkitive.com/", "rating": 3.9, "review_count": "", "latitude": 18.5563888, "longitude": 73.7729748, "maps_url": "https://www.google.com/maps/place/?q=place_id:0x3bc2becdc35b6937:0x515ac559c349eee3"}, {"place_id": "0x3962e7120255878b:0xb42bc41f83831f1", "name": "Vaidik Ecosystems Pvt. Ltd.", "category": "Business management consultant", "street": "Srijan Ground Floor Crystal IT Park", "city": "Indore, Madhya Pradesh 452020", "phone": "09993987422", "website": "http://www.vaidikecosystems.com/", "rating": 5, "review_count": "", "latitude": 22.606925699999998, "longitude": 76.0215904, "maps_url": "https://www.google.com/maps/place/?q=place_id:0x3962e7120255878b:0xb42bc41f83831f1"}, {"place_id": "0x396317f6bce105ad:0x1b97ddd1edb96f8a", "name": "TechMac Digital Solutions", "category": "Software company", "street": "05 M.I.G, Ujjain Rd", "city": "near Water Tank", "phone": "08982878781", "website": "https://techmacdigital.com/", "rating": 4.7, "review_count": "", "latitude": 22.977732099999997, "longitude": 76.0322268, "maps_url": "https://www.google.com/maps/place/?q=place_id:0x396317f6bce105ad:0x1b97ddd1edb96f8a"}, {"place_id": "0x396317d794e16759:0x4060a0afc2cc5781", "name": "Webniya Infotech", "category": "Software company", "street": "", "city": "", "phone": "", "website": "https://www.webniya.tech/", "rating": 5, "review_count": "", "latitude": 21.0680074, "longitude": 82.7525294, "maps_url": "https://www.google.com/maps/place/?q=place_id:0x396317d794e16759:0x4060a0afc2cc5781"}, {"place_id": "0x3962fb94fc28ce15:0x775c0704a9c3d320", "name": "intevest", "category": "Software company", "street": "", "city": "", "phone": "", "website": "", "rating": 5, "review_count": "", "latitude": 21.0680074, "longitude": 82.7525294, "maps_url": "https://www.google.com/maps/place/?q=place_id:0x3962fb94fc28ce15:0x775c0704a9c3d320"}, {"place_id": "0x3962c5547086fd91:0xd7e0646afd772461", "name": "Shree Ram Cyber", "category": "Computer support and services", "street": "09, Hanuman Gali", "city": "Udainagar, Imlipura, Madhya Pradesh 455227", "phone": "09584557661", "website": "", "rating": "", "review_count": "", "latitude": 22.539574299999998, "longitude": 76.20489979999999, "maps_url": "https://www.google.com/maps/place/?q=place_id:0x3962c5547086fd91:0xd7e0646afd772461"}, {"place_id": "0x3962d7cd4bbe61e1:0xb647890dbb1b2392", "name": "Shree Dev Services", "category": "Computer service", "street": "Infront Of Polish Station", "city": "Hatpipliya, Madhya Pradesh 455223", "phone": "07240921013", "website": "", "rating": 5, "review_count": "", "latitude": 22.7757392, "longitude": 76.3022001, "maps_url": "https://www.google.com/maps/place/?q=place_id:0x3962d7cd4bbe61e1:0xb647890dbb1b2392"}, {"place_id": "0x396317929f6eb6ff:0xd309788e3f800c63", "name": "Lumic technologies", "category": "Software company", "street": "28, Sardar Patel Marg", "city": "Sutar Bakhal, Old Town, Gomti Nagar", "phone": "07804920240", "website": "http://www.lumicsoft.com/", "rating": "", "review_count": "", "latitude": 22.9654703, "longitude": 76.0527128, "maps_url": "https://www.google.com/maps/place/?q=place_id:0x396317929f6eb6ff:0xd309788e3f800c63"}, {"place_id": "0x3962fb94fc28ce15:0x775c0704a9c3d320", "name": "intevest", "category": "Software company", "street": "", "city": "", "phone": "", "website": "", "rating": 5, "review_count": "", "latitude": 21.0680074, "longitude": 82.7525294, "maps_url": "https://www.google.com/maps/place/?q=place_id:0x3962fb94fc28ce15:0x775c0704a9c3d320"}, {"place_id": "0x396317edb498db2d:0x820ff94014864b5b", "name": "Active Now Tech", "category": "Software company", "street": "Mahalaxmi Nagar", "city": "09", "phone": "08839779337", "website": "https://activenow.in/", "rating": 5, "review_count": "", "latitude": 22.9575802, "longitude": 76.0409086, "maps_url": "https://www.google.com/maps/place/?q=place_id:0x396317edb498db2d:0x820ff94014864b5b"}, {"place_id": "0x3962c5547086fd91:0xd7e0646afd772461", "name": "Shree Ram Cyber", "category": "Computer support and services", "street": "09, Hanuman Gali", "city": "Udainagar, Imlipura, Madhya Pradesh 455227", "phone": "09584557661", "website": "", "rating": "", "review_count": "", "latitude": 22.539574299999998, "longitude": 76.20489979999999, "maps_url": "https://www.google.com/maps/place/?q=place_id:0x3962c5547086fd91:0xd7e0646afd772461"}, {"place_id": "0x3962d7cd4bbe61e1:0xb647890dbb1b2392", "name": "Shree Dev Services", "category": "Computer service", "street": "Infront Of Polish Station", "city": "Hatpipliya, Madhya Pradesh 455223", "phone": "07240921013", "website": "", "rating": 5, "review_count": "", "latitude": 22.7757392, "longitude": 76.3022001, "maps_url": "https://www.google.com/maps/place/?q=place_id:0x3962d7cd4bbe61e1:0xb647890dbb1b2392"}, {"place_id": "0x2d1fb13b66f9b3b9:0xd8d6782015bc63e4", "name": "Dharmdesigner IT Services", "category": "Internet marketing service", "street": "Silver Park", "city": "Balaji Nagar", "phone": "08120348239", "website": "https://dharmdesigner.com/", "rating": 5, "review_count": "", "latitude": 22.947556799999997, "longitude": 76.05479059999999, "maps_url": "https://www.google.com/maps/place/?q=place_id:0x2d1fb13b66f9b3b9:0xd8d6782015bc63e4"}, {"place_id": "0x396317929f6eb6ff:0xd309788e3f800c63", "name": "Lumic technologies", "category": "Software company", "street": "28, Sardar Patel Marg", "city": "Sutar Bakhal, Old Town, Gomti Nagar", "phone": "07804920240", "website": "http://www.lumicsoft.com/", "rating": "", "review_count": "", "latitude": 22.9654703, "longitude": 76.0527128, "maps_url": "https://www.google.com/maps/place/?q=place_id:0x396317929f6eb6ff:0xd309788e3f800c63"}, {"place_id": "0x396317cb7c6c3d3b:0x9f2bbbfa9937c9b", "name": "SOMTARA Infotech", "category": "Software company", "street": "TARA KUNJ 205", "city": "opp. Escort Junior College", "phone": "", "website": "https://www.somtarainfotech.com/", "rating": "", "review_count": "", "latitude": 22.954623599999998, "longitude": 76.0349313, "maps_url": "https://www.google.com/maps/place/?q=place_id:0x396317cb7c6c3d3b:0x9f2bbbfa9937c9b"}, {"place_id": "0x6cfaa7c055002bd5:0x9543a5812d93766", "name": "Updevix \u2013 Web & App Development Company", "category": "Software company", "street": "software Employment Ofiice", "city": "1st floor, Updevix \u2013 Web & App Development Company", "phone": "", "website": "https://www.updevix.com/", "rating": 5, "review_count": "", "latitude": 22.967655699999998, "longitude": 76.0543464, "maps_url": "https://www.google.com/maps/place/?q=place_id:0x6cfaa7c055002bd5:0x9543a5812d93766"}, {"place_id": "0x39631d6ae4f42a97:0x83bc825e66f9983", "name": "Techwave IT Solutions Pvt Ltd | Software Development Company in Indore | Top IT Company in Indore | India", "category": "Software company", "street": "Bhopal Motors JCB", "city": "near Panchvati", "phone": "09009155444", "website": "http://techwaveitsolutions.com/", "rating": "", "review_count": "", "latitude": 22.792078399999998, "longitude": 75.90735409999999, "maps_url": "https://www.google.com/maps/place/?q=place_id:0x39631d6ae4f42a97:0x83bc825e66f9983"}, {"place_id": "0x3963179e783f3caf:0x370c4af9c04c7225", "name": "Satisfaction Web Solution Pvt. Ltd", "category": "Software company", "street": "146 Alkapuri", "city": "behind Shri Munisuvrat Swami Shwetambar Jain Mandir Dewas", "phone": "09826073695", "website": "http://www.satisfactionwebsolution.com/", "rating": 4.4, "review_count": "", "latitude": 22.967319, "longitude": 76.0412837, "maps_url": "https://www.google.com/maps/place/?q=place_id:0x3963179e783f3caf:0x370c4af9c04c7225"}, {"place_id": "0x396317170221cccd:0xdc916aeffd9100ea", "name": "Webaashi Technologies", "category": "Software company", "street": "C 82, AB Rd", "city": "Kalani Bagh, Agroha Nagar, Gomti Nagar", "phone": "", "website": "http://webaashi.com/", "rating": 4.9, "review_count": "", "latitude": 22.9586091, "longitude": 76.0484482, "maps_url": "https://www.google.com/maps/place/?q=place_id:0x396317170221cccd:0xdc916aeffd9100ea"}, {"place_id": "0x3962c56e57e2eb95:0x3232392ae2b1bfc9", "name": "Rawat Mp Online", "category": "Computer support and services", "street": "Punjapura", "city": "Road", "phone": "09977889179", "website": "", "rating": "", "review_count": "", "latitude": 22.5395894, "longitude": 76.20472079999999, "maps_url": "https://www.google.com/maps/place/?q=place_id:0x3962c56e57e2eb95:0x3232392ae2b1bfc9"}]}