{"timestamp": 1773730492.880893, "keyword": "IT company", "location": "delhi", "cell_idx": 248, "results": [{"place_id": "0x390ce3ecb114ad9b:0x831bb62ea721e15", "name": "\ud835\udc06\ud835\udc22\ud835\udc2d\ud835\udc32\ud835\udc2c\ud835\udc28\ud835\udc1f\ud835\udc2d\u00ae \ud835\udc13\ud835\udc1e\ud835\udc1c\ud835\udc21\ud835\udc27\ud835\udc28\ud835\udc25\ud835\udc28\ud835\udc20\ud835\udc22\ud835\udc1e\ud835\udc2c", "category": "Software company", "street": "Pocket-M, Chitranjan Park", "city": "Police Station", "phone": "09821150988", "website": "https://gitysoft.com/", "rating": 5, "review_count": "", "latitude": 28.5396921, "longitude": 77.24901009999999, "maps_url": "https://www.google.com/maps/place/?q=place_id:0x390ce3ecb114ad9b:0x831bb62ea721e15"}, {"place_id": "0x390ce3c153b89811:0xe7a279685777e9ca", "name": "IT Company", "category": "Automation company", "street": "A-14", "city": "near iskcon temple", "phone": "", "website": "http://www.opuswiz.com/", "rating": 3, "review_count": "", "latitude": 28.557167, "longitude": 77.25424819999999, "maps_url": "https://www.google.com/maps/place/?q=place_id:0x390ce3c153b89811:0xe7a279685777e9ca"}, {"place_id": "0x390ce24a87ca31a7:0x90833076be8cc23d", "name": "Zindagi Technologies Private Limited", "category": "Software company", "street": "301-302, 3rd Floor 40-41 Bakshi House", "city": "Nehru Place", "phone": "09773973971", "website": "http://www.zindagitech.com/", "rating": 4.4, "review_count": "", "latitude": 28.5490276, "longitude": 77.25120179999999, "maps_url": "https://www.google.com/maps/place/?q=place_id:0x390ce24a87ca31a7:0x90833076be8cc23d"}, {"place_id": "0x390ce3ab1c294dff:0x79e5364fb391a9fc", "name": "Komad Technologies Pvt. Ltd,", "category": "Software company", "street": "2nd floor", "city": "B-276", "phone": "09910997039", "website": "", "rating": 5, "review_count": "", "latitude": 28.5428438, "longitude": 77.2434743, "maps_url": "https://www.google.com/maps/place/?q=place_id:0x390ce3ab1c294dff:0x79e5364fb391a9fc"}, {"place_id": "0x390ce1597b5509e5:0xfd8209b937b44d3c", "name": "IT Solutions India Private Limited", "category": "Software company", "street": "D-88/5", "city": "Pocket D, Okhla Phase I, Okhla Industrial Estate", "phone": "09810017429", "website": "https://www.itsipl.com/", "rating": 4.2, "review_count": "", "latitude": 28.520146, "longitude": 77.280431, "maps_url": "https://www.google.com/maps/place/?q=place_id:0x390ce1597b5509e5:0xfd8209b937b44d3c"}, {"place_id": "0x390ce3de4687a317:0x587eff2ec36e0933", "name": "SNJ Solutions Pvt Ltd", "category": "Software company", "street": "", "city": "", "phone": "09958110050", "website": "http://www.snjsolutions.co.in/", "rating": 4.9, "review_count": "", "latitude": 21.0680074, "longitude": 82.7525294, "maps_url": "https://www.google.com/maps/place/?q=place_id:0x390ce3de4687a317:0x587eff2ec36e0933"}, {"place_id": "0x390ce3c7b85554e5:0x34e439c15e247631", "name": "HAUT IT Solutions Pvt. Ltd", "category": "Software company", "street": "390", "city": "Sant Nagar, East of Kailash", "phone": "09934753003", "website": "http://www.hautitsolutions.com/", "rating": 4.3, "review_count": "", "latitude": 28.554910099999997, "longitude": 77.25111249999999, "maps_url": "https://www.google.com/maps/place/?q=place_id:0x390ce3c7b85554e5:0x34e439c15e247631"}, {"place_id": "0x390ce22cce11cf4d:0x79c3935a4f77f3bc", "name": "Mikroz InfoSecurity Pvt. Ltd. (aka Mikroz A S Solutions)", "category": "Computer support and services", "street": "403", "city": "Savitri Cinema Complex", "phone": "01140564538", "website": "http://www.mikrozol.com/", "rating": 4.1, "review_count": "", "latitude": 28.541799599999997, "longitude": 77.24016999999999, "maps_url": "https://www.google.com/maps/place/?q=place_id:0x390ce22cce11cf4d:0x79c3935a4f77f3bc"}, {"place_id": "0x390ce458d0000001:0xf2123bd299ec4501", "name": "IT Company India", "category": "Software company", "street": "D56", "city": "D Block, Sector 10", "phone": "09999244854", "website": "https://www.itcompanyindia.in/", "rating": 4.7, "review_count": "", "latitude": 28.589917699999997, "longitude": 77.3351153, "maps_url": "https://www.google.com/maps/place/?q=place_id:0x390ce458d0000001:0xf2123bd299ec4501"}, {"place_id": "0x390ce3d53fffffff:0xda321c128846ffae", "name": "The Indure Pvt. Ltd.", "category": "Power plant consultant", "street": "Indure House", "city": "Greater Kailash II, Chittaranjan Park", "phone": "", "website": "http://www.indure.com/", "rating": 3.8, "review_count": "", "latitude": 28.541897, "longitude": 77.2405584, "maps_url": "https://www.google.com/maps/place/?q=place_id:0x390ce3d53fffffff:0xda321c128846ffae"}, {"place_id": "0x390ce38a7f54bc17:0xdde852ca05ce4e4c", "name": "DigitalAdda Digital Marketing Agency", "category": "Software company", "street": "1,at Desein, Savitri Cinema Complex", "city": "ground Complex, Spacetime LGF, building No", "phone": "09355121681", "website": "https://digitaladdaagency.com/", "rating": 4.9, "review_count": "", "latitude": 28.541514099999997, "longitude": 77.240201, "maps_url": "https://www.google.com/maps/place/?q=place_id:0x390ce38a7f54bc17:0xdde852ca05ce4e4c"}, {"place_id": "0x390cfd309eebed77:0xf47bee595f075e26", "name": "Asfera Technologies Private Limited | Dialer Software Company", "category": "Software company", "street": "59/1", "city": "Saroj Tower, Office No:- 15", "phone": "09066677770", "website": "https://www.asfera.in/", "rating": 4.6, "review_count": "", "latitude": 28.540130599999998, "longitude": 77.2619868, "maps_url": "https://www.google.com/maps/place/?q=place_id:0x390cfd309eebed77:0xf47bee595f075e26"}, {"place_id": "0x390ce3cfe91504eb:0x55346c5c499223d7", "name": "CCS Computers Private Limited", "category": "Computer support and services", "street": "2nd-3rd Floor Skipper House", "city": "Nehru Place", "phone": "01126463959", "website": "http://www.ccscomputers.co.in/", "rating": 4, "review_count": "", "latitude": 28.550090599999997, "longitude": 77.2537834, "maps_url": "https://www.google.com/maps/place/?q=place_id:0x390ce3cfe91504eb:0x55346c5c499223d7"}, {"place_id": "0x390ce157dba0378d:0x6f4ca85848d7bc15", "name": "Cortex Construction Solutions Private Limited", "category": "Civil engineering company", "street": "248, LGF", "city": "Block B, Chittaranjan Park", "phone": "09911656613", "website": "http://www.cortexsolutions.in/", "rating": 4.3, "review_count": "", "latitude": 28.5431369, "longitude": 77.24550529999999, "maps_url": "https://www.google.com/maps/place/?q=place_id:0x390ce157dba0378d:0x6f4ca85848d7bc15"}, {"place_id": "0x390ce3d2c0be70ff:0x677dc00f369d270b", "name": "Sampoorak Web Design and Development Services", "category": "Software company", "street": "E- 29 , LGF", "city": "Greater Kailash Enclave 1", "phone": "09999975944", "website": "https://sampoorak.com/", "rating": 3.7, "review_count": "", "latitude": 28.5437414, "longitude": 77.2417052, "maps_url": "https://www.google.com/maps/place/?q=place_id:0x390ce3d2c0be70ff:0x677dc00f369d270b"}, {"place_id": "0x390ce25760ae61cf:0x2c2e6858f3630d53", "name": "LiberatedIT LLP", "category": "Software company", "street": "B 68 - A", "city": "Block B, Kalkaji", "phone": "01140073228", "website": "https://www.liberatedit.com/", "rating": 5, "review_count": "", "latitude": 28.5445571, "longitude": 77.2508533, "maps_url": "https://www.google.com/maps/place/?q=place_id:0x390ce25760ae61cf:0x2c2e6858f3630d53"}, {"place_id": "0x390ce3b68b67bf77:0x230736611437ecc2", "name": "SIGN INFOTECH PVT. LTD.", "category": "Software company", "street": "Tarachand Complex", "city": "Ramesh Market", "phone": "09990968968", "website": "https://www.signinfotech.com/", "rating": 4.7, "review_count": "", "latitude": 28.560171699999998, "longitude": 77.2470374, "maps_url": "https://www.google.com/maps/place/?q=place_id:0x390ce3b68b67bf77:0x230736611437ecc2"}, {"place_id": "0x390ceff4374e0e67:0x7a3e15b641b77c8d", "name": "FindiBANKIT", "category": "Corporate office", "street": "7th Floor", "city": "708 - 711", "phone": "08142600000", "website": "http://www.bankit.in/", "rating": 4, "review_count": "", "latitude": 28.548461, "longitude": 77.2513416, "maps_url": "https://www.google.com/maps/place/?q=place_id:0x390ceff4374e0e67:0x7a3e15b641b77c8d"}, {"place_id": "0x390ce1ce534cb1e5:0x39fe77c42bc52616", "name": "ITeSolution- Odoo ERP , Mobile/Web Application Development Software Company in Noida, Delhi NCR India.", "category": "Software company", "street": "RZ60/9", "city": "T/F, Tughlakabad Extension, Tughlakabad", "phone": "09889294124", "website": "https://www.itesolution.co.in/", "rating": 4.9, "review_count": "", "latitude": 28.520523899999997, "longitude": 77.2570535, "maps_url": "https://www.google.com/maps/place/?q=place_id:0x390ce1ce534cb1e5:0x39fe77c42bc52616"}, {"place_id": "0x390ce3c598407061:0xa2f861b330a8229c", "name": "Nexgen Techtronics Pvt Ltd", "category": "Computer service", "street": "109 A", "city": "49-50", "phone": "08588814701", "website": "http://www.ntpl.co.in/", "rating": 4.7, "review_count": "", "latitude": 28.549304499999998, "longitude": 77.2514264, "maps_url": "https://www.google.com/maps/place/?q=place_id:0x390ce3c598407061:0xa2f861b330a8229c"}, {"place_id": "0x4ebf586dbe4d7c09:0x968455c83bf5226c", "name": "Anchor IT Solutions- App Development | Website Development | Digital Marketing", "category": "Software company", "street": "4", "city": "Vinoba Puri, Lajpat Nagar II, Lajpat Nagar", "phone": "07678658584", "website": "", "rating": 4.8, "review_count": "", "latitude": 28.566371399999998, "longitude": 77.2486924, "maps_url": "https://www.google.com/maps/place/?q=place_id:0x4ebf586dbe4d7c09:0x968455c83bf5226c"}, {"place_id": "0x390ce3cfe91504eb:0xe64bdc5455c9daea", "name": "LDS Engineers Private Limited", "category": "Computer support and services", "street": "Devika Tower", "city": "1308A 6", "phone": "01126293430", "website": "http://www.ldsengineers.com/", "rating": 3.2, "review_count": "", "latitude": 28.54732, "longitude": 77.250349, "maps_url": "https://www.google.com/maps/place/?q=place_id:0x390ce3cfe91504eb:0xe64bdc5455c9daea"}, {"place_id": "0x390ce3167d3eb083:0x1ec6e87e3a544833", "name": "Building brands for tomorrow (BBFT)", "category": "Business management consultant", "street": "Building 15, Second floor", "city": "Savitri Cinema Complex", "phone": "09810033765", "website": "http://www.bbft.in/", "rating": 4.9, "review_count": "", "latitude": 28.541514, "longitude": 77.240201, "maps_url": "https://www.google.com/maps/place/?q=place_id:0x390ce3167d3eb083:0x1ec6e87e3a544833"}, {"place_id": "0x390ce25e35e99b33:0xf443abe69b4e8fcc", "name": "Synapse Valuetech Private Limited", "category": "Software company", "street": "Lower Ground Floor", "city": "221", "phone": "01146628882", "website": "https://www.synapsevaluetech.com/", "rating": 4.3, "review_count": "", "latitude": 28.558165, "longitude": 77.2592385, "maps_url": "https://www.google.com/maps/place/?q=place_id:0x390ce25e35e99b33:0xf443abe69b4e8fcc"}, {"place_id": "0x390ce1b8032e0e7f:0x8d8484c29620d0c0", "name": "DizitalAdda Digital Marketing Institute", "category": "Website designer", "street": "2nd Floor", "city": "Spacetime Management Pvt Ltd Design House", "phone": "08810606010", "website": "https://dizitaladda.com/", "rating": 4.8, "review_count": "", "latitude": 28.541963, "longitude": 77.24072199999999, "maps_url": "https://www.google.com/maps/place/?q=place_id:0x390ce1b8032e0e7f:0x8d8484c29620d0c0"}, {"place_id": "0x390ce3ca2a26c269:0x5abe1b30660c1627", "name": "Film Production House | Getintofilm\u00ae Film Production Company", "category": "Film Production Company", "street": "Gate 3, Magenta) Metro Station", "city": "1st Floor, Above Fish Zone, B1", "phone": "09910239660", "website": "https://getintofilm.com/", "rating": 4.8, "review_count": "", "latitude": 28.5414848, "longitude": 77.2395519, "maps_url": "https://www.google.com/maps/place/?q=place_id:0x390ce3ca2a26c269:0x5abe1b30660c1627"}, {"place_id": "0x390ce3d82900001f:0x569399016c20d5fa", "name": "Vayam Info Solutions Pvt Ltd", "category": "Employment agency", "street": "Lower Ground Floor", "city": "Chitranjan Park", "phone": "", "website": "", "rating": 4.1, "review_count": "", "latitude": 28.5414532, "longitude": 77.24376579999999, "maps_url": "https://www.google.com/maps/place/?q=place_id:0x390ce3d82900001f:0x569399016c20d5fa"}, {"place_id": "0x390ce1ea066d7791:0x7113cca1cbc02b3", "name": "Conscient Initiatives Private Limited", "category": "Water purification company", "street": "504, Cinema Complex", "city": "Inder Mohan Bhardwaj Marg", "phone": "09599199501", "website": "https://conscientinitiatives.com/", "rating": 5, "review_count": "", "latitude": 28.5416453, "longitude": 77.2402008, "maps_url": "https://www.google.com/maps/place/?q=place_id:0x390ce1ea066d7791:0x7113cca1cbc02b3"}, {"place_id": "0x390ce3bd049295a3:0xc662a51aab419c68", "name": "Canonic HQ", "category": "Corporate office", "street": "Savitri Cinema Complex", "city": "Inder Mohan Bhardwaj Marg", "phone": "", "website": "http://www.canonic.dev/", "rating": 5, "review_count": "", "latitude": 28.541514099999997, "longitude": 77.240201, "maps_url": "https://www.google.com/maps/place/?q=place_id:0x390ce3bd049295a3:0xc662a51aab419c68"}, {"place_id": "0x390ce31f1812fc33:0xe8685285a34670a8", "name": "NextStep Listings Agency", "category": "Marketing agency", "street": "Spacetime Management Pvt Ltd Design House, Gk-II", "city": "South", "phone": "", "website": "https://digitaladdaagency.com/services/local-seo", "rating": 4.4, "review_count": "", "latitude": 28.541514099999997, "longitude": 77.240201, "maps_url": "https://www.google.com/maps/place/?q=place_id:0x390ce31f1812fc33:0xe8685285a34670a8"}, {"place_id": "0x390d1d9ed40ac245:0xb98cb0f984663dc9", "name": "TCIL Bhawan", "category": "Corporate office", "street": "Outer Ring Rd", "city": "VSNL Colony, Greater Kailash I, Greater Kailash", "phone": "01126202020", "website": "https://www.tcil.net.in/", "rating": 4.2, "review_count": "", "latitude": 28.542748099999997, "longitude": 77.2400241, "maps_url": "https://www.google.com/maps/place/?q=place_id:0x390d1d9ed40ac245:0xb98cb0f984663dc9"}, {"place_id": "0x390ce3c8e5555555:0xf6f40f0763e78501", "name": "Kss It Private Limited", "category": "Software company", "street": "NO 187", "city": "188", "phone": "", "website": "", "rating": 1, "review_count": "", "latitude": 28.556442999999998, "longitude": 77.242558, "maps_url": "https://www.google.com/maps/place/?q=place_id:0x390ce3c8e5555555:0xf6f40f0763e78501"}, {"place_id": "0x1467fa475253c695:0xf1ce634c0a588218", "name": "G4S Secure Solutions", "category": "Security guard service", "street": "407, 4th Floor", "city": "Savitri Cinema Complex", "phone": "08094331040", "website": "http://www.g4s.in/", "rating": 4, "review_count": "", "latitude": 28.5413641, "longitude": 77.24014849999999, "maps_url": "https://www.google.com/maps/place/?q=place_id:0x1467fa475253c695:0xf1ce634c0a588218"}, {"place_id": "0x390ce3f163dee9c5:0xdf4684618e3364d0", "name": "ALL2ALL.in | Networking Company in Delhi | Laptop Repairing Services | Website SEO Services", "category": "Computer support and services", "street": "Mansarover Building", "city": "B - 11/11", "phone": "", "website": "https://www.all2all.in/", "rating": 5, "review_count": "", "latitude": 28.548685199999998, "longitude": 77.253402, "maps_url": "https://www.google.com/maps/place/?q=place_id:0x390ce3f163dee9c5:0xdf4684618e3364d0"}, {"place_id": "0x4816af4651343b55:0x950485b6c9c2a5d", "name": "ShuttleSky Lifts - DDA Home Lift Company", "category": "Elevator Manufacturer", "street": "E-6", "city": "LGF", "phone": "09090900215", "website": "https://shuttlesky.in/", "rating": 4.7, "review_count": "", "latitude": 28.544883, "longitude": 77.24377299999999, "maps_url": "https://www.google.com/maps/place/?q=place_id:0x4816af4651343b55:0x950485b6c9c2a5d"}, {"place_id": "0x390ce3cc55555555:0x5e21a47beb1feb03", "name": "Tata Communications", "category": "Telecommunications service provider", "street": "5th, Next Gen Tower", "city": "New IDC Building", "phone": "01166505058", "website": "https://www.tatacommunications.com/", "rating": 4.6, "review_count": "", "latitude": 28.542928399999997, "longitude": 77.2403058, "maps_url": "https://www.google.com/maps/place/?q=place_id:0x390ce3cc55555555:0x5e21a47beb1feb03"}, {"place_id": "0x390ce210177885db:0x1fb714f89bbd4827", "name": "GreyMatters Communications & Consulting Pvt Ltd", "category": "Public relations firm", "street": "E 2, Lower Ground Floor", "city": "Greater Kailash Enclave I, Greater Kailash", "phone": "07827449866", "website": "http://www.thegreymatters.in/", "rating": 4.1, "review_count": "", "latitude": 28.545184799999998, "longitude": 77.2434802, "maps_url": "https://www.google.com/maps/place/?q=place_id:0x390ce210177885db:0x1fb714f89bbd4827"}, {"place_id": "0x390ce3d2e19305f9:0x4a93137c193c533f", "name": "INDUS Enviro", "category": "Corporate office", "street": "A-8, Outer Ring Rd", "city": "Block A, Chittaranjan Park", "phone": "01126271433", "website": "http://www.indusenviro.com/", "rating": 3.5, "review_count": "", "latitude": 28.5427468, "longitude": 77.24231, "maps_url": "https://www.google.com/maps/place/?q=place_id:0x390ce3d2e19305f9:0x4a93137c193c533f"}, {"place_id": "0x390ce22ccdc55555:0x9487eea6af7a263d", "name": "Spacetime Centre - Co-Working Space", "category": "Coworking space", "street": "2nd Floor", "city": "DESEIN HOUSE", "phone": "09818450490", "website": "https://www.myspacetime.in/gk2", "rating": 4.7, "review_count": "", "latitude": 28.541992399999998, "longitude": 77.24072199999999, "maps_url": "https://www.google.com/maps/place/?q=place_id:0x390ce22ccdc55555:0x9487eea6af7a263d"}, {"place_id": "0x390ce37af16041d1:0xfdf27f57f40715c", "name": "Ampify Marketing", "category": "Marketing agency", "street": "Office No. 1A,2,3,6, Savitri Cinema Complex, Indure", "city": "Indure House, 2nd Floor", "phone": "09625581922", "website": "https://ampify.marketing/", "rating": 5, "review_count": "", "latitude": 28.541514099999997, "longitude": 77.240201, "maps_url": "https://www.google.com/maps/place/?q=place_id:0x390ce37af16041d1:0xfdf27f57f40715c"}, {"place_id": "0x390ce3e923aa2293:0x2c72848e6bd22fc", "name": "Combine Ways", "category": "Website designer", "street": "First Floor", "city": "B-28", "phone": "08882387003", "website": "http://combineways.com/", "rating": "", "review_count": "", "latitude": 28.5447167, "longitude": 77.2458363, "maps_url": "https://www.google.com/maps/place/?q=place_id:0x390ce3e923aa2293:0x2c72848e6bd22fc"}, {"place_id": "0x390ce3bdef12d94d:0x6c908c5ea2b64be4", "name": "National Institute of Data Analytics & Data Science", "category": "Educational institution", "street": "Ground Floor", "city": "Savitri Cinema Complex", "phone": "", "website": "https://www.nidads.com/", "rating": 4.5, "review_count": "", "latitude": 28.541514099999997, "longitude": 77.240201, "maps_url": "https://www.google.com/maps/place/?q=place_id:0x390ce3bdef12d94d:0x6c908c5ea2b64be4"}, {"place_id": "0x390ce36c91d74f61:0xb31fcf2b78aa94ee", "name": "Barfecto.com", "category": "Back Office", "street": "B-20", "city": "Greater Kailash-1, Pamposh Enclave, Greater Kailash", "phone": "", "website": "http://www.barfecto.com/", "rating": 4.6, "review_count": "", "latitude": 28.545417099999998, "longitude": 77.2465606, "maps_url": "https://www.google.com/maps/place/?q=place_id:0x390ce36c91d74f61:0xb31fcf2b78aa94ee"}, {"place_id": "0x390ce39e1ad69e3f:0x92ca69ab37467ea9", "name": "OnionDev Technologies Pvt. Ltd.", "category": "Corporate office", "street": "Spacetime Building Mezzanine Floor Upper Ground Floor", "city": "Savitri Cinema Complex", "phone": "", "website": "", "rating": "", "review_count": "", "latitude": 28.541514099999997, "longitude": 77.240201, "maps_url": "https://www.google.com/maps/place/?q=place_id:0x390ce39e1ad69e3f:0x92ca69ab37467ea9"}, {"place_id": "0x390ce3ad1110066f:0x6b379fb5729821ac", "name": "Tssg-Tech", "category": "Website designer", "street": "Block B, Kalkaji", "city": "New Delhi, Delhi, 110019", "phone": "09599669486", "website": "https://tssgtech.info/", "rating": 5, "review_count": "", "latitude": 28.541919399999998, "longitude": 77.2523604, "maps_url": "https://www.google.com/maps/place/?q=place_id:0x390ce3ad1110066f:0x6b379fb5729821ac"}, {"place_id": "0x390ce22ccdc55555:0x36f10cf6a81ead9", "name": "ANTAEUS INFORMATION PRIVATE LIMITED", "category": "Corporate office", "street": "Savitri Cinema Complex", "city": "Inder Mohan Bhardwaj Marg", "phone": "01141676727", "website": "http://antaeusinfo.com/", "rating": "", "review_count": "", "latitude": 28.541514099999997, "longitude": 77.240201, "maps_url": "https://www.google.com/maps/place/?q=place_id:0x390ce22ccdc55555:0x36f10cf6a81ead9"}, {"place_id": "0x390ce22ae5104c51:0x2323d373ce668ed3", "name": "IT-TAAS Pvt Ltd", "category": "Software company", "street": "E-506, Inder Mohan Bhardwaj Marg", "city": "Block E, Greater Kailash II, Greater Kailash", "phone": "09810134631", "website": "http://it-taas.com/", "rating": "", "review_count": "", "latitude": 28.535871999999998, "longitude": 77.23848699999999, "maps_url": "https://www.google.com/maps/place/?q=place_id:0x390ce22ae5104c51:0x2323d373ce668ed3"}, {"place_id": "0x66b6c68e07e2e861:0x29e73c9f5c1528", "name": "ARR RECRUITMENT SOLUTIONS PVT LTD | Best Recruitment Consultancy| HR Consultancy", "category": "Recruiter", "street": "Basement, NA", "city": "D\u2011696", "phone": "09354297808", "website": "https://www.arrecruitmentconsultants.com/", "rating": 4.6, "review_count": "", "latitude": 28.545672, "longitude": 77.2417672, "maps_url": "https://www.google.com/maps/place/?q=place_id:0x66b6c68e07e2e861:0x29e73c9f5c1528"}, {"place_id": "0x8556a44e18780fd1:0xe2933c5044b9835", "name": "Norton Elevators", "category": "Elevator Manufacturer", "street": "LGF", "city": "E-6", "phone": "", "website": "https://nortonelevators.com/", "rating": 4.8, "review_count": "", "latitude": 28.5450159, "longitude": 77.2435623, "maps_url": "https://www.google.com/maps/place/?q=place_id:0x8556a44e18780fd1:0xe2933c5044b9835"}, {"place_id": "0x390ce3aad3a95349:0xe668da40e5e4151c", "name": "V5 TRADE & SERVICES PRIVATE LIMITED", "category": "Manufacturer", "street": "15", "city": "Savitri Cinema Complex", "phone": "09810340058", "website": "https://www.v5tradeservices.com/", "rating": 4.3, "review_count": "", "latitude": 28.541514099999997, "longitude": 77.240201, "maps_url": "https://www.google.com/maps/place/?q=place_id:0x390ce3aad3a95349:0xe668da40e5e4151c"}, {"place_id": "0x390ce21e54e05589:0x2e5a317e72ec06a", "name": "FTR Holidays Pvt Ltd", "category": "Tour operator", "street": "Savitri Cinema Complex", "city": "504", "phone": "07703881701", "website": "http://ftrholidays.com/", "rating": 4.4, "review_count": "", "latitude": 28.541514099999997, "longitude": 77.240201, "maps_url": "https://www.google.com/maps/place/?q=place_id:0x390ce21e54e05589:0x2e5a317e72ec06a"}, {"place_id": "0x390ce33c8e812545:0x3fd7748e561e190f", "name": "National Institute of Hacking and Cyber Security Institute", "category": "Training center", "street": "Savitri Cinema Complex", "city": "opposite side", "phone": "", "website": "https://nihacs.com/", "rating": 5, "review_count": "", "latitude": 28.541514099999997, "longitude": 77.240201, "maps_url": "https://www.google.com/maps/place/?q=place_id:0x390ce33c8e812545:0x3fd7748e561e190f"}, {"place_id": "0x390ce3f8228e3551:0x8b01ae1ada70ee70", "name": "Edwin Corporate Law Firm", "category": "Legal services", "street": "A-5", "city": "near Nehru Place Flyover", "phone": "09911169979", "website": "http://edwincorporatelawfirm.com/", "rating": 4.6, "review_count": "", "latitude": 28.5449973, "longitude": 77.24673419999999, "maps_url": "https://www.google.com/maps/place/?q=place_id:0x390ce3f8228e3551:0x8b01ae1ada70ee70"}, {"place_id": "0x390ce3d222d4e4a5:0x56f340de34974da4", "name": "Delhi Pest Services", "category": "Pest control service", "street": "B 405, Outer Ring Rd", "city": "Greater Kailash-1, Nehru Enclave, C R Park", "phone": "09193121366", "website": "http://www.pestcontrolsouthdelhi.com/", "rating": 4.9, "review_count": "", "latitude": 28.5441422, "longitude": 77.2455526, "maps_url": "https://www.google.com/maps/place/?q=place_id:0x390ce3d222d4e4a5:0x56f340de34974da4"}, {"place_id": "0x390ce19d3fffffbd:0x739e9377e84351d6", "name": "Blackdiamonds Events", "category": "Website designer", "street": "nehru apartment", "city": "50", "phone": "09953960449", "website": "", "rating": 4.9, "review_count": "", "latitude": 28.542569, "longitude": 77.24723379999999, "maps_url": "https://www.google.com/maps/place/?q=place_id:0x390ce19d3fffffbd:0x739e9377e84351d6"}, {"place_id": "0x390ce3cf0e300001:0xc640dbf7093898b0", "name": "AIKA-HEALTH", "category": "Corporate office", "street": "2nd floor, Desein house", "city": "Spacetime Center", "phone": "07703866823", "website": "http://moshahealth.com/", "rating": 4.3, "review_count": "", "latitude": 28.541982299999997, "longitude": 77.2407652, "maps_url": "https://www.google.com/maps/place/?q=place_id:0x390ce3cf0e300001:0xc640dbf7093898b0"}, {"place_id": "0x390ce3d2d49266f5:0xff16251bed3ba4c4", "name": "Videsh Sanchar Nigam Limited", "category": "Telecommunications service provider", "street": "VSNL Colony, Greater Kailash Enclave I, Greater Kailash", "city": "New Delhi, Delhi 110048", "phone": "01123405922", "website": "https://www.tatacommunications.com/", "rating": 4.6, "review_count": "", "latitude": 28.5426902, "longitude": 77.24064539999999, "maps_url": "https://www.google.com/maps/place/?q=place_id:0x390ce3d2d49266f5:0xff16251bed3ba4c4"}, {"place_id": "0x390ce3cd56aab583:0x687f13027631249d", "name": "LetsComply", "category": "Legal services", "street": "Lower Ground Floor", "city": "E- 56", "phone": "01142662177", "website": "https://letscomply.com/", "rating": 4.4, "review_count": "", "latitude": 28.545605, "longitude": 77.240909, "maps_url": "https://www.google.com/maps/place/?q=place_id:0x390ce3cd56aab583:0x687f13027631249d"}, {"place_id": "0x390ce22d245eba0b:0xac316a7e617710e9", "name": "Supreme technologies", "category": "Electronics Company", "street": "VSNL Colony, Masjid Moth, Greater Kailash", "city": "New Delhi, Delhi 110048", "phone": "09958612061", "website": "http://www.globalindus.in/", "rating": 3, "review_count": "", "latitude": 28.542823, "longitude": 77.239547, "maps_url": "https://www.google.com/maps/place/?q=place_id:0x390ce22d245eba0b:0xac316a7e617710e9"}, {"place_id": "0x390ce17daaaaaacf:0x99b8468b2a08e02c", "name": "DHL Express (India) Pvt. Ltd", "category": "Courier service", "street": "No. B", "city": "1", "phone": "08035469398", "website": "https://locations-in.express.dhl.com/courier-service-in-greater-kailash-new-delhi-delhi/home", "rating": 4.8, "review_count": "", "latitude": 28.541585899999998, "longitude": 77.2395181, "maps_url": "https://www.google.com/maps/place/?q=place_id:0x390ce17daaaaaacf:0x99b8468b2a08e02c"}, {"place_id": "0x390ce3ec7a7f0abd:0x7f3ab67d086a6042", "name": "Sleuths India Private Detectives in Delhi", "category": "Private investigator", "street": "Whizdom Club", "city": "Savitri Cinema Complex", "phone": "09920089799", "website": "https://sleuthsindia.com/private-detective-agency-in-delhi.php", "rating": 4.4, "review_count": "", "latitude": 28.541514099999997, "longitude": 77.240201, "maps_url": "https://www.google.com/maps/place/?q=place_id:0x390ce3ec7a7f0abd:0x7f3ab67d086a6042"}, {"place_id": "0x390ce24c55555555:0x10005005e6c1ee8a", "name": "Udayan Care Head Office", "category": "Social services organization", "street": "A - 43", "city": "Block A, Chittaranjan Park", "phone": "114654810506", "website": "http://www.udayancare.org/", "rating": 4.5, "review_count": "", "latitude": 28.542140099999997, "longitude": 77.2427414, "maps_url": "https://www.google.com/maps/place/?q=place_id:0x390ce24c55555555:0x10005005e6c1ee8a"}, {"place_id": "0x390ce3d738555543:0x3dc14e1230ddb799", "name": "Frontiers Beyond Tours Pvt Ltd", "category": "Tour operator", "street": "B - 351, Lower Ground Floor", "city": "Chittaranjan Park", "phone": "09818598189", "website": "http://www.frontiersbeyond.com/", "rating": 4.8, "review_count": "", "latitude": 28.5418533, "longitude": 77.24607999999999, "maps_url": "https://www.google.com/maps/place/?q=place_id:0x390ce3d738555543:0x3dc14e1230ddb799"}, {"place_id": "0x390ce360351fd741:0xc3ea6d0eaa0dcf2", "name": "SS IT SOLUTIONS", "category": "Business networking company", "street": "House no-231, Gali no-10 ,Garhi village, Amrita puri-B, East of Kailash New Delhi-210065", "city": "nr. iskon temple", "phone": "", "website": "", "rating": 5, "review_count": "", "latitude": 28.5571506, "longitude": 77.2518224, "maps_url": "https://www.google.com/maps/place/?q=place_id:0x390ce360351fd741:0xc3ea6d0eaa0dcf2"}, {"place_id": "0x390ce32d2ef2a0b5:0x77eea6116bb371dd", "name": "10ft. Down Studios", "category": "Dance company", "street": "B-306", "city": "Block B, Chittaranjan Park", "phone": "", "website": "", "rating": 4.7, "review_count": "", "latitude": 28.5428549, "longitude": 77.2464662, "maps_url": "https://www.google.com/maps/place/?q=place_id:0x390ce32d2ef2a0b5:0x77eea6116bb371dd"}, {"place_id": "0x390ce3d2957fd337:0x2be4986e43b267fc", "name": "MIDGRAPHIX ADVERTISING", "category": "Advertising agency", "street": "E9", "city": "Greater Kailash Enclave I, Greater Kailash", "phone": "09582484491", "website": "https://midgraphix.com/", "rating": 5, "review_count": "", "latitude": 28.544567899999997, "longitude": 77.24420909999999, "maps_url": "https://www.google.com/maps/place/?q=place_id:0x390ce3d2957fd337:0x2be4986e43b267fc"}, {"place_id": "0x390ce24ab146ccff:0x9b599d7534119383", "name": "IC RegFin Legal Partners LLP", "category": "Law firm", "street": "Ground Floor", "city": "Chirag Enclave Main Rd", "phone": "01135448848", "website": "https://regfinlegal.com/", "rating": 4.8, "review_count": "", "latitude": 28.5448493, "longitude": 77.2461458, "maps_url": "https://www.google.com/maps/place/?q=place_id:0x390ce24ab146ccff:0x9b599d7534119383"}, {"place_id": "0x390ce3cc55555555:0xc460fced92da89ad", "name": "Aquanomics Systems Ltd.", "category": "Water treatment plant", "street": "B-2, 3rd floor", "city": "Greater Kailash Enclave II, Greater Kailash", "phone": "01141435945", "website": "http://www.aquanomics.co.in/", "rating": 5, "review_count": "", "latitude": 28.541504399999997, "longitude": 77.2391782, "maps_url": "https://www.google.com/maps/place/?q=place_id:0x390ce3cc55555555:0xc460fced92da89ad"}, {"place_id": "0x29dcca3de1d991d7:0xe9feffb0c4399337", "name": "ZINEALAB", "category": "Website designer", "street": "B", "city": "Greater Kailash-1, Pamposh Enclave", "phone": "09151515299", "website": "https://zinealab.com/", "rating": 5, "review_count": "", "latitude": 28.5461048, "longitude": 77.2471417, "maps_url": "https://www.google.com/maps/place/?q=place_id:0x29dcca3de1d991d7:0xe9feffb0c4399337"}, {"place_id": "0x390d1e019c264aa1:0x6a4d6463b7188730", "name": "Curate Experiences", "category": "Event management company", "street": "Savitri Cinema Complex", "city": "Inder Mohan Bhardwaj Marg", "phone": "09811775373", "website": "http://www.curate.co.in/", "rating": 4.1, "review_count": "", "latitude": 28.541514099999997, "longitude": 77.240201, "maps_url": "https://www.google.com/maps/place/?q=place_id:0x390d1e019c264aa1:0x6a4d6463b7188730"}]}