[{"place_id": "ChIJXTnz3TX9YjkRC1PkNroAsyc", "name": "InfoBeans Technologies Limited", "street": "2nd Floor, Crystal IT Park, Bhawarkua Main Rd, Indrapuri Colony, Indore, Madhya Pradesh 452001, India", "phone": "+91 731 716 2000", "rating": "4.5", "review_count": "", "website": "https://www.infobeans.ai/", "latitude": 22.6854169, "longitude": 75.8721503, "maps_url": "https://www.google.com/maps/search/?api=1&query=InfoBeans%20Technologies%20Limited&query_place_id=ChIJXTnz3TX9YjkRC1PkNroAsyc"}, {"place_id": "ChIJXVn8TOn8YjkRWFRlzSR-L4M", "name": "IMPETUS TECHNOLOGIES (INDIA) PVT LTD", "street": "Unit No 4-A, STP-II, Third Floor, Crystal IT Park, Ring Road, Indore, Madhya Pradesh 452001, India", "phone": "+91 731 474 3000", "rating": "4.6", "review_count": "", "website": "http://www.impetus.com/", "latitude": 22.684779, "longitude": 75.87097299999999, "maps_url": "https://www.google.com/maps/search/?api=1&query=IMPETUS%20TECHNOLOGIES%20%28INDIA%29%20PVT%20LTD&query_place_id=ChIJXVn8TOn8YjkRWFRlzSR-L4M"}, {"place_id": "ChIJMbGWFen8YjkRqAdIl1GDMJs", "name": "YASH Technologies PVT. LTD.", "street": "Crystal IT PARK STP-1, Ground Floor, IT/ITES- SEZ, Khandwa Rd, Indra Puri Colony, near Bhawar Kuwan Square, Indore, Madhya Pradesh 452001, India", "phone": "+91 731 663 6363", "rating": "4.6", "review_count": "", "website": "http://www.yash.com/", "latitude": 22.6858234, "longitude": 75.8724246, "maps_url": "https://www.google.com/maps/search/?api=1&query=YASH%20Technologies%20PVT.%20LTD.&query_place_id=ChIJMbGWFen8YjkRqAdIl1GDMJs"}, {"place_id": "ChIJhwOXvhb9YjkRp_nk8EPzN8c", "name": "Top Software Development Company in USA | AI/ML | AI Agent | Gen AI | UXUI | Product Development", "street": "Crystal IT Park STP-1, 4th Floor Right Wing Ring Road, Madhya Pradesh 452001, India", "phone": "+91 731 297 3109", "rating": "4.8", "review_count": "", "website": "https://47billion.com/", "latitude": 22.6858591, "longitude": 75.8723211, "maps_url": "https://www.google.com/maps/search/?api=1&query=Top%20Software%20Development%20Company%20in%20USA%20%7C%20AI/ML%20%7C%20AI%20Agent%20%7C%20Gen%20AI%20%7C%20UXUI%20%7C%20Product%20Development&query_place_id=ChIJhwOXvhb9YjkRp_nk8EPzN8c"}, {"place_id": "ChIJBa__YUr9YjkRHdGJDSr5j8A", "name": "Top Custom Software Development Company | AI, IoT & IT Solutions – Hiteshi", "street": "8th Floor Crystal IT Park, Madhya Pradesh 452001, India", "phone": "+91 731 297 1133", "rating": "3.6", "review_count": "", "website": "https://www.hiteshi.com/", "latitude": 22.685651999999997, "longitude": 75.872211, "maps_url": "https://www.google.com/maps/search/?api=1&query=Top%20Custom%20Software%20Development%20Company%20%7C%20AI%2C%20IoT%20%26%20IT%20Solutions%20%E2%80%93%20Hiteshi&query_place_id=ChIJBa__YUr9YjkRHdGJDSr5j8A"}, {"place_id": "ChIJLekbR878YjkR5oV5d5-EbdU", "name": "Systango", "street": "Crystal IT Park, Building 1, 3rd Floor, Ring Rd, Indore, Madhya Pradesh 452001, India", "phone": "+91 731 297 1030", "rating": "4.4", "review_count": "", "website": "https://www.systango.com/", "latitude": 22.685488199999998, "longitude": 75.872337, "maps_url": "https://www.google.com/maps/search/?api=1&query=Systango&query_place_id=ChIJLekbR878YjkR5oV5d5-EbdU"}, {"place_id": "ChIJz_iqs6WXYjkR7EpL_K2_EjI", "name": "Mind Ruby Technologies", "street": "5th Floor (Right Side), Building STP-1 Crystal IT Park, Khandwa Rd, Indore, Madhya Pradesh 452001, India", "phone": "+91 731 292 7999", "rating": "4.8", "review_count": "", "website": "http://www.mindruby.com/", "latitude": 22.6853111, "longitude": 75.8719812, "maps_url": "https://www.google.com/maps/search/?api=1&query=Mind%20Ruby%20Technologies&query_place_id=ChIJz_iqs6WXYjkR7EpL_K2_EjI"}, {"place_id": "ChIJq6rqwfr8YjkRtyDpf21bIk4", "name": "Reinforce Software Solutions Pvt. Ltd.", "street": "Sai Ram Plaza, AB Rd, Mangal Nagar, Indore, Madhya Pradesh 452001, India", "phone": "+91 731 426 3617", "rating": "4.5", "review_count": "", "website": "http://reinforcewebsol.in/", "latitude": 22.685712, "longitude": 75.85970499999999, "maps_url": "https://www.google.com/maps/search/?api=1&query=Reinforce%20Software%20Solutions%20Pvt.%20Ltd.&query_place_id=ChIJq6rqwfr8YjkRtyDpf21bIk4"}, {"place_id": "ChIJnXtkhKj9YjkR0hLEPK73tbo", "name": "Hokrix Technologies | Blockchain & AI Development Company", "street": "Crystal It Park, Rajiv Gandhi Circle, Indrapuri Colony, Bhanwar Kuwa, Indore, Madhya Pradesh 452001, India", "phone": "+91 99934 38344", "rating": "5", "review_count": "", "website": "https://hokrix.com/", "latitude": 22.685824, "longitude": 75.87226629999999, "maps_url": "https://www.google.com/maps/search/?api=1&query=Hokrix%20Technologies%20%7C%20Blockchain%20%26%20AI%20Development%20Company&query_place_id=ChIJnXtkhKj9YjkR0hLEPK73tbo"}, {"place_id": "ChIJlcx9pqf9YjkRtFLnINtQJBo", "name": "Vertisystem Global Pvt. Ltd. (A MOURI Tech Company)", "street": "1st Floor, Crystal IT Park, STP 2, Khandwa Rd, Indore, Madhya Pradesh 452001, India", "phone": "+91 731 297 2377", "rating": "4.1", "review_count": "", "website": "https://vertisystem.com/", "latitude": 22.6848727, "longitude": 75.8710104, "maps_url": "https://www.google.com/maps/search/?api=1&query=Vertisystem%20Global%20Pvt.%20Ltd.%20%28A%20MOURI%20Tech%20Company%29&query_place_id=ChIJlcx9pqf9YjkRtFLnINtQJBo"}, {"place_id": "ChIJsYjXWOP8YjkR9VP47JYkbDU", "name": "qualwebs", "street": "203, 9930 Spaces 4, Mangal Nagar, Near Rajeev Gandhi Square, AB Rd, Indore, Madhya Pradesh 452014, India", "phone": "+91 88277 96669", "rating": "4.5", "review_count": "", "website": "http://www.qualwebs.com/", "latitude": 22.6862592, "longitude": 75.8598803, "maps_url": "https://www.google.com/maps/search/?api=1&query=qualwebs&query_place_id=ChIJsYjXWOP8YjkR9VP47JYkbDU"}, {"place_id": "ChIJSVYNaRz9YjkR1Cqq7jWpP-s", "name": "DJ Technologies - Best software developers", "street": "57 Nanak palace Ring Road Pipliya Pala Service Road, Bholaram Ustad Marg, Indore, Madhya Pradesh 452001, India", "phone": "+91 79744 88139", "rating": "4.5", "review_count": "", "website": "https://djtechnologies.in/", "latitude": 22.6816896, "longitude": 75.8641296, "maps_url": "https://www.google.com/maps/search/?api=1&query=DJ%20Technologies%20-%20Best%20software%20developers&query_place_id=ChIJSVYNaRz9YjkR1Cqq7jWpP-s"}, {"place_id": "ChIJ4Zu3EWb7YjkRGLg5Ls9SoIA", "name": "Itsuki-technology", "street": "it park, Indrapuri Colony, Rau, Indore, Madhya Pradesh 452001, India", "phone": "+91 74703 54651", "rating": "4.8", "review_count": "", "website": "http://www.itsukitech.in/", "latitude": 22.685824, "longitude": 75.87226629999999, "maps_url": "https://www.google.com/maps/search/?api=1&query=Itsuki-technology&query_place_id=ChIJ4Zu3EWb7YjkRGLg5Ls9SoIA"}, {"place_id": "ChIJZd8Mczz9YjkRNWsdHv42Tlk", "name": "WebiWork Technologies Pvt. Ltd.", "street": "6th floor Atulya IT park, Indrapuri Colony, Indore, Madhya Pradesh 452001, India", "phone": "+91 76929 06880", "rating": "4.7", "review_count": "", "website": "https://webiwork.com/", "latitude": 22.685721299999997, "longitude": 75.87221509999999, "maps_url": "https://www.google.com/maps/search/?api=1&query=WebiWork%20Technologies%20Pvt.%20Ltd.&query_place_id=ChIJZd8Mczz9YjkRNWsdHv42Tlk"}, {"place_id": "ChIJpe4vPfT9YjkRDNP0V8OvrSo", "name": "The Bharat Tech", "street": "Crystal It Park, IT/ITES- SEZ, Khandwa Rd, near Bhawar Kuwan, Indrapuri Colony, Square, Indore, Madhya Pradesh 452001, India", "phone": "+91 87704 14240", "rating": "5", "review_count": "", "website": "https://thebharattech.in/", "latitude": 22.6856842, "longitude": 75.8720712, "maps_url": "https://www.google.com/maps/search/?api=1&query=The%20Bharat%20Tech&query_place_id=ChIJpe4vPfT9YjkRDNP0V8OvrSo"}, {"place_id": "ChIJMdNfLvH8YjkRHrM9qHP3ED0", "name": "InfoGrains", "street": "407, Atulya IT Park, Bhawarkua Main Rd, Indore, Madhya Pradesh 452001, India", "phone": "", "rating": "4.4", "review_count": "", "website": "https://infograins.com/", "latitude": 22.6866949, "longitude": 75.87149699999999, "maps_url": "https://www.google.com/maps/search/?api=1&query=InfoGrains&query_place_id=ChIJMdNfLvH8YjkRHrM9qHP3ED0"}, {"place_id": "ChIJF1TBZHr9YjkRVZ0B0JUXSr4", "name": "Techorigine", "street": "Sai Ram Plaza, M5, Mangal Nagar Road, near Rajiv Gandhi Circle, Mangal Nagar, Indore, Madhya Pradesh 452014, India", "phone": "+91 97136 17221", "rating": "5", "review_count": "", "website": "https://techorigine.info/", "latitude": 22.685712, "longitude": 75.85970449999999, "maps_url": "https://www.google.com/maps/search/?api=1&query=Techorigine&query_place_id=ChIJF1TBZHr9YjkRVZ0B0JUXSr4"}, {"place_id": "ChIJpUdGxYT9YjkRGSwzD29PZ9k", "name": "ALIT TECHNOLOGIES", "street": "301, Sai Ram Plaza, 63, AB Rd, near Bhanwar Kua, opp. Mata Gujri College, Mangal Nagar, Indore, Madhya Pradesh 452014, India", "phone": "", "rating": "4.9", "review_count": "", "website": "http://www.alittech.com/", "latitude": 22.685712, "longitude": 75.85970449999999, "maps_url": "https://www.google.com/maps/search/?api=1&query=ALIT%20TECHNOLOGIES&query_place_id=ChIJpUdGxYT9YjkRGSwzD29PZ9k"}, {"place_id": "ChIJS3sDT978YjkRIqSpJJDi2-A", "name": "Linkites", "street": "6th Floor, Building No 1, Right Side, Crystal IT Park, Indore, Madhya Pradesh 452001, India", "phone": "+91 731 297 0111", "rating": "3.9", "review_count": "", "website": "http://www.linkites.com/", "latitude": 22.6857711, "longitude": 75.8723117, "maps_url": "https://www.google.com/maps/search/?api=1&query=Linkites&query_place_id=ChIJS3sDT978YjkRIqSpJJDi2-A"}, {"place_id": "ChIJqaqqqib9YjkR3ZThZOaVoKo", "name": "HB WEBSOL", "street": "215, Sai Ram Plaza, 63, AB Rd, Mangal Nagar, Indore, Madhya Pradesh 452014, India", "phone": "", "rating": "4.6", "review_count": "", "website": "https://www.hbwebsol.com/", "latitude": 22.685712, "longitude": 75.85970449999999, "maps_url": "https://www.google.com/maps/search/?api=1&query=HB%20WEBSOL&query_place_id=ChIJqaqqqib9YjkR3ZThZOaVoKo"}, {"place_id": "ChIJxTCvyxH9YjkRgvGn1g4Q3e0", "name": "IT park indore", "street": "Khandwa Rd, Indrapuri Colony, Bhanwar Kuwa, Indore, Madhya Pradesh 452001, India", "phone": "", "rating": "4.3", "review_count": "", "website": "", "latitude": 22.6854129, "longitude": 75.8722016, "maps_url": "https://www.google.com/maps/search/?api=1&query=IT%20park%20indore&query_place_id=ChIJxTCvyxH9YjkRgvGn1g4Q3e0"}, {"place_id": "ChIJnTjsSqESiEwRgRAIPP5zckU", "name": "Bytebillion", "street": "Sai Ram Plaza, M-15, near Mata Gujari Ibus stop, Mangal Nagar, Indore, Madhya Pradesh 452001, India", "phone": "+91 75663 25980", "rating": "4.9", "review_count": "", "website": "http://bytebillion.com/", "latitude": 22.685712, "longitude": 75.85970449999999, "maps_url": "https://www.google.com/maps/search/?api=1&query=Bytebillion&query_place_id=ChIJnTjsSqESiEwRgRAIPP5zckU"}, {"place_id": "ChIJQ1GwKfH8YjkRz2OeSn0v29c", "name": "Sai Ram Plaza", "street": "Bhanvarkuan, Vishnu Puri Colony, Indore, Madhya Pradesh 452014, India", "phone": "", "rating": "3.9", "review_count": "", "website": "http://www.tasktronic.com/", "latitude": 22.6856741, "longitude": 75.8596766, "maps_url": "https://www.google.com/maps/search/?api=1&query=Sai%20Ram%20Plaza&query_place_id=ChIJQ1GwKfH8YjkRz2OeSn0v29c"}, {"place_id": "ChIJ3Uc2ZOn8YjkRnUKbDvnO_8E", "name": "Crystal IT Park", "street": "MVPC+8WC, Indrapuri Colony, Davv Takshila Parisar, Indore, Madhya Pradesh 452001, India", "phone": "", "rating": "4.4", "review_count": "", "website": "", "latitude": 22.685824, "longitude": 75.87226629999999, "maps_url": "https://www.google.com/maps/search/?api=1&query=Crystal%20IT%20Park&query_place_id=ChIJ3Uc2ZOn8YjkRnUKbDvnO_8E"}, {"place_id": "ChIJT-bDmOr9YjkRRmRo3VwwHdk", "name": "Viomatix LLP", "street": "64, near Siddheshwari Mata Mandir, Shivampuri Colony, Indore, Madhya Pradesh 452001, India", "phone": "+91 86026 22970", "rating": "4.8", "review_count": "", "website": "https://www.viomatix.com/", "latitude": 22.6833295, "longitude": 75.8652998, "maps_url": "https://www.google.com/maps/search/?api=1&query=Viomatix%20LLP&query_place_id=ChIJT-bDmOr9YjkRRmRo3VwwHdk"}, {"place_id": "ChIJr3Ay4WiXOwoRPpsIy60upV8", "name": "eTraverse - Your Trusted Global Partner in Digital Transformation", "street": "Ground Floor, Crystal It Park, Indrapuri Colony, Bhanwar Kuwa, Indore, Madhya Pradesh 452001, India", "phone": "", "rating": "5", "review_count": "", "website": "https://etraverse.com/", "latitude": 22.6857078, "longitude": 75.8722496, "maps_url": "https://www.google.com/maps/search/?api=1&query=eTraverse%20-%20Your%20Trusted%20Global%20Partner%20in%20Digital%20Transformation&query_place_id=ChIJr3Ay4WiXOwoRPpsIy60upV8"}, {"place_id": "ChIJ-wmw20f9YjkRddQ3pXrHMig", "name": "ClearTrail Technologies", "street": "SEZ Indore Unit-I, 4-B, STP-II, 3rd Floor, Crystal IT Park, Ring Road, Indore, Madhya Pradesh 452001, India", "phone": "+91 731 426 9100", "rating": "4", "review_count": "", "website": "http://www.clear-trail.com/", "latitude": 22.6847665, "longitude": 75.8708789, "maps_url": "https://www.google.com/maps/search/?api=1&query=ClearTrail%20Technologies&query_place_id=ChIJ-wmw20f9YjkRddQ3pXrHMig"}, {"place_id": "ChIJo116yDf9YjkRrKaUzEwj8TE", "name": "RackBank Datacenters Pvt. Ltd.", "street": "​Building - 1, First Floor, Crystal IT Park (SEZ), Ring Road, Indore, Madhya Pradesh 452001, India", "phone": "+91 1800 102 0088", "rating": "4.5", "review_count": "", "website": "https://www.rackbank.com/", "latitude": 22.6853206, "longitude": 75.8722353, "maps_url": "https://www.google.com/maps/search/?api=1&query=RackBank%20Datacenters%20Pvt.%20Ltd.&query_place_id=ChIJo116yDf9YjkRrKaUzEwj8TE"}, {"place_id": "ChIJVVXFKfH8YjkRxTnqIoujZNM", "name": "NXDT", "street": "Sai Ram Plaza, 310, 63, AB Rd, Mangal Nagar, Indore, Madhya Pradesh 452014, India", "phone": "+91 90045 81809", "rating": "4", "review_count": "", "website": "http://nx-dt.com/", "latitude": 22.685712, "longitude": 75.85970449999999, "maps_url": "https://www.google.com/maps/search/?api=1&query=NXDT&query_place_id=ChIJVVXFKfH8YjkRxTnqIoujZNM"}, {"place_id": "ChIJJXRyBNP9YjkRF2P8A2QiOyE", "name": "DevSecRoot Technologies", "street": "chhabra niwas, 38, Bholaram Ustad Marg, Sector C, Sarvanand Nagar, Pipliya Rao, Indore, Madhya Pradesh 452001, India", "phone": "+91 86021 59937", "rating": "5", "review_count": "", "website": "https://devsecroot.com/", "latitude": 22.6854855, "longitude": 75.86163719999999, "maps_url": "https://www.google.com/maps/search/?api=1&query=DevSecRoot%20Technologies&query_place_id=ChIJJXRyBNP9YjkRF2P8A2QiOyE"}, {"place_id": "ChIJexGZQlD9YjkRK0EVNPEjztI", "name": "MetaEdge Platforms Pvt. Ltd", "street": "First Floor, Crystal It Park, Indrapuri Colony, Bhanwar Kuwa, Indore, Madhya Pradesh 452001, India", "phone": "+91 99930 95734", "rating": "5", "review_count": "", "website": "http://www.metaedge.com/", "latitude": 22.685746899999998, "longitude": 75.8721425, "maps_url": "https://www.google.com/maps/search/?api=1&query=MetaEdge%20Platforms%20Pvt.%20Ltd&query_place_id=ChIJexGZQlD9YjkRK0EVNPEjztI"}, {"place_id": "ChIJfWf02Jn9YjkRPWzYFEh1qmA", "name": "Karomanage", "street": "Sai Ram Plaza, M-15, near Mata Gujari Ibus stop, Mangal Nagar, Indore, Madhya Pradesh 452001, India", "phone": "+91 74470 11231", "rating": "5", "review_count": "", "website": "https://www.karomanage.com/", "latitude": 22.685712, "longitude": 75.85970449999999, "maps_url": "https://www.google.com/maps/search/?api=1&query=Karomanage&query_place_id=ChIJfWf02Jn9YjkRPWzYFEh1qmA"}, {"place_id": "ChIJgYyIfxf9YjkR_5lxmK7Tg8E", "name": "H Concepts Technologies", "street": "5th Floor, Crystal IT Park, 8, Indrapuri Colony, Bhanwar Kuwa, Indore, Madhya Pradesh 452001, India", "phone": "+91 99770 03311", "rating": "5", "review_count": "", "website": "", "latitude": 22.683982999999998, "longitude": 75.8685129, "maps_url": "https://www.google.com/maps/search/?api=1&query=H%20Concepts%20Technologies&query_place_id=ChIJgYyIfxf9YjkR_5lxmK7Tg8E"}, {"place_id": "ChIJH07o_uT8YjkRn7XzQ1OStZw", "name": "FODUU", "street": "102 Flat no, Raj Palace,, Indrapuri Colony,, Indore, Madhya Pradesh 452001, India", "phone": "+91 88173 04988", "rating": "4.1", "review_count": "", "website": "https://www.foduu.com/?utm_source=google-maps&utm_medium=gmb-listing&utm_campaign=google-business-listing", "latitude": 22.6885203, "longitude": 75.86672449999999, "maps_url": "https://www.google.com/maps/search/?api=1&query=FODUU&query_place_id=ChIJH07o_uT8YjkRn7XzQ1OStZw"}, {"place_id": "ChIJ7z9DEtDdCUMRjNdfRmHzWLs", "name": "MenteStack", "street": "", "phone": "(351) 529-6709", "rating": "4.9", "review_count": "", "website": "https://www.mentestack.com/", "latitude": 46.423669, "longitude": -129.9427086, "maps_url": "https://www.google.com/maps/search/?api=1&query=MenteStack&query_place_id=ChIJ7z9DEtDdCUMRjNdfRmHzWLs"}, {"place_id": "ChIJUzTbz-L8YjkRjR-jElgO61A", "name": "Adwita Infotech", "street": "52, Pipliya Rao Ring Rd, Indrapuri Colony, Bhanwar Kuwa, Indore, Madhya Pradesh 452001, India", "phone": "+91 94250 62471", "rating": "4.9", "review_count": "", "website": "", "latitude": 22.680904599999998, "longitude": 75.8621747, "maps_url": "https://www.google.com/maps/search/?api=1&query=Adwita%20Infotech&query_place_id=ChIJUzTbz-L8YjkRjR-jElgO61A"}, {"place_id": "ChIJmcc51cX9YjkRlcRxxxOm-QM", "name": "XTENSOFT TECHNOLOGIES PRIVATE LIMITED", "street": "MVPC+8WC, Crystal It Park, Indrapuri Colony, Davv Takshila Parisar, Indore, Madhya Pradesh 452001, India", "phone": "+91 94794 39139", "rating": "", "review_count": "", "website": "https://x10soft.com/", "latitude": 22.685812499999997, "longitude": 75.87231249999999, "maps_url": "https://www.google.com/maps/search/?api=1&query=XTENSOFT%20TECHNOLOGIES%20PRIVATE%20LIMITED&query_place_id=ChIJmcc51cX9YjkRlcRxxxOm-QM"}, {"place_id": "ChIJ36G8sY79YjkRk7wpUrsbZJQ", "name": "Aerozef creations", "street": "Sai Ram Plaza, 114 1st floor, Bhawarkua Main Rd, opp. Maruti workshop, Mangal Nagar, Indore, Madhya Pradesh 452014, India", "phone": "", "rating": "4.9", "review_count": "", "website": "http://aerozefcreations.com/", "latitude": 22.6857704, "longitude": 75.8597568, "maps_url": "https://www.google.com/maps/search/?api=1&query=Aerozef%20creations&query_place_id=ChIJ36G8sY79YjkRk7wpUrsbZJQ"}, {"place_id": "ChIJP5IeE-_9YjkReaTRWMF_xUA", "name": "RPS IT Solutions", "street": "sai ram plaza, 314, Mangal Nagar, Indore, Madhya Pradesh 452001, India", "phone": "", "rating": "", "review_count": "", "website": "https://rpsitsolution.com/", "latitude": 22.685712, "longitude": 75.85970449999999, "maps_url": "https://www.google.com/maps/search/?api=1&query=RPS%20IT%20Solutions&query_place_id=ChIJP5IeE-_9YjkReaTRWMF_xUA"}, {"place_id": "ChIJkx4oC7P9YjkRivdcqx3A4Qk", "name": "Aiminent IT Solutions", "street": "2nd floor, 6 Dravid Nagar, Footi Kothi Main Road,, above Andhra Bank, Indore, Madhya Pradesh 452009, India", "phone": "+91 731 400 5778", "rating": "4.3", "review_count": "", "website": "http://aiminent.com/", "latitude": 22.70109, "longitude": 75.8374362, "maps_url": "https://www.google.com/maps/search/?api=1&query=Aiminent%20IT%20Solutions&query_place_id=ChIJkx4oC7P9YjkRivdcqx3A4Qk"}, {"place_id": "ChIJRy2feQD9YjkRtt3YztBuyQI", "name": "Gammastack", "street": "6th floor, Crystal It Park, 8, Indrapuri Colony, Bhanwar Kuwa, Indore, Madhya Pradesh 452001, India", "phone": "", "rating": "5", "review_count": "", "website": "", "latitude": 22.685824, "longitude": 75.87226629999999, "maps_url": "https://www.google.com/maps/search/?api=1&query=Gammastack&query_place_id=ChIJRy2feQD9YjkRtt3YztBuyQI"}, {"place_id": "ChIJ6ZgkyfH8YjkR0cGf86f9_PU", "name": "RHYTDM COMPUTERS", "street": "2, Bholaram Ustad Marg, Bholaram Ustad Market, Brahmapuri Colony, Bhanwar Kuwa, Indore, Madhya Pradesh 452001, India", "phone": "+91 93000 00904", "rating": "4.8", "review_count": "", "website": "", "latitude": 22.685613, "longitude": 75.8639887, "maps_url": "https://www.google.com/maps/search/?api=1&query=RHYTDM%20COMPUTERS&query_place_id=ChIJ6ZgkyfH8YjkR0cGf86f9_PU"}, {"place_id": "ChIJrV6-FPb9YjkRPdNiq7_Yczg", "name": "webyogi", "street": "Eastern Ring Road, Bholaram Ustad Marg, Sector A, Pipliya Rao, Indore, Madhya Pradesh 452001, India", "phone": "", "rating": "5", "review_count": "", "website": "https://patelsahablive.com/", "latitude": 22.683369799999998, "longitude": 75.8640083, "maps_url": "https://www.google.com/maps/search/?api=1&query=webyogi&query_place_id=ChIJrV6-FPb9YjkRPdNiq7_Yczg"}, {"place_id": "ChIJh28tb8z9YjkRBG_q9uO1RZY", "name": "ExpressTech Software Solutions Pvt Ltd", "street": "Office 311, Sai Ram Plaza, Near, Rajiv Gandhi Cir, Mangal Nagar, Indore, Madhya Pradesh 452014, India", "phone": "+91 731 499 2666", "rating": "4", "review_count": "", "website": "https://expresstechsoftwares.com/", "latitude": 22.685712, "longitude": 75.85970449999999, "maps_url": "https://www.google.com/maps/search/?api=1&query=ExpressTech%20Software%20Solutions%20Pvt%20Ltd&query_place_id=ChIJh28tb8z9YjkRBG_q9uO1RZY"}, {"place_id": "ChIJ3VHhXPL8YjkRaIG7VnknRao", "name": "Master Computer Classes", "street": "Mourya Complex, Pipliya Rao Ring Rd, behind Prakash Petrol Pump, Ambikapuri, Indore, Madhya Pradesh 452001, India", "phone": "+91 97136 66166", "rating": "4.9", "review_count": "", "website": "", "latitude": 22.6809449, "longitude": 75.8622711, "maps_url": "https://www.google.com/maps/search/?api=1&query=Master%20Computer%20Classes&query_place_id=ChIJ3VHhXPL8YjkRaIG7VnknRao"}, {"place_id": "ChIJM3YzKPH8YjkR7mwFY8PdspI", "name": "Skill Sourcing | IT Jobs Consultancy | Best Job Consultancy and Agency in Indore", "street": "Sai Ram Plaza, 210, 63, Mangal Nagar, Indore, Madhya Pradesh 452014, India", "phone": "+91 88190 00069", "rating": "4.9", "review_count": "", "website": "http://skillsourcing.in/", "latitude": 22.685697899999997, "longitude": 75.85976099999999, "maps_url": "https://www.google.com/maps/search/?api=1&query=Skill%20Sourcing%20%7C%20IT%20Jobs%20Consultancy%20%7C%20Best%20Job%20Consultancy%20and%20Agency%20in%20Indore&query_place_id=ChIJM3YzKPH8YjkR7mwFY8PdspI"}, {"place_id": "ChIJA1laDVp6bGQRnxWJlIRQNFw", "name": "ZenCode AI", "street": "", "phone": "", "rating": "5", "review_count": "", "website": "https://www.zencodeai.com/", "latitude": 21.0680074, "longitude": 82.7525294, "maps_url": "https://www.google.com/maps/search/?api=1&query=ZenCode%20AI&query_place_id=ChIJA1laDVp6bGQRnxWJlIRQNFw"}, {"place_id": "ChIJkaaAp6NgJoIRUKz5pS0S8dc", "name": "Algo software", "street": "", "phone": "", "rating": "1.8", "review_count": "", "website": "https://www.adonomist.com/", "latitude": 21.0680074, "longitude": 82.7525294, "maps_url": "https://www.google.com/maps/search/?api=1&query=Algo%20software&query_place_id=ChIJkaaAp6NgJoIRUKz5pS0S8dc"}, {"place_id": "ChIJj_UOM0_9YjkRuHH_cvIdc7o", "name": "Tech Nerds", "street": "Sai Ram Plaza, M-11, Rajiv Gandhi Cir, Mangal Nagar, Indore, Madhya Pradesh 452014, India", "phone": "+91 88172 55540", "rating": "4.4", "review_count": "", "website": "", "latitude": 22.6857239, "longitude": 75.8597664, "maps_url": "https://www.google.com/maps/search/?api=1&query=Tech%20Nerds&query_place_id=ChIJj_UOM0_9YjkRuHH_cvIdc7o"}, {"place_id": "ChIJO7tC-mr9YjkR3usfLB-lLaA", "name": "Glamzkart Lifestyle Private Limited", "street": "Sai Ram Plaza, F-115, AB Rd, Mangal Nagar, Indore, Madhya Pradesh 452014, India", "phone": "", "rating": "4.6", "review_count": "", "website": "", "latitude": 22.685712, "longitude": 75.85970449999999, "maps_url": "https://www.google.com/maps/search/?api=1&query=Glamzkart%20Lifestyle%20Private%20Limited&query_place_id=ChIJO7tC-mr9YjkR3usfLB-lLaA"}, {"place_id": "ChIJ08HRFGyXYjkROAFkw_7QMuU", "name": "Appnosys Infotech", "street": "MVPC+5X6, Appnosys Infotech, Srijan, Ground Floor, Crystal IT Park, Khandwa Rd, Indore, Madhya Pradesh 452001, India", "phone": "", "rating": "", "review_count": "", "website": "https://appnosys.com/", "latitude": 22.685416, "longitude": 75.8723907, "maps_url": "https://www.google.com/maps/search/?api=1&query=Appnosys%20Infotech&query_place_id=ChIJ08HRFGyXYjkROAFkw_7QMuU"}, {"place_id": "ChIJ3c9Szj79YjkRsGOjBCdMefY", "name": "Netguru Computers And Online Services", "street": "Shop No D-1, FRONT OF APNA MEN'S WEAR, Bholaram Ustad Marg, near 99 SHOPPE, Bholaram Ustad Market, Sector A, Sarvanand Nagar, Pipliya Rao, Indore, Madhya Pradesh 452001, India", "phone": "+91 98272 01330", "rating": "4.2", "review_count": "", "website": "", "latitude": 22.6856109, "longitude": 75.86366679999999, "maps_url": "https://www.google.com/maps/search/?api=1&query=Netguru%20Computers%20And%20Online%20Services&query_place_id=ChIJ3c9Szj79YjkRsGOjBCdMefY"}, {"place_id": "ChIJH_I--679YjkRqx90mnWcNKg", "name": "7Seers.ai - AI Powered Skill Gap Analysis and Teaching Assistant", "street": "4th Floor, Crystal It Park, STP-1, Indrapuri Colony, Bhanwar Kuwa, Indore, Madhya Pradesh 452001, India", "phone": "+91 89629 94702", "rating": "", "review_count": "", "website": "https://7seers.ai/", "latitude": 22.6855205, "longitude": 75.8720096, "maps_url": "https://www.google.com/maps/search/?api=1&query=7Seers.ai%20-%20AI%20Powered%20Skill%20Gap%20Analysis%20and%20Teaching%20Assistant&query_place_id=ChIJH_I--679YjkRqx90mnWcNKg"}, {"place_id": "ChIJYfrhUWD9YjkRRZPzRZPEGuo", "name": "Bluetech IT Services", "street": "", "phone": "+91 98935 09996", "rating": "4.6", "review_count": "", "website": "https://www.bluetechitservices.com/", "latitude": 14.157641199999999, "longitude": -16.7424939, "maps_url": "https://www.google.com/maps/search/?api=1&query=Bluetech%20IT%20Services&query_place_id=ChIJYfrhUWD9YjkRRZPzRZPEGuo"}, {"place_id": "ChIJlTUzgvD9YjkRjQQP9CeubPs", "name": "Lubi Industries LLP", "street": "282/2, Piplya Rao, Rajive Gandhi Squre, near Meera Garden, Indore, Madhya Pradesh 452001, India", "phone": "+91 98264 18694", "rating": "4.8", "review_count": "", "website": "https://www.lubipumps.com/contact-us/domestic/indore/", "latitude": 22.682406399999998, "longitude": 75.86058, "maps_url": "https://www.google.com/maps/search/?api=1&query=Lubi%20Industries%20LLP&query_place_id=ChIJlTUzgvD9YjkRjQQP9CeubPs"}, {"place_id": "ChIJx2VPPl79YjkRNTymJfi4t10", "name": "Hardia Cable", "street": "MVM8+4QR, Shivampuri Colony, Indore, Madhya Pradesh 452001, India", "phone": "", "rating": "4.5", "review_count": "", "website": "", "latitude": 22.6828713, "longitude": 75.8668802, "maps_url": "https://www.google.com/maps/search/?api=1&query=Hardia%20Cable&query_place_id=ChIJx2VPPl79YjkRNTymJfi4t10"}, {"place_id": "ChIJ70LCs1r9YjkR6RuRHOE0W4E", "name": "Kaiso Research and Consulting", "street": "Office No. 303, Atulya IT Park, Indrapuri Colony, Bhanwar Kuwa, Indore, Madhya Pradesh 452001, India", "phone": "", "rating": "", "review_count": "", "website": "https://www.kaisoresearch.com/", "latitude": 22.6851667, "longitude": 75.86937189999999, "maps_url": "https://www.google.com/maps/search/?api=1&query=Kaiso%20Research%20and%20Consulting&query_place_id=ChIJ70LCs1r9YjkR6RuRHOE0W4E"}, {"place_id": "ChIJ26KW8fH8YjkRfEXSOO4dBPo", "name": "Shree Mahakal Mp Online Services", "street": "1, Ambicapuri Colony, Krishnodaya Nagar, Indore, Madhya Pradesh 452001, India", "phone": "+91 84353 48488", "rating": "4.1", "review_count": "", "website": "http://mponline.gov.in/", "latitude": 22.6804772, "longitude": 75.863204, "maps_url": "https://www.google.com/maps/search/?api=1&query=Shree%20Mahakal%20Mp%20Online%20Services&query_place_id=ChIJ26KW8fH8YjkRfEXSOO4dBPo"}, {"place_id": "ChIJK6dOWY79YjkRl4zT3G5GoGw", "name": "Itsy Hotels Phoenix", "street": "25-B, Pipliya Rao Ring Rd, near IT park, Indrapuri Colony, Nanak Nagar, Indore, Madhya Pradesh 452001, India", "phone": "+91 93228 00100", "rating": "4.1", "review_count": "", "website": "https://www.treebo.com/hotels-in-indore/itsy-hotels-phoenix-pipliya-rao-3577/?utm_source=partnerships&utm_medium=gmb&utm_campaign=gmblisting", "latitude": 22.6815473, "longitude": 75.8675392, "maps_url": "https://www.google.com/maps/search/?api=1&query=Itsy%20Hotels%20Phoenix&query_place_id=ChIJK6dOWY79YjkRl4zT3G5GoGw"}, {"place_id": "ChIJL5HlKxD9YjkR75eA4ZWvniI", "name": "Airtel broadband indore", "street": "12 Bholaram ustad pipliya rao, Ambikapuri, Indore, Madhya Pradesh 452001, India", "phone": "+91 77478 37494", "rating": "4.8", "review_count": "", "website": "https://www.airtel.in/broadband/indore", "latitude": 22.6813863, "longitude": 75.86367179999999, "maps_url": "https://www.google.com/maps/search/?api=1&query=Airtel%20broadband%20indore&query_place_id=ChIJL5HlKxD9YjkR75eA4ZWvniI"}, {"place_id": "ChIJA087jon9YjkRyMM32C6Ss6Y", "name": "Jio fiber connection and wifi", "street": "", "phone": "+91 78791 53395", "rating": "4.6", "review_count": "", "website": "https://wa.me/message/YRGONOHNO6IFD1", "latitude": 22.723972699999997, "longitude": 75.86384989999999, "maps_url": "https://www.google.com/maps/search/?api=1&query=Jio%20fiber%20connection%20and%20wifi&query_place_id=ChIJA087jon9YjkRyMM32C6Ss6Y"}, {"place_id": "ChIJZWNf22z9YjkRWBDur2JTqSA", "name": "designpoint", "street": "114 first floor, Sai Ram Plaza, Mangal Nagar, Indore, Madhya Pradesh 452014, India", "phone": "", "rating": "", "review_count": "", "website": "", "latitude": 22.685712, "longitude": 75.85970449999999, "maps_url": "https://www.google.com/maps/search/?api=1&query=designpoint&query_place_id=ChIJZWNf22z9YjkRWBDur2JTqSA"}, {"place_id": "ChIJMdwOU6z9YjkRZBxDs0jFn50", "name": "SPACEGENICS | Architects & Interior Designers | Indore (स्पेसजेनिक्स)", "street": "213, Sai Ram Plaza, Mangal Nagar Road, Bhawarkua, Mangal Nagar, Indore, Madhya Pradesh 452014, India", "phone": "+91 79871 85438", "rating": "4.9", "review_count": "", "website": "http://www.spacegenics.in/", "latitude": 22.685712, "longitude": 75.85970449999999, "maps_url": "https://www.google.com/maps/search/?api=1&query=SPACEGENICS%20%7C%20Architects%20%26%20Interior%20Designers%20%7C%20Indore%20%28%E0%A4%B8%E0%A5%8D%E0%A4%AA%E0%A5%87%E0%A4%B8%E0%A4%9C%E0%A5%87%E0%A4%A8%E0%A4%BF%E0%A4%95%E0%A5%8D%E0%A4%B8%29&query_place_id=ChIJMdwOU6z9YjkRZBxDs0jFn50"}, {"place_id": "ChIJzzqaWvX9YjkRuLmmPWnOCHw", "name": "ENRISE EDUCATION A Unit of Nimansh Global Education Pvt. Ltd.", "street": "305 SAI RAM PLAZA 63, Mangal Nagar, Indore, Madhya Pradesh 452001, India", "phone": "+91 88892 48749", "rating": "4.9", "review_count": "", "website": "https://enriseeducation.com/", "latitude": 22.685697899999997, "longitude": 75.85976099999999, "maps_url": "https://www.google.com/maps/search/?api=1&query=ENRISE%20EDUCATION%20A%20Unit%20of%20Nimansh%20Global%20Education%20Pvt.%20Ltd.&query_place_id=ChIJzzqaWvX9YjkRuLmmPWnOCHw"}, {"place_id": "ChIJEz7Sfrn9YjkRV6OSTQJtS-k", "name": "Royal House Makers", "street": "6A, Bholaram Ustad Marg, Shivampuri Colony, Indore, Madhya Pradesh 452001, India", "phone": "+91 90097 00155", "rating": "5", "review_count": "", "website": "https://www.royalhousemakers.com/", "latitude": 22.6833735, "longitude": 75.8642716, "maps_url": "https://www.google.com/maps/search/?api=1&query=Royal%20House%20Makers&query_place_id=ChIJEz7Sfrn9YjkRV6OSTQJtS-k"}, {"place_id": "ChIJV2hsJqj9YjkRf8Xaz6YA8YM", "name": "Dilip Keswani Real Estate", "street": "15 Shivampuri Colony, Bholaram Ustad Marg Near Bhanwarkua Square, Agra Bombay Rd, Indore, Madhya Pradesh 452001, India", "phone": "+91 98270 25325", "rating": "4.9", "review_count": "", "website": "", "latitude": 22.683908499999998, "longitude": 75.8643737, "maps_url": "https://www.google.com/maps/search/?api=1&query=Dilip%20Keswani%20Real%20Estate&query_place_id=ChIJV2hsJqj9YjkRf8Xaz6YA8YM"}, {"place_id": "ChIJAz8lu_H8YjkRObXnYzDMX90", "name": "VR Boys Hostel| Boys Hostel in Bhawarkua indore| Best Boys Hostel in Bholaram Ustad Marg.", "street": "13C, Bholaram Ustad Market, Sector C, Sarvanand Nagar, Pipliya Rao, Indore, Madhya Pradesh 452001, India", "phone": "+91 89582 20303", "rating": "4.3", "review_count": "", "website": "", "latitude": 22.6850915, "longitude": 75.862888, "maps_url": "https://www.google.com/maps/search/?api=1&query=VR%20Boys%20Hostel%7C%20Boys%20Hostel%20in%20Bhawarkua%20indore%7C%20Best%20Boys%20Hostel%20in%20Bholaram%20Ustad%20Marg.&query_place_id=ChIJAz8lu_H8YjkRObXnYzDMX90"}, {"place_id": "ChIJ3ZFf7iD9YjkRdVCtgZ1300U", "name": "Sumit’s flat", "street": "36/7, Bholaram Ustad Marg, Bhawarkua, Brahmapuri Colony, Pipliya Rao, Indore, Madhya Pradesh 452001, India", "phone": "", "rating": "5", "review_count": "", "website": "", "latitude": 22.68451, "longitude": 75.864289, "maps_url": "https://www.google.com/maps/search/?api=1&query=Sumit%E2%80%99s%20flat&query_place_id=ChIJ3ZFf7iD9YjkRdVCtgZ1300U"}, {"place_id": "ChIJ7ayHHvL8YjkR4Q_3hqXVQ9s", "name": "Vishal Urban", "street": "Bholaram Ustad Marg Pipliyarao, Colony, Shivampuri Colony, Indore, Madhya Pradesh 452001, India", "phone": "+91 98270 25325", "rating": "4", "review_count": "", "website": "", "latitude": 22.6829318, "longitude": 75.8638194, "maps_url": "https://www.google.com/maps/search/?api=1&query=Vishal%20Urban&query_place_id=ChIJ7ayHHvL8YjkR4Q_3hqXVQ9s"}, {"place_id": "ChIJH8jBD6T9YjkROLTXq2iQb6A", "name": "Rajvilla", "street": "MVM6+9M3, Sector A, Sarvanand Nagar, Pipliya Rao, Indore, Madhya Pradesh 452001, India", "phone": "+91 141 401 4911", "rating": "3.4", "review_count": "", "website": "", "latitude": 22.6833966, "longitude": 75.8616582, "maps_url": "https://www.google.com/maps/search/?api=1&query=Rajvilla&query_place_id=ChIJH8jBD6T9YjkROLTXq2iQb6A"}, {"place_id": "ChIJrf8xqR39YjkRf7l4zwHUugg", "name": "C2 Living", "street": "MVJ8+9J3, Nanak Nagar, Indore, Madhya Pradesh 452001, India", "phone": "", "rating": "5", "review_count": "", "website": "", "latitude": 22.6808931, "longitude": 75.86653609999999, "maps_url": "https://www.google.com/maps/search/?api=1&query=C2%20Living&query_place_id=ChIJrf8xqR39YjkRf7l4zwHUugg"}, {"place_id": "ChIJDyWybPr9YjkRBBBm7x8d7cU", "name": "Alura windows", "street": "48,B, besides IT park, Pipliya Rao Ring Rd, Nanak Nagar, Indore, Madhya Pradesh 452001, India", "phone": "+91 75666 66022", "rating": "5", "review_count": "", "website": "", "latitude": 22.6810992, "longitude": 75.8648007, "maps_url": "https://www.google.com/maps/search/?api=1&query=Alura%20windows&query_place_id=ChIJDyWybPr9YjkRBBBm7x8d7cU"}, {"place_id": "ChIJYcls1d79YjkRmm3RtuuR5gw", "name": "Royal rental", "street": "MVM6+WM6, Sector C, Sarvanand Nagar, Pipliya Rao, Indore, Madhya Pradesh 452001, India", "phone": "", "rating": "5", "review_count": "", "website": "", "latitude": 22.684811, "longitude": 75.8617809, "maps_url": "https://www.google.com/maps/search/?api=1&query=Royal%20rental&query_place_id=ChIJYcls1d79YjkRmm3RtuuR5gw"}, {"place_id": "ChIJc1F_JqT9YjkRtM0BN8XaeD0", "name": "Krishna Boys Hostel", "street": "48A, Sector A, Sarvanand Nagar, Pipliya Rao, Indore, Madhya Pradesh 452001, India", "phone": "", "rating": "5", "review_count": "", "website": "", "latitude": 22.68385, "longitude": 75.862555, "maps_url": "https://www.google.com/maps/search/?api=1&query=Krishna%20Boys%20Hostel&query_place_id=ChIJc1F_JqT9YjkRtM0BN8XaeD0"}, {"place_id": "ChIJldkG7fH8YjkRpN5XuR1izQU", "name": "Manas Spectrum", "street": "Shivampuri Colony, Bholaram Ustad Marg, Near Bhanwarkua Square, AB Rd, Indore, Madhya Pradesh 452001, India", "phone": "", "rating": "4.9", "review_count": "", "website": "", "latitude": 22.6841248, "longitude": 75.8637543, "maps_url": "https://www.google.com/maps/search/?api=1&query=Manas%20Spectrum&query_place_id=ChIJldkG7fH8YjkRpN5XuR1izQU"}, {"place_id": "ChIJ-zsRWdX9YjkRAh1B79JcDPY", "name": "Grahum गृहम hostel", "street": "13, Sector C, Sarvanand Nagar, Pipliya Rao, Indore, Madhya Pradesh 452001, India", "phone": "+91 98711 28634", "rating": "4.4", "review_count": "", "website": "https://www.instagram.com/grahum.hostels?igsh=MWhubG54cXpoZ3JyaQ%3D%3D&utm_source=qr", "latitude": 22.6844042, "longitude": 75.8625576, "maps_url": "https://www.google.com/maps/search/?api=1&query=Grahum%20%E0%A4%97%E0%A5%83%E0%A4%B9%E0%A4%AE%20hostel&query_place_id=ChIJ-zsRWdX9YjkRAh1B79JcDPY"}, {"place_id": "ChIJFwYWWr_9YjkRIWyRp579Hj0", "name": "SHELTER INN. by Swastik", "street": "9, sarvanand nagar, first left, Bholaram Ustad Marg, behind 99 shop, Bhawarkua, Indore, Madhya Pradesh 452001, India", "phone": "+91 96911 23273", "rating": "4.3", "review_count": "", "website": "", "latitude": 22.6852755, "longitude": 75.863317, "maps_url": "https://www.google.com/maps/search/?api=1&query=SHELTER%20INN.%20by%20Swastik&query_place_id=ChIJFwYWWr_9YjkRIWyRp579Hj0"}, {"place_id": "ChIJ5wUbdVH9YjkR5TVciFwKceM", "name": "Archana Xerox & Photocopy Indore", "street": "39 Pipliyarao, Bholaram Ustad Marg, opposite Sonic Restaurant, near Panjabi Dhaba, Bholaram Ustad Market, Sector A, Bhawarkua, Shivampuri Colony, Indore, Madhya Pradesh 452001, India", "phone": "+91 91114 32002", "rating": "5", "review_count": "", "website": "", "latitude": 22.6849962, "longitude": 75.8639424, "maps_url": "https://www.google.com/maps/search/?api=1&query=Archana%20Xerox%20%26%20Photocopy%20Indore&query_place_id=ChIJ5wUbdVH9YjkR5TVciFwKceM"}, {"place_id": "ChIJHcHaeivTM6ERn3-e42jmR3g", "name": "Stackheal Technologies", "street": "", "phone": "", "rating": "", "review_count": "", "website": "https://stackheal.com/", "latitude": 21.0680074, "longitude": 82.7525294, "maps_url": "https://www.google.com/maps/search/?api=1&query=Stackheal%20Technologies&query_place_id=ChIJHcHaeivTM6ERn3-e42jmR3g"}, {"place_id": "ChIJ69_Z20f9YjkRKm3mjIwUWw0", "name": "Ayat Technologies", "street": "109, Sai Ram Plaza, 63, Mangal Nagar, Indore, Madhya Pradesh 452014, India", "phone": "+91 99260 78394", "rating": "4.7", "review_count": "", "website": "", "latitude": 22.685697899999997, "longitude": 75.85976099999999, "maps_url": "https://www.google.com/maps/search/?api=1&query=Ayat%20Technologies&query_place_id=ChIJ69_Z20f9YjkRKm3mjIwUWw0"}, {"place_id": "ChIJXTO7-pf9YjkR197xekiJlJ4", "name": "Chetna Muzhalda freelancer digital marketing", "street": "bhawarkua, Bholaram Ustad Marg, Bhawarkua, Shivampuri Colony, Indore, Madhya Pradesh 452001, India", "phone": "", "rating": "", "review_count": "", "website": "", "latitude": 22.6844322, "longitude": 75.8644283, "maps_url": "https://www.google.com/maps/search/?api=1&query=Chetna%20Muzhalda%20freelancer%20digital%20marketing&query_place_id=ChIJXTO7-pf9YjkR197xekiJlJ4"}, {"place_id": "ChIJQ9jGQfL8YjkRG1YOUYefCxw", "name": "Nagpur Goods Transport Co.", "street": "2, Ring Rd, Sector A, Hargovind Nagar, Pipliya Rao, Indore, Madhya Pradesh 452001, India", "phone": "+91 731 236 1460", "rating": "3", "review_count": "", "website": "", "latitude": 22.681535, "longitude": 75.8631466, "maps_url": "https://www.google.com/maps/search/?api=1&query=Nagpur%20Goods%20Transport%20Co.&query_place_id=ChIJQ9jGQfL8YjkRG1YOUYefCxw"}]