[{"place_id": "ChIJD6Pc3N_8DDkRB8f9Javm7n0", "name": "I Plexus Technologies", "street": "4806, Ansari Rd, Daryaganj, Delhi, 110002, India", "phone": "+91 93116 05067", "rating": "5", "review_count": "", "website": "https://www.iplexus.in/contact-us/", "latitude": 28.6469468, "longitude": 77.2432682, "maps_url": "https://www.google.com/maps/search/?api=1&query=I%20Plexus%20Technologies&query_place_id=ChIJD6Pc3N_8DDkRB8f9Javm7n0"}, {"place_id": "ChIJ9cnrI9n8DDkRe5_arcwUdpU", "name": "Ecartes Technology Pvt. Ltd.", "street": "2 nd floor, 4805/24, Bharat Ram Rd, Daryaganj, New Delhi, Delhi, 110002, India", "phone": "+91 98108 99011", "rating": "4.1", "review_count": "", "website": "http://www.ecartes.in/", "latitude": 28.6420662, "longitude": 77.2438852, "maps_url": "https://www.google.com/maps/search/?api=1&query=Ecartes%20Technology%20Pvt.%20Ltd.&query_place_id=ChIJ9cnrI9n8DDkRe5_arcwUdpU"}, {"place_id": "ChIJO4sr49IDDTkRALZaeWsr-oI", "name": "Iraitech | Software Development Company", "street": "Central Square Complex 3, Unit No-1051, 1st Floor, Near Filmistan, DCM chowk, Bara Hindu Rao, Kishan Ganj, Delhi, 110006, India", "phone": "+91 81301 04108", "rating": "4.1", "review_count": "", "website": "https://www.iraitech.com/", "latitude": 28.6631951, "longitude": 77.20308639999999, "maps_url": "https://www.google.com/maps/search/?api=1&query=Iraitech%20%7C%20Software%20Development%20Company&query_place_id=ChIJO4sr49IDDTkRALZaeWsr-oI"}, {"place_id": "ChIJrYO29qj7DDkRQ5Jp9oHc-CY", "name": "Naman Infosolutions", "street": "J M D House, 101, 4378/4B, Ansari Rd, Daryaganj, Delhi, 110002, India", "phone": "+91 99109 85336", "rating": "4", "review_count": "", "website": "", "latitude": 28.6444446, "longitude": 77.24518929999999, "maps_url": "https://www.google.com/maps/search/?api=1&query=Naman%20Infosolutions&query_place_id=ChIJrYO29qj7DDkRQ5Jp9oHc-CY"}, {"place_id": "ChIJkeWC2mj9DDkRsZeDjlJFfQw", "name": "Karni Softech", "street": "Ansari Rd, Daryaganj, Delhi, 110002, India", "phone": "+91 93119 65679", "rating": "4.6", "review_count": "", "website": "", "latitude": 28.6424, "longitude": 77.2432487, "maps_url": "https://www.google.com/maps/search/?api=1&query=Karni%20Softech&query_place_id=ChIJkeWC2mj9DDkRsZeDjlJFfQw"}, {"place_id": "ChIJPxZgUp_9DDkRomoNb8PuDo8", "name": "ASN Infotech", "street": "3496, Kucha Lal Man, Daryaganj, Delhi, 110002, India", "phone": "+91 81303 28809", "rating": "5", "review_count": "", "website": "https://www.asninfotech.com/", "latitude": 28.6419419, "longitude": 77.2401775, "maps_url": "https://www.google.com/maps/search/?api=1&query=ASN%20Infotech&query_place_id=ChIJPxZgUp_9DDkRomoNb8PuDo8"}, {"place_id": "ChIJSXwBkNn9DDkR8b7RfAaq6Qk", "name": "IQ IT Sources", "street": "shop no. 8 1st Floor, Ansari Market, near Ram Mandir, New Friends Colony, Daryaganj, New Delhi, Delhi, 110002, India", "phone": "", "rating": "", "review_count": "", "website": "", "latitude": 28.6448474, "longitude": 77.24037729999999, "maps_url": "https://www.google.com/maps/search/?api=1&query=IQ%20IT%20Sources&query_place_id=ChIJSXwBkNn9DDkR8b7RfAaq6Qk"}, {"place_id": "ChIJvXeueaf9DDkR_zAhuwteUq4", "name": "I H SOLUTION PRIVATE LIMITED", "street": "no. 1, 103 L, Daryaganj, New Delhi, Delhi, 110002, India", "phone": "+91 98996 02424", "rating": "5", "review_count": "", "website": "https://indianhelpline.com/", "latitude": 28.6424125, "longitude": 77.2428894, "maps_url": "https://www.google.com/maps/search/?api=1&query=I%20H%20SOLUTION%20PRIVATE%20LIMITED&query_place_id=ChIJvXeueaf9DDkR_zAhuwteUq4"}, {"place_id": "ChIJ9yHAhw79DDkRe8yk9myDDOI", "name": "Oldy Goldy Computers Pvt Ltd", "street": "4735/22, Ansari Rd, Daryaganj, New Delhi, Delhi, 110002, India", "phone": "+91 98109 05732", "rating": "5", "review_count": "", "website": "", "latitude": 28.643583099999997, "longitude": 77.2437496, "maps_url": "https://www.google.com/maps/search/?api=1&query=Oldy%20Goldy%20Computers%20Pvt%20Ltd&query_place_id=ChIJ9yHAhw79DDkRe8yk9myDDOI"}, {"place_id": "ChIJlcgnZt_8DDkRJ1u-PH8xWxQ", "name": "Kay Ess Enterprises", "street": "67/4, Ground Floor, Madras House, Ram Mandir Lane, Dayanand Road, Delhi, 110002, India", "phone": "+91 98100 18960", "rating": "4.5", "review_count": "", "website": "", "latitude": 28.6444174, "longitude": 77.2412305, "maps_url": "https://www.google.com/maps/search/?api=1&query=Kay%20Ess%20Enterprises&query_place_id=ChIJlcgnZt_8DDkRJ1u-PH8xWxQ"}, {"place_id": "ChIJv5gSw978DDkRJvDo9kMBdeY", "name": "Innovative Application Consultants", "street": "102, 4327/3, Satyam House, Ansari Rd, Daryaganj, New Delhi, Delhi, 110002, India", "phone": "", "rating": "3.7", "review_count": "", "website": "http://sdsoriginals.com/", "latitude": 28.6443837, "longitude": 77.2443091, "maps_url": "https://www.google.com/maps/search/?api=1&query=Innovative%20Application%20Consultants&query_place_id=ChIJv5gSw978DDkRJvDo9kMBdeY"}, {"place_id": "ChIJc0i95c0DDTkR09axnoRnMxw", "name": "OMLogic Consulting Pvt Ltd", "street": "3rd & 4th floor, 4259/3, Ansari Rd, Daryaganj, New Delhi, Delhi, 110002, India", "phone": "+91 85953 70108", "rating": "3.9", "review_count": "", "website": "https://www.omlogic.com/", "latitude": 28.6432063, "longitude": 77.2445882, "maps_url": "https://www.google.com/maps/search/?api=1&query=OMLogic%20Consulting%20Pvt%20Ltd&query_place_id=ChIJc0i95c0DDTkR09axnoRnMxw"}, {"place_id": "ChIJQ_ZoMGP9DDkRNXGdTG0qcH0", "name": "Eye vision Technologies", "street": "Building No. 55, 2nd Floor, 208, Ansari Rd, Daryaganj, New Delhi, Delhi, 110002, India", "phone": "", "rating": "3.8", "review_count": "", "website": "http://www.indiamart.com/eyevisiontechnologies", "latitude": 28.6443133, "longitude": 77.2443311, "maps_url": "https://www.google.com/maps/search/?api=1&query=Eye%20vision%20Technologies&query_place_id=ChIJQ_ZoMGP9DDkRNXGdTG0qcH0"}, {"place_id": "ChIJv5gSw978DDkREhf86xGokZk", "name": "GO LAPTOP WORLD", "street": "4380/4B, Ansari Rd, Daryaganj, New Delhi, Delhi, 110002, India", "phone": "+91 99107 67371", "rating": "5", "review_count": "", "website": "http://www.golaptopworld.com/", "latitude": 28.644436799999998, "longitude": 77.2444147, "maps_url": "https://www.google.com/maps/search/?api=1&query=GO%20LAPTOP%20WORLD&query_place_id=ChIJv5gSw978DDkREhf86xGokZk"}, {"place_id": "ChIJARtTDiT9DDkROIdHYloAfvc", "name": "Miashi Consultancy", "street": "3rd Floor, 4852 / 24, Ansari Rd, next to Sanjeevan Hospital, Daryaganj, New Delhi, Delhi, 110002, India", "phone": "+91 92679 52492", "rating": "4.9", "review_count": "", "website": "http://miashiecommerce.com/", "latitude": 28.641175999999998, "longitude": 77.2431278, "maps_url": "https://www.google.com/maps/search/?api=1&query=Miashi%20Consultancy&query_place_id=ChIJARtTDiT9DDkROIdHYloAfvc"}, {"place_id": "ChIJAQAAQN_8DDkRBKBdsH2pEkw", "name": "Kapur & Company", "street": "3574, near Sablock Clinic, Kucha Lal Man, Daryaganj, New Delhi, Delhi, 110002, India", "phone": "+91 11 2327 5265", "rating": "4.9", "review_count": "", "website": "https://www.kapurncompany.com/?utm_source=google&utm_medium=wix_google_business_profile&utm_campaign=11484373263752398986", "latitude": 28.6425785, "longitude": 77.2402833, "maps_url": "https://www.google.com/maps/search/?api=1&query=Kapur%20%26%20Company&query_place_id=ChIJAQAAQN_8DDkRBKBdsH2pEkw"}, {"place_id": "ChIJs9q7f80TV0oRLLDYm2Mdx9k", "name": "RiseAlive - Digital Marketing Company", "street": "3rd Floor, House. 3102, Kucha Tara Chand, Sir Syed Ahmed Rd, Daryaganj, New Delhi, Delhi 110002, India", "phone": "", "rating": "4.9", "review_count": "", "website": "https://www.risealive.in/", "latitude": 28.6440979, "longitude": 77.2391968, "maps_url": "https://www.google.com/maps/search/?api=1&query=RiseAlive%20-%20Digital%20Marketing%20Company&query_place_id=ChIJs9q7f80TV0oRLLDYm2Mdx9k"}, {"place_id": "ChIJwWelprr9DDkRXGs1kuYHBIw", "name": "ARUSH SWITCHGEARS LLP", "street": "4405/IV, 5, Ansari Rd, Daryaganj, New Delhi, Delhi, 110002, India", "phone": "+91 98115 14724", "rating": "4.6", "review_count": "", "website": "https://www.arushswitchgearsllp.com/", "latitude": 28.644928699999998, "longitude": 77.245043, "maps_url": "https://www.google.com/maps/search/?api=1&query=ARUSH%20SWITCHGEARS%20LLP&query_place_id=ChIJwWelprr9DDkRXGs1kuYHBIw"}, {"place_id": "ChIJHSAxl978DDkREAYqzri-nYc", "name": "Sumtracker Inventory Management for Ecommerce", "street": "", "phone": "", "rating": "5", "review_count": "", "website": "https://www.sumtracker.com/", "latitude": 14.157641199999999, "longitude": -106.69185949999999, "maps_url": "https://www.google.com/maps/search/?api=1&query=Sumtracker%20Inventory%20Management%20for%20Ecommerce&query_place_id=ChIJHSAxl978DDkREAYqzri-nYc"}, {"place_id": "ChIJ35YFqdj8DDkR4Ozf7zCK_wQ", "name": "SUPREME INTERNATIONAL", "street": "3RD FLOOR, T-1, PLOT NO. 4772-4773, Bharat Ram Rd, Daryaganj, New Delhi, Delhi 110002, India", "phone": "+91 96437 31133", "rating": "4.7", "review_count": "", "website": "https://www.mysupremeinternational.com/", "latitude": 28.642386199999997, "longitude": 77.2435301, "maps_url": "https://www.google.com/maps/search/?api=1&query=SUPREME%20INTERNATIONAL&query_place_id=ChIJ35YFqdj8DDkR4Ozf7zCK_wQ"}, {"place_id": "ChIJ0_6GcWn9DDkRAVYdwzZXedU", "name": "Glossour", "street": "2, Daryaganj, Delhi, 110002, India", "phone": "+91 88188 28823", "rating": "5", "review_count": "", "website": "https://www.glossour.com/", "latitude": 28.642194699999997, "longitude": 77.2456005, "maps_url": "https://www.google.com/maps/search/?api=1&query=Glossour&query_place_id=ChIJ0_6GcWn9DDkRAVYdwzZXedU"}, {"place_id": "ChIJWXlJRdn8DDkRQYXIJqhxd8M", "name": "Jaico Publishing House", "street": "G- 16, 2/32, Ansari Rd, Daryaganj, Delhi, 110002, India", "phone": "+91 11 2326 0651", "rating": "4.4", "review_count": "", "website": "http://www.jaicobooks.com/", "latitude": 28.6424572, "longitude": 77.2455203, "maps_url": "https://www.google.com/maps/search/?api=1&query=Jaico%20Publishing%20House&query_place_id=ChIJWXlJRdn8DDkRQYXIJqhxd8M"}, {"place_id": "ChIJQdVtUmn9DDkRCcDTZm1sIPw", "name": "Green Portfolio - Portfolio Management Services", "street": "Ansari Rd, Daryaganj, New Delhi, Delhi, 110002, India", "phone": "+91 99711 33005", "rating": "4.5", "review_count": "", "website": "http://www.greenportfolio.co/", "latitude": 28.644553799999997, "longitude": 77.2442746, "maps_url": "https://www.google.com/maps/search/?api=1&query=Green%20Portfolio%20-%20Portfolio%20Management%20Services&query_place_id=ChIJQdVtUmn9DDkRCcDTZm1sIPw"}, {"place_id": "ChIJP9LcU9_8DDkRx8WDptIubHI", "name": "City eMails", "street": "49, Brij Mohan Marg, Daryaganj, New Delhi, Delhi, 110002, India", "phone": "+91 98100 25607", "rating": "4.7", "review_count": "", "website": "http://www.cityemails.com/", "latitude": 28.6433944, "longitude": 77.24101739999999, "maps_url": "https://www.google.com/maps/search/?api=1&query=City%20eMails&query_place_id=ChIJP9LcU9_8DDkRx8WDptIubHI"}, {"place_id": "ChIJG0JZgSD9DDkRMnyXrfRDw_0", "name": "Surgical Mall of India Pvt. Ltd", "street": "47, Lekh Ram Rd, Daryaganj, Delhi, 110002, India", "phone": "+91 80 4860 1254", "rating": "4.2", "review_count": "", "website": "", "latitude": 28.6431404, "longitude": 77.2413493, "maps_url": "https://www.google.com/maps/search/?api=1&query=Surgical%20Mall%20of%20India%20Pvt.%20Ltd&query_place_id=ChIJG0JZgSD9DDkRMnyXrfRDw_0"}, {"place_id": "ChIJu9z6fNn8DDkR9JZGUULVNO0", "name": "Stellar Destination Management Services Pvt. Ltd.", "street": "204, 2nd Floor, Time Square Building, 55 Ansari Road , Darya Ganj, New Delhi, Delhi 110002, India", "phone": "+91 70655 44184", "rating": "4.2", "review_count": "", "website": "http://www.sdms.co.in/", "latitude": 28.6443382, "longitude": 77.24118229999999, "maps_url": "https://www.google.com/maps/search/?api=1&query=Stellar%20Destination%20Management%20Services%20Pvt.%20Ltd.&query_place_id=ChIJu9z6fNn8DDkR9JZGUULVNO0"}, {"place_id": "ChIJAQAAQN_8DDkRf0RfyVpEcX4", "name": "Oswal Sunil & Company", "street": "71, Daryaganj, New Delhi, Delhi, 110002, India", "phone": "+91 11 2325 1582", "rating": "4.9", "review_count": "", "website": "http://www.oswalsunil.com/", "latitude": 28.641538999999998, "longitude": 77.242012, "maps_url": "https://www.google.com/maps/search/?api=1&query=Oswal%20Sunil%20%26%20Company&query_place_id=ChIJAQAAQN_8DDkRf0RfyVpEcX4"}, {"place_id": "ChIJB8g77Wj9DDkRVNaDqswTDyM", "name": "Rupaly Techno Services Pvt. Ltd.", "street": "40, Ground Floor, Daryaganj, New Delhi, Delhi, 110002, India", "phone": "+91 98111 72427", "rating": "4.8", "review_count": "", "website": "", "latitude": 28.6424053, "longitude": 77.2409756, "maps_url": "https://www.google.com/maps/search/?api=1&query=Rupaly%20Techno%20Services%20Pvt.%20Ltd.&query_place_id=ChIJB8g77Wj9DDkRVNaDqswTDyM"}, {"place_id": "ChIJw8bucYXjDDkR6dbz-zrAqJY", "name": "ADVANCE ESTIMATING", "street": "1st floor, 2/11, Ansari Rd, Daryaganj, New Delhi, Delhi, 110002, India", "phone": "+91 96548 22468", "rating": "4.9", "review_count": "", "website": "http://advanceestimating.com/", "latitude": 28.6425555, "longitude": 77.24455929999999, "maps_url": "https://www.google.com/maps/search/?api=1&query=ADVANCE%20ESTIMATING&query_place_id=ChIJw8bucYXjDDkR6dbz-zrAqJY"}, {"place_id": "ChIJq6rGP9_8DDkRbJHn-zkzTAQ", "name": "A One Copier Services Pvt Ltd. Photocopier Machine on Rent", "street": "Madras House, 67/4, Daryaganj, New Delhi, Delhi, 110002, India", "phone": "+91 99990 30027", "rating": "4.6", "review_count": "", "website": "http://aonecopier.com/", "latitude": 28.6442129, "longitude": 77.24197869999999, "maps_url": "https://www.google.com/maps/search/?api=1&query=A%20One%20Copier%20Services%20Pvt%20Ltd.%20Photocopier%20Machine%20on%20Rent&query_place_id=ChIJq6rGP9_8DDkRbJHn-zkzTAQ"}, {"place_id": "ChIJ6boknSD9DDkRZxBvyUS2PrE", "name": "Maha Enterprises fire extinguisher delhi", "street": "First Floor, 4551-56/16, Ansari Rd, opp. Saraswati School, Daryaganj, New Delhi, Delhi, 110002, India", "phone": "", "rating": "4.6", "review_count": "", "website": "https://mahafirefighters.com/", "latitude": 28.6443837, "longitude": 77.244309, "maps_url": "https://www.google.com/maps/search/?api=1&query=Maha%20Enterprises%20fire%20extinguisher%20delhi&query_place_id=ChIJ6boknSD9DDkRZxBvyUS2PrE"}, {"place_id": "ChIJibKB1IX9DDkRyqW_4ldadWE", "name": "Galaxy Digital Marketing India", "street": "402A, Emca House 23, Daryaganj, New Delhi, Delhi, 110002, India", "phone": "+91 98730 83334", "rating": "5", "review_count": "", "website": "https://galaxymarketing.in/", "latitude": 28.6421568, "longitude": 77.2432982, "maps_url": "https://www.google.com/maps/search/?api=1&query=Galaxy%20Digital%20Marketing%20India&query_place_id=ChIJibKB1IX9DDkRyqW_4ldadWE"}, {"place_id": "ChIJBcd4s7r9DDkRHRitWMN-bf4", "name": "Akshat IT Solutions Pvt Ltd", "street": "74, Daryaganj, Delhi, 110002, India", "phone": "", "rating": "5", "review_count": "", "website": "https://akshatsolutions.com/", "latitude": 28.6416097, "longitude": 77.2423317, "maps_url": "https://www.google.com/maps/search/?api=1&query=Akshat%20IT%20Solutions%20Pvt%20Ltd&query_place_id=ChIJBcd4s7r9DDkRHRitWMN-bf4"}, {"place_id": "ChIJ045ufRT9DDkRR7IrqsRB_gA", "name": "Nityom | IT Services", "street": "KUNDAN MANSION, 2-A/3, Asaf Ali Rd, Turkman Gate, Chandni Chowk, New Delhi, Delhi, 110002, India", "phone": "", "rating": "5", "review_count": "", "website": "https://www.nityom.com/", "latitude": 28.641979199999998, "longitude": 77.2331002, "maps_url": "https://www.google.com/maps/search/?api=1&query=Nityom%20%7C%20IT%20Services&query_place_id=ChIJ045ufRT9DDkRR7IrqsRB_gA"}, {"place_id": "ChIJyZbLF9n8DDkRGIPfneQjkKw", "name": "All Web IT Solutions", "street": "23, 24, Ansari Rd, Daryaganj, New Delhi, Delhi, 110002, India", "phone": "+91 91296 41676", "rating": "", "review_count": "", "website": "", "latitude": 28.6415471, "longitude": 77.2442583, "maps_url": "https://www.google.com/maps/search/?api=1&query=All%20Web%20IT%20Solutions&query_place_id=ChIJyZbLF9n8DDkRGIPfneQjkKw"}, {"place_id": "ChIJwwCMFt_8DDkRnT67BfCIm5E", "name": "Ahead Ads", "street": "2nd floor, 83, Shyam Lal Rd, Daryaganj, New Delhi, Delhi, 110002, India", "phone": "+91 90158 83288", "rating": "5", "review_count": "", "website": "http://www.aheadads.com/", "latitude": 28.644289999999998, "longitude": 77.2421104, "maps_url": "https://www.google.com/maps/search/?api=1&query=Ahead%20Ads&query_place_id=ChIJwwCMFt_8DDkRnT67BfCIm5E"}, {"place_id": "ChIJdfFFuDnADDkR4Q5IrOCmruY", "name": "Brainguru Technologies - Online Reputation Management Company In Delhi NCR", "street": "Delhi Chamber, 213, Delhi Gate, New Delhi, Delhi 110002, India", "phone": "+91 80100 10000", "rating": "3", "review_count": "", "website": "https://www.brainguru.in/", "latitude": 28.641190299999998, "longitude": 77.2405826, "maps_url": "https://www.google.com/maps/search/?api=1&query=Brainguru%20Technologies%20-%20Online%20Reputation%20Management%20Company%20In%20Delhi%20NCR&query_place_id=ChIJdfFFuDnADDkR4Q5IrOCmruY"}, {"place_id": "ChIJnYv0btn8DDkRCniRm8IqJbA", "name": "TKG CORPORATE ADVISORS PVT. LTD.", "street": "First Floor, 4228/1, Ansari Rd, Daryaganj, New Delhi, Delhi, 110002, India", "phone": "+91 11 3501 6945", "rating": "4.8", "review_count": "", "website": "http://www.tkg.group/", "latitude": 28.6412744, "longitude": 77.2452674, "maps_url": "https://www.google.com/maps/search/?api=1&query=TKG%20CORPORATE%20ADVISORS%20PVT.%20LTD.&query_place_id=ChIJnYv0btn8DDkRCniRm8IqJbA"}, {"place_id": "ChIJYTXBDtj8DDkR2Igm9sZTLkI", "name": "Times Id - Card Systems", "street": "3439, Delhi Chamber, Building, Delhi Gate, Old Delhi, Delhi, 110002, India", "phone": "+91 11 2327 9777", "rating": "4.9", "review_count": "", "website": "", "latitude": 28.641240399999997, "longitude": 77.2401094, "maps_url": "https://www.google.com/maps/search/?api=1&query=Times%20Id%20-%20Card%20Systems&query_place_id=ChIJYTXBDtj8DDkR2Igm9sZTLkI"}, {"place_id": "ChIJM9r7u0r9DDkRiUvt7zjjpRM", "name": "IT Executive vivek", "street": "22, Vijay Ghat, Raj Ghat, New Delhi, Delhi, 110006, India", "phone": "", "rating": "", "review_count": "", "website": "https://itexecuitive.com/", "latitude": 28.6584512, "longitude": 77.2449233, "maps_url": "https://www.google.com/maps/search/?api=1&query=IT%20Executive%20vivek&query_place_id=ChIJM9r7u0r9DDkRiUvt7zjjpRM"}]