{"timestamp": 1773733412.7303286, "keyword": "IT company", "location": "Indore", "cell_idx": 29, "results": [{"place_id": "0x3963179ba819d679:0x97d67928bba81e05", "name": "ITGeeks Technologies Pvt. Ltd.", "category": "Software company", "street": "ITGeeks Technologies Pvt. Ltd", "city": "02, Yamuna nagar", "phone": "09179880603", "website": "http://www.itgeeks.com/", "rating": 4.6, "review_count": "", "latitude": 22.9538781, "longitude": 76.03808699999999, "maps_url": "https://www.google.com/maps/place/?q=place_id:0x3963179ba819d679:0x97d67928bba81e05"}, {"place_id": "0x390ce458d0000001:0xf2123bd299ec4501", "name": "IT Company India", "category": "Software company", "street": "D56", "city": "D Block, Sector 10", "phone": "09999244854", "website": "https://www.itcompanyindia.in/", "rating": 4.7, "review_count": "", "latitude": 28.589917699999997, "longitude": 77.3351153, "maps_url": "https://www.google.com/maps/place/?q=place_id:0x390ce458d0000001:0xf2123bd299ec4501"}, {"place_id": "0x3962fd71266aaa83:0x82398caa17930a40", "name": "Octavian InfoTech LLP", "category": "Software company", "street": "A 41 Ayodhya Puri", "city": "Kodriya", "phone": "09977741168", "website": "https://www.octavianinfotech.com/", "rating": 5, "review_count": "", "latitude": 22.537258599999998, "longitude": 75.7726136, "maps_url": "https://www.google.com/maps/place/?q=place_id:0x3962fd71266aaa83:0x82398caa17930a40"}, {"place_id": "0x3963179ca584a047:0xba87fc574f813753", "name": "Xlligent Softwares Pvt Ltd", "category": "Software company", "street": "111", "city": "near front of DCB Bank", "phone": "06261900209", "website": "https://www.xlligent-softwares.com/", "rating": 4.9, "review_count": "", "latitude": 22.9666632, "longitude": 76.0492101, "maps_url": "https://www.google.com/maps/place/?q=place_id:0x3963179ca584a047:0xba87fc574f813753"}, {"place_id": "0x3963171787e17b59:0x307a92533e921d11", "name": "Edithtech Softwares", "category": "Software company", "street": "44", "city": "Shourya Complex", "phone": "09109260321", "website": "https://edithtechsoftwares.com/", "rating": 4.8, "review_count": "", "latitude": 22.9547074, "longitude": 76.0365456, "maps_url": "https://www.google.com/maps/place/?q=place_id:0x3963171787e17b59:0x307a92533e921d11"}, {"place_id": "0x39631772fb57fa4d:0x1aeaaccddfab1b64", "name": "ITWEBINFO", "category": "Software company", "street": "103", "city": "Shivaji Nagar, Moti Bunglow", "phone": "07582995555", "website": "http://itwebinfo.com/", "rating": 5, "review_count": "", "latitude": 22.9710605, "longitude": 76.0480532, "maps_url": "https://www.google.com/maps/place/?q=place_id:0x39631772fb57fa4d:0x1aeaaccddfab1b64"}, {"place_id": "0x396302b379920c87:0xae77c7696c44f45c", "name": "JTG_TECHNOLAB", "category": "Software company", "street": "40, Karoli nagar", "city": "near Kela Mata temple", "phone": "07974666953", "website": "https://jtgtechnolab.com/", "rating": 5, "review_count": "", "latitude": 22.9583767, "longitude": 76.0352805, "maps_url": "https://www.google.com/maps/place/?q=place_id:0x396302b379920c87:0xae77c7696c44f45c"}, {"place_id": "0x3962e3d56c170eb1:0x876e329535a3531d", "name": "AG TECHNOLOGIES, Software Company in Indore", "category": "Software company", "street": "28, Shree Krishna Vihar Colony, Near Shree Chintaman Hanuman Mandir, Opp Malviya Petrol Pump, Radisson Square", "city": "Madhya Pradesh 452016", "phone": "", "website": "", "rating": 5, "review_count": "", "latitude": 22.744705999999997, "longitude": 75.910692, "maps_url": "https://www.google.com/maps/place/?q=place_id:0x3962e3d56c170eb1:0x876e329535a3531d"}, {"place_id": "0x396317226b2c42df:0x47098e396f961017", "name": "Expound Coderz Private Limited", "category": "Software company", "street": "267", "city": "Ram Nagar Extension, Mishrilal Nagar, Ganga Nagar", "phone": "07415752727", "website": "https://expoundcoderz.com/", "rating": 4.8, "review_count": "", "latitude": 22.9577816, "longitude": 76.0379663, "maps_url": "https://www.google.com/maps/place/?q=place_id:0x396317226b2c42df:0x47098e396f961017"}, {"place_id": "0x3963178ff220a477:0x51910ecd6deaed53", "name": "Cyber Elite Pvt Ltd.", "category": "Software company", "street": "226 LIG", "city": "Jawahar Nagar, Gomti Nagar", "phone": "07089899090", "website": "https://cyberelite.in/", "rating": 4.2, "review_count": "", "latitude": 22.953131199999998, "longitude": 76.0426221, "maps_url": "https://www.google.com/maps/place/?q=place_id:0x3963178ff220a477:0x51910ecd6deaed53"}, {"place_id": "0x39631792ea7d9083:0xc90228718db1b1af", "name": "Sypnosis Technologies - IT Company.", "category": "Software company", "street": "2nd Floor", "city": "10", "phone": "09039239604", "website": "https://sypnosistechnologies.com/", "rating": "", "review_count": "", "latitude": 22.955443499999998, "longitude": 76.0369978, "maps_url": "https://www.google.com/maps/place/?q=place_id:0x39631792ea7d9083:0xc90228718db1b1af"}, {"place_id": "0x39631736a0f7d871:0xf0f334accf365a3a", "name": "Ayat infotech", "category": "Software company", "street": "51", "city": "Anand nagar, Itawa", "phone": "09589981295", "website": "http://ayatinfotech.com/", "rating": 5, "review_count": "", "latitude": 22.9726128, "longitude": 76.05058269999999, "maps_url": "https://www.google.com/maps/place/?q=place_id:0x39631736a0f7d871:0xf0f334accf365a3a"}, {"place_id": "0x3be7c21b5901e181:0x7fe794585addc1f6", "name": "Smartinfologiks - Software Development Company in India | IT Solutions", "category": "Software company", "street": "Hilton Center", "city": "514", "phone": "07400064691", "website": "https://www.smartinfologiks.com/", "rating": 4.6, "review_count": "", "latitude": 19.0139592, "longitude": 73.0382705, "maps_url": "https://www.google.com/maps/place/?q=place_id:0x3be7c21b5901e181:0x7fe794585addc1f6"}, {"place_id": "0x3bc2becdc35b6937:0x515ac559c349eee3", "name": "Thinkitive Technologies Private Limited", "category": "Software company", "street": "4th Floor", "city": "ABIL IMPERIAL COMMERCIAL SPACES", "phone": "08956467327", "website": "https://www.thinkitive.com/", "rating": 3.9, "review_count": "", "latitude": 18.5563888, "longitude": 73.7729748, "maps_url": "https://www.google.com/maps/place/?q=place_id:0x3bc2becdc35b6937:0x515ac559c349eee3"}, {"place_id": "0x3963173c14b63e79:0x65b66e0752b01a8c", "name": "Techconqueror \u2013 Software & IT Services", "category": "Software company", "street": "528 EWS", "city": "Mukherjee Nagar, Anukul Nagar", "phone": "08982396663", "website": "https://techconqueror.com/", "rating": 4.9, "review_count": "", "latitude": 22.971609599999997, "longitude": 76.0386747, "maps_url": "https://www.google.com/maps/place/?q=place_id:0x3963173c14b63e79:0x65b66e0752b01a8c"}, {"place_id": "0x39630239f26f44ff:0x9990e42765534532", "name": "Hybrid Infotech Pvt Ltd", "category": "Software company", "street": "Forest colony, Shivaji Nagar, Moti Bunglow", "city": "Dewas, Madhya Pradesh 455001", "phone": "09993031042", "website": "http://hybridinfotech.com/", "rating": 5, "review_count": "", "latitude": 22.9662243, "longitude": 76.0484005, "maps_url": "https://www.google.com/maps/place/?q=place_id:0x39630239f26f44ff:0x9990e42765534532"}, {"place_id": "0x396317d794e16759:0x4060a0afc2cc5781", "name": "Webniya Infotech", "category": "Software company", "street": "", "city": "", "phone": "", "website": "https://www.webniya.tech/", "rating": 5, "review_count": "", "latitude": 21.0680074, "longitude": 82.7525294, "maps_url": "https://www.google.com/maps/place/?q=place_id:0x396317d794e16759:0x4060a0afc2cc5781"}, {"place_id": "0x396297482015701b:0xcf1885d997644a71", "name": "Harioum photocopy And Computer center", "category": "Computer service", "street": "Narmda Marg", "city": "Khandwa Rd", "phone": "", "website": "", "rating": 5, "review_count": "", "latitude": 22.250663499999998, "longitude": 76.0393904, "maps_url": "https://www.google.com/maps/place/?q=place_id:0x396297482015701b:0xcf1885d997644a71"}, {"place_id": "0x3962977dd210c815:0x282bb0ed764d75cf", "name": "ANKIT COMPUTER'S", "category": "Computer store", "street": "Barwaha, Madhya Pradesh 451115", "city": "", "phone": "07999501316", "website": "", "rating": 5, "review_count": "", "latitude": 22.254970099999998, "longitude": 76.0365569, "maps_url": "https://www.google.com/maps/place/?q=place_id:0x3962977dd210c815:0x282bb0ed764d75cf"}, {"place_id": "0x396317edb498db2d:0x820ff94014864b5b", "name": "Active Now Tech", "category": "Software company", "street": "Mahalaxmi Nagar", "city": "09", "phone": "08839779337", "website": "https://activenow.in/", "rating": 5, "review_count": "", "latitude": 22.9575802, "longitude": 76.0409086, "maps_url": "https://www.google.com/maps/place/?q=place_id:0x396317edb498db2d:0x820ff94014864b5b"}, {"place_id": "0x396296560da6ac61:0xdc5a0a6c2bab6498", "name": "Ali Computers", "category": "Computer service", "street": "89, M.G Road", "city": "Barwaha, Madhya Pradesh 451115", "phone": "", "website": "", "rating": 3.6, "review_count": "", "latitude": 22.256282, "longitude": 76.040432, "maps_url": "https://www.google.com/maps/place/?q=place_id:0x396296560da6ac61:0xdc5a0a6c2bab6498"}, {"place_id": "0x396296f8fb1aaaab:0x361d270bc43689f1", "name": "Param Technology", "category": "Corporate office", "street": "266, Maulana Azad Marg", "city": "near param public school", "phone": "", "website": "", "rating": 5, "review_count": "", "latitude": 22.257750299999998, "longitude": 76.0372433, "maps_url": "https://www.google.com/maps/place/?q=place_id:0x396296f8fb1aaaab:0x361d270bc43689f1"}, {"place_id": "0x2d1fb13b66f9b3b9:0xd8d6782015bc63e4", "name": "Dharmdesigner IT Services", "category": "Internet marketing service", "street": "Silver Park", "city": "Balaji Nagar", "phone": "08120348239", "website": "https://dharmdesigner.com/", "rating": 5, "review_count": "", "latitude": 22.947556799999997, "longitude": 76.05479059999999, "maps_url": "https://www.google.com/maps/place/?q=place_id:0x2d1fb13b66f9b3b9:0xd8d6782015bc63e4"}, {"place_id": "0x396317929f6eb6ff:0xd309788e3f800c63", "name": "Lumic technologies", "category": "Software company", "street": "28, Sardar Patel Marg", "city": "Sutar Bakhal, Old Town, Gomti Nagar", "phone": "07804920240", "website": "http://www.lumicsoft.com/", "rating": "", "review_count": "", "latitude": 22.9654703, "longitude": 76.0527128, "maps_url": "https://www.google.com/maps/place/?q=place_id:0x396317929f6eb6ff:0xd309788e3f800c63"}, {"place_id": "0x396317cb7c6c3d3b:0x9f2bbbfa9937c9b", "name": "SOMTARA Infotech", "category": "Software company", "street": "TARA KUNJ 205", "city": "opp. Escort Junior College", "phone": "", "website": "https://www.somtarainfotech.com/", "rating": "", "review_count": "", "latitude": 22.954623599999998, "longitude": 76.0349313, "maps_url": "https://www.google.com/maps/place/?q=place_id:0x396317cb7c6c3d3b:0x9f2bbbfa9937c9b"}, {"place_id": "0x6cfaa7c055002bd5:0x9543a5812d93766", "name": "Updevix \u2013 Web & App Development Company", "category": "Software company", "street": "software Employment Ofiice", "city": "1st floor, Updevix \u2013 Web & App Development Company", "phone": "", "website": "https://www.updevix.com/", "rating": 5, "review_count": "", "latitude": 22.967655699999998, "longitude": 76.0543464, "maps_url": "https://www.google.com/maps/place/?q=place_id:0x6cfaa7c055002bd5:0x9543a5812d93766"}, {"place_id": "0x39631d6ae4f42a97:0x83bc825e66f9983", "name": "Techwave IT Solutions Pvt Ltd | Software Development Company in Indore | Top IT Company in Indore | India", "category": "Software company", "street": "Bhopal Motors JCB", "city": "near Panchvati", "phone": "09009155444", "website": "http://techwaveitsolutions.com/", "rating": "", "review_count": "", "latitude": 22.792078399999998, "longitude": 75.90735409999999, "maps_url": "https://www.google.com/maps/place/?q=place_id:0x39631d6ae4f42a97:0x83bc825e66f9983"}, {"place_id": "0x3963170d63cf0f6b:0xa071a4f09875f22e", "name": "Punyai Group", "category": "Software company", "street": "", "city": "", "phone": "", "website": "http://bit.ly/2S6gV7Y", "rating": 5, "review_count": "", "latitude": 20.2162413, "longitude": 76.1931778, "maps_url": "https://www.google.com/maps/place/?q=place_id:0x3963170d63cf0f6b:0xa071a4f09875f22e"}, {"place_id": "0x3962b275ced11dd9:0x58d451e2a38737ff", "name": "Netguru Online", "category": "Computer software store", "street": "Teh", "city": "opposite Durga Mandir", "phone": "09165250283", "website": "", "rating": 3.5, "review_count": "", "latitude": 22.235697299999998, "longitude": 76.39163479999999, "maps_url": "https://www.google.com/maps/place/?q=place_id:0x3962b275ced11dd9:0x58d451e2a38737ff"}, {"place_id": "0x396297f72d06b73b:0xe44368f8f46d02c5", "name": "JAIN COMPUTER BARWAHA", "category": "Computer store", "street": "63, MG Rd", "city": "Barwaha, Madhya Pradesh 451115", "phone": "09826931002", "website": "", "rating": 4.2, "review_count": "", "latitude": 22.2561064, "longitude": 76.0392593, "maps_url": "https://www.google.com/maps/place/?q=place_id:0x396297f72d06b73b:0xe44368f8f46d02c5"}, {"place_id": "0x3962972c6f478dd5:0xcb76c9ab509dad8f", "name": "Patel Online Center", "category": "Computer support and services", "street": "Court Road", "city": "Barwaha, Madhya Pradesh 451115", "phone": "09826515353", "website": "", "rating": 5, "review_count": "", "latitude": 22.2563651, "longitude": 76.0411469, "maps_url": "https://www.google.com/maps/place/?q=place_id:0x3962972c6f478dd5:0xcb76c9ab509dad8f"}, {"place_id": "0x3962972832d87aed:0xea0eee278cc7bc3f", "name": "Ranker notebook manufacturer", "category": "Stationery manufacturer", "street": "MP SH 38", "city": "near of kapas mandi", "phone": "09926834198", "website": "https://www.indiamart.com/ranker-notebook-manufacturer/", "rating": 5, "review_count": "", "latitude": 22.252631599999997, "longitude": 76.0366002, "maps_url": "https://www.google.com/maps/place/?q=place_id:0x3962972832d87aed:0xea0eee278cc7bc3f"}, {"place_id": "0x3963179e783f3caf:0x370c4af9c04c7225", "name": "Satisfaction Web Solution Pvt. Ltd", "category": "Software company", "street": "146 Alkapuri", "city": "behind Shri Munisuvrat Swami Shwetambar Jain Mandir Dewas", "phone": "09826073695", "website": "http://www.satisfactionwebsolution.com/", "rating": 4.4, "review_count": "", "latitude": 22.967319, "longitude": 76.0412837, "maps_url": "https://www.google.com/maps/place/?q=place_id:0x3963179e783f3caf:0x370c4af9c04c7225"}, {"place_id": "0x3962974dadb08ee1:0x5fa37ea167f4ae2b", "name": "New Meet Computer Center", "category": "Computer support and services", "street": "gurudwara complex", "city": "Police Station", "phone": "08435656135", "website": "", "rating": 5, "review_count": "", "latitude": 22.2557749, "longitude": 76.03397269999999, "maps_url": "https://www.google.com/maps/place/?q=place_id:0x3962974dadb08ee1:0x5fa37ea167f4ae2b"}, {"place_id": "0x396317170221cccd:0xdc916aeffd9100ea", "name": "Webaashi Technologies", "category": "Software company", "street": "C 82, AB Rd", "city": "Kalani Bagh, Agroha Nagar, Gomti Nagar", "phone": "", "website": "http://webaashi.com/", "rating": 4.9, "review_count": "", "latitude": 22.9586091, "longitude": 76.0484482, "maps_url": "https://www.google.com/maps/place/?q=place_id:0x396317170221cccd:0xdc916aeffd9100ea"}, {"place_id": "0x3962c5547086fd91:0xd7e0646afd772461", "name": "Shree Ram Cyber", "category": "Computer support and services", "street": "09, Hanuman Gali", "city": "Udainagar, Imlipura, Madhya Pradesh 455227", "phone": "09584557661", "website": "", "rating": "", "review_count": "", "latitude": 22.539574299999998, "longitude": 76.20489979999999, "maps_url": "https://www.google.com/maps/place/?q=place_id:0x3962c5547086fd91:0xd7e0646afd772461"}, {"place_id": "0x3962965557e6d02d:0x6e0decaaca405c50", "name": "SHREE PANCHRATAN", "category": "Corporate office", "street": "Regd Office 43", "city": "Vinoba Marg", "phone": "08553377006", "website": "http://shreepanchratan.com/", "rating": 4.9, "review_count": "", "latitude": 22.251475799999998, "longitude": 76.0390338, "maps_url": "https://www.google.com/maps/place/?q=place_id:0x3962965557e6d02d:0x6e0decaaca405c50"}, {"place_id": "0x396297c780fcc2bf:0x15a4e0c18bdd8101", "name": "Jaiswal Computer", "category": "Computer support and services", "street": "Barwaha, Madhya Pradesh 451115", "city": "", "phone": "08889020002", "website": "", "rating": "", "review_count": "", "latitude": 22.253027799999998, "longitude": 76.0378092, "maps_url": "https://www.google.com/maps/place/?q=place_id:0x396297c780fcc2bf:0x15a4e0c18bdd8101"}, {"place_id": "0x396296fd20c693fb:0x824076f87b3ea6f0", "name": "Kisan Hi-Tech Greenhouse Nursery", "category": "Wholesale plant nursery", "street": "chipra link pumphouse", "city": "near narmada", "phone": "09826942050", "website": "http://www.kisanhitechnursery.com/", "rating": 4.9, "review_count": "", "latitude": 22.258506, "longitude": 76.0162325, "maps_url": "https://www.google.com/maps/place/?q=place_id:0x396296fd20c693fb:0x824076f87b3ea6f0"}, {"place_id": "0x3962974c80c6e973:0xb46b417a6b52b8a2", "name": "Disha computer Barwaha", "category": "Computer consultant", "street": "Kanwar Colony", "city": "Barwaha, Madhya Pradesh 451115", "phone": "09977012950", "website": "", "rating": "", "review_count": "", "latitude": 22.2529519, "longitude": 76.0370974, "maps_url": "https://www.google.com/maps/place/?q=place_id:0x3962974c80c6e973:0xb46b417a6b52b8a2"}, {"place_id": "0x396317929f6eb6ff:0xd309788e3f800c63", "name": "Lumic technologies", "category": "Software company", "street": "28, Sardar Patel Marg", "city": "Sutar Bakhal, Old Town, Gomti Nagar", "phone": "07804920240", "website": "http://www.lumicsoft.com/", "rating": "", "review_count": "", "latitude": 22.9654703, "longitude": 76.0527128, "maps_url": "https://www.google.com/maps/place/?q=place_id:0x396317929f6eb6ff:0xd309788e3f800c63"}, {"place_id": "0x3962976f794ad105:0xb0bedd4943cecec2", "name": "AK COMPUTER", "category": "Computer store", "street": "Library", "city": "Bhagyavanti vila", "phone": "09039751975", "website": "", "rating": 5, "review_count": "", "latitude": 22.2553295, "longitude": 76.0363256, "maps_url": "https://www.google.com/maps/place/?q=place_id:0x3962976f794ad105:0xb0bedd4943cecec2"}, {"place_id": "0x3963179e783f3caf:0x370c4af9c04c7225", "name": "Satisfaction Web Solution Pvt. Ltd", "category": "Software company", "street": "146 Alkapuri", "city": "behind Shri Munisuvrat Swami Shwetambar Jain Mandir Dewas", "phone": "09826073695", "website": "http://www.satisfactionwebsolution.com/", "rating": 4.4, "review_count": "", "latitude": 22.967319, "longitude": 76.0412837, "maps_url": "https://www.google.com/maps/place/?q=place_id:0x3963179e783f3caf:0x370c4af9c04c7225"}, {"place_id": "0x39631d6ae4f42a97:0x83bc825e66f9983", "name": "Techwave IT Solutions Pvt Ltd | Software Development Company in Indore | Top IT Company in Indore | India", "category": "Software company", "street": "Bhopal Motors JCB", "city": "near Panchvati", "phone": "09009155444", "website": "http://techwaveitsolutions.com/", "rating": "", "review_count": "", "latitude": 22.792078399999998, "longitude": 75.90735409999999, "maps_url": "https://www.google.com/maps/place/?q=place_id:0x39631d6ae4f42a97:0x83bc825e66f9983"}, {"place_id": "0x396317170221cccd:0xdc916aeffd9100ea", "name": "Webaashi Technologies", "category": "Software company", "street": "C 82, AB Rd", "city": "Kalani Bagh, Agroha Nagar, Gomti Nagar", "phone": "", "website": "http://webaashi.com/", "rating": 4.9, "review_count": "", "latitude": 22.9586091, "longitude": 76.0484482, "maps_url": "https://www.google.com/maps/place/?q=place_id:0x396317170221cccd:0xdc916aeffd9100ea"}, {"place_id": "0x3962b3c9c5424689:0x7761c0a1b14076f1", "name": "Harsh Kumar Gour", "category": "Computer support and services", "street": "Narmada Nagar", "city": "Khandwa, Madhya Pradesh 450119", "phone": "07415495602", "website": "", "rating": "", "review_count": "", "latitude": 22.2696602, "longitude": 76.4559982, "maps_url": "https://www.google.com/maps/place/?q=place_id:0x3962b3c9c5424689:0x7761c0a1b14076f1"}, {"place_id": "0x3962cfe4d1fbedd3:0x7744426d31df5ea2", "name": "Johar Online Service", "category": "Computer support and services", "street": "Bus Stand", "city": "6, Pankuva Udaynagar Road", "phone": "08815677425", "website": "", "rating": "", "review_count": "", "latitude": 22.5297071, "longitude": 76.3088406, "maps_url": "https://www.google.com/maps/place/?q=place_id:0x3962cfe4d1fbedd3:0x7744426d31df5ea2"}, {"place_id": "0x3962cf91eecf173f:0x80aa8cab9ce16ecd", "name": "Solanki Comunication", "category": "Computer support and services", "street": "3, Bhikupura", "city": "Bus Stand", "phone": "08817854363", "website": "", "rating": "", "review_count": "", "latitude": 22.5397325, "longitude": 76.3346426, "maps_url": "https://www.google.com/maps/place/?q=place_id:0x3962cf91eecf173f:0x80aa8cab9ce16ecd"}, {"place_id": "0x3962c56e57e2eb95:0x3232392ae2b1bfc9", "name": "Rawat Mp Online", "category": "Computer support and services", "street": "Punjapura", "city": "Road", "phone": "09977889179", "website": "", "rating": "", "review_count": "", "latitude": 22.5395894, "longitude": 76.20472079999999, "maps_url": "https://www.google.com/maps/place/?q=place_id:0x3962c56e57e2eb95:0x3232392ae2b1bfc9"}, {"place_id": "0x3962976594bbcf3d:0x75136a7156c86073", "name": "Grahak Sewa Kendra", "category": "Computer support and services", "street": "MP SH 38", "city": "Cover Colony", "phone": "09009123016", "website": "", "rating": "", "review_count": "", "latitude": 22.2537506, "longitude": 76.0358064, "maps_url": "https://www.google.com/maps/place/?q=place_id:0x3962976594bbcf3d:0x75136a7156c86073"}, {"place_id": "0x3962bd56fbcbfaef:0xbf771d344e843f27", "name": "Mansi Grahak Seva Kendra", "category": "Computer support and services", "street": "Main Road", "city": "Omkareshwar, Madhya Pradesh 450554", "phone": "09399196996", "website": "", "rating": "", "review_count": "", "latitude": 22.2420758, "longitude": 76.146655, "maps_url": "https://www.google.com/maps/place/?q=place_id:0x3962bd56fbcbfaef:0xbf771d344e843f27"}]}