{"timestamp": 1773730524.4489293, "keyword": "IT company", "location": "delhi", "cell_idx": 252, "results": [{"place_id": "0x390d05f1c70d0d6b:0x80d816e36f28618f", "name": "Katchin Tech Private Limited | Software Development Company in Delhi NCR", "category": "Software company", "street": "A-4", "city": "near skin decor", "phone": "07669005215", "website": "https://www.katchintech.com/", "rating": 5, "review_count": "", "latitude": 28.575834099999998, "longitude": 77.05139609999999, "maps_url": "https://www.google.com/maps/place/?q=place_id:0x390d05f1c70d0d6b:0x80d816e36f28618f"}, {"place_id": "0x390d1a34dce10001:0x81ee938136b1aabf", "name": "GANGATIKA TECHNOLOGIES PRIVATE LIMITED", "category": "Software company", "street": "Plot No. 551", "city": "Near, Holi Chowk Rd", "phone": "07838189178", "website": "", "rating": 4.4, "review_count": "", "latitude": 28.5355068, "longitude": 77.0551984, "maps_url": "https://www.google.com/maps/place/?q=place_id:0x390d1a34dce10001:0x81ee938136b1aabf"}, {"place_id": "0x390d1a5532eb800f:0xf2e1540348673db7", "name": "bitGain Technology Private Limited", "category": "Software company", "street": "Plot No 497", "city": "Bharthal, Sector 26 Dwarka, Bharthal", "phone": "09560002243", "website": "https://www.bitgaintech.com/", "rating": 4.7, "review_count": "", "latitude": 28.5467209, "longitude": 77.0473114, "maps_url": "https://www.google.com/maps/place/?q=place_id:0x390d1a5532eb800f:0xf2e1540348673db7"}, {"place_id": "0x390d1b07258b26f1:0x8226854068152e3e", "name": "Softcom Technologies - Web Designing Company in Delhi", "category": "Website designer", "street": "S-89, Manish Global Mall", "city": "Sector 22 Dwarka, Dwarka", "phone": "09910258463", "website": "https://www.softcomtechnologies.com/", "rating": 5, "review_count": "", "latitude": 28.559992299999998, "longitude": 77.0596212, "maps_url": "https://www.google.com/maps/place/?q=place_id:0x390d1b07258b26f1:0x8226854068152e3e"}, {"place_id": "0x390d013ca8ac1387:0x8a0db85b518267d5", "name": "NexGen Innovators", "category": "Software company", "street": "114B, 3rd floor, Dwarka Mor", "city": "New Delhi, Delhi 110059", "phone": "", "website": "https://www.nexgi.com/", "rating": 4.9, "review_count": "", "latitude": 28.618961, "longitude": 77.0322202, "maps_url": "https://www.google.com/maps/place/?q=place_id:0x390d013ca8ac1387:0x8a0db85b518267d5"}, {"place_id": "0x390d1b86b6b5582d:0x36c722e124b57be8", "name": "kdrsoft Technologies - website designing company in delhi", "category": "Website designer", "street": "2nd Floor", "city": "Manish Global Mall", "phone": "09910258463", "website": "https://www.kdrsoft.com/", "rating": 4.9, "review_count": "", "latitude": 28.559937299999998, "longitude": 77.0596687, "maps_url": "https://www.google.com/maps/place/?q=place_id:0x390d1b86b6b5582d:0x36c722e124b57be8"}, {"place_id": "0x390d1ac4f284e761:0x9464ca79c229a74d", "name": "Times IT Services Pvt. Ltd", "category": "Software company", "street": "Vardhman Bahnhof Plaza", "city": "204", "phone": "09650012304", "website": "https://www.timesitservices.com/", "rating": 4.9, "review_count": "", "latitude": 28.5906919, "longitude": 77.043549, "maps_url": "https://www.google.com/maps/place/?q=place_id:0x390d1ac4f284e761:0x9464ca79c229a74d"}, {"place_id": "0x390ce458d0000001:0xf2123bd299ec4501", "name": "IT Company India", "category": "Software company", "street": "D56", "city": "D Block, Sector 10", "phone": "09999244854", "website": "https://www.itcompanyindia.in/", "rating": 4.7, "review_count": "", "latitude": 28.589917699999997, "longitude": 77.3351153, "maps_url": "https://www.google.com/maps/place/?q=place_id:0x390ce458d0000001:0xf2123bd299ec4501"}, {"place_id": "0x390d1b0ad6565c37:0x9ee772d45ffed70d", "name": "IOTtech Softwares", "category": "Software company", "street": "First & Second Floor", "city": "Lucky Plaza", "phone": "08034798583", "website": "", "rating": 4.9, "review_count": "", "latitude": 28.5847981, "longitude": 77.07323199999999, "maps_url": "https://www.google.com/maps/place/?q=place_id:0x390d1b0ad6565c37:0x9ee772d45ffed70d"}, {"place_id": "0x390d1bb72bd328b1:0xd9425539dc10edb3", "name": "SOFT INDIA WEB SOFTWARE DEVELOPMENT PVT LTD", "category": "Software company", "street": "Ground Floor", "city": "A- 107", "phone": "09625503688", "website": "http://www.softindia.in/", "rating": 3.2, "review_count": "", "latitude": 28.587611, "longitude": 77.0704514, "maps_url": "https://www.google.com/maps/place/?q=place_id:0x390d1bb72bd328b1:0xd9425539dc10edb3"}, {"place_id": "0x390d191100000001:0x424476192b3b5b5b", "name": "Binary Semantics Limited", "category": "Software company", "street": "PLot no", "city": "38", "phone": "08929156505", "website": "https://www.binarysemantics.com/", "rating": 3.7, "review_count": "", "latitude": 28.5018823, "longitude": 77.0701466, "maps_url": "https://www.google.com/maps/place/?q=place_id:0x390d191100000001:0x424476192b3b5b5b"}, {"place_id": "0x390d181b03ac9f6f:0x3ec5a92a519f94ad", "name": "Daffodil Software", "category": "Software company", "street": "9th Floor, Tower B1, DLF", "city": "World Tech Park", "phone": "01246817000", "website": "https://www.daffodilsw.com/", "rating": 4.1, "review_count": "", "latitude": 28.465191599999997, "longitude": 77.0564785, "maps_url": "https://www.google.com/maps/place/?q=place_id:0x390d181b03ac9f6f:0x3ec5a92a519f94ad"}, {"place_id": "0x390d053af4b9fae1:0xa955718786ea4c90", "name": "Efficient IT & Electronic Services Private Limited", "category": "Software company", "street": "1st floor", "city": "VV Plaza building", "phone": "08750042191", "website": "http://www.efficientindia.com/", "rating": 4.4, "review_count": "", "latitude": 28.6100702, "longitude": 77.03385709999999, "maps_url": "https://www.google.com/maps/place/?q=place_id:0x390d053af4b9fae1:0xa955718786ea4c90"}, {"place_id": "0x390d1b8e5b6999a1:0x522ffbc2c7c23362", "name": "Techthastu Private Limited (Techthaastu)", "category": "Software company", "street": "Techthaastu Office, Pt. Mehru Marg, Outer Bharthal Firni road Bharthal Village", "city": "near Govt. Girls senior secondary School", "phone": "08383889042", "website": "https://www.techthaastu.com/", "rating": 5, "review_count": "", "latitude": 28.5403192, "longitude": 77.0524594, "maps_url": "https://www.google.com/maps/place/?q=place_id:0x390d1b8e5b6999a1:0x522ffbc2c7c23362"}, {"place_id": "0x390d1b1fb85c71ed:0x1aa4ba2a08b02c1d", "name": "Tecmicra Solutions - Software, Website Development & Digital Marketing Company", "category": "Software company", "street": "Floor, D410", "city": "3rd", "phone": "07042387253", "website": "https://tecmicra.co.in/", "rating": 5, "review_count": "", "latitude": 28.5849324, "longitude": 77.071085, "maps_url": "https://www.google.com/maps/place/?q=place_id:0x390d1b1fb85c71ed:0x1aa4ba2a08b02c1d"}, {"place_id": "0x390d02e520aee25b:0x322870f3355c7f4b", "name": "Delphi Infotech (Cybersecurity & Cloud Solutions)", "category": "Software company", "street": "225A, D-21", "city": "Corporate Park", "phone": "01145075151", "website": "https://www.delphiinfo.com/", "rating": 4.2, "review_count": "", "latitude": 28.5618181, "longitude": 77.0670596, "maps_url": "https://www.google.com/maps/place/?q=place_id:0x390d02e520aee25b:0x322870f3355c7f4b"}, {"place_id": "0x390d195e4483ae05:0xec67b2579bb38803", "name": "eXtendCode - Software Development Company", "category": "Software company", "street": "Plot 63, Second Floor, Udyog Vihar Phase -1,", "city": "Gurugram, Haryana 122016", "phone": "01244261219", "website": "http://www.extendcode.com/", "rating": 4.1, "review_count": "", "latitude": 28.514535199999997, "longitude": 77.0815075, "maps_url": "https://www.google.com/maps/place/?q=place_id:0x390d195e4483ae05:0xec67b2579bb38803"}, {"place_id": "0x390d19440bc59efb:0xda6549686148f7b4", "name": "PerfectionGeeks Technologies", "category": "Software company", "street": "Plot 378-379, Udyog Vihar Phase 4 Rd", "city": "near nokia building", "phone": "08920947884", "website": "http://www.perfectiongeeks.com/", "rating": 4.9, "review_count": "", "latitude": 28.5002221, "longitude": 77.0730516, "maps_url": "https://www.google.com/maps/place/?q=place_id:0x390d19440bc59efb:0xda6549686148f7b4"}, {"place_id": "0x2a72b8b69d7b6493:0x11251466d4d34cac", "name": "WebZonal IT Company", "category": "Website designer", "street": "Wz-258/2-3, D Block Rd", "city": "Khazan Basti, Nangal Raya, Janakpuri", "phone": "09811170903", "website": "http://webzonal.com/", "rating": 5, "review_count": "", "latitude": 28.6122102, "longitude": 77.11159549999999, "maps_url": "https://www.google.com/maps/place/?q=place_id:0x2a72b8b69d7b6493:0x11251466d4d34cac"}, {"place_id": "0x390d04c0827451cd:0xdd5c02a5efb3fcb8", "name": "DKG Labs Pvt. Ltd.", "category": "Software company", "street": "Corporate Park", "city": "D 21", "phone": "09810805605", "website": "https://www.dkgrouplabs.com/", "rating": 4.2, "review_count": "", "latitude": 28.5618579, "longitude": 77.0674429, "maps_url": "https://www.google.com/maps/place/?q=place_id:0x390d04c0827451cd:0xdd5c02a5efb3fcb8"}, {"place_id": "0x390ce3c153b89811:0xe7a279685777e9ca", "name": "IT Company", "category": "Automation company", "street": "A-14", "city": "near iskcon temple", "phone": "", "website": "http://www.opuswiz.com/", "rating": 3, "review_count": "", "latitude": 28.557167, "longitude": 77.25424819999999, "maps_url": "https://www.google.com/maps/place/?q=place_id:0x390ce3c153b89811:0xe7a279685777e9ca"}, {"place_id": "0x390d19298db2fb35:0xcaa0d46737c4561c", "name": "MLM Software Developer | Sunny citrix", "category": "Software company", "street": "office no 427C, 4th floor, vashisht complex", "city": "Sikanderpur", "phone": "07906059336", "website": "http://sunnycitrix.com/", "rating": 4.8, "review_count": "", "latitude": 28.4816798, "longitude": 77.09770569999999, "maps_url": "https://www.google.com/maps/place/?q=place_id:0x390d19298db2fb35:0xcaa0d46737c4561c"}, {"place_id": "0x390d04c0827451cd:0xdd5c02a5efb3fcb8", "name": "DKG Labs Pvt. Ltd.", "category": "Software company", "street": "Corporate Park", "city": "D 21", "phone": "09810805605", "website": "https://www.dkgrouplabs.com/", "rating": 4.2, "review_count": "", "latitude": 28.5618579, "longitude": 77.0674429, "maps_url": "https://www.google.com/maps/place/?q=place_id:0x390d04c0827451cd:0xdd5c02a5efb3fcb8"}, {"place_id": "0x390cfd00fd453a1b:0x9b04afa48c2538ec", "name": "Inwoin Technologies Pvt. Ltd.", "category": "Software company", "street": "Building No. 309", "city": "310", "phone": "", "website": "http://www.inwoin.com/", "rating": 4.5, "review_count": "", "latitude": 28.4999559, "longitude": 77.07965879999999, "maps_url": "https://www.google.com/maps/place/?q=place_id:0x390cfd00fd453a1b:0x9b04afa48c2538ec"}, {"place_id": "0x390d192f80e784d3:0x2c271ddf93d663b4", "name": "Tranciscolabs | Mobile App Development Company | Web Development Company", "category": "Software company", "street": "Park", "city": "RGREP", "phone": "09580174570", "website": "https://tranciscolabs.com/", "rating": 4.4, "review_count": "", "latitude": 28.4695091, "longitude": 77.06860209999999, "maps_url": "https://www.google.com/maps/place/?q=place_id:0x390d192f80e784d3:0x2c271ddf93d663b4"}, {"place_id": "0x390d1b23e97c2a67:0x27b82d5a0c14861a", "name": "Stryker Security & Staffing Solutions Pvt. Ltd.", "category": "Security service", "street": "First Floor", "city": "984/1, H. Mohalla Shahabad", "phone": "", "website": "http://www.strykerindia.com/", "rating": 4.6, "review_count": "", "latitude": 28.554172599999998, "longitude": 77.0700947, "maps_url": "https://www.google.com/maps/place/?q=place_id:0x390d1b23e97c2a67:0x27b82d5a0c14861a"}, {"place_id": "0x390d19174792f4db:0xcb5f589caa71b6e7", "name": "Knocial India Limited", "category": "Software company", "street": "60B", "city": "Udyog Vihar, Sector 22", "phone": "09354120847", "website": "https://www.knocialindia.com/", "rating": 4.7, "review_count": "", "latitude": 28.504239499999997, "longitude": 77.0651981, "maps_url": "https://www.google.com/maps/place/?q=place_id:0x390d19174792f4db:0xcb5f589caa71b6e7"}, {"place_id": "0x390d198145cf3e03:0xe92b2e4710cf28a4", "name": "Ganga IT Solution Ltd", "category": "Software company", "street": "0390, Phase", "city": "3", "phone": "09899550645", "website": "https://www.gangaitsolution.com/", "rating": 5, "review_count": "", "latitude": 28.5116241, "longitude": 77.0881259, "maps_url": "https://www.google.com/maps/place/?q=place_id:0x390d198145cf3e03:0xe92b2e4710cf28a4"}, {"place_id": "0x390d058eebd4e349:0xe3540cff21ac1db4", "name": "Matrix Infotech Solution | Software Development Company in Delhi", "category": "Software company", "street": "3rd floor, Besmate Indian Bank, housing complex", "city": "Main Market", "phone": "08920817059", "website": "https://www.matrixinfotechsolution.com/", "rating": 5, "review_count": "", "latitude": 28.6165375, "longitude": 77.0282521, "maps_url": "https://www.google.com/maps/place/?q=place_id:0x390d058eebd4e349:0xe3540cff21ac1db4"}, {"place_id": "0x390d19437cb628b3:0x12e71803eb09ac16", "name": "Clavax Technologies", "category": "Software company", "street": "727", "city": "Udyog Vihar, Phase 5", "phone": "+18444252829", "website": "http://www.clavax.com/", "rating": 4.1, "review_count": "", "latitude": 28.5052123, "longitude": 77.0850025, "maps_url": "https://www.google.com/maps/place/?q=place_id:0x390d19437cb628b3:0x12e71803eb09ac16"}, {"place_id": "0x390d1b8d94bfebb9:0xdbd74207ae3d35e7", "name": "SysTools Software Pvt Ltd", "category": "Software company", "street": "City Centre", "city": "528", "phone": "06230830862", "website": "https://www.systoolsgroup.com/", "rating": 4.5, "review_count": "", "latitude": 28.5921344, "longitude": 77.0417265, "maps_url": "https://www.google.com/maps/place/?q=place_id:0x390d1b8d94bfebb9:0xdbd74207ae3d35e7"}, {"place_id": "0x390d1b0076c735ad:0x13551f319095520a", "name": "Aftab IT information technology", "category": "Computer Hardware Company", "street": "C58", "city": "D Block, Kapas Hera Estate", "phone": "", "website": "", "rating": 5, "review_count": "", "latitude": 28.5221669, "longitude": 77.08510989999999, "maps_url": "https://www.google.com/maps/place/?q=place_id:0x390d1b0076c735ad:0x13551f319095520a"}, {"place_id": "0x390d191d0bb8a9db:0xf6295047e107a843", "name": "Robust Infotech - IT Services | Digital Transformation | Best Website/Software Development Company", "category": "Software company", "street": "90B, Delhi - Jaipur Expy", "city": "Nitin Vihar, Udyog Vihar, Sector 18", "phone": "07982914476", "website": "", "rating": 5, "review_count": "", "latitude": 28.441292299999997, "longitude": 77.0148859, "maps_url": "https://www.google.com/maps/place/?q=place_id:0x390d191d0bb8a9db:0xf6295047e107a843"}, {"place_id": "0x390d19316748a39b:0x427bebf40160d8ac", "name": "Construe IT Solutions Pvt. Ltd.", "category": "Software company", "street": "R # 3", "city": "56/10", "phone": "08130713756", "website": "http://www.construesol.com/", "rating": 4, "review_count": "", "latitude": 28.489741799999997, "longitude": 77.0963127, "maps_url": "https://www.google.com/maps/place/?q=place_id:0x390d19316748a39b:0x427bebf40160d8ac"}, {"place_id": "0x390d195c26bfa369:0x69bd8efd2e3a31fe", "name": "Radical Minds Technologies Pvt. Ltd.", "category": "BPO Company", "street": "368", "city": "Phase II, Udyog Vihar, Sector 20", "phone": "01244338366", "website": "http://www.radicalminds.in/", "rating": 4.2, "review_count": "", "latitude": 28.506335099999998, "longitude": 77.0877546, "maps_url": "https://www.google.com/maps/place/?q=place_id:0x390d195c26bfa369:0x69bd8efd2e3a31fe"}, {"place_id": "0x390d191598f48ef3:0x70991b4ff870f05d", "name": "Shree Partners LLC", "category": "Software company", "street": "1, Tower A, Building, Cyber City", "city": "Corporate Edge Level", "phone": "01246728815", "website": "https://www.shreepartners.com/", "rating": 4.3, "review_count": "", "latitude": 28.4936018, "longitude": 77.088325, "maps_url": "https://www.google.com/maps/place/?q=place_id:0x390d191598f48ef3:0x70991b4ff870f05d"}, {"place_id": "0x390d02994de5e515:0xd908bc03409a0d37", "name": "Himalayan IT Solutions | Best Website Designing Company in Delhi | SEO/Digital Marketing Company in Delhi NCR, India", "category": "Software company", "street": "61/4255, Padam Singh Rd", "city": "Block 29, Block 1, Regar Pura, Karol Bagh", "phone": "09899098509", "website": "http://www.himalayanitsolutions.com/", "rating": 3.9, "review_count": "", "latitude": 28.649673999999997, "longitude": 77.186599, "maps_url": "https://www.google.com/maps/place/?q=place_id:0x390d02994de5e515:0xd908bc03409a0d37"}, {"place_id": "0x390d192409eb1411:0xbf1f68f4b2dd1d69", "name": "Appicia Technologies", "category": "Software company", "street": "Third floor", "city": "Ashirwad", "phone": "08076917265", "website": "https://appicia.com/", "rating": 5, "review_count": "", "latitude": 28.4885505, "longitude": 77.01963889999999, "maps_url": "https://www.google.com/maps/place/?q=place_id:0x390d192409eb1411:0xbf1f68f4b2dd1d69"}, {"place_id": "0x390d1ba3411bef1d:0xa19e43663480df1a", "name": "Millennium Aero Dynamics P Ltd New Delhi", "category": "Aerospace company", "street": "Milennium Aero Dynamics Private Limited. Khasra No.349/350, 506/507, Khatoni No.84/76 Near Ramana House, Shahbad Mohammadpur", "city": "New Delhi, 110061", "phone": "01125653203", "website": "http://www.millennium.in/", "rating": 4.6, "review_count": "", "latitude": 28.5537578, "longitude": 77.0748941, "maps_url": "https://www.google.com/maps/place/?q=place_id:0x390d1ba3411bef1d:0xa19e43663480df1a"}, {"place_id": "0x390d05713cbc05f9:0x29ec332097ea9861", "name": "Bluebyte It Solutions", "category": "Software company", "street": "MS-83", "city": "Block MS, Mohan Garden, Uttam Nagar", "phone": "08178838292", "website": "https://www.bluebyteitsolutions.com/", "rating": 5, "review_count": "", "latitude": 28.6289797, "longitude": 77.0335781, "maps_url": "https://www.google.com/maps/place/?q=place_id:0x390d05713cbc05f9:0x29ec332097ea9861"}, {"place_id": "0x448aa981f5f4e8af:0x24d0bd0e978530df", "name": "Tech Rajendra", "category": "Software company", "street": "3rd Floor", "city": "Plot no. 190, Golf Course Rd", "phone": "09540020546", "website": "https://www.techrajendra.com/", "rating": 4.5, "review_count": "", "latitude": 28.586822299999998, "longitude": 77.0276827, "maps_url": "https://www.google.com/maps/place/?q=place_id:0x448aa981f5f4e8af:0x24d0bd0e978530df"}, {"place_id": "0x29182cd90b477205:0xafbdc18388b8d100", "name": "Ananta Technology - IT Company", "category": "Web hosting company", "street": "RZB-214, Old Mehrauli Rd", "city": "Palam Colony, Part - I, Raj Nagar", "phone": "", "website": "https://anantatechnology.com/", "rating": 5, "review_count": "", "latitude": 28.584313899999998, "longitude": 77.0862543, "maps_url": "https://www.google.com/maps/place/?q=place_id:0x29182cd90b477205:0xafbdc18388b8d100"}, {"place_id": "0x390d1946a4b0d01f:0xab23cbaa408b3b9c", "name": "Tagbin Services Pvt. Ltd. \u2013 Best AI & Experiential Tech Company in Gurgaon", "category": "Software company", "street": "3rd Floor, Wing A, Enkay Centre", "city": "Vaniya Kunj", "phone": "08178112682", "website": "https://tagbin.in/", "rating": 4.2, "review_count": "", "latitude": 28.4974691, "longitude": 77.08654609999999, "maps_url": "https://www.google.com/maps/place/?q=place_id:0x390d1946a4b0d01f:0xab23cbaa408b3b9c"}, {"place_id": "0x390d1905cf9418ab:0x68c73ef2c55c6a92", "name": "Dixinfotech | Best Web Development Company in Gurgaon", "category": "Software company", "street": "Plot No. 96, 1st Floor", "city": "Udyog Vihar Phase 1, Sector 20", "phone": "09717106162", "website": "https://www.dixinfotech.com/website-designing-company-in-gurgaon", "rating": 5, "review_count": "", "latitude": 28.5169219, "longitude": 77.0803425, "maps_url": "https://www.google.com/maps/place/?q=place_id:0x390d1905cf9418ab:0x68c73ef2c55c6a92"}, {"place_id": "0x390ce1877a5ef8eb:0xd5abb94a30425144", "name": "Plusone Technologies Private Limited", "category": "Software company", "street": "Phase IV, Udyog Vihar, Sector 18", "city": "Gurugram, Haryana 122015", "phone": "09891387094", "website": "https://www.plusonetech.co/", "rating": 4.7, "review_count": "", "latitude": 28.4941475, "longitude": 77.0808448, "maps_url": "https://www.google.com/maps/place/?q=place_id:0x390ce1877a5ef8eb:0xd5abb94a30425144"}, {"place_id": "0x390d1960c2b8367f:0xd2d30e45ac71acea", "name": "Vorombetech Solutions - Top IT & Digitalization Service Company in Gurugram", "category": "Software company", "street": "249", "city": "Phase IV, Udyog Vihar, Sector 19", "phone": "", "website": "https://vorombetech.com/", "rating": 4.8, "review_count": "", "latitude": 28.4941475, "longitude": 77.0808448, "maps_url": "https://www.google.com/maps/place/?q=place_id:0x390d1960c2b8367f:0xd2d30e45ac71acea"}, {"place_id": "0x390d1b9ddfccb265:0xb589ee8b4aaaa57c", "name": "50 Hertz Limited", "category": "Software company", "street": "Corporate Park", "city": "303, 3rd Floor, D21", "phone": "01140110747", "website": "https://www.50hertz.in/", "rating": 4.6, "review_count": "", "latitude": 28.5618181, "longitude": 77.0670596, "maps_url": "https://www.google.com/maps/place/?q=place_id:0x390d1b9ddfccb265:0xb589ee8b4aaaa57c"}, {"place_id": "0x390d1b0010fc2321:0x12e9154c815cf007", "name": "Prashant Dwivedi IT company", "category": "Warehouse", "street": "G3P5+GVC", "city": "Nayak Pura, Bijwasan", "phone": "", "website": "", "rating": "", "review_count": "", "latitude": 28.536316, "longitude": 77.059649, "maps_url": "https://www.google.com/maps/place/?q=place_id:0x390d1b0010fc2321:0x12e9154c815cf007"}, {"place_id": "0x390d1981bffb1f6b:0xf891b0df53e98e19", "name": "Ketaki Technologies", "category": "Software company", "street": "Pocket F, Sector 2, Palam Vihar", "city": "Gurugram, Haryana 122017", "phone": "09667435592", "website": "https://sites.google.com/view/ketaki-and-rohit-technologies", "rating": 5, "review_count": "", "latitude": 28.5127843, "longitude": 77.0369834, "maps_url": "https://www.google.com/maps/place/?q=place_id:0x390d1981bffb1f6b:0xf891b0df53e98e19"}, {"place_id": "0x390d111d07edf909:0x44e1a4686c7dbfe6", "name": "Eonlint", "category": "Software company", "street": "Street No. 2", "city": "Deenpur, Shyam Vihar Phase-1, Najafgarh", "phone": "", "website": "https://eonlint.com/", "rating": 5, "review_count": "", "latitude": 28.591023099999997, "longitude": 77.0027392, "maps_url": "https://www.google.com/maps/place/?q=place_id:0x390d111d07edf909:0x44e1a4686c7dbfe6"}, {"place_id": "0x390d05c8987801e5:0x128e04dce6c4cbc4", "name": "Matrix Infotech Solution | Software Development Company", "category": "Software company", "street": "j j", "city": "Dwarka Mor, Block WE, Mohan Garden, Razapur Khurd", "phone": "08920817059", "website": "http://www.matrixinfotechsolution.com/", "rating": 3.9, "review_count": "", "latitude": 28.637037, "longitude": 77.0291258, "maps_url": "https://www.google.com/maps/place/?q=place_id:0x390d05c8987801e5:0x128e04dce6c4cbc4"}, {"place_id": "0x390d1be7f1a44f95:0x84524a5425f8930d", "name": "InfraDost Technologies Pvt Ltd.- Microsoft Adobe Corel Draw & Security Solution Provider", "category": "Software company", "street": "Gurgaon - Delhi Expy", "city": "Block B, Mahipalpur Village, Mahipalpur", "phone": "08287792542", "website": "http://www.infradost.com/", "rating": 4.6, "review_count": "", "latitude": 28.5485743, "longitude": 77.1264697, "maps_url": "https://www.google.com/maps/place/?q=place_id:0x390d1be7f1a44f95:0x84524a5425f8930d"}, {"place_id": "0x390d19361c56cecd:0x50517af3dc928d70", "name": "Mycom", "category": "Software company", "street": "7th Floor", "city": "Building 8b", "phone": "01244508000", "website": "http://www.mycom-osi.com/", "rating": 4.3, "review_count": "", "latitude": 28.4982059, "longitude": 77.0900367, "maps_url": "https://www.google.com/maps/place/?q=place_id:0x390d19361c56cecd:0x50517af3dc928d70"}, {"place_id": "0x390ce3b5c2a11543:0xc4df0cd95534bf85", "name": "LimeTray", "category": "Software company", "street": "2nd Floor", "city": "815", "phone": "", "website": "https://limetray.com/", "rating": 3.6, "review_count": "", "latitude": 28.5015508, "longitude": 77.08626919999999, "maps_url": "https://www.google.com/maps/place/?q=place_id:0x390ce3b5c2a11543:0xc4df0cd95534bf85"}, {"place_id": "0x41ddcb5488aa4703:0x5290c64921de1a5b", "name": "Bloatware IT Software Development Company | Game Development | Software Company in delhi", "category": "Software company", "street": "SILVER OAK FARMS", "city": "660, Mehrauli-Gurgaon Rd", "phone": "", "website": "https://bloatwareitsolutions.com/", "rating": 5, "review_count": "", "latitude": 28.4911034, "longitude": 77.1432663, "maps_url": "https://www.google.com/maps/place/?q=place_id:0x41ddcb5488aa4703:0x5290c64921de1a5b"}, {"place_id": "0x20616dbf813c03ef:0xc8fd1ca47f902e9e", "name": "Bloatware IT Software Company | website Designing Company | Software Company | MLM |CRM | Android Apps", "category": "Software company", "street": "C1", "city": "Rama Park", "phone": "08920750797", "website": "https://bloatwareitsolutions.com/", "rating": 4.5, "review_count": "", "latitude": 28.621265599999997, "longitude": 77.0324943, "maps_url": "https://www.google.com/maps/place/?q=place_id:0x20616dbf813c03ef:0xc8fd1ca47f902e9e"}, {"place_id": "0x390d192fc20b97e7:0x3048b25634f6d955", "name": "Nagarro", "category": "Software company", "street": "Plot 6B, Sub. Major Laxmi Chand Rd", "city": "Maruti Udyog, Sector 18", "phone": "", "website": "https://www.nagarro.com/en", "rating": 4.5, "review_count": "", "latitude": 28.491098599999997, "longitude": 77.0673492, "maps_url": "https://www.google.com/maps/place/?q=place_id:0x390d192fc20b97e7:0x3048b25634f6d955"}, {"place_id": "0x390d1b3f00d047f7:0x9b0acbc6decfed67", "name": "VBage Tech", "category": "Software company", "street": "WZ-330", "city": "Palam Village, Palam", "phone": "08383889042", "website": "https://www.vbagetech.com/", "rating": 4.5, "review_count": "", "latitude": 28.589986099999997, "longitude": 77.0768539, "maps_url": "https://www.google.com/maps/place/?q=place_id:0x390d1b3f00d047f7:0x9b0acbc6decfed67"}, {"place_id": "0x390d1b03afd847d1:0x3f8589776214e47b", "name": "Techbizz - IT Solutions", "category": "Software company", "street": "1st floor", "city": "Najafgarh Kapashera Rd", "phone": "08130622472", "website": "", "rating": 5, "review_count": "", "latitude": 28.5325596, "longitude": 77.0540195, "maps_url": "https://www.google.com/maps/place/?q=place_id:0x390d1b03afd847d1:0x3f8589776214e47b"}, {"place_id": "0x390d193854a9b805:0xeb675c7a6d5768f7", "name": "Cvent India", "category": "Software company", "street": "19th Floor Building", "city": "No.14C", "phone": "0008001008934", "website": "https://careers.cvent.com/", "rating": 4.3, "review_count": "", "latitude": 28.4968638, "longitude": 77.0941567, "maps_url": "https://www.google.com/maps/place/?q=place_id:0x390d193854a9b805:0xeb675c7a6d5768f7"}, {"place_id": "0x390d1b2440000001:0x7b52a88f21fc0d82", "name": "DesignDot Technologies | #1 Best Website & App Development | Top Software & AIML Solutions Company in Delhi", "category": "Software company", "street": "RZ 1/13, 3RD FLOOR, Main Road Above HDFC Bank, Dwarka, Near Palam Metro Gate 2", "city": "New Delhi, Delhi 110077", "phone": "09999652812", "website": "https://www.designdot.co.in/", "rating": 5, "review_count": "", "latitude": 28.587238199999998, "longitude": 77.0850727, "maps_url": "https://www.google.com/maps/place/?q=place_id:0x390d1b2440000001:0x7b52a88f21fc0d82"}, {"place_id": "0x390d190b8996b54d:0xa4d9ad7263547701", "name": "Company", "category": "Corporate office", "street": "The Coworking Space", "city": "A-14/15 DLF Phase 1, Sector 26 A Truworx", "phone": "01140844560", "website": "https://www.quickcompany.in/", "rating": 4.1, "review_count": "", "latitude": 28.474366699999997, "longitude": 77.0943154, "maps_url": "https://www.google.com/maps/place/?q=place_id:0x390d190b8996b54d:0xa4d9ad7263547701"}, {"place_id": "0x390d19404f4f65d5:0xc7a5e785eb2e8ef6", "name": "Infodart Technologies Ltd", "category": "Software company", "street": "2nd floor", "city": "plot no 254", "phone": "", "website": "https://www.infodartglobal.com/", "rating": 4, "review_count": "", "latitude": 28.4979135, "longitude": 77.0815518, "maps_url": "https://www.google.com/maps/place/?q=place_id:0x390d19404f4f65d5:0xc7a5e785eb2e8ef6"}, {"place_id": "0x390d1bfd61687473:0x878fa1ec1c9a9d7f", "name": "T&N Business Services Pvt Ltd Delhi", "category": "Business management consultant", "street": "3rd", "city": "E-517", "phone": "09455579997", "website": "http://www.tnservices.in/", "rating": 4.7, "review_count": "", "latitude": 28.584938899999997, "longitude": 77.072231, "maps_url": "https://www.google.com/maps/place/?q=place_id:0x390d1bfd61687473:0x878fa1ec1c9a9d7f"}, {"place_id": "0x390d1a972e7b03ad:0xc2253ede1e6b5dfc", "name": "Knitech Software", "category": "Software company", "street": "G 542", "city": "Qutub Vihar I, Block A, Goyla Village", "phone": "", "website": "", "rating": 4.9, "review_count": "", "latitude": 28.5765618, "longitude": 77.0243346, "maps_url": "https://www.google.com/maps/place/?q=place_id:0x390d1a972e7b03ad:0xc2253ede1e6b5dfc"}, {"place_id": "0x390d1bcd76384d39:0xdb32f9430e255f8e", "name": "WINISHTECH IT SOLUTIONS PRIVATE LIMITED", "category": "Software company", "street": "B1/639 A", "city": "Janakpuri West, Block B1, Janakpuri", "phone": "", "website": "https://winishtechitsolutions.com/", "rating": 5, "review_count": "", "latitude": 28.6324707, "longitude": 77.0857044, "maps_url": "https://www.google.com/maps/place/?q=place_id:0x390d1bcd76384d39:0xdb32f9430e255f8e"}, {"place_id": "0x390d193c3a36e523:0xe68f8d2568faeaad", "name": "Espire Infolabs Pvt. Ltd.", "category": "Software company", "street": "486 & 487", "city": "Phase III, Udyog Vihar III, Sector 20", "phone": "01247173000", "website": "http://www.espire.com/", "rating": 4.1, "review_count": "", "latitude": 28.5119516, "longitude": 77.0899661, "maps_url": "https://www.google.com/maps/place/?q=place_id:0x390d193c3a36e523:0xe68f8d2568faeaad"}, {"place_id": "0x390d193ff211b3fb:0xd964ffb67296e058", "name": "IStrat Software Pvt. Ltd.", "category": "Software company", "street": "90D,", "city": "Udyog Vihar Phase IV, Sector 18", "phone": "01244121000", "website": "", "rating": 3.8, "review_count": "", "latitude": 28.485205399999998, "longitude": 77.0740924, "maps_url": "https://www.google.com/maps/place/?q=place_id:0x390d193ff211b3fb:0xd964ffb67296e058"}, {"place_id": "0x390d1df0721e08c5:0x49d5fd4648a33c2d", "name": "Nibble Software | Website Design & Development | Travel Web API & CRM | SEO, SMO, Paid Ads, Amazon & Flipkart Marketing", "category": "Website designer", "street": "4th Floor", "city": "Moolchand Tower", "phone": "09971066697", "website": "https://www.nibblesoftware.com/", "rating": 4.8, "review_count": "", "latitude": 28.6000862, "longitude": 77.0818018, "maps_url": "https://www.google.com/maps/place/?q=place_id:0x390d1df0721e08c5:0x49d5fd4648a33c2d"}, {"place_id": "0x390d05f43df5b29b:0x857f927e00982d67", "name": "MLM Software Company in Delhi | MLM Software Development", "category": "Software company", "street": "Plot no 198", "city": "Prashant Enclave, Bapraula Extension, Baprola", "phone": "08130287135", "website": "https://www.weblyticsinfotech.com/", "rating": 5, "review_count": "", "latitude": 28.6365546, "longitude": 77.01408649999999, "maps_url": "https://www.google.com/maps/place/?q=place_id:0x390d05f43df5b29b:0x857f927e00982d67"}, {"place_id": "0x390d1bb0ed2b78c9:0xb962a26eb951c969", "name": "New India Structures pvt. ltd", "category": "Civil engineering company", "street": "Main Rd", "city": "Kapas Hera Extension, Samalka", "phone": "01140686630", "website": "", "rating": 4.8, "review_count": "", "latitude": 28.5306568, "longitude": 77.08498519999999, "maps_url": "https://www.google.com/maps/place/?q=place_id:0x390d1bb0ed2b78c9:0xb962a26eb951c969"}, {"place_id": "0x390d1b6c86abf3ed:0xa770fe4e5d681f61", "name": "RAAVTA", "category": "FMCG Manufacturer", "street": "Hno 739", "city": "near saini shiv mandir", "phone": "", "website": "https://www.raavta.com/", "rating": 4.9, "review_count": "", "latitude": 28.5552581, "longitude": 77.0718485, "maps_url": "https://www.google.com/maps/place/?q=place_id:0x390d1b6c86abf3ed:0xa770fe4e5d681f61"}, {"place_id": "0x390d1bf076ad40a5:0x6e54f7930154b26d", "name": "pNthaan: Technologies - Digital Marketing Company in Delhi - Social Media Marketing", "category": "Software company", "street": "D2/15, Dabri - Palam Rd", "city": "Vinod Puri, Block B 3, Vijay Enclave, Mahavir Enclave", "phone": "09810455309", "website": "https://pnthaan.com/", "rating": 4.9, "review_count": "", "latitude": 28.602663399999997, "longitude": 77.0801891, "maps_url": "https://www.google.com/maps/place/?q=place_id:0x390d1bf076ad40a5:0x6e54f7930154b26d"}, {"place_id": "0x390d1baa5989e66b:0x6e0f3fa43b24b658", "name": "Mac Host India", "category": "Website designer", "street": "", "city": "", "phone": "09810052636", "website": "https://machostindia.com/", "rating": 5, "review_count": "", "latitude": 21.0680074, "longitude": 82.7525294, "maps_url": "https://www.google.com/maps/place/?q=place_id:0x390d1baa5989e66b:0x6e0f3fa43b24b658"}, {"place_id": "0x390d055ab880b807:0xcb5c025daa2b2795", "name": "Tech Web Mantra", "category": "Software company", "street": "B-77", "city": "near Dwarka Mor Metro Station", "phone": "09871521039", "website": "https://www.techwebmantra.com/", "rating": 5, "review_count": "", "latitude": 28.614187899999997, "longitude": 77.0362179, "maps_url": "https://www.google.com/maps/place/?q=place_id:0x390d055ab880b807:0xcb5c025daa2b2795"}, {"place_id": "0x390d1959e54e0cdb:0x7120a86a0b29095e", "name": "Gurgaon SEO Company", "category": "Website designer", "street": "First Floor Plot", "city": "270, Udyog Vihar II Rd", "phone": "", "website": "", "rating": 2, "review_count": "", "latitude": 28.5074082, "longitude": 77.08512379999999, "maps_url": "https://www.google.com/maps/place/?q=place_id:0x390d1959e54e0cdb:0x7120a86a0b29095e"}, {"place_id": "0x390d19ad585bba37:0xc7a1380f3c30571a", "name": "Wroffy Technologies Pvt Ltd", "category": "Software company", "street": "304", "city": "Vipul Business Park", "phone": "01244349014", "website": "https://www.wroffy.com/", "rating": 4.3, "review_count": "", "latitude": 28.4226457, "longitude": 77.0376039, "maps_url": "https://www.google.com/maps/place/?q=place_id:0x390d19ad585bba37:0xc7a1380f3c30571a"}, {"place_id": "0x390d19c4f81c373b:0x569790526001fe47", "name": "Pasenture Technologies - Web Development Company in Gurugram, Software Development Company in Gurgaon for CRM & Saas Software", "category": "Software company", "street": "2nd Floor", "city": "90, IDC", "phone": "09717197498", "website": "https://pasenture.in/", "rating": 4, "review_count": "", "latitude": 28.4716508, "longitude": 77.0509349, "maps_url": "https://www.google.com/maps/place/?q=place_id:0x390d19c4f81c373b:0x569790526001fe47"}, {"place_id": "0x390d195b180061c3:0xbc2dc26222ba3801", "name": "Team Computers Pvt Ltd", "category": "Software company", "street": "5th floor", "city": "Plot no. 278", "phone": "18001024200", "website": "https://www.teamcomputers.com/", "rating": 4.3, "review_count": "", "latitude": 28.508890599999997, "longitude": 77.087429, "maps_url": "https://www.google.com/maps/place/?q=place_id:0x390d195b180061c3:0xbc2dc26222ba3801"}, {"place_id": "0x390d19b51e5edf49:0xd17618454eb66b58", "name": "STERLING MANUFACTURING COMPANY", "category": "Manufacturer", "street": "2nd Floor", "city": "249", "phone": "09310644419", "website": "https://sterlingmfgco.com/", "rating": 4.8, "review_count": "", "latitude": 28.498040099999997, "longitude": 77.0824007, "maps_url": "https://www.google.com/maps/place/?q=place_id:0x390d19b51e5edf49:0xd17618454eb66b58"}, {"place_id": "0x390d05f43df5b29b:0x857f927e00982d67", "name": "MLM Software Company in Delhi | MLM Software Development", "category": "Software company", "street": "Plot no 198", "city": "Prashant Enclave, Bapraula Extension, Baprola", "phone": "08130287135", "website": "https://www.weblyticsinfotech.com/", "rating": 5, "review_count": "", "latitude": 28.6365546, "longitude": 77.01408649999999, "maps_url": "https://www.google.com/maps/place/?q=place_id:0x390d05f43df5b29b:0x857f927e00982d67"}, {"place_id": "0x390d1b8d94bfebb9:0xdbd74207ae3d35e7", "name": "SysTools Software Pvt Ltd", "category": "Software company", "street": "City Centre", "city": "528", "phone": "06230830862", "website": "https://www.systoolsgroup.com/", "rating": 4.5, "review_count": "", "latitude": 28.5921344, "longitude": 77.0417265, "maps_url": "https://www.google.com/maps/place/?q=place_id:0x390d1b8d94bfebb9:0xdbd74207ae3d35e7"}, {"place_id": "0x390d1946a4b0d01f:0xab23cbaa408b3b9c", "name": "Tagbin Services Pvt. Ltd. \u2013 Best AI & Experiential Tech Company in Gurgaon", "category": "Software company", "street": "3rd Floor, Wing A, Enkay Centre", "city": "Vaniya Kunj", "phone": "08178112682", "website": "https://tagbin.in/", "rating": 4.2, "review_count": "", "latitude": 28.4974691, "longitude": 77.08654609999999, "maps_url": "https://www.google.com/maps/place/?q=place_id:0x390d1946a4b0d01f:0xab23cbaa408b3b9c"}, {"place_id": "0x390d19ad1703bf49:0x6d83426aaca2113d", "name": "DDT SOFTWARE & ECOMM PVT LTD", "category": "Software company", "street": "512, Udyog Vihar Phase V Rd", "city": "near spaze club building", "phone": "09810944806", "website": "https://www.ddtsoftwareandecommerce.com/", "rating": "", "review_count": "", "latitude": 28.498896, "longitude": 77.0850399, "maps_url": "https://www.google.com/maps/place/?q=place_id:0x390d19ad1703bf49:0x6d83426aaca2113d"}, {"place_id": "0x390d19316748a39b:0x427bebf40160d8ac", "name": "Construe IT Solutions Pvt. Ltd.", "category": "Software company", "street": "R # 3", "city": "56/10", "phone": "08130713756", "website": "http://www.construesol.com/", "rating": 4, "review_count": "", "latitude": 28.489741799999997, "longitude": 77.0963127, "maps_url": "https://www.google.com/maps/place/?q=place_id:0x390d19316748a39b:0x427bebf40160d8ac"}, {"place_id": "0x390d1acf2166c3f7:0xd22dc94b91af35ed", "name": "Purple Audacity Research & Innovation Pvt. Ltd", "category": "Market researcher", "street": "Unit 402", "city": "Corporate Park", "phone": "01128084097", "website": "http://www.purpleaudacity.com/", "rating": 4.5, "review_count": "", "latitude": 28.5629112, "longitude": 77.0676175, "maps_url": "https://www.google.com/maps/place/?q=place_id:0x390d1acf2166c3f7:0xd22dc94b91af35ed"}, {"place_id": "0x390d1ac494680599:0x9d9346abbd7fc498", "name": "Barcode Vaults a true company for rfid and barcode solutions", "category": "Printing equipment supplier", "street": "S-4, Plot No-7", "city": "1030", "phone": "", "website": "https://www.barcodevault.com/", "rating": 4.9, "review_count": "", "latitude": 28.591197899999997, "longitude": 77.04425619999999, "maps_url": "https://www.google.com/maps/place/?q=place_id:0x390d1ac494680599:0x9d9346abbd7fc498"}, {"place_id": "0x390d191598f48ef3:0x70991b4ff870f05d", "name": "Shree Partners LLC", "category": "Software company", "street": "1, Tower A, Building, Cyber City", "city": "Corporate Edge Level", "phone": "01246728815", "website": "https://www.shreepartners.com/", "rating": 4.3, "review_count": "", "latitude": 28.4936018, "longitude": 77.088325, "maps_url": "https://www.google.com/maps/place/?q=place_id:0x390d191598f48ef3:0x70991b4ff870f05d"}, {"place_id": "0x390d1bb72bd328b1:0xd9425539dc10edb3", "name": "SOFT INDIA WEB SOFTWARE DEVELOPMENT PVT LTD", "category": "Software company", "street": "Ground Floor", "city": "A- 107", "phone": "09625503688", "website": "http://www.softindia.in/", "rating": 3.2, "review_count": "", "latitude": 28.587611, "longitude": 77.0704514, "maps_url": "https://www.google.com/maps/place/?q=place_id:0x390d1bb72bd328b1:0xd9425539dc10edb3"}, {"place_id": "0x390d1f4effffffff:0xcfc715ac63417946", "name": "Bechtel India Private Limited", "category": "Corporate office", "street": "244-245", "city": "Phase IV, Udyog Vihar, Knowledge Park", "phone": "01244098000", "website": "http://www.bechtel.com/", "rating": 4.4, "review_count": "", "latitude": 28.4956277, "longitude": 77.0839426, "maps_url": "https://www.google.com/maps/place/?q=place_id:0x390d1f4effffffff:0xcfc715ac63417946"}, {"place_id": "0x390d19454748b5f1:0x930fdb13eea6af9b", "name": "Auquall BPO - Best BPO and BPM company in gurgaon", "category": "BPO Company", "street": "698, Udyog Vihar Phase V Rd", "city": "Phase V, Udyog Vihar, Sector 19", "phone": "09899005897", "website": "", "rating": 4.4, "review_count": "", "latitude": 28.505634099999998, "longitude": 77.0837823, "maps_url": "https://www.google.com/maps/place/?q=place_id:0x390d19454748b5f1:0x930fdb13eea6af9b"}, {"place_id": "0x390d1b7f62671cb1:0x9d53d75be3f61652", "name": "Manikaran Power Limited", "category": "Electric utility company", "street": "3rd Floor, Corporate Park", "city": "301", "phone": "01140408000", "website": "https://manikaranpowerltd.in/", "rating": 4, "review_count": "", "latitude": 28.5618181, "longitude": 77.0670596, "maps_url": "https://www.google.com/maps/place/?q=place_id:0x390d1b7f62671cb1:0x9d53d75be3f61652"}, {"place_id": "0x390d193feaaaaaab:0x7a36da7465a8aea3", "name": "SoftAge Information Technology Limited", "category": "Corporate office", "street": "204", "city": "Phase IV, Udyog Vihar, Sector 18", "phone": "09999886622", "website": "http://www.softage.net/", "rating": 4.3, "review_count": "", "latitude": 28.496942699999998, "longitude": 77.0796953, "maps_url": "https://www.google.com/maps/place/?q=place_id:0x390d193feaaaaaab:0x7a36da7465a8aea3"}, {"place_id": "0x390d1b2440000001:0x7b52a88f21fc0d82", "name": "DesignDot Technologies | #1 Best Website & App Development | Top Software & AIML Solutions Company in Delhi", "category": "Software company", "street": "RZ 1/13, 3RD FLOOR, Main Road Above HDFC Bank, Dwarka, Near Palam Metro Gate 2", "city": "New Delhi, Delhi 110077", "phone": "09999652812", "website": "https://www.designdot.co.in/", "rating": 5, "review_count": "", "latitude": 28.587238199999998, "longitude": 77.0850727, "maps_url": "https://www.google.com/maps/place/?q=place_id:0x390d1b2440000001:0x7b52a88f21fc0d82"}, {"place_id": "0x390d1ba812ffffff:0x66b5edbef8307c8e", "name": "D-Axis Digiweb Solutions", "category": "Website designer", "street": "2nd Floor, Corporate Park", "city": "210A", "phone": "09911305599", "website": "https://daxisdigiweb.com/", "rating": 4.6, "review_count": "", "latitude": 28.5618181, "longitude": 77.0670596, "maps_url": "https://www.google.com/maps/place/?q=place_id:0x390d1ba812ffffff:0x66b5edbef8307c8e"}, {"place_id": "0x390d19916fd475e3:0xab11b8e56af5ef50", "name": "Prometric Technologies Pvt. Ltd.", "category": "Computer Rental Agency", "street": "1/25, DLF Cyber City Rd", "city": "DLF Phase 3, Sector 26", "phone": "09871803096", "website": "https://prometric.co.in/rental-laptop-gurugram/", "rating": 5, "review_count": "", "latitude": 28.4968489, "longitude": 77.0968192, "maps_url": "https://www.google.com/maps/place/?q=place_id:0x390d19916fd475e3:0xab11b8e56af5ef50"}, {"place_id": "0x390d1ba812ffffff:0xdae1c2f5f359f879", "name": "Bee Logistics SCM Private Limited", "category": "Logistics service", "street": "421, 4th Floor", "city": "Corporate Park", "phone": "", "website": "https://www.beelogistics.com/", "rating": 4.8, "review_count": "", "latitude": 28.5618181, "longitude": 77.0670596, "maps_url": "https://www.google.com/maps/place/?q=place_id:0x390d1ba812ffffff:0xdae1c2f5f359f879"}, {"place_id": "0x390d111d07edf909:0x44e1a4686c7dbfe6", "name": "Eonlint", "category": "Software company", "street": "Street No. 2", "city": "Deenpur, Shyam Vihar Phase-1, Najafgarh", "phone": "", "website": "https://eonlint.com/", "rating": 5, "review_count": "", "latitude": 28.591023099999997, "longitude": 77.0027392, "maps_url": "https://www.google.com/maps/place/?q=place_id:0x390d111d07edf909:0x44e1a4686c7dbfe6"}, {"place_id": "0x390d1b3f00d047f7:0x9b0acbc6decfed67", "name": "VBage Tech", "category": "Software company", "street": "WZ-330", "city": "Palam Village, Palam", "phone": "08383889042", "website": "https://www.vbagetech.com/", "rating": 4.5, "review_count": "", "latitude": 28.589986099999997, "longitude": 77.0768539, "maps_url": "https://www.google.com/maps/place/?q=place_id:0x390d1b3f00d047f7:0x9b0acbc6decfed67"}, {"place_id": "0x390d19482ec7af6b:0xce48ba6ad2474bf2", "name": "AVIZVA Solutions Pvt Ltd", "category": "Corporate office", "street": "16th Floor, Building No. 14 Tower D Building", "city": "DLF Cyber City, DLF Phase 3, Sector 25A", "phone": "01246542490", "website": "http://www.avizva.com/", "rating": 3.9, "review_count": "", "latitude": 28.496678799999998, "longitude": 77.0944262, "maps_url": "https://www.google.com/maps/place/?q=place_id:0x390d19482ec7af6b:0xce48ba6ad2474bf2"}]}