{"timestamp": 1773729652.108467, "keyword": "IT company", "location": "delhi", "cell_idx": 119, "results": [{"place_id": "0x390d1fb30dd00ee3:0x77cfd1f858a2b9ee", "name": "Ionic Software Services", "category": "Software company", "street": "B-2/63, Africa Ave", "city": "Block A, Block B 2, Safdarjung Enclave", "phone": "08744941668", "website": "http://www.ionicsoftwares.com/", "rating": 4.7, "review_count": "", "latitude": 28.515873499999998, "longitude": 77.2044335, "maps_url": "https://www.google.com/maps/place/?q=place_id:0x390d1fb30dd00ee3:0x77cfd1f858a2b9ee"}, {"place_id": "0x390ce1224e2234dd:0x7790e7d5f1699ce4", "name": "Razor Infotech Pvt. Ltd. ( IT solutions)", "category": "Software company", "street": "627", "city": "F/F, Westend Marg", "phone": "01145034631", "website": "http://www.razorinfotech.com/", "rating": 4.9, "review_count": "", "latitude": 28.517411, "longitude": 77.198138, "maps_url": "https://www.google.com/maps/place/?q=place_id:0x390ce1224e2234dd:0x7790e7d5f1699ce4"}, {"place_id": "0x390ce1e9a7083cb7:0xe2a6861849a12032", "name": "Manish Gupta", "category": "Computer consultant", "street": "On", "city": "P1A 246 (D-14 Neb Valley", "phone": "09810207228", "website": "", "rating": 4.2, "review_count": "", "latitude": 28.5105653, "longitude": 77.2097086, "maps_url": "https://www.google.com/maps/place/?q=place_id:0x390ce1e9a7083cb7:0xe2a6861849a12032"}, {"place_id": "0x390ce1fb44618b65:0x8e06b2a6128352d1", "name": "Acropolis Infotech - Delhi Office", "category": "Software company", "street": "metro station gate", "city": "55, 2nd Floor, Lane 2", "phone": "09999876593", "website": "https://www.acropolisinfotech.com/", "rating": 4.6, "review_count": "", "latitude": 28.518907, "longitude": 77.2015435, "maps_url": "https://www.google.com/maps/place/?q=place_id:0x390ce1fb44618b65:0x8e06b2a6128352d1"}, {"place_id": "0x390ce11e0c6904fb:0xa9a73edc193f73d3", "name": "RK Company- IT Services, Digital Marketing Agency", "category": "Computer support and services", "street": "402, IGNOU Rd", "city": "Block A 1, Neb Sarai, Sainik Farm", "phone": "09899651824", "website": "https://www.rkcompany.co.in/", "rating": 5, "review_count": "", "latitude": 28.509137199999998, "longitude": 77.20269069999999, "maps_url": "https://www.google.com/maps/place/?q=place_id:0x390ce11e0c6904fb:0xa9a73edc193f73d3"}, {"place_id": "0x390d1fcf6c34ab99:0x285f961d231b2c61", "name": "Aadiyar Infotech Private Limited", "category": "Software company", "street": "1st Floor", "city": "Pannal Building No. 2", "phone": "09810164525", "website": "https://www.aadiyar.in/", "rating": 4.9, "review_count": "", "latitude": 28.487146, "longitude": 77.185315, "maps_url": "https://www.google.com/maps/place/?q=place_id:0x390d1fcf6c34ab99:0x285f961d231b2c61"}, {"place_id": "0x390ce18353e55aaf:0xb7f6a41b1d06a574", "name": "Vikas Gupta - Mobile App & Web developer", "category": "Software company", "street": "Second Floor", "city": "B-12/2", "phone": "09211344427", "website": "https://itcrafterhub.com/mobile-app-web-developer/", "rating": 5, "review_count": "", "latitude": 28.515264799999997, "longitude": 77.20236369999999, "maps_url": "https://www.google.com/maps/place/?q=place_id:0x390ce18353e55aaf:0xb7f6a41b1d06a574"}, {"place_id": "0x390ce1b9de54d101:0xc5184256693b27dd", "name": "LCK Technologies - Website designing development company South Delhi", "category": "Website designer", "street": "439 1st floor", "city": "438", "phone": "09891337955", "website": "https://lckdigitalmedia.in/", "rating": 4.9, "review_count": "", "latitude": 28.5089698, "longitude": 77.20114769999999, "maps_url": "https://www.google.com/maps/place/?q=place_id:0x390ce1b9de54d101:0xc5184256693b27dd"}, {"place_id": "0x390ce458d0000001:0xf2123bd299ec4501", "name": "IT Company India", "category": "Software company", "street": "D56", "city": "D Block, Sector 10", "phone": "09999244854", "website": "https://www.itcompanyindia.in/", "rating": 4.7, "review_count": "", "latitude": 28.589917699999997, "longitude": 77.3351153, "maps_url": "https://www.google.com/maps/place/?q=place_id:0x390ce458d0000001:0xf2123bd299ec4501"}, {"place_id": "0x390ce3ad65de113f:0x86ef029d79b16992", "name": "Spark Eighteen", "category": "Software company", "street": "Khasra No. 316", "city": "Tehsil Hauz Khas", "phone": "09429690818", "website": "https://www.sparkeighteen.com/", "rating": 4.7, "review_count": "", "latitude": 28.517915799999997, "longitude": 77.19866429999999, "maps_url": "https://www.google.com/maps/place/?q=place_id:0x390ce3ad65de113f:0x86ef029d79b16992"}, {"place_id": "0x4215c6da63b4b82f:0x794ba814a6ada964", "name": "Asha Tech | Website Design, App Development & IT Solutions Delhi", "category": "Software company", "street": "no 2", "city": "195, Lane No. 1", "phone": "07531080874", "website": "https://ashatech.co.in/", "rating": 4.7, "review_count": "", "latitude": 28.519994099999998, "longitude": 77.2008791, "maps_url": "https://www.google.com/maps/place/?q=place_id:0x4215c6da63b4b82f:0x794ba814a6ada964"}, {"place_id": "0x390ce1514726729f:0x60863f370d4750c4", "name": "Pantheon digital Pvt Ltd", "category": "Software company", "street": "Plot no. 172 JP house, 3rd floor saidulajab", "city": "2, Westend Marg", "phone": "09354761565", "website": "http://pantheondigitals.com/", "rating": 4.7, "review_count": "", "latitude": 28.519792499999998, "longitude": 77.20081859999999, "maps_url": "https://www.google.com/maps/place/?q=place_id:0x390ce1514726729f:0x60863f370d4750c4"}, {"place_id": "0x390d11040c5dbe09:0xe5cc630877c648b0", "name": "UDESHA TECHNOLOGY", "category": "Software company", "street": "H.in.kh.no 293", "city": "S/f", "phone": "08709918723", "website": "https://udeshatechnology.com/", "rating": 5, "review_count": "", "latitude": 28.5193449, "longitude": 77.2010346, "maps_url": "https://www.google.com/maps/place/?q=place_id:0x390d11040c5dbe09:0xe5cc630877c648b0"}, {"place_id": "0x390ce3c153b89811:0xe7a279685777e9ca", "name": "IT Company", "category": "Automation company", "street": "A-14", "city": "near iskcon temple", "phone": "", "website": "http://www.opuswiz.com/", "rating": 3, "review_count": "", "latitude": 28.557167, "longitude": 77.25424819999999, "maps_url": "https://www.google.com/maps/place/?q=place_id:0x390ce3c153b89811:0xe7a279685777e9ca"}, {"place_id": "0x390ce198484e7555:0xa69474fa579cdff5", "name": "ROBUST ENGINEERING", "category": "Computer repair service", "street": "W4D, 204/5, KESHAV KUNJ CARIPPA MARG", "city": "Western Ave", "phone": "", "website": "", "rating": 3, "review_count": "", "latitude": 28.510252899999998, "longitude": 77.21472419999999, "maps_url": "https://www.google.com/maps/place/?q=place_id:0x390ce198484e7555:0xa69474fa579cdff5"}, {"place_id": "0x390ce227b000003f:0x68c684a3cbf810b", "name": "IT Solution INDIA", "category": "Computer support and services", "street": "Triveni Commercial Complex", "city": "Sheikh Sarai Phase 1, Sheikh Sarai", "phone": "09312209167", "website": "https://itsolutionindia.in/", "rating": 4.8, "review_count": "", "latitude": 28.5364054, "longitude": 77.22372, "maps_url": "https://www.google.com/maps/place/?q=place_id:0x390ce227b000003f:0x68c684a3cbf810b"}, {"place_id": "0x213278d23258ed1:0xda7ca71736196291", "name": "Astha Technologies - Top Mobile App Development Company in Delhi | Android & iOS", "category": "Software company", "street": "2ND FLOOR", "city": "55, LANE-2, Westend Marg", "phone": "", "website": "https://asthatechnologies.org/mobile-app-development-company-delhi/", "rating": 5, "review_count": "", "latitude": 28.518466099999998, "longitude": 77.19880739999999, "maps_url": "https://www.google.com/maps/place/?q=place_id:0x213278d23258ed1:0xda7ca71736196291"}, {"place_id": "0x390ce1a20e94f69d:0xf6c5af89da672917", "name": "Code IT Solutions", "category": "Software company", "street": "E45", "city": "Krishna Park Colony, Khanpur", "phone": "07992249312", "website": "http://codeitsolutionshub.com/", "rating": 4.9, "review_count": "", "latitude": 28.509770999999997, "longitude": 77.23377169999999, "maps_url": "https://www.google.com/maps/place/?q=place_id:0x390ce1a20e94f69d:0xf6c5af89da672917"}, {"place_id": "0x390ce2305c00002d:0x9f7efbacdc0d8271", "name": "ICO WebTech Pvt. Ltd. - Website Designing Company in Delhi", "category": "Website designer", "street": "J E 5, Ground Floor, Khirki Extension, Malviya Nagar", "city": "New Delhi, Delhi 110017", "phone": "08447380262", "website": "https://www.icowebsolutions.com/", "rating": 4.6, "review_count": "", "latitude": 28.535594, "longitude": 77.21577099999999, "maps_url": "https://www.google.com/maps/place/?q=place_id:0x390ce2305c00002d:0x9f7efbacdc0d8271"}, {"place_id": "0x390ce1e331a6dbab:0xb7a8e8264028b8c0", "name": "All In One IT Solutions", "category": "Corporate office", "street": "2, Westend Marg", "city": "Butterfly Park, Saiyad Ul Ajaib Village, Saket", "phone": "07042981226", "website": "", "rating": 4.8, "review_count": "", "latitude": 28.5178196, "longitude": 77.1982848, "maps_url": "https://www.google.com/maps/place/?q=place_id:0x390ce1e331a6dbab:0xb7a8e8264028b8c0"}, {"place_id": "0x390d1e08d71a257f:0xea4e129d751fc99", "name": "Sukrit Infotech", "category": "Software company", "street": "1043 Ward No 8 1042/2D 2nd Floor Mehrauli Near Babar Building", "city": "Mehrauli", "phone": "01145607265", "website": "http://www.sukritinfotech.com/", "rating": 4.5, "review_count": "", "latitude": 28.517589599999997, "longitude": 77.1802435, "maps_url": "https://www.google.com/maps/place/?q=place_id:0x390d1e08d71a257f:0xea4e129d751fc99"}, {"place_id": "0x390ce3c50d455555:0x625e4cf2def0b6ac", "name": "Infonative Solutions Limited", "category": "Computer support and services", "street": "107, 108", "city": "DLF South Court", "phone": "08448141818", "website": "https://infonative.net/", "rating": 4.7, "review_count": "", "latitude": 28.5274255, "longitude": 77.2209031, "maps_url": "https://www.google.com/maps/place/?q=place_id:0x390ce3c50d455555:0x625e4cf2def0b6ac"}, {"place_id": "0x390ce1dde9b455eb:0x7e117e619e01fd0e", "name": "Bring Innovations - Digital Marketing Agency in India, SEO Company, ORM Company, Social Media Agency India", "category": "Computer support and services", "street": "DBlock", "city": "H313", "phone": "09318306625", "website": "https://bringinnovations.com/", "rating": "", "review_count": "", "latitude": 28.5131336, "longitude": 77.2066778, "maps_url": "https://www.google.com/maps/place/?q=place_id:0x390ce1dde9b455eb:0x7e117e619e01fd0e"}, {"place_id": "0x390ce1ee17fe6f05:0x55186edcd4dd7513", "name": "Seven India IT Consulting", "category": "Software company", "street": "A 48, 1st Floor, Freedom Fighters Enclave, IGNOU Road", "city": "New Delhi, Delhi 110068", "phone": "", "website": "", "rating": 3.6, "review_count": "", "latitude": 28.512038, "longitude": 77.202288, "maps_url": "https://www.google.com/maps/place/?q=place_id:0x390ce1ee17fe6f05:0x55186edcd4dd7513"}, {"place_id": "0x390ce1bef0c8c071:0xb0a64e46c6405fc6", "name": "Tech rise dynamics", "category": "Website designer", "street": "293, Lane-2, Westend Marg", "city": "near Saket Metro Station", "phone": "08750557052", "website": "https://www.techrisedynamics.com/", "rating": 5, "review_count": "", "latitude": 28.5177321, "longitude": 77.1986237, "maps_url": "https://www.google.com/maps/place/?q=place_id:0x390ce1bef0c8c071:0xb0a64e46c6405fc6"}, {"place_id": "0x390ce38f903de9fd:0x60b75e3dc7d3fb1b", "name": "iTech Mission Private Limited (iTM)", "category": "Software company", "street": "4th Floor, Saira Tower", "city": "Gulmohar Commercial Complex", "phone": "", "website": "http://www.itechmission.org/", "rating": 5, "review_count": "", "latitude": 28.557895499999997, "longitude": 77.20812099999999, "maps_url": "https://www.google.com/maps/place/?q=place_id:0x390ce38f903de9fd:0x60b75e3dc7d3fb1b"}, {"place_id": "0x390ce3ad10000061:0xeff7e6017a22cce7", "name": "Alpinesoft IT Solutions Authorized Google Workspace Reseller", "category": "Software company", "street": "162/9 Ist Floor, KIshangarh - Gaushala Marg", "city": "Lakhi Nath Kuti, Mehrauli, Vasant Kunj", "phone": "09999011157", "website": "https://www.alpinesoftit.com/", "rating": 4.3, "review_count": "", "latitude": 28.515394399999998, "longitude": 77.16460359999999, "maps_url": "https://www.google.com/maps/place/?q=place_id:0x390ce3ad10000061:0xeff7e6017a22cce7"}, {"place_id": "0x390d1e2fed1eed4b:0x101cd24533e257fa", "name": "SOFTLIFE Technologies Pvt. Ltd.", "category": "Software company", "street": "B-2, Block", "city": "Road", "phone": "09045199841", "website": "", "rating": 4.4, "review_count": "", "latitude": 28.4929925, "longitude": 77.18445489999999, "maps_url": "https://www.google.com/maps/place/?q=place_id:0x390d1e2fed1eed4b:0x101cd24533e257fa"}, {"place_id": "0x390ce1e0b346f477:0x8e689b120a2f04b5", "name": "A. N. Technologies", "category": "Computer repair service", "street": "Freedom Fighter Enclave, Shop No. 10, Gate No. 4, Ignou Road", "city": "Neb Sarai", "phone": "09811467653", "website": "http://antechnologies.info/", "rating": 4, "review_count": "", "latitude": 28.507541999999997, "longitude": 77.1995759, "maps_url": "https://www.google.com/maps/place/?q=place_id:0x390ce1e0b346f477:0x8e689b120a2f04b5"}, {"place_id": "0x390d1e26841f4029:0xbed40d3c611d8d6", "name": "SAY 2 GET iT", "category": "Software company", "street": "83 E", "city": "DR Ambedkar Colony, Chattarpur Enclave, Chhatarpur", "phone": "09319051305", "website": "http://www.say2getit.com/", "rating": 5, "review_count": "", "latitude": 28.5028699, "longitude": 77.1887764, "maps_url": "https://www.google.com/maps/place/?q=place_id:0x390d1e26841f4029:0xbed40d3c611d8d6"}, {"place_id": "0x390ce5fdcc79e755:0x309ce99251b84ef6", "name": "Optyminds IT Solutions - Top AI and IT company I Best Digital agency in Noida | Delhi NCR | India", "category": "Software company", "street": "1st Floor", "city": "B-70", "phone": "08929075975", "website": "https://optyminds.com/", "rating": 4.9, "review_count": "", "latitude": 28.584679599999998, "longitude": 77.3135042, "maps_url": "https://www.google.com/maps/place/?q=place_id:0x390ce5fdcc79e755:0x309ce99251b84ef6"}, {"place_id": "0x390d1df079759d1f:0x8bfa70033f6c672a", "name": "NR Technoserve Pvt. Ltd.", "category": "Software company", "street": "133, Katwaria Sarai", "city": "Phase-2, Qutab Institutional Area", "phone": "07289096762", "website": "http://www.nrtechnoserve.co.in/", "rating": 4.4, "review_count": "", "latitude": 28.5413306, "longitude": 77.18495519999999, "maps_url": "https://www.google.com/maps/place/?q=place_id:0x390d1df079759d1f:0x8bfa70033f6c672a"}, {"place_id": "0x390d1f5abfb25fe1:0x7d9c4d5e159f2955", "name": "Jaimru Technology Pvt Ltd", "category": "Software company", "street": "WARD NO. 2", "city": "Plot No. 178 M 33 A/1", "phone": "07838153420", "website": "https://www.jaimru.com/", "rating": 4.9, "review_count": "", "latitude": 28.524347499999998, "longitude": 77.1731889, "maps_url": "https://www.google.com/maps/place/?q=place_id:0x390d1f5abfb25fe1:0x7d9c4d5e159f2955"}, {"place_id": "0x390ce1ce534cb1e5:0x39fe77c42bc52616", "name": "ITeSolution- Odoo ERP , Mobile/Web Application Development Software Company in Noida, Delhi NCR India.", "category": "Software company", "street": "RZ60/9", "city": "T/F, Tughlakabad Extension, Tughlakabad", "phone": "09889294124", "website": "https://www.itesolution.co.in/", "rating": 4.9, "review_count": "", "latitude": 28.520523899999997, "longitude": 77.2570535, "maps_url": "https://www.google.com/maps/place/?q=place_id:0x390ce1ce534cb1e5:0x39fe77c42bc52616"}, {"place_id": "0xa3f7b500ba6bee9b:0xbf6f44de92b28de", "name": "Yuvocreations Private Limited ( \u092f\u0941\u0935\u094b\u0915\u094d\u0930\u093f\u090f\u0936\u0928\u094d\u0938 \u092a\u094d\u0930\u093e\u0907\u0935\u0947\u091f \u0932\u093f\u092e\u093f\u091f\u0947\u0921 ) - Website Designing & Digital Marketing Agency", "category": "Software company", "street": "Lane no.4", "city": "Khasra no. 258, Westend Marg", "phone": "07042123166", "website": "https://yuvocreations.com/", "rating": 5, "review_count": "", "latitude": 28.5169774, "longitude": 77.19925789999999, "maps_url": "https://www.google.com/maps/place/?q=place_id:0xa3f7b500ba6bee9b:0xbf6f44de92b28de"}, {"place_id": "0x390ce1e507220a51:0xfe74ede7645b1fd1", "name": "Yash Infinite Solutions Private Limited", "category": "Software company", "street": "South of Saket", "city": "B-39, IGNOU Rd", "phone": "09810464978", "website": "", "rating": 4, "review_count": "", "latitude": 28.5157003, "longitude": 77.2033136, "maps_url": "https://www.google.com/maps/place/?q=place_id:0x390ce1e507220a51:0xfe74ede7645b1fd1"}, {"place_id": "0x390ce152d0187bd7:0x57cf1bfd84679298", "name": "SysBud Software", "category": "Software company", "street": "Saket", "city": "New Delhi, Delhi 110017", "phone": "08860519860", "website": "https://www.sysbud.com/", "rating": 5, "review_count": "", "latitude": 28.522156799999998, "longitude": 77.2101691, "maps_url": "https://www.google.com/maps/place/?q=place_id:0x390ce152d0187bd7:0x57cf1bfd84679298"}, {"place_id": "0x390ce1eb97206b71:0x13a9b777a272547b", "name": "AMPL", "category": "Business administration service", "street": "198, Cariappa Marg", "city": "City Forest Hauzrani, Sainik Farm", "phone": "09716889528", "website": "https://alkof.com/", "rating": 4.4, "review_count": "", "latitude": 28.5128071, "longitude": 77.2138387, "maps_url": "https://www.google.com/maps/place/?q=place_id:0x390ce1eb97206b71:0x13a9b777a272547b"}, {"place_id": "0x390ce11068dacbdd:0xac4070cb73f9c1b1", "name": "Reedham It solutions pvt ltd", "category": "Software company", "street": "1297B, H 16 Rd", "city": "Block G 1, Talimabad, Sangam Vihar", "phone": "01146012950", "website": "http://reedhamitsolution.com/", "rating": 5, "review_count": "", "latitude": 28.5017906, "longitude": 77.25404069999999, "maps_url": "https://www.google.com/maps/place/?q=place_id:0x390ce11068dacbdd:0xac4070cb73f9c1b1"}, {"place_id": "0x390d1e186527b451:0x3d552630d3703e21", "name": "Inca Infotech Technologies Pvt Ltd", "category": "Computer support and services", "street": "D-23/405, UGF", "city": "100 Feet Rd", "phone": "18008891907", "website": "https://www.incainfotech.com/", "rating": 3.6, "review_count": "", "latitude": 28.506226899999998, "longitude": 77.1850521, "maps_url": "https://www.google.com/maps/place/?q=place_id:0x390d1e186527b451:0x3d552630d3703e21"}, {"place_id": "0x390d1f43f6442193:0xa633a2795caaaf9a", "name": "iT EXPERT", "category": "Computer support and services", "street": "Plot No 165", "city": "near by C.R.C Building", "phone": "09643205555", "website": "https://it-expert.grexa.site/", "rating": 5, "review_count": "", "latitude": 28.496751, "longitude": 77.163401, "maps_url": "https://www.google.com/maps/place/?q=place_id:0x390d1f43f6442193:0xa633a2795caaaf9a"}, {"place_id": "0x390ce17b94309bbf:0x2a7be4bbd23e8470", "name": "Nexinfotech", "category": "Software company", "street": "Gali No. 5", "city": "Block J 1, Devli, Sangam Vihar", "phone": "09319089231", "website": "https://nexinfotech.com/", "rating": 5, "review_count": "", "latitude": 28.4901479, "longitude": 77.2463212, "maps_url": "https://www.google.com/maps/place/?q=place_id:0x390ce17b94309bbf:0x2a7be4bbd23e8470"}, {"place_id": "0x390cfcb0fa00a53f:0x2c4569671b7ebbf7", "name": "Cloudespacio | Salesforce & Cloud Consulting Company in India", "category": "Software company", "street": "2nd floor", "city": "55", "phone": "09958584825", "website": "http://www.cloudespacio.com/", "rating": 4.3, "review_count": "", "latitude": 28.5177321, "longitude": 77.1986237, "maps_url": "https://www.google.com/maps/place/?q=place_id:0x390cfcb0fa00a53f:0x2c4569671b7ebbf7"}, {"place_id": "0x390d1e468f7d999f:0x51b6337f3c5de23e", "name": "Smartechedu", "category": "Educational institution", "street": "135, IGNOU Rd", "city": "near HDFC bank", "phone": "", "website": "https://shareandaware.com/", "rating": 4.8, "review_count": "", "latitude": 28.506852799999997, "longitude": 77.19993579999999, "maps_url": "https://www.google.com/maps/place/?q=place_id:0x390d1e468f7d999f:0x51b6337f3c5de23e"}, {"place_id": "0x2a72b8b69d7b6493:0x11251466d4d34cac", "name": "WebZonal IT Company", "category": "Website designer", "street": "Wz-258/2-3, D Block Rd", "city": "Khazan Basti, Nangal Raya, Janakpuri", "phone": "09811170903", "website": "http://webzonal.com/", "rating": 5, "review_count": "", "latitude": 28.6122102, "longitude": 77.11159549999999, "maps_url": "https://www.google.com/maps/place/?q=place_id:0x2a72b8b69d7b6493:0x11251466d4d34cac"}, {"place_id": "0x390ce1db87a55681:0x3ed43e2a189abcb9", "name": "Wisdom Techseal Private Limited", "category": "Civil engineering company", "street": "Freedom Fighter Cultural Center", "city": "B-1 (GF, IGNOU Rd", "phone": "07011673568", "website": "http://wisdomtechseal.com/", "rating": 3.7, "review_count": "", "latitude": 28.5103755, "longitude": 77.2011216, "maps_url": "https://www.google.com/maps/place/?q=place_id:0x390ce1db87a55681:0x3ed43e2a189abcb9"}, {"place_id": "0x390ce1656fbb7b65:0x7f0e4b2c21935a5c", "name": "Lynkit Solutions Pvt. Ltd.", "category": "Software company", "street": "246", "city": "Block A, Okhla Phase I, Okhla Industrial Estate", "phone": "01140824028", "website": "http://www.lynkit.in/", "rating": 4.3, "review_count": "", "latitude": 28.5254729, "longitude": 77.2754985, "maps_url": "https://www.google.com/maps/place/?q=place_id:0x390ce1656fbb7b65:0x7f0e4b2c21935a5c"}, {"place_id": "0x390ce276958f566d:0x1385e2d059fccb17", "name": "Wozo Gaming", "category": "Software company", "street": "A-5, Saket Cultural Complex", "city": "Innov8 Old Fort Delhi Fort", "phone": "", "website": "https://www.wozogaming.com/", "rating": 4.4, "review_count": "", "latitude": 28.527122, "longitude": 77.21670999999999, "maps_url": "https://www.google.com/maps/place/?q=place_id:0x390ce276958f566d:0x1385e2d059fccb17"}, {"place_id": "0x390ce19b69a89b0f:0x5b5c42aea7ad4171", "name": "Dotflick", "category": "Consultant", "street": "62-A, Lane 2 Kehar Singh Estate", "city": "Westend Marg", "phone": "09871383058", "website": "http://www.dotflick.com/", "rating": 4.8, "review_count": "", "latitude": 28.517891199999998, "longitude": 77.19944869999999, "maps_url": "https://www.google.com/maps/place/?q=place_id:0x390ce19b69a89b0f:0x5b5c42aea7ad4171"}, {"place_id": "0x390d1b07026ba363:0xd4c5b999d660acd4", "name": "Delhi Digital Co.", "category": "Website designer", "street": "4th Floor", "city": "F42", "phone": "09205110208", "website": "https://delhidigital.co/", "rating": 4.8, "review_count": "", "latitude": 28.5196887, "longitude": 77.2034056, "maps_url": "https://www.google.com/maps/place/?q=place_id:0x390d1b07026ba363:0xd4c5b999d660acd4"}, {"place_id": "0x41ddcb5488aa4703:0x5290c64921de1a5b", "name": "Bloatware IT Software Development Company | Game Development | Software Company in delhi", "category": "Software company", "street": "SILVER OAK FARMS", "city": "660, Mehrauli-Gurgaon Rd", "phone": "", "website": "https://bloatwareitsolutions.com/", "rating": 5, "review_count": "", "latitude": 28.4911034, "longitude": 77.1432663, "maps_url": "https://www.google.com/maps/place/?q=place_id:0x41ddcb5488aa4703:0x5290c64921de1a5b"}, {"place_id": "0x390ce76d462a5367:0xcef42880726bddb0", "name": "Egniol Group Of Companies - Delhi", "category": "Legal services", "street": "1st Floor, 274 Saidulajab Extn", "city": "ZO Space", "phone": "08585098585", "website": "https://egniol.co.in/", "rating": 3.7, "review_count": "", "latitude": 28.5176454, "longitude": 77.1985399, "maps_url": "https://www.google.com/maps/place/?q=place_id:0x390ce76d462a5367:0xcef42880726bddb0"}, {"place_id": "0x390ce1bffe3a44f9:0x26475c19026d6da3", "name": "InTechNative Systems & Services LLP", "category": "Software company", "street": "55", "city": "Lane 2, Westend Marg", "phone": "", "website": "https://www.intechnative.com/", "rating": "", "review_count": "", "latitude": 28.5194208, "longitude": 77.20088179999999, "maps_url": "https://www.google.com/maps/place/?q=place_id:0x390ce1bffe3a44f9:0x26475c19026d6da3"}, {"place_id": "0x390ce3c8e5555555:0xc908f703f65324ea", "name": "Vinayak Compserve Pvt.Ltd", "category": "Computer service", "street": "220", "city": "Sant Nagar, East of Kailash", "phone": "01126430397", "website": "https://vinayakit.com/", "rating": 3.7, "review_count": "", "latitude": 28.5536721, "longitude": 77.2494229, "maps_url": "https://www.google.com/maps/place/?q=place_id:0x390ce3c8e5555555:0xc908f703f65324ea"}, {"place_id": "0x390ce1b674452737:0x522e9a99e2f3f649", "name": "SettleMint India Services Pvt Ltd", "category": "Corporate office", "street": "241, Westend Marg", "city": "Saidulajab, Mittal Garden, Sainik Farm", "phone": "", "website": "http://www.settlemint.com/", "rating": 5, "review_count": "", "latitude": 28.5158302, "longitude": 77.1959911, "maps_url": "https://www.google.com/maps/place/?q=place_id:0x390ce1b674452737:0x522e9a99e2f3f649"}, {"place_id": "0x390d1fb9b19cd7d7:0x2febfba590f33428", "name": "Corapana Technologies - Mobile App Development and Web Design Development Company Delhi", "category": "Software company", "street": "Ground floor", "city": "D-23", "phone": "08295242621", "website": "https://corapana.com/", "rating": 4.8, "review_count": "", "latitude": 28.496378999999997, "longitude": 77.17898, "maps_url": "https://www.google.com/maps/place/?q=place_id:0x390d1fb9b19cd7d7:0x2febfba590f33428"}, {"place_id": "0x390cfd9627f1ef6f:0x2ceaf9a99dfc7b29", "name": "QuaintX Innovations", "category": "Software company", "street": "3rd Floor, Building", "city": "125, Savitri Nagar Rd", "phone": "07015149213", "website": "https://quaintx.com/", "rating": 5, "review_count": "", "latitude": 28.5394647, "longitude": 77.21983519999999, "maps_url": "https://www.google.com/maps/place/?q=place_id:0x390cfd9627f1ef6f:0x2ceaf9a99dfc7b29"}, {"place_id": "0x390d1fa3012fc911:0x744bd65a8adfff31", "name": "Navya IT Solutions", "category": "Computer service", "street": "", "city": "", "phone": "08810694288", "website": "", "rating": 5, "review_count": "", "latitude": 28.520186, "longitude": 77.179158, "maps_url": "https://www.google.com/maps/place/?q=place_id:0x390d1fa3012fc911:0x744bd65a8adfff31"}, {"place_id": "0x390ce3cfe91504eb:0x55346c5c499223d7", "name": "CCS Computers Private Limited", "category": "Computer support and services", "street": "2nd-3rd Floor Skipper House", "city": "Nehru Place", "phone": "01126463959", "website": "http://www.ccscomputers.co.in/", "rating": 4, "review_count": "", "latitude": 28.550090599999997, "longitude": 77.2537834, "maps_url": "https://www.google.com/maps/place/?q=place_id:0x390ce3cfe91504eb:0x55346c5c499223d7"}, {"place_id": "0x390ce3d606c913ef:0xd246bd5631eb2cad", "name": "Delvetech", "category": "Software company", "street": "87A/1, 3rd Floor, Opp. Block N-115, G.K-1, Near Moolchand Merto", "city": "Block B, Zamrudpur, Greater Kailash", "phone": "09873895154", "website": "http://www.delvetech.co.in/", "rating": 4.1, "review_count": "", "latitude": 28.5570597, "longitude": 77.2356981, "maps_url": "https://www.google.com/maps/place/?q=place_id:0x390ce3d606c913ef:0xd246bd5631eb2cad"}, {"place_id": "0x390ce1e37290a49d:0x9842e5d808e820bb", "name": "Radical Reflex", "category": "Design agency", "street": "A1/3, IGNOU Rd", "city": "opp. Vishal Mega Mart", "phone": "09818488606", "website": "https://www.radicalreflex.com/", "rating": 4.4, "review_count": "", "latitude": 28.5099985, "longitude": 77.20191369999999, "maps_url": "https://www.google.com/maps/place/?q=place_id:0x390ce1e37290a49d:0x9842e5d808e820bb"}, {"place_id": "0x390ce1e92eec0d49:0x8b4c598e70e40b8", "name": "Kito Infocom Pvt. Ltd", "category": "Internet marketing service", "street": "2nd Floor", "city": "B-38", "phone": "08826845665", "website": "https://kitoinfocom.com/", "rating": 4.6, "review_count": "", "latitude": 28.5302415, "longitude": 77.2719123, "maps_url": "https://www.google.com/maps/place/?q=place_id:0x390ce1e92eec0d49:0x8b4c598e70e40b8"}, {"place_id": "0x390ce14c8ef0539d:0xcde78f68bd4b851b", "name": "KNAP ADVISORY Company Registration and Compliance Service", "category": "Consultant", "street": "Metro Station", "city": "LGF, Building No. 2, Lane", "phone": "09311972982", "website": "https://knapadvisory.com/", "rating": 5, "review_count": "", "latitude": 28.519864799999997, "longitude": 77.201016, "maps_url": "https://www.google.com/maps/place/?q=place_id:0x390ce14c8ef0539d:0xcde78f68bd4b851b"}, {"place_id": "0x390ce1e46aaaaaab:0x302980deb83c7405", "name": "Media Today Group", "category": "Corporate office", "street": "J-73, IGNOU Rd", "city": "Block J, Paryavaran Complex, Sainik Farm", "phone": "", "website": "http://www.mediatoday.in/", "rating": 3.9, "review_count": "", "latitude": 28.513198199999998, "longitude": 77.2027268, "maps_url": "https://www.google.com/maps/place/?q=place_id:0x390ce1e46aaaaaab:0x302980deb83c7405"}, {"place_id": "0x390d02337530318f:0xe8adda0df0312a6b", "name": "RocketTech", "category": "Website designer", "street": "3rd Floor", "city": "Plot 7, Lane Number 2", "phone": "09911113222", "website": "", "rating": 4, "review_count": "", "latitude": 28.519697299999997, "longitude": 77.2010404, "maps_url": "https://www.google.com/maps/place/?q=place_id:0x390d02337530318f:0xe8adda0df0312a6b"}, {"place_id": "0x390ce1c2c1561abd:0x572bf828b6f6cd76", "name": "Vedic Jal", "category": "Food & Beverage Exporter", "street": "Koto House, Anugya FMCG Industries, E-153, Forest Ln", "city": "Club Rd", "phone": "09810152726", "website": "http://www.vedicjal.com/", "rating": 4.4, "review_count": "", "latitude": 28.5084995, "longitude": 77.2088874, "maps_url": "https://www.google.com/maps/place/?q=place_id:0x390ce1c2c1561abd:0x572bf828b6f6cd76"}, {"place_id": "0x390ce1e74d561139:0x2637208202cd0a5b", "name": "Enhance Lifestyle", "category": "Manufacturer", "street": "178, IGNOU Rd", "city": "Pocket E, Neb Sarai, Sainik Farm", "phone": "", "website": "http://enhancelifestyle.com/", "rating": 3.7, "review_count": "", "latitude": 28.5084476, "longitude": 77.20084899999999, "maps_url": "https://www.google.com/maps/place/?q=place_id:0x390ce1e74d561139:0x2637208202cd0a5b"}, {"place_id": "0x390ce1be2d2a7377:0x5020cce4790298e1", "name": "AJWA KAIF PVT LTD", "category": "Computer support and services", "street": "Ground Floor", "city": "Khirki Vill", "phone": "01142502100", "website": "https://www.ajwakaif.com/", "rating": 5, "review_count": "", "latitude": 28.5309287, "longitude": 77.2194186, "maps_url": "https://www.google.com/maps/place/?q=place_id:0x390ce1be2d2a7377:0x5020cce4790298e1"}, {"place_id": "0x390d1d8abe87c1dd:0x8e1470a4ae907540", "name": "VARINDIA", "category": "Publisher", "street": "VAR House, A-84A/3, Rose Apartment, Paryavaran Complex", "city": "IGNOU Road", "phone": "09818928406", "website": "https://www.varindia.com/", "rating": 4.5, "review_count": "", "latitude": 28.514659599999998, "longitude": 77.20497209999999, "maps_url": "https://www.google.com/maps/place/?q=place_id:0x390d1d8abe87c1dd:0x8e1470a4ae907540"}, {"place_id": "0x390ce1e5e96fffff:0x6904aca38dbb253e", "name": "Rhombus Studio", "category": "Website designer", "street": "Flat no. 8, B-121 B, Side A, Paryavaran Complex", "city": "Near IGNOU Road", "phone": "09718201851", "website": "", "rating": 5, "review_count": "", "latitude": 28.5142088, "longitude": 77.2048113, "maps_url": "https://www.google.com/maps/place/?q=place_id:0x390ce1e5e96fffff:0x6904aca38dbb253e"}, {"place_id": "0x390ce1e268b09f31:0xa344c68dd63d174e", "name": "Smart Safety India", "category": "Security system supplier", "street": "A-96/37", "city": "near Saket Metro Station", "phone": "09205009768", "website": "https://www.smartsafetyindia.in/", "rating": 4.4, "review_count": "", "latitude": 28.520099599999998, "longitude": 77.2030128, "maps_url": "https://www.google.com/maps/place/?q=place_id:0x390ce1e268b09f31:0xa344c68dd63d174e"}, {"place_id": "0x390ce1977e11a51b:0xbfde097a1d13c4c0", "name": "KNK & COMPANY CA CHARTERED ACCOUNTANT", "category": "Certified public accountant", "street": "B-61, Freedom Fighter Enclave IGNOU Main Road Block B, Neb Sarai, Sainik Farm", "city": "Saket", "phone": "09643386726", "website": "http://caknk.com/", "rating": 4.5, "review_count": "", "latitude": 28.510083899999998, "longitude": 77.1993171, "maps_url": "https://www.google.com/maps/place/?q=place_id:0x390ce1977e11a51b:0xbfde097a1d13c4c0"}, {"place_id": "0x390ce1d17c41aa1f:0xff23cf5cc8e126a9", "name": "NAVEL STUDIO ( DIGITAL MARKETING COMPANY )", "category": "Advertising agency", "street": "C45, first floor", "city": "Chattarpur Enclave, phase 2", "phone": "08684990313", "website": "http://www.navelstudio.com/", "rating": 5, "review_count": "", "latitude": 28.5025332, "longitude": 77.2022994, "maps_url": "https://www.google.com/maps/place/?q=place_id:0x390ce1d17c41aa1f:0xff23cf5cc8e126a9"}, {"place_id": "0x390ce1eb1a50de33:0xfac85e9e604e8895", "name": "4Achievers", "category": "Software Training Institute", "street": "First Floor", "city": "Sheesham Courtyard", "phone": "", "website": "https://www.4achievers.com/training-institute-in-delhi-course", "rating": 5, "review_count": "", "latitude": 28.5196273, "longitude": 77.2059761, "maps_url": "https://www.google.com/maps/place/?q=place_id:0x390ce1eb1a50de33:0xfac85e9e604e8895"}, {"place_id": "0x390cfba04cd4e5b5:0x1794d397bcc11df1", "name": "Tushar Dixit Films/Studios", "category": "Video production service", "street": "A-31", "city": "Neb Valley, Sainik Farm", "phone": "09654593781", "website": "http://www.tushardixitfilms.com/", "rating": 4.7, "review_count": "", "latitude": 28.512204699999998, "longitude": 77.20531179999999, "maps_url": "https://www.google.com/maps/place/?q=place_id:0x390cfba04cd4e5b5:0x1794d397bcc11df1"}, {"place_id": "0x390ce1eafea83c2d:0xaab870e4203b17b1", "name": "Holidays At", "category": "Tour operator", "street": "198, Khirki Extn Colony", "city": "Cariappa Marg, M.B Road, Near Sainik Farm", "phone": "09911788187", "website": "https://www.holidaysat.com/", "rating": 4.8, "review_count": "", "latitude": 28.510851, "longitude": 77.215014, "maps_url": "https://www.google.com/maps/place/?q=place_id:0x390ce1eafea83c2d:0xaab870e4203b17b1"}, {"place_id": "0x390ce10a842c89cd:0x14de4238f53d5978", "name": "Vent Events and Entertainment Pvt.Ltd", "category": "Event management company", "street": "Paryavaran Complex", "city": "J-61, IGNOU Rd", "phone": "09717344749", "website": "", "rating": 5, "review_count": "", "latitude": 28.5142088, "longitude": 77.2048113, "maps_url": "https://www.google.com/maps/place/?q=place_id:0x390ce10a842c89cd:0x14de4238f53d5978"}, {"place_id": "0x390ce1e3c0266d39:0x94f65931489482cb", "name": "RepIndia", "category": "Internet marketing service", "street": "Ground Floor, 3rd & 4th Floor", "city": "JP House", "phone": "09818350700", "website": "https://www.repindia.com/agency/digital-marketing-agency-in-delhi/", "rating": 4.3, "review_count": "", "latitude": 28.5197589, "longitude": 77.2007507, "maps_url": "https://www.google.com/maps/place/?q=place_id:0x390ce1e3c0266d39:0x94f65931489482cb"}, {"place_id": "0x390cc1c430303251:0xa6f918f5af4a200d", "name": "Traffic Tail", "category": "Website designer", "street": "floor, B - 15, KH", "city": "1st", "phone": "08770247277", "website": "https://traffictail.com/", "rating": 4.8, "review_count": "", "latitude": 28.5174269, "longitude": 77.1983134, "maps_url": "https://www.google.com/maps/place/?q=place_id:0x390cc1c430303251:0xa6f918f5af4a200d"}, {"place_id": "0x390ce1a9d86ad6cf:0xe7074c0862833e71", "name": "TSE Shaft Elevator Pvt Ltd", "category": "Elevator Manufacturer", "street": "Metro Station-Saket", "city": "Shop No.02, opposite Blue Tokai, Champa gali", "phone": "09971022555", "website": "https://tseelevators.com/", "rating": 5, "review_count": "", "latitude": 28.517422, "longitude": 77.1998352, "maps_url": "https://www.google.com/maps/place/?q=place_id:0x390ce1a9d86ad6cf:0xe7074c0862833e71"}, {"place_id": "0x390ce1e46aaaaaab:0x302980deb83c7405", "name": "Media Today Group", "category": "Corporate office", "street": "J-73, IGNOU Rd", "city": "Block J, Paryavaran Complex, Sainik Farm", "phone": "", "website": "http://www.mediatoday.in/", "rating": 3.9, "review_count": "", "latitude": 28.513198199999998, "longitude": 77.2027268, "maps_url": "https://www.google.com/maps/place/?q=place_id:0x390ce1e46aaaaaab:0x302980deb83c7405"}, {"place_id": "0x390d02337530318f:0xe8adda0df0312a6b", "name": "RocketTech", "category": "Website designer", "street": "3rd Floor", "city": "Plot 7, Lane Number 2", "phone": "09911113222", "website": "", "rating": 4, "review_count": "", "latitude": 28.519697299999997, "longitude": 77.2010404, "maps_url": "https://www.google.com/maps/place/?q=place_id:0x390d02337530318f:0xe8adda0df0312a6b"}, {"place_id": "0x390ce1c2c1561abd:0x572bf828b6f6cd76", "name": "Vedic Jal", "category": "Food & Beverage Exporter", "street": "Koto House, Anugya FMCG Industries, E-153, Forest Ln", "city": "Club Rd", "phone": "09810152726", "website": "http://www.vedicjal.com/", "rating": 4.4, "review_count": "", "latitude": 28.5084995, "longitude": 77.2088874, "maps_url": "https://www.google.com/maps/place/?q=place_id:0x390ce1c2c1561abd:0x572bf828b6f6cd76"}, {"place_id": "0x390ce1e74d561139:0x2637208202cd0a5b", "name": "Enhance Lifestyle", "category": "Manufacturer", "street": "178, IGNOU Rd", "city": "Pocket E, Neb Sarai, Sainik Farm", "phone": "", "website": "http://enhancelifestyle.com/", "rating": 3.7, "review_count": "", "latitude": 28.5084476, "longitude": 77.20084899999999, "maps_url": "https://www.google.com/maps/place/?q=place_id:0x390ce1e74d561139:0x2637208202cd0a5b"}, {"place_id": "0x390ce1be2d2a7377:0x5020cce4790298e1", "name": "AJWA KAIF PVT LTD", "category": "Computer support and services", "street": "Ground Floor", "city": "Khirki Vill", "phone": "01142502100", "website": "https://www.ajwakaif.com/", "rating": 5, "review_count": "", "latitude": 28.5309287, "longitude": 77.2194186, "maps_url": "https://www.google.com/maps/place/?q=place_id:0x390ce1be2d2a7377:0x5020cce4790298e1"}, {"place_id": "0x390d1d8abe87c1dd:0x8e1470a4ae907540", "name": "VARINDIA", "category": "Publisher", "street": "VAR House, A-84A/3, Rose Apartment, Paryavaran Complex", "city": "IGNOU Road", "phone": "09818928406", "website": "https://www.varindia.com/", "rating": 4.5, "review_count": "", "latitude": 28.514659599999998, "longitude": 77.20497209999999, "maps_url": "https://www.google.com/maps/place/?q=place_id:0x390d1d8abe87c1dd:0x8e1470a4ae907540"}, {"place_id": "0x390ce1e5e96fffff:0x6904aca38dbb253e", "name": "Rhombus Studio", "category": "Website designer", "street": "Flat no. 8, B-121 B, Side A, Paryavaran Complex", "city": "Near IGNOU Road", "phone": "09718201851", "website": "", "rating": 5, "review_count": "", "latitude": 28.5142088, "longitude": 77.2048113, "maps_url": "https://www.google.com/maps/place/?q=place_id:0x390ce1e5e96fffff:0x6904aca38dbb253e"}, {"place_id": "0x390ce1e268b09f31:0xa344c68dd63d174e", "name": "Smart Safety India", "category": "Security system supplier", "street": "A-96/37", "city": "near Saket Metro Station", "phone": "09205009768", "website": "https://www.smartsafetyindia.in/", "rating": 4.4, "review_count": "", "latitude": 28.520099599999998, "longitude": 77.2030128, "maps_url": "https://www.google.com/maps/place/?q=place_id:0x390ce1e268b09f31:0xa344c68dd63d174e"}, {"place_id": "0x8335ecf853715cbf:0x10d99fb1fba2b0a8", "name": "Oceonic IT Solution Pvt Ltd", "category": "Software company", "street": "C14 C Block", "city": "JVTS Garden, Block A1, Chhatarpur", "phone": "08874000083", "website": "https://www.oceonic.co/", "rating": 3, "review_count": "", "latitude": 28.496824699999998, "longitude": 77.1828704, "maps_url": "https://www.google.com/maps/place/?q=place_id:0x8335ecf853715cbf:0x10d99fb1fba2b0a8"}, {"place_id": "0x390ce1977e11a51b:0xbfde097a1d13c4c0", "name": "KNK & COMPANY CA CHARTERED ACCOUNTANT", "category": "Certified public accountant", "street": "B-61, Freedom Fighter Enclave IGNOU Main Road Block B, Neb Sarai, Sainik Farm", "city": "Saket", "phone": "09643386726", "website": "http://caknk.com/", "rating": 4.5, "review_count": "", "latitude": 28.510083899999998, "longitude": 77.1993171, "maps_url": "https://www.google.com/maps/place/?q=place_id:0x390ce1977e11a51b:0xbfde097a1d13c4c0"}, {"place_id": "0x390ce1d17c41aa1f:0xff23cf5cc8e126a9", "name": "NAVEL STUDIO ( DIGITAL MARKETING COMPANY )", "category": "Advertising agency", "street": "C45, first floor", "city": "Chattarpur Enclave, phase 2", "phone": "08684990313", "website": "http://www.navelstudio.com/", "rating": 5, "review_count": "", "latitude": 28.5025332, "longitude": 77.2022994, "maps_url": "https://www.google.com/maps/place/?q=place_id:0x390ce1d17c41aa1f:0xff23cf5cc8e126a9"}, {"place_id": "0x390ce1eb1a50de33:0xfac85e9e604e8895", "name": "4Achievers", "category": "Software Training Institute", "street": "First Floor", "city": "Sheesham Courtyard", "phone": "", "website": "https://www.4achievers.com/training-institute-in-delhi-course", "rating": 5, "review_count": "", "latitude": 28.5196273, "longitude": 77.2059761, "maps_url": "https://www.google.com/maps/place/?q=place_id:0x390ce1eb1a50de33:0xfac85e9e604e8895"}, {"place_id": "0x390cfba04cd4e5b5:0x1794d397bcc11df1", "name": "Tushar Dixit Films/Studios", "category": "Video production service", "street": "A-31", "city": "Neb Valley, Sainik Farm", "phone": "09654593781", "website": "http://www.tushardixitfilms.com/", "rating": 4.7, "review_count": "", "latitude": 28.512204699999998, "longitude": 77.20531179999999, "maps_url": "https://www.google.com/maps/place/?q=place_id:0x390cfba04cd4e5b5:0x1794d397bcc11df1"}, {"place_id": "0x390ce1eafea83c2d:0xaab870e4203b17b1", "name": "Holidays At", "category": "Tour operator", "street": "198, Khirki Extn Colony", "city": "Cariappa Marg, M.B Road, Near Sainik Farm", "phone": "09911788187", "website": "https://www.holidaysat.com/", "rating": 4.8, "review_count": "", "latitude": 28.510851, "longitude": 77.215014, "maps_url": "https://www.google.com/maps/place/?q=place_id:0x390ce1eafea83c2d:0xaab870e4203b17b1"}, {"place_id": "0x390ce10a842c89cd:0x14de4238f53d5978", "name": "Vent Events and Entertainment Pvt.Ltd", "category": "Event management company", "street": "Paryavaran Complex", "city": "J-61, IGNOU Rd", "phone": "09717344749", "website": "", "rating": 5, "review_count": "", "latitude": 28.5142088, "longitude": 77.2048113, "maps_url": "https://www.google.com/maps/place/?q=place_id:0x390ce10a842c89cd:0x14de4238f53d5978"}, {"place_id": "0x390ce1e3c0266d39:0x94f65931489482cb", "name": "RepIndia", "category": "Internet marketing service", "street": "Ground Floor, 3rd & 4th Floor", "city": "JP House", "phone": "09818350700", "website": "https://www.repindia.com/agency/digital-marketing-agency-in-delhi/", "rating": 4.3, "review_count": "", "latitude": 28.5197589, "longitude": 77.2007507, "maps_url": "https://www.google.com/maps/place/?q=place_id:0x390ce1e3c0266d39:0x94f65931489482cb"}, {"place_id": "0x390cc1c430303251:0xa6f918f5af4a200d", "name": "Traffic Tail", "category": "Website designer", "street": "floor, B - 15, KH", "city": "1st", "phone": "08770247277", "website": "https://traffictail.com/", "rating": 4.8, "review_count": "", "latitude": 28.5174269, "longitude": 77.1983134, "maps_url": "https://www.google.com/maps/place/?q=place_id:0x390cc1c430303251:0xa6f918f5af4a200d"}, {"place_id": "0x390ce1a9d86ad6cf:0xe7074c0862833e71", "name": "TSE Shaft Elevator Pvt Ltd", "category": "Elevator Manufacturer", "street": "Metro Station-Saket", "city": "Shop No.02, opposite Blue Tokai, Champa gali", "phone": "09971022555", "website": "https://tseelevators.com/", "rating": 5, "review_count": "", "latitude": 28.517422, "longitude": 77.1998352, "maps_url": "https://www.google.com/maps/place/?q=place_id:0x390ce1a9d86ad6cf:0xe7074c0862833e71"}, {"place_id": "0x390d1dcc98a0092f:0xab3a0fca3e26d087", "name": "Retake Studios - Video Production and Corporate Film Company in Delhi NCR", "category": "Video production service", "street": "UG-3", "city": "D112/A", "phone": "07053738831", "website": "", "rating": 5, "review_count": "", "latitude": 28.5071905, "longitude": 77.1967669, "maps_url": "https://www.google.com/maps/place/?q=place_id:0x390d1dcc98a0092f:0xab3a0fca3e26d087"}, {"place_id": "0x390ce1ce684548ed:0xc68fc87f703bce05", "name": "Axnode Immigration | Best Immigration Company in Delhi", "category": "Immigration & naturalization service", "street": "Third Floor", "city": "Building Number - 62A", "phone": "", "website": "https://www.axnodeimmigration.com/", "rating": 4.8, "review_count": 48, "latitude": 28.5196616, "longitude": 77.2003983, "maps_url": "https://www.google.com/maps/place/?q=place_id:0x390ce1ce684548ed:0xc68fc87f703bce05"}]}