{"timestamp": 1773730303.1371741, "keyword": "IT company", "location": "delhi", "cell_idx": 218, "results": [{"place_id": "0x390d1d97321fe647:0xa6cee18fe7d42d2b", "name": "SISL Infotech Pvt Ltd", "category": "Corporate office", "street": "81/1, 2nd Floor, Aurobindo Tower, Sri Aurobindo Marg, Adchini", "city": "Malviya Nagar", "phone": "01126700800", "website": "https://www.sislinfotech.com/", "rating": 4, "review_count": "", "latitude": 28.5353031, "longitude": 77.1985926, "maps_url": "https://www.google.com/maps/place/?q=place_id:0x390d1d97321fe647:0xa6cee18fe7d42d2b"}, {"place_id": "0x390ce1fb44618b65:0x8e06b2a6128352d1", "name": "Acropolis Infotech - Delhi Office", "category": "Software company", "street": "metro station gate", "city": "55, 2nd Floor, Lane 2", "phone": "09999876593", "website": "https://www.acropolisinfotech.com/", "rating": 4.6, "review_count": "", "latitude": 28.518907, "longitude": 77.2015435, "maps_url": "https://www.google.com/maps/place/?q=place_id:0x390ce1fb44618b65:0x8e06b2a6128352d1"}, {"place_id": "0x390ce2305c00002d:0x9f7efbacdc0d8271", "name": "ICO WebTech Pvt. Ltd. - Website Designing Company in Delhi", "category": "Website designer", "street": "J E 5, Ground Floor, Khirki Extension, Malviya Nagar", "city": "New Delhi, Delhi 110017", "phone": "08447380262", "website": "https://www.icowebsolutions.com/", "rating": 4.6, "review_count": "", "latitude": 28.535594, "longitude": 77.21577099999999, "maps_url": "https://www.google.com/maps/place/?q=place_id:0x390ce2305c00002d:0x9f7efbacdc0d8271"}, {"place_id": "0x390ce458d0000001:0xf2123bd299ec4501", "name": "IT Company India", "category": "Software company", "street": "D56", "city": "D Block, Sector 10", "phone": "09999244854", "website": "https://www.itcompanyindia.in/", "rating": 4.7, "review_count": "", "latitude": 28.589917699999997, "longitude": 77.3351153, "maps_url": "https://www.google.com/maps/place/?q=place_id:0x390ce458d0000001:0xf2123bd299ec4501"}, {"place_id": "0x390ce322e1c10175:0x200ef5cf95d4921", "name": "Dawki Infotech", "category": "Computer support and services", "street": "LGF, L-30B", "city": "Block H 6, Block L, Malviya Nagar", "phone": "08076096255", "website": "https://www.dawkiinfotech.com/", "rating": 5, "review_count": "", "latitude": 28.5321377, "longitude": 77.2103083, "maps_url": "https://www.google.com/maps/place/?q=place_id:0x390ce322e1c10175:0x200ef5cf95d4921"}, {"place_id": "0x390ce3c153b89811:0xe7a279685777e9ca", "name": "IT Company", "category": "Automation company", "street": "A-14", "city": "near iskcon temple", "phone": "", "website": "http://www.opuswiz.com/", "rating": 3, "review_count": "", "latitude": 28.557167, "longitude": 77.25424819999999, "maps_url": "https://www.google.com/maps/place/?q=place_id:0x390ce3c153b89811:0xe7a279685777e9ca"}, {"place_id": "0x390ce3ae697970e9:0x8f17da213c364e35", "name": "Intello Tech AMC Pvt. Ltd.", "category": "Solar Energy Company", "street": "64", "city": "Navjeevan Vihar, basement", "phone": "09999085951", "website": "https://intello.co.in/", "rating": 5, "review_count": "", "latitude": 28.533801999999998, "longitude": 77.20024099999999, "maps_url": "https://www.google.com/maps/place/?q=place_id:0x390ce3ae697970e9:0x8f17da213c364e35"}, {"place_id": "0x390ce200d4a8781b:0x4811b2590260a7fe", "name": "RPD Software", "category": "Website designer", "street": "3rd Floor", "city": "97/1, Sri Aurobindo Marg", "phone": "08090706048", "website": "https://rpdsoftware.com/", "rating": 5, "review_count": "", "latitude": 28.538255699999997, "longitude": 77.19827599999999, "maps_url": "https://www.google.com/maps/place/?q=place_id:0x390ce200d4a8781b:0x4811b2590260a7fe"}, {"place_id": "0x390d1df079759d1f:0x8bfa70033f6c672a", "name": "NR Technoserve Pvt. Ltd.", "category": "Software company", "street": "133, Katwaria Sarai", "city": "Phase-2, Qutab Institutional Area", "phone": "07289096762", "website": "http://www.nrtechnoserve.co.in/", "rating": 4.4, "review_count": "", "latitude": 28.5413306, "longitude": 77.18495519999999, "maps_url": "https://www.google.com/maps/place/?q=place_id:0x390d1df079759d1f:0x8bfa70033f6c672a"}, {"place_id": "0x390ce215e75887b3:0xf194ea308e7cc827", "name": "ASA Corporate Catalyst India Pvt Ltd", "category": "Business management consultant", "street": "Aurobindo Tower, 81/1, Third Floor", "city": "Sri Aurobindo Marg", "phone": "01141009999", "website": "https://www.asa.in/", "rating": 4.4, "review_count": "", "latitude": 28.5355869, "longitude": 77.1980914, "maps_url": "https://www.google.com/maps/place/?q=place_id:0x390ce215e75887b3:0xf194ea308e7cc827"}, {"place_id": "0x4215c6da63b4b82f:0x794ba814a6ada964", "name": "Asha Tech | Website Design, App Development & IT Solutions Delhi", "category": "Software company", "street": "no 2", "city": "195, Lane No. 1", "phone": "07531080874", "website": "https://ashatech.co.in/", "rating": 4.7, "review_count": "", "latitude": 28.519994099999998, "longitude": 77.2008791, "maps_url": "https://www.google.com/maps/place/?q=place_id:0x4215c6da63b4b82f:0x794ba814a6ada964"}, {"place_id": "0x390ce3d3caa305a3:0x25daafe821cab590", "name": "NITA INFOTECH", "category": "Website designer", "street": "Gupta Colony, Khirki Extension, Malviya Nagar", "city": "New Delhi, Delhi 110017", "phone": "09582699555", "website": "https://nitainfotech.com/", "rating": 5, "review_count": "", "latitude": 28.5346342, "longitude": 77.2169517, "maps_url": "https://www.google.com/maps/place/?q=place_id:0x390ce3d3caa305a3:0x25daafe821cab590"}, {"place_id": "0x390ce12a669e824d:0xb0190490e7489d83", "name": "Minfotech India", "category": "Computer support and services", "street": "F-463/1", "city": "near PNB", "phone": "08010104747", "website": "https://www.minfotechindia.com/", "rating": 4.9, "review_count": "", "latitude": 28.523636399999997, "longitude": 77.1933018, "maps_url": "https://www.google.com/maps/place/?q=place_id:0x390ce12a669e824d:0xb0190490e7489d83"}, {"place_id": "0x390ce3a3791e8ba3:0x74574336bb46e255", "name": "Netcom System Services", "category": "Computer store", "street": "Basement", "city": "F-2/10", "phone": "09810769990", "website": "https://www.netcomsystem.in/", "rating": 4.9, "review_count": "", "latitude": 28.530354799999998, "longitude": 77.2087616, "maps_url": "https://www.google.com/maps/place/?q=place_id:0x390ce3a3791e8ba3:0x74574336bb46e255"}, {"place_id": "0x390ce21c24e85b2f:0xf80cd35fedbc3cea", "name": "Cyberspace Networking Systems (P) Ltd.", "category": "Website designer", "street": "NIL-36C, Shvalik, DDA Flats, Malviya Nagar", "city": "New Delhi, Delhi 110017", "phone": "01141892901", "website": "http://www.cyberspace.in/", "rating": 3.9, "review_count": "", "latitude": 28.534816, "longitude": 77.21120789999999, "maps_url": "https://www.google.com/maps/place/?q=place_id:0x390ce21c24e85b2f:0xf80cd35fedbc3cea"}, {"place_id": "0x390d1ed3c6e9f579:0x322eccdb00f350d2", "name": "Techjockey", "category": "Software company", "street": "Ground floor, Habitat India", "city": "C-3", "phone": "01142213003", "website": "https://www.techjockey.com/", "rating": 4, "review_count": "", "latitude": 28.536615299999998, "longitude": 77.1902978, "maps_url": "https://www.google.com/maps/place/?q=place_id:0x390d1ed3c6e9f579:0x322eccdb00f350d2"}, {"place_id": "0x390d1f5abfb25fe1:0x7d9c4d5e159f2955", "name": "Jaimru Technology Pvt Ltd", "category": "Software company", "street": "WARD NO. 2", "city": "Plot No. 178 M 33 A/1", "phone": "07838153420", "website": "https://www.jaimru.com/", "rating": 4.9, "review_count": "", "latitude": 28.524347499999998, "longitude": 77.1731889, "maps_url": "https://www.google.com/maps/place/?q=place_id:0x390d1f5abfb25fe1:0x7d9c4d5e159f2955"}, {"place_id": "0x390ce209862e9b9b:0x8a6b2a4334884f77", "name": "T9L", "category": "Software company", "street": "C-7, 2nd floor", "city": "SDA commercial complex", "phone": "", "website": "http://www.t9l.com/", "rating": 4.8, "review_count": "", "latitude": 28.546775999999998, "longitude": 77.1969742, "maps_url": "https://www.google.com/maps/place/?q=place_id:0x390ce209862e9b9b:0x8a6b2a4334884f77"}, {"place_id": "0x390ce38c7b099e73:0x67e2f44f03aed561", "name": "Compact IT Solution Delhi", "category": "Computer repair service", "street": "", "city": "", "phone": "09891330157", "website": "http://compactitsolutions.com/", "rating": 4.8, "review_count": "", "latitude": 28.593317499999998, "longitude": 77.1721882, "maps_url": "https://www.google.com/maps/place/?q=place_id:0x390ce38c7b099e73:0x67e2f44f03aed561"}, {"place_id": "0x390ce1f700000001:0xff8e31165bb9abad", "name": "DeviceDisk", "category": "Software company", "street": "2nd Floor, Building No. 40A", "city": "S-212", "phone": "09873015155", "website": "http://www.devicedisk.in/", "rating": 4.7, "review_count": "", "latitude": 28.538749, "longitude": 77.214867, "maps_url": "https://www.google.com/maps/place/?q=place_id:0x390ce1f700000001:0xff8e31165bb9abad"}, {"place_id": "0x390d1f5abfb25fe1:0x7d9c4d5e159f2955", "name": "Jaimru Technology Pvt Ltd", "category": "Software company", "street": "WARD NO. 2", "city": "Plot No. 178 M 33 A/1", "phone": "07838153420", "website": "https://www.jaimru.com/", "rating": 4.9, "review_count": "", "latitude": 28.524347499999998, "longitude": 77.1731889, "maps_url": "https://www.google.com/maps/place/?q=place_id:0x390d1f5abfb25fe1:0x7d9c4d5e159f2955"}, {"place_id": "0x390ce209862e9b9b:0x8a6b2a4334884f77", "name": "T9L", "category": "Software company", "street": "C-7, 2nd floor", "city": "SDA commercial complex", "phone": "", "website": "http://www.t9l.com/", "rating": 4.8, "review_count": "", "latitude": 28.546775999999998, "longitude": 77.1969742, "maps_url": "https://www.google.com/maps/place/?q=place_id:0x390ce209862e9b9b:0x8a6b2a4334884f77"}, {"place_id": "0x390ce21e692e0283:0xa33efbc3468a3d7d", "name": "Tally Software Services", "category": "Software company", "street": "C 220/4, Savtri Nagar, Malviya Nagar", "city": "New Delhi, Delhi 110017", "phone": "09810311011", "website": "", "rating": 3.8, "review_count": "", "latitude": 28.533087, "longitude": 77.2128759, "maps_url": "https://www.google.com/maps/place/?q=place_id:0x390ce21e692e0283:0xa33efbc3468a3d7d"}, {"place_id": "0x390ce38c7b099e73:0x67e2f44f03aed561", "name": "Compact IT Solution Delhi", "category": "Computer repair service", "street": "", "city": "", "phone": "09891330157", "website": "http://compactitsolutions.com/", "rating": 4.8, "review_count": "", "latitude": 28.593317499999998, "longitude": 77.1721882, "maps_url": "https://www.google.com/maps/place/?q=place_id:0x390ce38c7b099e73:0x67e2f44f03aed561"}, {"place_id": "0x390ce1f700000001:0xff8e31165bb9abad", "name": "DeviceDisk", "category": "Software company", "street": "2nd Floor, Building No. 40A", "city": "S-212", "phone": "09873015155", "website": "http://www.devicedisk.in/", "rating": 4.7, "review_count": "", "latitude": 28.538749, "longitude": 77.214867, "maps_url": "https://www.google.com/maps/place/?q=place_id:0x390ce1f700000001:0xff8e31165bb9abad"}, {"place_id": "0x390ce21e692e0283:0xe1908ca6b243ae5", "name": "Satyam Solutions Pvt. Ltd.", "category": "Software company", "street": "Plot No. 11A", "city": "2nd Floor", "phone": "09810311011", "website": "https://www.satyamsolutions.com/", "rating": 5, "review_count": "", "latitude": 28.539084199999998, "longitude": 77.21761289999999, "maps_url": "https://www.google.com/maps/place/?q=place_id:0x390ce21e692e0283:0xe1908ca6b243ae5"}, {"place_id": "0x390ce37b9922e619:0x1b129b058c32a4c3", "name": "H N Protech Private Limited", "category": "Security system supplier", "street": "1st Floor", "city": "96A, Sri Aurobindo Marg", "phone": "08510006933", "website": "https://www.hnprotech.com/", "rating": 4.9, "review_count": "", "latitude": 28.538199799999997, "longitude": 77.1982043, "maps_url": "https://www.google.com/maps/place/?q=place_id:0x390ce37b9922e619:0x1b129b058c32a4c3"}, {"place_id": "0xa51e0bc2cfc4aa49:0x97a18c082ce84697", "name": "Harnium Business Solutions", "category": "Website designer", "street": "Basement", "city": "B-26, Shivalik Rd", "phone": "09817873494", "website": "https://harnium.com/", "rating": 5, "review_count": "", "latitude": 28.5346214, "longitude": 77.20742609999999, "maps_url": "https://www.google.com/maps/place/?q=place_id:0xa51e0bc2cfc4aa49:0x97a18c082ce84697"}, {"place_id": "0x390ce39307063999:0xb115a5e9663792f0", "name": "Eagle Hunter Solutions Limited", "category": "Security guard service", "street": "61, Kalu Sarai Rd, Sarvpriya vihar", "city": "61, Kalu Sarai Rd", "phone": "01140748000", "website": "https://eaglehuntersgroup.com/", "rating": 4, "review_count": "", "latitude": 28.542211499999997, "longitude": 77.2036753, "maps_url": "https://www.google.com/maps/place/?q=place_id:0x390ce39307063999:0xb115a5e9663792f0"}, {"place_id": "0x390ce1bef0c8c071:0xb0a64e46c6405fc6", "name": "Tech rise dynamics", "category": "Website designer", "street": "293, Lane-2, Westend Marg", "city": "near Saket Metro Station", "phone": "08750557052", "website": "https://www.techrisedynamics.com/", "rating": 5, "review_count": "", "latitude": 28.5177321, "longitude": 77.1986237, "maps_url": "https://www.google.com/maps/place/?q=place_id:0x390ce1bef0c8c071:0xb0a64e46c6405fc6"}, {"place_id": "0x390ce10bc03ef455:0x83ef81c8ac017208", "name": "Exclserv Solutions LLP", "category": "Computer support and services", "street": "2nd Floor", "city": "F-210, Old M B Road", "phone": "07011095516", "website": "http://www.exclserv.in/", "rating": 5, "review_count": "", "latitude": 28.5238187, "longitude": 77.1942159, "maps_url": "https://www.google.com/maps/place/?q=place_id:0x390ce10bc03ef455:0x83ef81c8ac017208"}, {"place_id": "0x390ce3735a20b02f:0xb0eb9504b16d34c9", "name": "The Computer Mega Store", "category": "Computer store", "street": "D-272 Basement", "city": "Block D, Sarvodaya Enclave", "phone": "09599123584", "website": "https://www.thecomputermegastore.com/", "rating": 4.7, "review_count": "", "latitude": 28.537421499999997, "longitude": 77.2036493, "maps_url": "https://www.google.com/maps/place/?q=place_id:0x390ce3735a20b02f:0xb0eb9504b16d34c9"}, {"place_id": "0x390d1dd51ec826eb:0x9c069ebb7ed86ed5", "name": "Synergy Corporate Interiors Pvt. Ltd", "category": "Interior designer", "street": "No. 4, Entry from Gate", "city": "C-162, Basement", "phone": "01141768208", "website": "https://www.synergyce.com/", "rating": 4.9, "review_count": "", "latitude": 28.5380014, "longitude": 77.2026205, "maps_url": "https://www.google.com/maps/place/?q=place_id:0x390d1dd51ec826eb:0x9c069ebb7ed86ed5"}, {"place_id": "0x390ce23eeab015ab:0x92d6a7e8dbc46e1a", "name": "Odyssey Website Development Company", "category": "Website designer", "street": "B-59", "city": "Block B, Soami Nagar South, Soami Nagar", "phone": "09654486464", "website": "http://odysseyin.com/?utm_source=GMB&utm_medium=Organic&utm_term=Odyssey&utm_content=Listing&utm_campaign=GMB1", "rating": 3.6, "review_count": "", "latitude": 28.541823599999997, "longitude": 77.2262008, "maps_url": "https://www.google.com/maps/place/?q=place_id:0x390ce23eeab015ab:0x92d6a7e8dbc46e1a"}, {"place_id": "0x390ce206e438d2b3:0x639dda0cb1a38a73", "name": "CAS Facilities Pvt. Ltd.", "category": "Employment agency", "street": "2nd Floor", "city": "97/1, Sri Aurobindo Marg", "phone": "01126568887", "website": "https://casfacilities.com/", "rating": 4.9, "review_count": "", "latitude": 28.537995499999997, "longitude": 77.1981237, "maps_url": "https://www.google.com/maps/place/?q=place_id:0x390ce206e438d2b3:0x639dda0cb1a38a73"}, {"place_id": "0x390ce2012d555e57:0x9a24ebbc50331c6a", "name": "Aurobindo Towers", "category": "Corporate office", "street": "81/1, MMTC Rd", "city": "MMTC Colony, Sarvodaya Enclave", "phone": "", "website": "", "rating": 4.1, "review_count": "", "latitude": 28.535578299999997, "longitude": 77.198122, "maps_url": "https://www.google.com/maps/place/?q=place_id:0x390ce2012d555e57:0x9a24ebbc50331c6a"}, {"place_id": "0x390ce39fcf3b44e7:0x3ca916d200a1a988", "name": "INSTAPOWER LTD", "category": "Corporate office", "street": "4A, Sri Aurobindo Marg", "city": "above HDFC BANK", "phone": "08800287643", "website": "http://www.instapower.com/", "rating": 4.4, "review_count": "", "latitude": 28.538401, "longitude": 77.198922, "maps_url": "https://www.google.com/maps/place/?q=place_id:0x390ce39fcf3b44e7:0x3ca916d200a1a988"}, {"place_id": "0x390ce21b8d638855:0xe1317cc7b3303b3c", "name": "Red Dash Media", "category": "Marketing agency", "street": "5, Malviya Nagar Road Shivalik, Begumpur", "city": "Malviya Nagar", "phone": "09810746506", "website": "https://www.reddashmedia.com/", "rating": 4.6, "review_count": "", "latitude": 28.537381699999997, "longitude": 77.2102807, "maps_url": "https://www.google.com/maps/place/?q=place_id:0x390ce21b8d638855:0xe1317cc7b3303b3c"}, {"place_id": "0x390ce428d5612051:0xe2f255a7aaf908fb", "name": "EIFS - Varun Malhotra", "category": "Corporate office", "street": "G6Q2+29W", "city": "B 86", "phone": "18001231668", "website": "http://www.varunmalhotra.co.in/", "rating": 4.8, "review_count": "", "latitude": 28.537639, "longitude": 77.2008721, "maps_url": "https://www.google.com/maps/place/?q=place_id:0x390ce428d5612051:0xe2f255a7aaf908fb"}, {"place_id": "0x390ce206d30fdafd:0xc59787ed36f3d423", "name": "S. S. Rana & Co", "category": "Law firm", "street": "GF, 2nd & 3rd Floor, Aurobindo Square", "city": "Adhchini", "phone": "01140123000", "website": "https://ssrana.in/", "rating": 4.1, "review_count": "", "latitude": 28.535627299999998, "longitude": 77.1981764, "maps_url": "https://www.google.com/maps/place/?q=place_id:0x390ce206d30fdafd:0xc59787ed36f3d423"}, {"place_id": "0x390ce206a370c9b3:0x5567de60ca49d819", "name": "Sun Facility Services Pvt. Ltd.", "category": "Corporate office", "street": "B-117, 2nd Floor, Sarvodaya Enclave", "city": "New Delhi, Delhi 110017", "phone": "18005725851", "website": "https://sunfacility.com/", "rating": 3.2, "review_count": "", "latitude": 28.536769, "longitude": 77.199711, "maps_url": "https://www.google.com/maps/place/?q=place_id:0x390ce206a370c9b3:0x5567de60ca49d819"}, {"place_id": "0x390ce20638f9f015:0x875d7a0aaa5ac295", "name": "WE-Viral | Digital Marketing Agency In New Delhi", "category": "Marketing agency", "street": "#115, Second Floor", "city": "Sri Aurobindo Marg", "phone": "08884428877", "website": "https://www.we-viral.com/", "rating": 4.7, "review_count": "", "latitude": 28.5378851, "longitude": 77.1979356, "maps_url": "https://www.google.com/maps/place/?q=place_id:0x390ce20638f9f015:0x875d7a0aaa5ac295"}, {"place_id": "0xa3f7b500ba6bee9b:0xbf6f44de92b28de", "name": "Yuvocreations Private Limited ( \u092f\u0941\u0935\u094b\u0915\u094d\u0930\u093f\u090f\u0936\u0928\u094d\u0938 \u092a\u094d\u0930\u093e\u0907\u0935\u0947\u091f \u0932\u093f\u092e\u093f\u091f\u0947\u0921 ) - Website Designing & Digital Marketing Agency", "category": "Software company", "street": "Lane no.4", "city": "Khasra no. 258, Westend Marg", "phone": "07042123166", "website": "https://yuvocreations.com/", "rating": 5, "review_count": "", "latitude": 28.5169774, "longitude": 77.19925789999999, "maps_url": "https://www.google.com/maps/place/?q=place_id:0xa3f7b500ba6bee9b:0xbf6f44de92b28de"}, {"place_id": "0x390ce3b49d9462cd:0x5f5409648dfc89b", "name": "Home & Kitchen Appliances _AARAV ENTERPRISES", "category": "Electronics wholesaler", "street": "Shop -9", "city": "Basement", "phone": "08800358917", "website": "https://aaravelectronics.com/store-locator/", "rating": 4.9, "review_count": "", "latitude": 28.538048699999997, "longitude": 77.19855969999999, "maps_url": "https://www.google.com/maps/place/?q=place_id:0x390ce3b49d9462cd:0x5f5409648dfc89b"}, {"place_id": "0x390ce3959c2abc41:0x7307d03924664e13", "name": "Headsup B2B", "category": "Building materials supplier", "street": "Second Floor", "city": "Landmark ( Waves Restaurant", "phone": "08595736388", "website": "https://www.headsupb2b.com/", "rating": 5, "review_count": "", "latitude": 28.5384262, "longitude": 77.1991304, "maps_url": "https://www.google.com/maps/place/?q=place_id:0x390ce3959c2abc41:0x7307d03924664e13"}, {"place_id": "0x390ce34888e40501:0x3dd6662c3db35d4", "name": "Amazing Marketer | Best Amazon Seller Training Provider", "category": "E-commerce service", "street": "", "city": "", "phone": "", "website": "https://amazingmarketer.in/", "rating": 4.8, "review_count": "", "latitude": 21.0680074, "longitude": 82.7525294, "maps_url": "https://www.google.com/maps/place/?q=place_id:0x390ce34888e40501:0x3dd6662c3db35d4"}, {"place_id": "0x390ce2068a9f2581:0x118f0c0053a55ca6", "name": "Click Magic Clicks ( Website Developer In New Delhi )", "category": "Website designer", "street": "29, Adhchini Rd", "city": "Block A, Adchini", "phone": "", "website": "", "rating": "", "review_count": "", "latitude": 28.5384103, "longitude": 77.1989304, "maps_url": "https://www.google.com/maps/place/?q=place_id:0x390ce2068a9f2581:0x118f0c0053a55ca6"}, {"place_id": "0x390ce3121bd77eef:0xfad82fd5c8dc22bc", "name": "Citi Tours India Concepts Global Pvt LTD", "category": "Travel agency", "street": "89", "city": "Adhchini, Sri Aurobindo Marg", "phone": "09999454611", "website": "https://cititoursindia.com/", "rating": 4.8, "review_count": "", "latitude": 28.5377312, "longitude": 77.197901, "maps_url": "https://www.google.com/maps/place/?q=place_id:0x390ce3121bd77eef:0xfad82fd5c8dc22bc"}, {"place_id": "0x390ce20f436a2895:0xb21ee017a00c669a", "name": "DSS Securitech Pvt. Ltd.", "category": "Security guard service", "street": "Behind Hauzkhas Bus Terminal, T 7 Anupam plaza", "city": "Kalu Sarai Road Near Brilliant Tutorials, Kalu Sarai", "phone": "09811117970", "website": "https://www.dsssecurity.in/", "rating": 3.5, "review_count": "", "latitude": 28.5423512, "longitude": 77.2014356, "maps_url": "https://www.google.com/maps/place/?q=place_id:0x390ce20f436a2895:0xb21ee017a00c669a"}, {"place_id": "0x390ce1be2d2a7377:0x5020cce4790298e1", "name": "AJWA KAIF PVT LTD", "category": "Computer support and services", "street": "Ground Floor", "city": "Khirki Vill", "phone": "01142502100", "website": "https://www.ajwakaif.com/", "rating": 5, "review_count": "", "latitude": 28.5309287, "longitude": 77.2194186, "maps_url": "https://www.google.com/maps/place/?q=place_id:0x390ce1be2d2a7377:0x5020cce4790298e1"}, {"place_id": "0x390ce21e4d3f5423:0x1b11a07bc5c2bbc0", "name": "Burning Desire Inclusive", "category": "Software company", "street": "", "city": "", "phone": "09999145527", "website": "", "rating": 4.6, "review_count": "", "latitude": 33.0797494, "longitude": 35.7175981, "maps_url": "https://www.google.com/maps/place/?q=place_id:0x390ce21e4d3f5423:0x1b11a07bc5c2bbc0"}, {"place_id": "0x390ce1bffe3a44f9:0x26475c19026d6da3", "name": "InTechNative Systems & Services LLP", "category": "Software company", "street": "55", "city": "Lane 2, Westend Marg", "phone": "", "website": "https://www.intechnative.com/", "rating": "", "review_count": "", "latitude": 28.5194208, "longitude": 77.20088179999999, "maps_url": "https://www.google.com/maps/place/?q=place_id:0x390ce1bffe3a44f9:0x26475c19026d6da3"}, {"place_id": "0x390d1ddc62027a49:0xd5f8902b9a7cd571", "name": "Avenger Technologies Pvt. Ltd.", "category": "Software company", "street": "Anupam Plaza", "city": "B-3", "phone": "09319976041", "website": "", "rating": 5, "review_count": "", "latitude": 28.5425747, "longitude": 77.2026216, "maps_url": "https://www.google.com/maps/place/?q=place_id:0x390d1ddc62027a49:0xd5f8902b9a7cd571"}, {"place_id": "0x390ce2212d95d215:0x6c328b55bd42915f", "name": "UNI IT Solutions", "category": "Software company", "street": "B-104", "city": "Panchsheel Vihar, Sheikh Sarai Village, Sheikh Sarai", "phone": "09717610770", "website": "", "rating": 5, "review_count": "", "latitude": 28.535768299999997, "longitude": 77.2221177, "maps_url": "https://www.google.com/maps/place/?q=place_id:0x390ce2212d95d215:0x6c328b55bd42915f"}]}