{"timestamp": 1773733525.675318, "keyword": "IT company", "location": "Indore", "cell_idx": 84, "results": [{"place_id": "0x3962e4fc3e534d7d:0x8b28eddbdf10d6fd", "name": "Flavorite Technologies", "category": "Food machinery supplier", "street": "Khasra No. 50/1, Tillorekhurd", "city": "Indore, Madhya Pradesh 452020", "phone": "08878111150", "website": "http://flavoritetechnologies.com/", "rating": 4.5, "review_count": "", "latitude": 22.618402, "longitude": 75.93977799999999, "maps_url": "https://www.google.com/maps/place/?q=place_id:0x3962e4fc3e534d7d:0x8b28eddbdf10d6fd"}, {"place_id": "0x3962fd6d5c629411:0x1d5537feb843f85e", "name": "WebCraft IT", "category": "Software company", "street": "96-FB, Sch.94, Near Pipliyahana Square", "city": "Eastern Ring Rd", "phone": "07314959456", "website": "https://webcraft.co.in/", "rating": 4.3, "review_count": "", "latitude": 22.712849199999997, "longitude": 75.9063407, "maps_url": "https://www.google.com/maps/place/?q=place_id:0x3962fd6d5c629411:0x1d5537feb843f85e"}, {"place_id": "0x3962fcfabafa14b9:0x8c7a302459aaec0", "name": "Dollop Infotech Pvt. Ltd. | Indore | India", "category": "Software company", "street": "302, Sukhmani Apartment", "city": "Bhawarkua Main Rd", "phone": "09644704844", "website": "https://www.dollopinfotech.com/", "rating": 4.6, "review_count": "", "latitude": 22.6899904, "longitude": 75.8640863, "maps_url": "https://www.google.com/maps/place/?q=place_id:0x3962fcfabafa14b9:0x8c7a302459aaec0"}, {"place_id": "0x3962fdc6969403b1:0xde0646c82299c250", "name": "IT Spark Technology Pvt. Ltd.", "category": "Software company", "street": "4th Floor 418 Shekhar Central Manoramaganj", "city": "New Palasia", "phone": "09109845654", "website": "http://www.itsparktechnology.com/", "rating": 4.8, "review_count": "", "latitude": 22.722727, "longitude": 75.88707099999999, "maps_url": "https://www.google.com/maps/place/?q=place_id:0x3962fdc6969403b1:0xde0646c82299c250"}, {"place_id": "0x39631d62557ed507:0x5dc2b67a2ba7971a", "name": "Royal IT Service - IT Company in Indore", "category": "Software company", "street": "426 Scheme No. 114 Part 2", "city": "Anurag Nagar Ln", "phone": "09285192850", "website": "http://royalitservice.com/", "rating": 4.3, "review_count": "", "latitude": 22.7622528, "longitude": 75.9022899, "maps_url": "https://www.google.com/maps/place/?q=place_id:0x39631d62557ed507:0x5dc2b67a2ba7971a"}, {"place_id": "0x3962fcf129c55555:0xf972ad5c5b881813", "name": "Technorizen Software Solution | Software Development Company | Mobile Apps l AI/ML Solution l Blockchain l Digital Marketing", "category": "Software company", "street": "Sapphire House", "city": "402 A, B, C", "phone": "07828407092", "website": "https://technorizen.com/", "rating": 4.7, "review_count": "", "latitude": 22.702807, "longitude": 75.871596, "maps_url": "https://www.google.com/maps/place/?q=place_id:0x3962fcf129c55555:0xf972ad5c5b881813"}, {"place_id": "0x3962fd4a61ffaf05:0xc08ff92a0d89d11d", "name": "Top Custom Software Development Company | AI, IoT & IT Solutions \u2013 Hiteshi", "category": "Software company", "street": "8th Floor Crystal IT Park", "city": "Madhya Pradesh 452001", "phone": "07312971133", "website": "https://www.hiteshi.com/", "rating": 3.6, "review_count": "", "latitude": 22.685651999999997, "longitude": 75.872211, "maps_url": "https://www.google.com/maps/place/?q=place_id:0x3962fd4a61ffaf05:0xc08ff92a0d89d11d"}, {"place_id": "0x39631da0239602ff:0xa13448656bdbfa7a", "name": "Softsnare Technologies | IT Company | Software Company in Indore", "category": "Software company", "street": "R-353", "city": "Sector R, Mahalaxmi Nagar", "phone": "06264741175", "website": "http://www.softsnare.com/", "rating": 4.6, "review_count": "", "latitude": 22.758209299999997, "longitude": 75.9096251, "maps_url": "https://www.google.com/maps/place/?q=place_id:0x39631da0239602ff:0xa13448656bdbfa7a"}, {"place_id": "0x3962e35a406f4051:0x73250245ff2a3e50", "name": "TekIT Software Solutions - An IT Staff Augmentation & Managed Services Company", "category": "Software company", "street": "Samradhi Park 5", "city": "Chauhan Nagar", "phone": "09685308585", "website": "https://tekitsolution.com/", "rating": 4.5, "review_count": "", "latitude": 22.7024133, "longitude": 75.9094243, "maps_url": "https://www.google.com/maps/place/?q=place_id:0x3962e35a406f4051:0x73250245ff2a3e50"}, {"place_id": "0x3962fce91596b131:0x9b308351974807a8", "name": "YASH Technologies PVT. LTD.", "category": "Software company", "street": "Crystal IT PARK STP-1, Ground Floor, IT/ITES- SEZ, Khandwa Rd", "city": "Indra Puri Colony", "phone": "07316636363", "website": "http://www.yash.com/", "rating": 4.6, "review_count": "", "latitude": 22.6858234, "longitude": 75.8724246, "maps_url": "https://www.google.com/maps/place/?q=place_id:0x3962fce91596b131:0x9b308351974807a8"}, {"place_id": "0x3962fce2f55ec489:0x92b2a8119dc6c125", "name": "MINDIII Systems Pvt. Ltd", "category": "Software company", "street": "501-504, Fifth Floor", "city": "Krishna tower", "phone": "09165613316", "website": "https://www.mindiii.com/", "rating": 4, "review_count": "", "latitude": 22.7051394, "longitude": 75.9090727, "maps_url": "https://www.google.com/maps/place/?q=place_id:0x3962fce2f55ec489:0x92b2a8119dc6c125"}, {"place_id": "0x3962fd35ddf3395d:0x27b300ba36e4530b", "name": "InfoBeans Technologies Limited", "category": "Software company", "street": "2nd Floor, Crystal IT Park", "city": "Bhawarkua Main Rd", "phone": "07317162000", "website": "https://www.infobeans.ai/", "rating": 4.5, "review_count": "", "latitude": 22.6854169, "longitude": 75.8721503, "maps_url": "https://www.google.com/maps/place/?q=place_id:0x3962fd35ddf3395d:0x27b300ba36e4530b"}, {"place_id": "0x3962fce94cfc595d:0x832f7e24cd655458", "name": "IMPETUS TECHNOLOGIES (INDIA) PVT LTD", "category": "Software company", "street": "Unit No 4-A, STP-II, Third Floor, Crystal IT Park, Ring Road", "city": "Indore, Madhya Pradesh 452001", "phone": "07314743000", "website": "http://www.impetus.com/", "rating": 4.6, "review_count": "", "latitude": 22.684779, "longitude": 75.87097299999999, "maps_url": "https://www.google.com/maps/place/?q=place_id:0x3962fce94cfc595d:0x832f7e24cd655458"}, {"place_id": "0x3962fb9e7ee26cd1:0x6e8b064681fc929b", "name": "Ozlo IT Services Pvt Ltd", "category": "Software company", "street": "Nakoda Apt", "city": "203", "phone": "07389028888", "website": "https://www.ozloits.com/", "rating": 4.9, "review_count": "", "latitude": 22.646292, "longitude": 75.8283652, "maps_url": "https://www.google.com/maps/place/?q=place_id:0x3962fb9e7ee26cd1:0x6e8b064681fc929b"}, {"place_id": "0x3962fd480d635977:0x72f82e2825baa4f3", "name": "Mango IT Solutions", "category": "Software company", "street": "15/3, Old Palasia Rd", "city": "behind sarda house", "phone": "07314046693", "website": "http://www.mangoitsolutions.com/", "rating": 4.3, "review_count": "", "latitude": 22.7276298, "longitude": 75.8888766, "maps_url": "https://www.google.com/maps/place/?q=place_id:0x3962fd480d635977:0x72f82e2825baa4f3"}, {"place_id": "0x3962fdf54164d23d:0xc82210a6e7c5c954", "name": "Dcode Infocorp Pvt Ltd.", "category": "Software company", "street": "Atulya IT park", "city": "Aditya Nagar, Bhanwar Kuwa", "phone": "", "website": "", "rating": 4.9, "review_count": "", "latitude": 22.6929136, "longitude": 75.8646807, "maps_url": "https://www.google.com/maps/place/?q=place_id:0x3962fdf54164d23d:0xc82210a6e7c5c954"}, {"place_id": "0x3962fd115f9bdb93:0x763ee98f66e77650", "name": "Young Decade IT Software Solution", "category": "Software company", "street": "office No 202, 2nd floor, Gracia Heights", "city": "Devi Ahilya Marg", "phone": "07987611372", "website": "http://www.youngdecade.com/", "rating": 4.7, "review_count": "", "latitude": 22.7279596, "longitude": 75.8631723, "maps_url": "https://www.google.com/maps/place/?q=place_id:0x3962fd115f9bdb93:0x763ee98f66e77650"}, {"place_id": "0x3962fd16be970387:0xc737f343f0e4f9a7", "name": "Top Software Development Company in USA | AI/ML | AI Agent | Gen AI | UXUI | Product Development", "category": "Software company", "street": "Crystal IT Park STP-1, 4th Floor Right Wing Ring Road", "city": "Madhya Pradesh 452001", "phone": "07312973109", "website": "https://47billion.com/", "rating": 4.8, "review_count": "", "latitude": 22.6858591, "longitude": 75.8723211, "maps_url": "https://www.google.com/maps/place/?q=place_id:0x3962fd16be970387:0xc737f343f0e4f9a7"}, {"place_id": "0x3962fd35e73d0c9f:0x20bfb80cfbe962fe", "name": "Ignis IT Solutions", "category": "Software company", "street": "406, 410", "city": "The Mark", "phone": "09977255575", "website": "http://www.ignisitsolutions.com/", "rating": 4.2, "review_count": "", "latitude": 22.725711, "longitude": 75.894176, "maps_url": "https://www.google.com/maps/place/?q=place_id:0x3962fd35e73d0c9f:0x20bfb80cfbe962fe"}, {"place_id": "0x396302a8544ff46f:0x7c09afb7ae4f2c08", "name": "Conative IT Solutions Pvt. Ltd.", "category": "Software company", "street": "Office No. 608, 6th Floor", "city": "Airen Heights", "phone": "08269788173", "website": "https://conativeitsolutions.com/", "rating": 3.7, "review_count": "", "latitude": 22.745121299999997, "longitude": 75.89222699999999, "maps_url": "https://www.google.com/maps/place/?q=place_id:0x396302a8544ff46f:0x7c09afb7ae4f2c08"}, {"place_id": "0x3962fdad8755290d:0xae9be52a6226ab72", "name": "ThoughtWin IT Solutions Pvt. Ltd.", "category": "Software company", "street": "1 Panna estate", "city": "Kesar Bagh Rd", "phone": "09977069348", "website": "https://www.thoughtwin.com/", "rating": 4.1, "review_count": "", "latitude": 22.699189099999998, "longitude": 75.84473919999999, "maps_url": "https://www.google.com/maps/place/?q=place_id:0x3962fdad8755290d:0xae9be52a6226ab72"}, {"place_id": "0x39631d50a1dac501:0x6812a9e44b9f710a", "name": "Codizant IT Solutions", "category": "Software company", "street": "138 D", "city": "Scheme 134, Nipania", "phone": "09407553364", "website": "https://www.codizant.com/", "rating": 4.8, "review_count": "", "latitude": 22.7469036, "longitude": 75.9238661, "maps_url": "https://www.google.com/maps/place/?q=place_id:0x39631d50a1dac501:0x6812a9e44b9f710a"}, {"place_id": "0x3962fdadc95533b3:0x3c9e4e8a432e4e8b", "name": "Diaspark Infotech", "category": "Software company", "street": "60/2 Babulabh Chand Chajlani Marg Naidunia Parishar", "city": "Babu Lalchand Chajlani Rd", "phone": "07314756000", "website": "http://www.diaspark.com/", "rating": 4.2, "review_count": "", "latitude": 22.7036818, "longitude": 75.84430929999999, "maps_url": "https://www.google.com/maps/place/?q=place_id:0x3962fdadc95533b3:0x3c9e4e8a432e4e8b"}, {"place_id": "0x39631dbc5e7d2a29:0x1c8746aae1d098c8", "name": "Logical Soft Tech Private Limited ( Software Development IT Company and Software IT training)", "category": "Software company", "street": "388, PU4", "city": "next to Krozzon Hotel", "phone": "08210251824", "website": "http://logicalsofttech.com/", "rating": 4.3, "review_count": "", "latitude": 22.747576, "longitude": 75.896326, "maps_url": "https://www.google.com/maps/place/?q=place_id:0x39631dbc5e7d2a29:0x1c8746aae1d098c8"}, {"place_id": "0x3962fce49bc36553:0x367dceaf7fdaaf4e", "name": "LMS Solutions (India) Pvt. Ltd.", "category": "Software company", "street": "18, Bhawarkua Main Rd", "city": "Professor Colony", "phone": "07314025567", "website": "http://www.lmsin.com/", "rating": 4.4, "review_count": "", "latitude": 22.694553799999998, "longitude": 75.8668371, "maps_url": "https://www.google.com/maps/place/?q=place_id:0x3962fce49bc36553:0x367dceaf7fdaaf4e"}, {"place_id": "0x396317d8dce0a973:0xe74ff35946a7c87d", "name": "Bellway Infotech | Mobile app and Website development company", "category": "Software company", "street": "Anmol Speces", "city": "B 405, Khajrana Rd", "phone": "09098466409", "website": "https://www.bellwayinfotech.com/", "rating": 4.7, "review_count": "", "latitude": 22.7286438, "longitude": 75.8958789, "maps_url": "https://www.google.com/maps/place/?q=place_id:0x396317d8dce0a973:0xe74ff35946a7c87d"}, {"place_id": "0x3962fd82ab00712f:0x4e9d2464ddf5c6dd", "name": "Techsolvo | ERP for Manufacturing Units in Indore | Accounting and Billing Software in Indore | AI and ML Solutions", "category": "Software company", "street": "2nd Floor", "city": "Besides TVS Dugar", "phone": "09669384334", "website": "https://techsolvo.com/", "rating": 4.5, "review_count": "", "latitude": 22.7175704, "longitude": 75.8840427, "maps_url": "https://www.google.com/maps/place/?q=place_id:0x3962fd82ab00712f:0x4e9d2464ddf5c6dd"}, {"place_id": "0x396303e25b069d95:0xfc25aec2eba3e96c", "name": "Advance Digital Technology", "category": "Software company", "street": "H.N. 15 NEW", "city": "Bajrang Pura", "phone": "", "website": "https://drive.google.com/file/d/1XuWOH9pCVowPzI9Vt6MqvE8kvk8oGWaO/view?usp=drivesdk", "rating": 4.9, "review_count": "", "latitude": 22.751635399999998, "longitude": 75.834964, "maps_url": "https://www.google.com/maps/place/?q=place_id:0x396303e25b069d95:0xfc25aec2eba3e96c"}, {"place_id": "0x3963029cbe7dad9d:0x2702a5ef1ada853d", "name": "Vista IT Solutions Pvt. Ltd.", "category": "Software company", "street": "142-A, New IT Park building", "city": "Electronic Complex, Pardesipura", "phone": "", "website": "http://www.vitspl.com/", "rating": 4, "review_count": "", "latitude": 22.7532702, "longitude": 75.8653544, "maps_url": "https://www.google.com/maps/place/?q=place_id:0x3963029cbe7dad9d:0x2702a5ef1ada853d"}, {"place_id": "0x3962fd144b8f674d:0x368e971cd0aedabc", "name": "AM Webtech Pvt Ltd.", "category": "Software company", "street": "BCC House", "city": "8/5/5", "phone": "08448449003", "website": "https://amwebtech.com/", "rating": 4.2, "review_count": "", "latitude": 22.7156013, "longitude": 75.8855232, "maps_url": "https://www.google.com/maps/place/?q=place_id:0x3962fd144b8f674d:0x368e971cd0aedabc"}, {"place_id": "0x3962fd319c598969:0xa4e99d10e653ecb8", "name": "Shanti Infosoft LLP - AI / Web and App Design And Development Company", "category": "Software company", "street": "1st - 3rd floor PU4", "city": "Plot no 70, Vijay Nagar Square", "phone": "09981225000", "website": "https://shantiinfosoft.com/", "rating": 4.7, "review_count": "", "latitude": 22.7437818, "longitude": 75.89660649999999, "maps_url": "https://www.google.com/maps/place/?q=place_id:0x3962fd319c598969:0xa4e99d10e653ecb8"}, {"place_id": "0x3962fd3785155555:0x839d1e33ed814607", "name": "Abut Technology", "category": "Software company", "street": "Badwani plaza Building", "city": "19/2", "phone": "08839753153", "website": "http://www.abuttechnology.com/", "rating": 4.9, "review_count": "", "latitude": 22.7241476, "longitude": 75.88906949999999, "maps_url": "https://www.google.com/maps/place/?q=place_id:0x3962fd3785155555:0x839d1e33ed814607"}, {"place_id": "0x3962fd47fd6da719:0x27b869ecdc06d81", "name": "Impetus Technologies India Pvt. Ltd.", "category": "Software company", "street": "Sarda House", "city": "24-B", "phone": "07314269300", "website": "http://www.impetus.com/", "rating": 4.5, "review_count": "", "latitude": 22.7274711, "longitude": 75.888379, "maps_url": "https://www.google.com/maps/place/?q=place_id:0x3962fd47fd6da719:0x27b869ecdc06d81"}, {"place_id": "0x3962fd7221978859:0xf7a3ac341920f06f", "name": "Parkhya Solutions Pvt. Ltd.", "category": "Software company", "street": "121, Devi Ahilya Marg", "city": "Sahakar Nagar, Snehlataganj", "phone": "", "website": "http://www.parkhya.com/", "rating": 4.4, "review_count": "", "latitude": 22.729563499999998, "longitude": 75.863581, "maps_url": "https://www.google.com/maps/place/?q=place_id:0x3962fd7221978859:0xf7a3ac341920f06f"}, {"place_id": "0x3962fd19c553ee35:0x764cedb2503060d6", "name": "ThinkDebug Indore", "category": "Software company", "street": "301,302", "city": "Shanti Corporate 116", "phone": "09098002268", "website": "https://thinkdebug.com/", "rating": 4.9, "review_count": "", "latitude": 22.702656299999997, "longitude": 75.87068699999999, "maps_url": "https://www.google.com/maps/place/?q=place_id:0x3962fd19c553ee35:0x764cedb2503060d6"}, {"place_id": "0x3962fd77fe66251b:0xf341c0ace0b98f53", "name": "Neyonix Infotech", "category": "Software company", "street": "Scheme No", "city": "Gopur Square", "phone": "08962402789", "website": "https://neyonix.com/", "rating": 4.9, "review_count": "", "latitude": 22.6845331, "longitude": 75.82877479999999, "maps_url": "https://www.google.com/maps/place/?q=place_id:0x3962fd77fe66251b:0xf341c0ace0b98f53"}, {"place_id": "0x3962fda884647b9d:0xbab5f7ae3cc412d2", "name": "Hokrix Technologies | Blockchain & AI Development Company", "category": "Software company", "street": "Crystal It Park", "city": "Rajiv Gandhi Circle", "phone": "09993438344", "website": "https://hokrix.com/", "rating": 5, "review_count": "", "latitude": 22.685824, "longitude": 75.87226629999999, "maps_url": "https://www.google.com/maps/place/?q=place_id:0x3962fda884647b9d:0xbab5f7ae3cc412d2"}, {"place_id": "0x3962fcaeeb0bfc57:0xd01a3d02608728f1", "name": "VYNOT", "category": "Software company", "street": "33-34 Shree, Khandwa Road", "city": "Krishna Ave phase 2", "phone": "", "website": "https://vynot.co/", "rating": 4.8, "review_count": "", "latitude": 22.664025799999997, "longitude": 75.8924134, "maps_url": "https://www.google.com/maps/place/?q=place_id:0x3962fcaeeb0bfc57:0xd01a3d02608728f1"}, {"place_id": "0x396297a5b3aaf8cf:0x3212bfadfc4b4aec", "name": "Mind Ruby Technologies", "category": "Software company", "street": "5th Floor (Right Side), Building STP-1 Crystal IT Park", "city": "Khandwa Rd", "phone": "07312927999", "website": "http://www.mindruby.com/", "rating": 4.8, "review_count": "", "latitude": 22.6853111, "longitude": 75.8719812, "maps_url": "https://www.google.com/maps/place/?q=place_id:0x396297a5b3aaf8cf:0x3212bfadfc4b4aec"}, {"place_id": "0x3962fbe2776846d3:0x99a7ea634a997a68", "name": "Pushkal IT Solution (owner Divya Dubey )", "category": "Software company", "street": "Sai Vihar Colony, Rau", "city": "Indore, Madhya Pradesh 453331", "phone": "07314878045", "website": "http://www.pushkalit.com/", "rating": 4.1, "review_count": "", "latitude": 22.633637, "longitude": 75.807174, "maps_url": "https://www.google.com/maps/place/?q=place_id:0x3962fbe2776846d3:0x99a7ea634a997a68"}, {"place_id": "0x3962fce358d788b1:0x356c2496ecf853f5", "name": "qualwebs", "category": "Software company", "street": "203, 9930 Spaces 4, Mangal Nagar, Near Rajeev Gandhi Square", "city": "AB Rd", "phone": "08827796669", "website": "http://www.qualwebs.com/", "rating": 4.5, "review_count": "", "latitude": 22.6862592, "longitude": 75.8598803, "maps_url": "https://www.google.com/maps/place/?q=place_id:0x3962fce358d788b1:0x356c2496ecf853f5"}, {"place_id": "0x3962fd1df61c9d07:0xf71a456db0d3920a", "name": "SyStos Technology", "category": "Software company", "street": "2nd Floor", "city": "VAIKUNTA BUSINESS PARK", "phone": "09893530547", "website": "http://www.systostechnology.com/", "rating": 4.7, "review_count": "", "latitude": 22.6788907, "longitude": 75.8341894, "maps_url": "https://www.google.com/maps/place/?q=place_id:0x3962fd1df61c9d07:0xf71a456db0d3920a"}, {"place_id": "0x3962fdf43d2feea5:0x2aadafc357f4d30c", "name": "The Bharat Tech", "category": "Software company", "street": "Crystal It Park", "city": "IT/ITES- SEZ", "phone": "08770414240", "website": "https://thebharattech.in/", "rating": 5, "review_count": "", "latitude": 22.6856842, "longitude": 75.8720712, "maps_url": "https://www.google.com/maps/place/?q=place_id:0x3962fdf43d2feea5:0x2aadafc357f4d30c"}, {"place_id": "0x3962fd0bbd8c1735:0xf4b57bf506c3acbb", "name": "6DegreesIT Pvt. Ltd.", "category": "Software company", "street": "9/2", "city": "Street No 5, Manorama Ganj", "phone": "09755099218", "website": "https://www.6degreesit.com/", "rating": 4.4, "review_count": "", "latitude": 22.715303799999997, "longitude": 75.886211, "maps_url": "https://www.google.com/maps/place/?q=place_id:0x3962fd0bbd8c1735:0xf4b57bf506c3acbb"}, {"place_id": "0x3962fcfd2ac6c2f3:0x84bcc6d5601300ef", "name": "TechInfini Solutions Pvt Ltd", "category": "Software company", "street": "Airen Heights", "city": "402", "phone": "09302974394", "website": "https://techinfini.in/", "rating": 4.3, "review_count": "", "latitude": 22.745121299999997, "longitude": 75.89222699999999, "maps_url": "https://www.google.com/maps/place/?q=place_id:0x3962fcfd2ac6c2f3:0x84bcc6d5601300ef"}, {"place_id": "0x3962fcf12e5fd331:0x3d10f773a83db31e", "name": "InfoGrains", "category": "Software company", "street": "407, Atulya IT Park", "city": "Bhawarkua Main Rd", "phone": "", "website": "https://infograins.com/", "rating": 4.4, "review_count": "", "latitude": 22.6866949, "longitude": 75.87149699999999, "maps_url": "https://www.google.com/maps/place/?q=place_id:0x3962fcf12e5fd331:0x3d10f773a83db31e"}, {"place_id": "0x3962fd1dfde216d7:0x55af29421813b8e6", "name": "Swap Infotech", "category": "Software company", "street": "601, Atulya IT Park", "city": "Bhawarkua Main Rd", "phone": "09340606911", "website": "http://www.swapinfotech.com/", "rating": 4.8, "review_count": "", "latitude": 22.6869445, "longitude": 75.8710822, "maps_url": "https://www.google.com/maps/place/?q=place_id:0x3962fd1dfde216d7:0x55af29421813b8e6"}, {"place_id": "0x3962fd9a08cbfebf:0x3291a626ce9c55fa", "name": "RISHUS INFOTECH", "category": "Software company", "street": "office No. 104", "city": "Samiksha Landmark", "phone": "06264601696", "website": "", "rating": 4.3, "review_count": "", "latitude": 22.6785246, "longitude": 75.8514893, "maps_url": "https://www.google.com/maps/place/?q=place_id:0x3962fd9a08cbfebf:0x3291a626ce9c55fa"}, {"place_id": "0x3962fd7f4f8baf87:0x598f75f3363bc558", "name": "Aimfortech - Software | SaaS | Web | E-Commerce Gaming App Development Company in India", "category": "Software company", "street": "103, Greater Kailash Road", "city": "above Nafees Restaurant", "phone": "07314066773", "website": "https://www.aimfortech.com/", "rating": 5, "review_count": "", "latitude": 22.7257765, "longitude": 75.8878778, "maps_url": "https://www.google.com/maps/place/?q=place_id:0x3962fd7f4f8baf87:0x598f75f3363bc558"}, {"place_id": "0x3962fd558b664649:0x8d0acd9f8082bfa8", "name": "ABIT CORP", "category": "Software company", "street": "345,P Plaza Square, Kanadia Bypass", "city": "Main Rd", "phone": "09893298123", "website": "https://www.abitcorp.com/", "rating": 4.5, "review_count": "", "latitude": 22.7245807, "longitude": 75.92063499999999, "maps_url": "https://www.google.com/maps/place/?q=place_id:0x3962fd558b664649:0x8d0acd9f8082bfa8"}, {"place_id": "0x3962fce00db324a7:0xe0bfa4e3457de59c", "name": "Yuvasoft Solutions Private Limited", "category": "Software company", "street": "Pukhraj Corporate", "city": "715&801", "phone": "07314089013", "website": "http://www.yuvasoftech.com/", "rating": 4.1, "review_count": "", "latitude": 22.7007954, "longitude": 75.87572469999999, "maps_url": "https://www.google.com/maps/place/?q=place_id:0x3962fce00db324a7:0xe0bfa4e3457de59c"}, {"place_id": "0x3962e2c99432dc5b:0x856ffb203358138", "name": "Golden Eagle IT Technologies", "category": "Software company", "street": "4th Floor", "city": "Plot No. 8", "phone": "09584309000", "website": "https://goldeneagle.ai/", "rating": 4.2, "review_count": "", "latitude": 22.747516599999997, "longitude": 75.8972604, "maps_url": "https://www.google.com/maps/place/?q=place_id:0x3962e2c99432dc5b:0x856ffb203358138"}, {"place_id": "0x3962fd23ffffff91:0x4f12a71cfd1a9c6f", "name": "Samyotech Software Solutions Pvt. Ltd.", "category": "Software company", "street": "1st Floor Pramukh Plaza", "city": "near Sajan Prabha Garden", "phone": "07869999639", "website": "http://samyotech.com/", "rating": 4.5, "review_count": "", "latitude": 22.7496656, "longitude": 75.89972829999999, "maps_url": "https://www.google.com/maps/place/?q=place_id:0x3962fd23ffffff91:0x4f12a71cfd1a9c6f"}, {"place_id": "0x3962e2d6a52db2d7:0x4c94bdd22b5d6da1", "name": "Ignatiuz", "category": "Software company", "street": "Atulya IT Park IT Park Square", "city": "501", "phone": "09993018836", "website": "https://ignatiuz.com/", "rating": 4.2, "review_count": "", "latitude": 22.686808199999998, "longitude": 75.871459, "maps_url": "https://www.google.com/maps/place/?q=place_id:0x3962e2d6a52db2d7:0x4c94bdd22b5d6da1"}, {"place_id": "0x3962fd470f1c8cf3:0x7fc7417560117321", "name": "Maverick Console Services Pvt. Ltd.", "category": "Software company", "street": "MG Road 109 , Royal Ratan Building", "city": "Madhya Pradesh 452007", "phone": "08889785888", "website": "http://www.maverickconsole.com/", "rating": 4.8, "review_count": "", "latitude": 22.7195626, "longitude": 75.8577153, "maps_url": "https://www.google.com/maps/place/?q=place_id:0x3962fd470f1c8cf3:0x7fc7417560117321"}, {"place_id": "0x3962fd3947eaaaab:0xb1bf95e1bf846118", "name": "Pixler IT Solution Pvt Ltd", "category": "Software company", "street": "1st Floor", "city": "Pipliyahana Rd", "phone": "07314022124", "website": "http://www.pixlritllc.com/", "rating": 3.8, "review_count": "", "latitude": 22.7079831, "longitude": 75.9133998, "maps_url": "https://www.google.com/maps/place/?q=place_id:0x3962fd3947eaaaab:0xb1bf95e1bf846118"}, {"place_id": "0x396303818a953817:0xf67c56bdd73dbf71", "name": "InfiminTus Technologies - Website Design, Application and Software Development IT Company", "category": "Website designer", "street": "2nd Floor", "city": "Chetak Chamber", "phone": "09754316154", "website": "https://infimintustech.com/", "rating": 4.4, "review_count": "", "latitude": 22.7128428, "longitude": 75.8758618, "maps_url": "https://www.google.com/maps/place/?q=place_id:0x396303818a953817:0xf67c56bdd73dbf71"}, {"place_id": "0x3962fd164000000b:0x2e61ee9fc96847d0", "name": "Serosoft", "category": "Software company", "street": "5th Floor, Milinda\u2019s Manor, 2 RNT Marg", "city": "Central", "phone": "07314010724", "website": "https://www.serosoft.com/", "rating": 4.3, "review_count": "", "latitude": 22.718497499999998, "longitude": 75.8724651, "maps_url": "https://www.google.com/maps/place/?q=place_id:0x3962fd164000000b:0x2e61ee9fc96847d0"}, {"place_id": "0x3962fdc2ad268517:0x2344d262c1da7f7b", "name": "CubexO Software Solutions", "category": "Software company", "street": "2nd Floor, MR Business Park", "city": "Rani Bagh Main", "phone": "", "website": "http://www.cubexo.io/", "rating": 4.7, "review_count": "", "latitude": 22.6711468, "longitude": 75.8808385, "maps_url": "https://www.google.com/maps/place/?q=place_id:0x3962fdc2ad268517:0x2344d262c1da7f7b"}, {"place_id": "0x3962fd9b07e5774d:0x2d57d4ac2d7d0645", "name": "Developer Bazaar Technologies LLP", "category": "Software company", "street": "401, Infront of", "city": "Sukhmani Apartment, I - Bus Stop", "phone": "07415887200", "website": "https://www.developerbazaar.com/", "rating": 4.8, "review_count": "", "latitude": 22.689997599999998, "longitude": 75.8640736, "maps_url": "https://www.google.com/maps/place/?q=place_id:0x3962fd9b07e5774d:0x2d57d4ac2d7d0645"}, {"place_id": "0x3962fd380ebca3b3:0x9ccc6ea708a0fa2c", "name": "GraffersID - IT Staff Augmentation Company", "category": "Software company", "street": "816 Shekhar Central Palasia", "city": "Square", "phone": "07314915234", "website": "https://graffersid.com/?utm_source=Google+Organic&utm_medium=gmb&utm_campaign=home", "rating": 4.3, "review_count": "", "latitude": 22.7227168, "longitude": 75.8871544, "maps_url": "https://www.google.com/maps/place/?q=place_id:0x3962fd380ebca3b3:0x9ccc6ea708a0fa2c"}, {"place_id": "0x3962fce2079461c5:0xc4b4322623b79034", "name": "GlobalStack IT Solutions", "category": "Software company", "street": "Vikram Tower", "city": "408,", "phone": "", "website": "", "rating": 4.9, "review_count": "", "latitude": 22.7011969, "longitude": 75.8702004, "maps_url": "https://www.google.com/maps/place/?q=place_id:0x3962fce2079461c5:0xc4b4322623b79034"}, {"place_id": "0x3962fdc2ad268517:0x2344d262c1da7f7b", "name": "CubexO Software Solutions", "category": "Software company", "street": "2nd Floor, MR Business Park", "city": "Rani Bagh Main", "phone": "", "website": "http://www.cubexo.io/", "rating": 4.7, "review_count": "", "latitude": 22.6711468, "longitude": 75.8808385, "maps_url": "https://www.google.com/maps/place/?q=place_id:0x3962fdc2ad268517:0x2344d262c1da7f7b"}, {"place_id": "0x3962fd457f5260fd:0xcd2c51a579c7db5", "name": "Codiant Software Technologies", "category": "Software company", "street": "101", "city": "Bansi Trade Centre", "phone": "07314032967", "website": "https://codiant.com/", "rating": 4.5, "review_count": "", "latitude": 22.7236461, "longitude": 75.8816631, "maps_url": "https://www.google.com/maps/place/?q=place_id:0x3962fd457f5260fd:0xcd2c51a579c7db5"}, {"place_id": "0x3962fd9b07e5774d:0x2d57d4ac2d7d0645", "name": "Developer Bazaar Technologies LLP", "category": "Software company", "street": "401, Infront of", "city": "Sukhmani Apartment, I - Bus Stop", "phone": "07415887200", "website": "https://www.developerbazaar.com/", "rating": 4.8, "review_count": "", "latitude": 22.689997599999998, "longitude": 75.8640736, "maps_url": "https://www.google.com/maps/place/?q=place_id:0x3962fd9b07e5774d:0x2d57d4ac2d7d0645"}, {"place_id": "0x3962fd2b816f11f5:0x7c4090c19212f021", "name": "TECAI Software & Automation Company in Indore", "category": "Software company", "street": "3rd Floor", "city": "Shubham Corporate", "phone": "07024031779", "website": "https://tecai.in/", "rating": 5, "review_count": "", "latitude": 22.699921399999997, "longitude": 75.8674451, "maps_url": "https://www.google.com/maps/place/?q=place_id:0x3962fd2b816f11f5:0x7c4090c19212f021"}, {"place_id": "0x3962fcde3d3ffaff:0x253b0cb7c6f4c785", "name": "Codezilla Technology & Consultancy Pvt. Ltd.", "category": "Software company", "street": "Plot no 92, Above of iWish showroom", "city": "Sapna Sangeeta Rd", "phone": "07314945411", "website": "https://codezilla.io/", "rating": 4.6, "review_count": "", "latitude": 22.7005084, "longitude": 75.86893839999999, "maps_url": "https://www.google.com/maps/place/?q=place_id:0x3962fcde3d3ffaff:0x253b0cb7c6f4c785"}, {"place_id": "0x3962e2cbd98f0bf7:0xbafbbde339deec8a", "name": "i-SOFTZONE - Software Development Company", "category": "Software company", "street": "Shagun Arcade", "city": "Vijay Nagar Square", "phone": "07415664456", "website": "http://www.isoftzone.com/", "rating": 4, "review_count": "", "latitude": 22.749023299999998, "longitude": 75.8953915, "maps_url": "https://www.google.com/maps/place/?q=place_id:0x3962e2cbd98f0bf7:0xbafbbde339deec8a"}, {"place_id": "0x3962fd5f08d732d1:0x1a5c3ac4c26c1ace", "name": "BridgeFix Technology Private Limited", "category": "Software company", "street": "389-390", "city": "Vijay Nagar, Scheme 54 PU4", "phone": "09425960946", "website": "", "rating": 4.3, "review_count": "", "latitude": 22.7475119, "longitude": 75.8966706, "maps_url": "https://www.google.com/maps/place/?q=place_id:0x3962fd5f08d732d1:0x1a5c3ac4c26c1ace"}, {"place_id": "0x3962fd69955680ab:0xc151bf50ea69399a", "name": "Shrinkcom Software Private Limited", "category": "Software company", "street": "Atulya IT Park", "city": "602", "phone": "08982525343", "website": "https://shrinkcom.com/", "rating": 4.2, "review_count": "", "latitude": 22.686619399999998, "longitude": 75.8712359, "maps_url": "https://www.google.com/maps/place/?q=place_id:0x3962fd69955680ab:0xc151bf50ea69399a"}, {"place_id": "0x39631d55cb5efbc3:0xfbf17bbed2c95ca5", "name": "SoftGetix - IT Staff Augmentation Services", "category": "Software company", "street": "519", "city": "Shagun Tower", "phone": "07314002699", "website": "https://softgetix.com/", "rating": 4.1, "review_count": "", "latitude": 22.7497081, "longitude": 75.89555829999999, "maps_url": "https://www.google.com/maps/place/?q=place_id:0x39631d55cb5efbc3:0xfbf17bbed2c95ca5"}, {"place_id": "0x3962fd3f309347fd:0x2c0cd6beeb56351a", "name": "Arbutus Infotech Pvt. Ltd.", "category": "Software company", "street": "302, Bansi Trade Centre, 581/5, Mahatma Gandhi Rd Race Course Road", "city": "New Palasia", "phone": "09669003937", "website": "https://arbutusinfotech.com/", "rating": 4.2, "review_count": "", "latitude": 22.7230498, "longitude": 75.8820338, "maps_url": "https://www.google.com/maps/place/?q=place_id:0x3962fd3f309347fd:0x2c0cd6beeb56351a"}, {"place_id": "0x3962fcce471be92d:0xd56d849f777985e6", "name": "Systango", "category": "Software company", "street": "Crystal IT Park, Building 1, 3rd Floor", "city": "Ring Rd", "phone": "07312971030", "website": "https://www.systango.com/", "rating": 4.4, "review_count": "", "latitude": 22.685488199999998, "longitude": 75.872337, "maps_url": "https://www.google.com/maps/place/?q=place_id:0x3962fcce471be92d:0xd56d849f777985e6"}, {"place_id": "0x3962fd1c690d5649:0xeb3fa935eeaa2ad4", "name": "DJ Technologies - Best software developers", "category": "Software company", "street": "57 Nanak palace Ring Road Pipliya Pala Service Road", "city": "Bholaram Ustad Marg", "phone": "07974488139", "website": "https://djtechnologies.in/", "rating": 4.5, "review_count": "", "latitude": 22.6816896, "longitude": 75.8641296, "maps_url": "https://www.google.com/maps/place/?q=place_id:0x3962fd1c690d5649:0xeb3fa935eeaa2ad4"}, {"place_id": "0x3962fd569c206d9f:0x40de67f329c8afd7", "name": "Canopus Infosystems Private Limited", "category": "Software company", "street": "Office no. 203, 2nd Floor", "city": "Princes Business Skypark", "phone": "07312551963", "website": "https://www.canopusinfosystems.com/", "rating": 3.8, "review_count": "", "latitude": 22.7458507, "longitude": 75.8930609, "maps_url": "https://www.google.com/maps/place/?q=place_id:0x3962fd569c206d9f:0x40de67f329c8afd7"}, {"place_id": "0x3962fddf4d0230ab:0xdd697930ecc2f3bc", "name": "Cubixsys Technologies PVT LTD", "category": "Software company", "street": "301", "city": "Atulya IT Park", "phone": "", "website": "https://cubixsys.com/", "rating": 4.9, "review_count": "", "latitude": 22.6867561, "longitude": 75.8714581, "maps_url": "https://www.google.com/maps/place/?q=place_id:0x3962fddf4d0230ab:0xdd697930ecc2f3bc"}, {"place_id": "0x3962fce37de1d219:0xf07af931ebceaafd", "name": "Jinpushp Infotech Indore || IT Company Indore || Website", "category": "Software company", "street": "Plot No 408,Saklecha Building", "city": "Amitesh Nagar, Krishi Mandi", "phone": "07566043133", "website": "https://jinpushpinfotech.com/", "rating": 4.9, "review_count": "", "latitude": 22.680349099999997, "longitude": 75.8519244, "maps_url": "https://www.google.com/maps/place/?q=place_id:0x3962fce37de1d219:0xf07af931ebceaafd"}, {"place_id": "0x3962fd71266aaa83:0x82398caa17930a40", "name": "Octavian InfoTech LLP", "category": "Software company", "street": "A 41 Ayodhya Puri", "city": "Kodriya", "phone": "09977741168", "website": "https://www.octavianinfotech.com/", "rating": 5, "review_count": "", "latitude": 22.537258599999998, "longitude": 75.7726136, "maps_url": "https://www.google.com/maps/place/?q=place_id:0x3962fd71266aaa83:0x82398caa17930a40"}, {"place_id": "0x3962fd76fcd4fde7:0x94ae8da5dd58cbbf", "name": "Gugli", "category": "Software company", "street": "3rd Floor", "city": "Atulya IT Park", "phone": "09479788257", "website": "https://www.gugli.in/", "rating": 5, "review_count": "", "latitude": 22.6866925, "longitude": 75.8713288, "maps_url": "https://www.google.com/maps/place/?q=place_id:0x3962fd76fcd4fde7:0x94ae8da5dd58cbbf"}, {"place_id": "0x3962fdf1d55d1999:0xe9fa5359acf30b19", "name": "Siya Tech Ventures", "category": "Software company", "street": "606, Atulya IT Park", "city": "Indore, Madhya Pradesh 452001", "phone": "", "website": "https://siya.tech/", "rating": 4.7, "review_count": "", "latitude": 22.686742799999998, "longitude": 75.87154989999999, "maps_url": "https://www.google.com/maps/place/?q=place_id:0x3962fdf1d55d1999:0xe9fa5359acf30b19"}, {"place_id": "0x3962fd76fcd4fde7:0x94ae8da5dd58cbbf", "name": "Gugli", "category": "Software company", "street": "3rd Floor", "city": "Atulya IT Park", "phone": "09479788257", "website": "https://www.gugli.in/", "rating": 5, "review_count": "", "latitude": 22.6866925, "longitude": 75.8713288, "maps_url": "https://www.google.com/maps/place/?q=place_id:0x3962fd76fcd4fde7:0x94ae8da5dd58cbbf"}, {"place_id": "0x3962fdf1d55d1999:0xe9fa5359acf30b19", "name": "Siya Tech Ventures", "category": "Software company", "street": "606, Atulya IT Park", "city": "Indore, Madhya Pradesh 452001", "phone": "", "website": "https://siya.tech/", "rating": 4.7, "review_count": "", "latitude": 22.686742799999998, "longitude": 75.87154989999999, "maps_url": "https://www.google.com/maps/place/?q=place_id:0x3962fdf1d55d1999:0xe9fa5359acf30b19"}, {"place_id": "0x396302ab0db87d2d:0x21904cb1ee649626", "name": "Five Exceptions Software Solutions", "category": "Software company", "street": "301, Gravity Tower, Roshan Singh Bhandari Rd", "city": "Janjeerwala Square", "phone": "07314002593", "website": "http://5exceptions.com/", "rating": 4.5, "review_count": "", "latitude": 22.7256324, "longitude": 75.8811552, "maps_url": "https://www.google.com/maps/place/?q=place_id:0x396302ab0db87d2d:0x21904cb1ee649626"}, {"place_id": "0x3962fcfac1eaaaab:0x4e225b6d7fe920b7", "name": "Reinforce Software Solutions Pvt. Ltd.", "category": "Software company", "street": "Sai Ram Plaza", "city": "AB Rd", "phone": "07314263617", "website": "http://reinforcewebsol.in/", "rating": 4.5, "review_count": "", "latitude": 22.685712, "longitude": 75.85970499999999, "maps_url": "https://www.google.com/maps/place/?q=place_id:0x3962fcfac1eaaaab:0x4e225b6d7fe920b7"}, {"place_id": "0x396303d5a2930b45:0x41a77a2891ee6f65", "name": "Srb IT Solution", "category": "Software company", "street": "Bhawrasla", "city": "Indore, Madhya Pradesh 453555", "phone": "08109995550", "website": "https://srbitsolution.com/", "rating": 4.8, "review_count": "", "latitude": 22.795370899999998, "longitude": 75.8621328, "maps_url": "https://www.google.com/maps/place/?q=place_id:0x396303d5a2930b45:0x41a77a2891ee6f65"}, {"place_id": "0x3962fd1775834153:0x228cd29ca22a8bef", "name": "NCS^", "category": "Software company", "street": "NCS^ House, 80", "city": "Jaora Compound", "phone": "07313505885", "website": "http://www.nenosystems.com/", "rating": 4.7, "review_count": "", "latitude": 22.711851199999998, "longitude": 75.877246, "maps_url": "https://www.google.com/maps/place/?q=place_id:0x3962fd1775834153:0x228cd29ca22a8bef"}, {"place_id": "0x3962fd3a1539dce9:0xf75259fe96e1e164", "name": "Syscraft Information System Pvt. Ltd.", "category": "Software company", "street": "601", "city": "Mahasagar Corporate", "phone": "", "website": "https://syscraftonline.com/", "rating": 4.1, "review_count": "", "latitude": 22.718868399999998, "longitude": 75.8868323, "maps_url": "https://www.google.com/maps/place/?q=place_id:0x3962fd3a1539dce9:0xf75259fe96e1e164"}, {"place_id": "0x3962e3ca7898868b:0x1b17a3b5cbd4c8b1", "name": "TechnoTronixs", "category": "Software company", "street": "OFFICE NO. 102, 1st FLOOR", "city": "RITURAJ BUSINESS PARK", "phone": "07755991160", "website": "https://technotronixs.com/", "rating": 4.3, "review_count": "", "latitude": 22.6857026, "longitude": 75.9236339, "maps_url": "https://www.google.com/maps/place/?q=place_id:0x3962e3ca7898868b:0x1b17a3b5cbd4c8b1"}, {"place_id": "0x3963033e2bfbc3ab:0x3d046dd1848307c8", "name": "IT Support Wale", "category": "Software company", "street": "AF-82/1", "city": "Bapat Square", "phone": "09109991781", "website": "https://www.itsupportwale.com/", "rating": 4.9, "review_count": "", "latitude": 22.7557299, "longitude": 75.877342, "maps_url": "https://www.google.com/maps/place/?q=place_id:0x3963033e2bfbc3ab:0x3d046dd1848307c8"}, {"place_id": "0x3962fcde4f037b4b:0xe0dbe29024a9a422", "name": "Linkites", "category": "Software company", "street": "6th Floor, Building No 1, Right Side, Crystal IT Park", "city": "Indore, Madhya Pradesh 452001", "phone": "07312970111", "website": "http://www.linkites.com/", "rating": 3.9, "review_count": "", "latitude": 22.6857711, "longitude": 75.8723117, "maps_url": "https://www.google.com/maps/place/?q=place_id:0x3962fcde4f037b4b:0xe0dbe29024a9a422"}, {"place_id": "0x3962fd5005594b59:0x93702840653dd277", "name": "Infobyd Software Solutions Pvt. Ltd.", "category": "Software company", "street": "2nd Floor", "city": "Singhal Business Avenue Building", "phone": "09165990196", "website": "http://www.infobyd.com/", "rating": 4.3, "review_count": "", "latitude": 22.7719688, "longitude": 75.9001096, "maps_url": "https://www.google.com/maps/place/?q=place_id:0x3962fd5005594b59:0x93702840653dd277"}, {"place_id": "0x3963029cb1d6af1f:0xcf1bea3e7e7a08bd", "name": "Engineer Master Solutions Pvt. Ltd. | Software Company | Website and Mobile app Development", "category": "Software company", "street": "276", "city": "behind Malhar Mega Mall", "phone": "07314980455", "website": "http://www.engineermaster.in/", "rating": 4.4, "review_count": "", "latitude": 22.745530499999997, "longitude": 75.89538809999999, "maps_url": "https://www.google.com/maps/place/?q=place_id:0x3963029cb1d6af1f:0xcf1bea3e7e7a08bd"}, {"place_id": "0x3962fdb5c2380727:0x859cb1b40afbe442", "name": "Samaritan InfoTech", "category": "Software company", "street": "Malwa Tower", "city": "Square", "phone": "09993671402", "website": "https://www.samaritaninfotech.com/", "rating": 4.6, "review_count": "", "latitude": 22.7254206, "longitude": 75.8862863, "maps_url": "https://www.google.com/maps/place/?q=place_id:0x3962fdb5c2380727:0x859cb1b40afbe442"}, {"place_id": "0x3962e2dfd82f826f:0x9ce083a7c01b2917", "name": "Tech Radix Pvt Ltd", "category": "Software company", "street": "104, Rituraj Business Center", "city": "behind UNO Business Park", "phone": "08989899596", "website": "http://tech-radix.com/", "rating": 5, "review_count": "", "latitude": 22.6859787, "longitude": 75.9236943, "maps_url": "https://www.google.com/maps/place/?q=place_id:0x3962e2dfd82f826f:0x9ce083a7c01b2917"}, {"place_id": "0x3962fceefff1c439:0xb0fa7789cf76d47f", "name": "SSV Technologies", "category": "Software company", "street": "26, AB Rd, Scheme 54 PU4", "city": "Vijay Nagar", "phone": "09039063936", "website": "https://ssvtechnologies.in/", "rating": 4, "review_count": "", "latitude": 22.7454435, "longitude": 75.8965633, "maps_url": "https://www.google.com/maps/place/?q=place_id:0x3962fceefff1c439:0xb0fa7789cf76d47f"}, {"place_id": "0x3962fd558df1e307:0xc681e51830ad104c", "name": "Advantal Technologies Ltd | Product Engineering Firm | Global OEM Solutions Provider", "category": "Software company", "street": "17-A", "city": "Electronic Complex, Pardesipura", "phone": "07314037720", "website": "https://advantaltechnologies.com/", "rating": 4, "review_count": "", "latitude": 22.75162, "longitude": 75.86542949999999, "maps_url": "https://www.google.com/maps/place/?q=place_id:0x3962fd558df1e307:0xc681e51830ad104c"}, {"place_id": "0x3962fce207f10061:0xe8234aa87cb88aad", "name": "Winlancer Technologies", "category": "Software company", "street": "619", "city": "Shekhar central", "phone": "09926372815", "website": "http://www.winlancers.com/", "rating": 4.6, "review_count": "", "latitude": 22.722727, "longitude": 75.88707099999999, "maps_url": "https://www.google.com/maps/place/?q=place_id:0x3962fce207f10061:0xe8234aa87cb88aad"}, {"place_id": "0x3962fd4b09bfe885:0x3d265575f7a4e0ec", "name": "Mactosys | Web Development & Design | Mobile App Development | Digital Marketing Company", "category": "Software company", "street": "502", "city": "Airen Heights", "phone": "07314964875", "website": "http://www.mactosys.com/", "rating": 3.8, "review_count": "", "latitude": 22.745033, "longitude": 75.8921697, "maps_url": "https://www.google.com/maps/place/?q=place_id:0x3962fd4b09bfe885:0x3d265575f7a4e0ec"}, {"place_id": "0x3962fd56993c50d5:0xfbbfbc4eeb0789b9", "name": "CDN Solutions Group", "category": "Software company", "street": "Unit No. 304", "city": "Princes Business Skypark", "phone": "07314035928", "website": "https://www.cdnsol.com/", "rating": 3.8, "review_count": "", "latitude": 22.745851, "longitude": 75.893061, "maps_url": "https://www.google.com/maps/place/?q=place_id:0x3962fd56993c50d5:0xfbbfbc4eeb0789b9"}, {"place_id": "0x3962e2ce2f47899b:0x9f44070e6f8cca45", "name": "Techwave IT Solutions Pvt Ltd", "category": "Software company", "street": "Bhopal Motors JCB", "city": "near Panchvati", "phone": "09009155444", "website": "http://techwaveitsolutions.com/", "rating": 4.6, "review_count": "", "latitude": 22.7920648, "longitude": 75.9074073, "maps_url": "https://www.google.com/maps/place/?q=place_id:0x3962e2ce2f47899b:0x9f44070e6f8cca45"}, {"place_id": "0x3962e2d498f63cd5:0xd25e88812d9e2551", "name": "Vedik Cyber Technology Pvt Ltd", "category": "Software company", "street": "UNO Business Park Bypass Road", "city": "Madhya Pradesh 452016", "phone": "07314871004", "website": "https://www.vcybertech.com/", "rating": 5, "review_count": "", "latitude": 22.6859616, "longitude": 75.92381929999999, "maps_url": "https://www.google.com/maps/place/?q=place_id:0x3962e2d498f63cd5:0xd25e88812d9e2551"}, {"place_id": "0x39630328ba695d7b:0x792447e6ff8a135d", "name": "Covetus Technologies Pvt Ltd", "category": "Software company", "street": "256, Scheme No 78 - III", "city": "Scheme Number 78, Vijay Nagar, Part II, Scheme 78, Vijay Nagar", "phone": "07314200152", "website": "https://www.covetus.com/", "rating": 3.9, "review_count": "", "latitude": 22.763654799999998, "longitude": 75.8880435, "maps_url": "https://www.google.com/maps/place/?q=place_id:0x39630328ba695d7b:0x792447e6ff8a135d"}, {"place_id": "0x3962fd725f04cfdd:0x21fe795725afdb82", "name": "India Websoft - Website Design and Development Company", "category": "Software company", "street": "106", "city": "NRK BizPark", "phone": "09755907700", "website": "https://www.indiawebsoft.com/", "rating": 4.8, "review_count": "", "latitude": 22.745765499999997, "longitude": 75.89632329999999, "maps_url": "https://www.google.com/maps/place/?q=place_id:0x3962fd725f04cfdd:0x21fe795725afdb82"}, {"place_id": "0x3962fd1aa123c2e7:0xf945341b74ea4ae5", "name": "Codeverse IT Private Limited", "category": "Software company", "street": "Samiksh Landmark", "city": "309, AB Rd", "phone": "08962822602", "website": "https://www.codeverseit.in/", "rating": 4, "review_count": "", "latitude": 22.6785338, "longitude": 75.8514817, "maps_url": "https://www.google.com/maps/place/?q=place_id:0x3962fd1aa123c2e7:0xf945341b74ea4ae5"}, {"place_id": "0x3962fd8058ec9a45:0xdcdd2fd9021c60c4", "name": "Innosoft Group Pvt. Ltd", "category": "Software company", "street": "United spaces", "city": "10/C, Mahatma Gandhi Rd", "phone": "09589699997", "website": "https://innosoft-group.com/", "rating": 4.8, "review_count": "", "latitude": 22.7216208, "longitude": 75.8789106, "maps_url": "https://www.google.com/maps/place/?q=place_id:0x3962fd8058ec9a45:0xdcdd2fd9021c60c4"}, {"place_id": "0x3962fd99c963b103:0xf8722b03ae5b08c2", "name": "Devnion Technologies Pvt. Ltd.", "category": "Software company", "street": "4-A, Plot No 19, 102, First Floor", "city": "MR 9 Rd", "phone": "07313500489", "website": "https://devnion.com/", "rating": 5, "review_count": "", "latitude": 22.7420759, "longitude": 75.8989106, "maps_url": "https://www.google.com/maps/place/?q=place_id:0x3962fd99c963b103:0xf8722b03ae5b08c2"}, {"place_id": "0x3962fd22b8203c13:0xf96a09f158b994b5", "name": "F5 Buddy Pvt. Ltd.", "category": "Software company", "street": "A3-301, Uno Business Park", "city": "By Pass Road", "phone": "09131599323", "website": "https://www.f5buddy.com/", "rating": 4.6, "review_count": "", "latitude": 22.6858531, "longitude": 75.9231908, "maps_url": "https://www.google.com/maps/place/?q=place_id:0x3962fd22b8203c13:0xf96a09f158b994b5"}, {"place_id": "0x3962e3d56c170eb1:0x876e329535a3531d", "name": "AG TECHNOLOGIES, Software Company in Indore", "category": "Software company", "street": "28, Shree Krishna Vihar Colony, Near Shree Chintaman Hanuman Mandir, Opp Malviya Petrol Pump, Radisson Square", "city": "Madhya Pradesh 452016", "phone": "", "website": "", "rating": 5, "review_count": "", "latitude": 22.744705999999997, "longitude": 75.910692, "maps_url": "https://www.google.com/maps/place/?q=place_id:0x3962e3d56c170eb1:0x876e329535a3531d"}, {"place_id": "0x3962fce49f79b7b3:0x853dda0c769e5137", "name": "Axiom Cloud Solutions", "category": "Software company", "street": "94, Indrapuri Colony, Near Bhawarkua Square", "city": "Indore, Madhya Pradesh 452001", "phone": "07314278572", "website": "http://axiomcloudtech.com/", "rating": 4.8, "review_count": "", "latitude": 22.688788199999998, "longitude": 75.8665621, "maps_url": "https://www.google.com/maps/place/?q=place_id:0x3962fce49f79b7b3:0x853dda0c769e5137"}, {"place_id": "0x3962fcae2e37e825:0xc2a4f048305d28c1", "name": "ojo IT Solutions", "category": "Computer support and services", "street": "Peace Point", "city": "07", "phone": "", "website": "http://www.getsetojo.com/", "rating": 5, "review_count": "", "latitude": 22.666720899999998, "longitude": 75.89211929999999, "maps_url": "https://www.google.com/maps/place/?q=place_id:0x3962fcae2e37e825:0xc2a4f048305d28c1"}, {"place_id": "0x3962fda9638f76d3:0xf46aa7d34cc4b2a6", "name": "Blockchain & Mobile App Development Company - Virtual Height IT Services Pvt. Ltd.", "category": "Software company", "street": "Shekhar central", "city": "719, AB Rd", "phone": "09510987700", "website": "https://www.virtualheight.com/?utm_source=GBP&utm_medium=Organic", "rating": 4.5, "review_count": "", "latitude": 22.722727, "longitude": 75.88707099999999, "maps_url": "https://www.google.com/maps/place/?q=place_id:0x3962fda9638f76d3:0xf46aa7d34cc4b2a6"}, {"place_id": "0x3962fd1790b2e6cb:0x47270a7fe30947bf", "name": "TECHFROLIC", "category": "Software company", "street": "Office No. 509, 165", "city": "Fortune Business Center", "phone": "06479922645", "website": "http://techfrolic.com/", "rating": 5, "review_count": "", "latitude": 22.7143998, "longitude": 75.8745102, "maps_url": "https://www.google.com/maps/place/?q=place_id:0x3962fd1790b2e6cb:0x47270a7fe30947bf"}, {"place_id": "0x3962fd00704fbad7:0x62c67058e5974eb8", "name": "Brain Inventory", "category": "Software company", "street": "618", "city": "Shekhar central", "phone": "08109561401", "website": "https://braininventory.in/", "rating": 4.4, "review_count": "", "latitude": 22.722678, "longitude": 75.8871721, "maps_url": "https://www.google.com/maps/place/?q=place_id:0x3962fd00704fbad7:0x62c67058e5974eb8"}, {"place_id": "0x3962fde8566a3b65:0x5ce04a9c3b185ded", "name": "Atulya IT Park", "category": "Corporate office", "street": "Indrapuri Colony, Bhanwar Kuwa", "city": "Indore, Madhya Pradesh 452001", "phone": "07771077700", "website": "", "rating": 4.3, "review_count": "", "latitude": 22.6867703, "longitude": 75.87145869999999, "maps_url": "https://www.google.com/maps/place/?q=place_id:0x3962fde8566a3b65:0x5ce04a9c3b185ded"}, {"place_id": "0x3962fd5d9b59644d:0xce0a63c54471d620", "name": "Webllisto", "category": "Software company", "street": "801", "city": "Airen Heights", "phone": "09589849623", "website": "https://www.webllisto.com/", "rating": 4.5, "review_count": "", "latitude": 22.7450533, "longitude": 75.8923633, "maps_url": "https://www.google.com/maps/place/?q=place_id:0x3962fd5d9b59644d:0xce0a63c54471d620"}, {"place_id": "0x3962fd5684f3ffff:0x70794951e809d186", "name": "Eminence Infotech", "category": "Software company", "street": "3rd Floor", "city": "AICTSL Campus", "phone": "07566514634", "website": "http://eminenceinfotech.com/", "rating": 4.2, "review_count": "", "latitude": 22.7143431, "longitude": 75.8842609, "maps_url": "https://www.google.com/maps/place/?q=place_id:0x3962fd5684f3ffff:0x70794951e809d186"}, {"place_id": "0x3962fd3294a3631d:0x1605f9280adcb94e", "name": "Eclat Infotech Pvt Ltd", "category": "Software company", "street": "407", "city": "Shekhar central", "phone": "06619277736", "website": "http://www.eclatinfotech.com/", "rating": 3.4, "review_count": "", "latitude": 22.722678, "longitude": 75.8871721, "maps_url": "https://www.google.com/maps/place/?q=place_id:0x3962fd3294a3631d:0x1605f9280adcb94e"}, {"place_id": "0x3962fdb4c9f1bd5b:0x4b4dcdd123d7c2e3", "name": "P&P Infotech Applying Solutions", "category": "Software company", "street": "137, Gopur Square", "city": "Ahilya Nagar", "phone": "07049037000", "website": "http://www.pnpuniverse.com/", "rating": 4.1, "review_count": "", "latitude": 22.6833803, "longitude": 75.83069379999999, "maps_url": "https://www.google.com/maps/place/?q=place_id:0x3962fdb4c9f1bd5b:0x4b4dcdd123d7c2e3"}, {"place_id": "0x396303297c7cf2ef:0x965300c0d82fac7c", "name": "IW Technocrats | IT Company", "category": "Software company", "street": "Corporate Park", "city": "816, Cliffton Park Rd", "phone": "", "website": "https://www.iwtechnocrats.in/", "rating": "", "review_count": "", "latitude": 22.763570599999998, "longitude": 75.8794769, "maps_url": "https://www.google.com/maps/place/?q=place_id:0x396303297c7cf2ef:0x965300c0d82fac7c"}, {"place_id": "0x3962fd3d958d6b31:0xc138c90226dedd4d", "name": "ITDwell Technologies", "category": "Software company", "street": "403 Atulya IT Park", "city": "Bhawarkua Main Rd", "phone": "09425319095", "website": "http://itdwell.com/", "rating": 4.2, "review_count": "", "latitude": 22.686778699999998, "longitude": 75.8714616, "maps_url": "https://www.google.com/maps/place/?q=place_id:0x3962fd3d958d6b31:0xc138c90226dedd4d"}, {"place_id": "0x3962fd16b8dfba73:0xa54b27af45f7d14d", "name": "Techvalens Software Systems", "category": "Software company", "street": "OM Gurudev Plaza", "city": "410", "phone": "09644506070", "website": "https://www.techvalens.com/", "rating": 3.7, "review_count": "", "latitude": 22.747921899999998, "longitude": 75.8899612, "maps_url": "https://www.google.com/maps/place/?q=place_id:0x3962fd16b8dfba73:0xa54b27af45f7d14d"}, {"place_id": "0x3962fb2a008d3de5:0x352eeb43f166a053", "name": "Kehems Technologies Pvt Ltd.", "category": "HVAC contractor", "street": "12th K. M", "city": "Indore - Khandwa Rd", "phone": "07314228306", "website": "http://kehems.com/", "rating": 4.2, "review_count": "", "latitude": 22.6102533, "longitude": 75.8942004, "maps_url": "https://www.google.com/maps/place/?q=place_id:0x3962fb2a008d3de5:0x352eeb43f166a053"}, {"place_id": "0x3962fd83eafebe0b:0xb7f51ba9c78299d8", "name": "Satya Kabir E-solutions Private Limited - Indore", "category": "Software company", "street": "3rd Floor", "city": "Mishika Tower", "phone": "08959977624", "website": "https://satyakabir.com/", "rating": 5, "review_count": "", "latitude": 22.7014148, "longitude": 75.8703522, "maps_url": "https://www.google.com/maps/place/?q=place_id:0x3962fd83eafebe0b:0xb7f51ba9c78299d8"}, {"place_id": "0x3962e32b2894590f:0x4e73ebc1261cc50", "name": "TheRapidHire Private Limited - Software ,Website & Mobile App Development Company in India, USA", "category": "Software company", "street": "51", "city": "Electronic Complex, Pardesipura", "phone": "07313581354", "website": "https://www.therapidhire.com/", "rating": 3.5, "review_count": "", "latitude": 22.752822, "longitude": 75.867381, "maps_url": "https://www.google.com/maps/place/?q=place_id:0x3962e32b2894590f:0x4e73ebc1261cc50"}, {"place_id": "0x3962fcfaba24881f:0xafefb3c52fb810af", "name": "Random Soft Solution", "category": "Software company", "street": "M-2 Sukhmani Plaza, Scheme No.59, Amitesh Nagar, AB Road Chithram Square", "city": "Plot No 419, Agra-Bombay Road", "phone": "09993111131", "website": "http://www.randomsoftsolution.com/", "rating": 3.9, "review_count": "", "latitude": 22.681072999999998, "longitude": 75.853402, "maps_url": "https://www.google.com/maps/place/?q=place_id:0x3962fcfaba24881f:0xafefb3c52fb810af"}, {"place_id": "0x3962fd47dbb009fb:0x2832c77aa537d475", "name": "ClearTrail Technologies", "category": "Software company", "street": "SEZ Indore Unit-I, 4-B, STP-II, 3rd Floor", "city": "Crystal IT Park, Ring Road", "phone": "07314269100", "website": "http://www.clear-trail.com/", "rating": 4, "review_count": "", "latitude": 22.6847665, "longitude": 75.8708789, "maps_url": "https://www.google.com/maps/place/?q=place_id:0x3962fd47dbb009fb:0x2832c77aa537d475"}, {"place_id": "0x390ce458d0000001:0xf2123bd299ec4501", "name": "IT Company India", "category": "Software company", "street": "D56", "city": "D Block, Sector 10", "phone": "09999244854", "website": "https://www.itcompanyindia.in/", "rating": 4.7, "review_count": "", "latitude": 28.589917699999997, "longitude": 77.3351153, "maps_url": "https://www.google.com/maps/place/?q=place_id:0x390ce458d0000001:0xf2123bd299ec4501"}, {"place_id": "0x3962fce9643647dd:0xc1ffcef90e9b429d", "name": "Crystal IT Park", "category": "Corporate office", "street": "MVPC+8WC", "city": "Indrapuri Colony, Davv Takshila Parisar", "phone": "", "website": "", "rating": 4.4, "review_count": "", "latitude": 22.685824, "longitude": 75.87226629999999, "maps_url": "https://www.google.com/maps/place/?q=place_id:0x3962fce9643647dd:0xc1ffcef90e9b429d"}, {"place_id": "0x3962ff31138e4c33:0x825459bc8e5e68bb", "name": "Oshnic IT Solutions Pvt. Ltd. Indore", "category": "Corporate office", "street": "Nainod Village, Nainod", "city": "Indore, Madhya Pradesh 453112", "phone": "09039355510", "website": "https://www.oshnicit.com/", "rating": 5, "review_count": "", "latitude": 22.733524799999998, "longitude": 75.7776511, "maps_url": "https://www.google.com/maps/place/?q=place_id:0x3962ff31138e4c33:0x825459bc8e5e68bb"}, {"place_id": "0x3962fd11cbaf30c5:0xeddd100ed6a7f182", "name": "IT park indore", "category": "Technology park", "street": "Khandwa Rd", "city": "Indrapuri Colony, Bhanwar Kuwa", "phone": "", "website": "", "rating": 4.3, "review_count": "", "latitude": 22.6854129, "longitude": 75.8722016, "maps_url": "https://www.google.com/maps/place/?q=place_id:0x3962fd11cbaf30c5:0xeddd100ed6a7f182"}, {"place_id": "0x3962fda7e1818cb5:0xbf2d11d2829e12f2", "name": "Smashing Infolabs Pvt Ltd -Drupal Website Design, Mobile App & Software-Shopify Ecommerce Development Company Indore India", "category": "Software company", "street": "302, Atulya IT Park", "city": "Madhya Pradesh 452001", "phone": "07489434407", "website": "https://smashinginfolabs.com/", "rating": 5, "review_count": "", "latitude": 22.686809999999998, "longitude": 75.87146489999999, "maps_url": "https://www.google.com/maps/place/?q=place_id:0x3962fda7e1818cb5:0xbf2d11d2829e12f2"}, {"place_id": "0x3962fd3f35699959:0x60a1ecf32851850a", "name": "Chapter247 Infotech", "category": "Software company", "street": "6th Floor", "city": "611-612-613", "phone": "07773077715", "website": "https://www.chapter247.com/", "rating": 3.8, "review_count": "", "latitude": 22.7592613, "longitude": 75.9238235, "maps_url": "https://www.google.com/maps/place/?q=place_id:0x3962fd3f35699959:0x60a1ecf32851850a"}, {"place_id": "0x3963035df09fc263:0x7359a04a773d38fe", "name": "Ailogix Software Solutions India Pvt. Ltd.", "category": "Software company", "street": "No. 202, Mahaveer Palace AG - 147, Scheme No. 54", "city": "Vijay Nagar", "phone": "09810778213", "website": "https://www.ailogix.in/", "rating": 3.8, "review_count": "", "latitude": 22.7550547, "longitude": 75.8919536, "maps_url": "https://www.google.com/maps/place/?q=place_id:0x3963035df09fc263:0x7359a04a773d38fe"}, {"place_id": "0x812b55556fbdddf3:0x37a051c28a19caf4", "name": "TanmayiSoft - Website Design Company in Indore", "category": "Software company", "street": "Trade House", "city": "415", "phone": "", "website": "https://tanmayisoft.com/", "rating": 5, "review_count": "", "latitude": 22.7159305, "longitude": 75.8757761, "maps_url": "https://www.google.com/maps/place/?q=place_id:0x812b55556fbdddf3:0x37a051c28a19caf4"}, {"place_id": "0x3962fd648dffb949:0xc019f86e48078517", "name": "Oriol Infotech Solutions PVT LTD", "category": "Software company", "street": "Shri Krishna Avenue", "city": "Phase 1, Limbodi", "phone": "09407325989", "website": "https://www.oriolinfotech.com/", "rating": 5, "review_count": "", "latitude": 22.728397299999997, "longitude": 75.8878424, "maps_url": "https://www.google.com/maps/place/?q=place_id:0x3962fd648dffb949:0xc019f86e48078517"}, {"place_id": "0x3962fd6051e1fa61:0xea1ac49345f39345", "name": "Bluetech IT Services", "category": "Software company", "street": "", "city": "", "phone": "09893509996", "website": "https://www.bluetechitservices.com/", "rating": 4.6, "review_count": "", "latitude": 14.157641199999999, "longitude": -16.7424939, "maps_url": "https://www.google.com/maps/place/?q=place_id:0x3962fd6051e1fa61:0xea1ac49345f39345"}, {"place_id": "0x3962fd6188b57d47:0x26b0abd8515dc291", "name": "eWebWorld | Website & Mobile App Development Company in Indore", "category": "Website designer", "street": "Office number 504,505", "city": "Mahasagar Corporate", "phone": "09074976014", "website": "https://ewebworld.in/", "rating": 4.8, "review_count": "", "latitude": 22.718743399999997, "longitude": 75.8867485, "maps_url": "https://www.google.com/maps/place/?q=place_id:0x3962fd6188b57d47:0x26b0abd8515dc291"}, {"place_id": "0x3962fcb185655f37:0xd5b7507ed7e9692", "name": "NicheHype IT services pvt ltd", "category": "Internet marketing service", "street": "165-A, Sector-A", "city": "Limbodi Main Road", "phone": "08980070400", "website": "https://www.nichehype.com/", "rating": 5, "review_count": "", "latitude": 22.6706298, "longitude": 75.89350379999999, "maps_url": "https://www.google.com/maps/place/?q=place_id:0x3962fcb185655f37:0xd5b7507ed7e9692"}, {"place_id": "0x3962fdd304727425:0x213b226403fc6317", "name": "DevSecRoot Technologies", "category": "Software company", "street": "chhabra niwas", "city": "38, Bholaram Ustad Marg", "phone": "08602159937", "website": "https://devsecroot.com/", "rating": 5, "review_count": "", "latitude": 22.6854855, "longitude": 75.86163719999999, "maps_url": "https://www.google.com/maps/place/?q=place_id:0x3962fdd304727425:0x213b226403fc6317"}, {"place_id": "0x3962fce4fee84e1f:0x9cb5925343f3b59f", "name": "FODUU", "category": "Software company", "street": "102 Flat no, Raj Palace,", "city": "Indrapuri Colony,", "phone": "08817304988", "website": "https://www.foduu.com/?utm_source=google-maps&utm_medium=gmb-listing&utm_campaign=google-business-listing", "rating": 4.1, "review_count": "", "latitude": 22.6885203, "longitude": 75.86672449999999, "maps_url": "https://www.google.com/maps/place/?q=place_id:0x3962fce4fee84e1f:0x9cb5925343f3b59f"}, {"place_id": "0x3962fce9643647dd:0xc1ffcef90e9b429d", "name": "Crystal IT Park", "category": "Corporate office", "street": "MVPC+8WC", "city": "Indrapuri Colony, Davv Takshila Parisar", "phone": "", "website": "", "rating": 4.4, "review_count": "", "latitude": 22.685824, "longitude": 75.87226629999999, "maps_url": "https://www.google.com/maps/place/?q=place_id:0x3962fce9643647dd:0xc1ffcef90e9b429d"}, {"place_id": "0x3962ff31138e4c33:0x825459bc8e5e68bb", "name": "Oshnic IT Solutions Pvt. Ltd. Indore", "category": "Corporate office", "street": "Nainod Village, Nainod", "city": "Indore, Madhya Pradesh 453112", "phone": "09039355510", "website": "https://www.oshnicit.com/", "rating": 5, "review_count": "", "latitude": 22.733524799999998, "longitude": 75.7776511, "maps_url": "https://www.google.com/maps/place/?q=place_id:0x3962ff31138e4c33:0x825459bc8e5e68bb"}, {"place_id": "0x3962fd11cbaf30c5:0xeddd100ed6a7f182", "name": "IT park indore", "category": "Technology park", "street": "Khandwa Rd", "city": "Indrapuri Colony, Bhanwar Kuwa", "phone": "", "website": "", "rating": 4.3, "review_count": "", "latitude": 22.6854129, "longitude": 75.8722016, "maps_url": "https://www.google.com/maps/place/?q=place_id:0x3962fd11cbaf30c5:0xeddd100ed6a7f182"}, {"place_id": "0x3962fda7e1818cb5:0xbf2d11d2829e12f2", "name": "Smashing Infolabs Pvt Ltd -Drupal Website Design, Mobile App & Software-Shopify Ecommerce Development Company Indore India", "category": "Software company", "street": "302, Atulya IT Park", "city": "Madhya Pradesh 452001", "phone": "07489434407", "website": "https://smashinginfolabs.com/", "rating": 5, "review_count": "", "latitude": 22.686809999999998, "longitude": 75.87146489999999, "maps_url": "https://www.google.com/maps/place/?q=place_id:0x3962fda7e1818cb5:0xbf2d11d2829e12f2"}, {"place_id": "0x3962fd3f35699959:0x60a1ecf32851850a", "name": "Chapter247 Infotech", "category": "Software company", "street": "6th Floor", "city": "611-612-613", "phone": "07773077715", "website": "https://www.chapter247.com/", "rating": 3.8, "review_count": "", "latitude": 22.7592613, "longitude": 75.9238235, "maps_url": "https://www.google.com/maps/place/?q=place_id:0x3962fd3f35699959:0x60a1ecf32851850a"}, {"place_id": "0x3963035df09fc263:0x7359a04a773d38fe", "name": "Ailogix Software Solutions India Pvt. Ltd.", "category": "Software company", "street": "No. 202, Mahaveer Palace AG - 147, Scheme No. 54", "city": "Vijay Nagar", "phone": "09810778213", "website": "https://www.ailogix.in/", "rating": 3.8, "review_count": "", "latitude": 22.7550547, "longitude": 75.8919536, "maps_url": "https://www.google.com/maps/place/?q=place_id:0x3963035df09fc263:0x7359a04a773d38fe"}, {"place_id": "0x812b55556fbdddf3:0x37a051c28a19caf4", "name": "TanmayiSoft - Website Design Company in Indore", "category": "Software company", "street": "Trade House", "city": "415", "phone": "", "website": "https://tanmayisoft.com/", "rating": 5, "review_count": "", "latitude": 22.7159305, "longitude": 75.8757761, "maps_url": "https://www.google.com/maps/place/?q=place_id:0x812b55556fbdddf3:0x37a051c28a19caf4"}, {"place_id": "0x3962fd648dffb949:0xc019f86e48078517", "name": "Oriol Infotech Solutions PVT LTD", "category": "Software company", "street": "Shri Krishna Avenue", "city": "Phase 1, Limbodi", "phone": "09407325989", "website": "https://www.oriolinfotech.com/", "rating": 5, "review_count": "", "latitude": 22.728397299999997, "longitude": 75.8878424, "maps_url": "https://www.google.com/maps/place/?q=place_id:0x3962fd648dffb949:0xc019f86e48078517"}, {"place_id": "0x3962fd6051e1fa61:0xea1ac49345f39345", "name": "Bluetech IT Services", "category": "Software company", "street": "", "city": "", "phone": "09893509996", "website": "https://www.bluetechitservices.com/", "rating": 4.6, "review_count": "", "latitude": 14.157641199999999, "longitude": -16.7424939, "maps_url": "https://www.google.com/maps/place/?q=place_id:0x3962fd6051e1fa61:0xea1ac49345f39345"}, {"place_id": "0x3962fd6188b57d47:0x26b0abd8515dc291", "name": "eWebWorld | Website & Mobile App Development Company in Indore", "category": "Website designer", "street": "Office number 504,505", "city": "Mahasagar Corporate", "phone": "09074976014", "website": "https://ewebworld.in/", "rating": 4.8, "review_count": "", "latitude": 22.718743399999997, "longitude": 75.8867485, "maps_url": "https://www.google.com/maps/place/?q=place_id:0x3962fd6188b57d47:0x26b0abd8515dc291"}, {"place_id": "0x3962fcb185655f37:0xd5b7507ed7e9692", "name": "NicheHype IT services pvt ltd", "category": "Internet marketing service", "street": "165-A, Sector-A", "city": "Limbodi Main Road", "phone": "08980070400", "website": "https://www.nichehype.com/", "rating": 5, "review_count": "", "latitude": 22.6706298, "longitude": 75.89350379999999, "maps_url": "https://www.google.com/maps/place/?q=place_id:0x3962fcb185655f37:0xd5b7507ed7e9692"}, {"place_id": "0x3962fce3233cac31:0x92f826f70c7c5a66", "name": "SB Infotech", "category": "Software company", "street": "604, Narendra Tiwari Marg", "city": "near SUDAMA DWAR -A", "phone": "07314932442", "website": "http://www.sbinfotech.org/", "rating": 3.9, "review_count": "", "latitude": 22.6955173, "longitude": 75.8354308, "maps_url": "https://www.google.com/maps/place/?q=place_id:0x3962fce3233cac31:0x92f826f70c7c5a66"}, {"place_id": "0x3962fdd304727425:0x213b226403fc6317", "name": "DevSecRoot Technologies", "category": "Software company", "street": "chhabra niwas", "city": "38, Bholaram Ustad Marg", "phone": "08602159937", "website": "https://devsecroot.com/", "rating": 5, "review_count": "", "latitude": 22.6854855, "longitude": 75.86163719999999, "maps_url": "https://www.google.com/maps/place/?q=place_id:0x3962fdd304727425:0x213b226403fc6317"}, {"place_id": "0x3962fce4fee84e1f:0x9cb5925343f3b59f", "name": "FODUU", "category": "Software company", "street": "102 Flat no, Raj Palace,", "city": "Indrapuri Colony,", "phone": "08817304988", "website": "https://www.foduu.com/?utm_source=google-maps&utm_medium=gmb-listing&utm_campaign=google-business-listing", "rating": 4.1, "review_count": "", "latitude": 22.6885203, "longitude": 75.86672449999999, "maps_url": "https://www.google.com/maps/place/?q=place_id:0x3962fce4fee84e1f:0x9cb5925343f3b59f"}, {"place_id": "0x3962e3a1f303ab4f:0xa640efe119bac6a3", "name": "RAMO PVT LTD", "category": "Software company", "street": "", "city": "", "phone": "", "website": "https://ramo.co.in/", "rating": 3.8, "review_count": "", "latitude": 21.0680074, "longitude": 82.7525294, "maps_url": "https://www.google.com/maps/place/?q=place_id:0x3962e3a1f303ab4f:0xa640efe119bac6a3"}, {"place_id": "0x3962fd1e3a7ab3eb:0x8196ceb274736c5c", "name": "SRS Valutech Systems Pvt. Ltd.", "category": "Software company", "street": "4th Floor", "city": "Atulya IT Park", "phone": "07000068331", "website": "https://www.srsvalutech.com/", "rating": 3.5, "review_count": "", "latitude": 22.6867703, "longitude": 75.87145869999999, "maps_url": "https://www.google.com/maps/place/?q=place_id:0x3962fd1e3a7ab3eb:0x8196ceb274736c5c"}, {"place_id": "0x3962fc14dc6f18bb:0x4fa0454031795ad3", "name": "Yash Computech Solution Pvt Ltd", "category": "Software company", "street": "HB 37, Scheme No 94", "city": "Eastern Ring Rd", "phone": "07566995099", "website": "https://www.ycsin.com/", "rating": 4, "review_count": "", "latitude": 22.690003299999997, "longitude": 75.89254009999999, "maps_url": "https://www.google.com/maps/place/?q=place_id:0x3962fc14dc6f18bb:0x4fa0454031795ad3"}, {"place_id": "0x3962fddc6fcb9745:0x135861c48067e00b", "name": "DigiHolic Infotech Pvt.Ltd", "category": "Software company", "street": "Office No.201", "city": "AB Rd", "phone": "09522345672", "website": "", "rating": 4.5, "review_count": "", "latitude": 22.6886546, "longitude": 75.8628136, "maps_url": "https://www.google.com/maps/place/?q=place_id:0x3962fddc6fcb9745:0x135861c48067e00b"}, {"place_id": "0x3962e34a8fcd256d:0xb0153f4ca5a38996", "name": "Ruknovo InfoTech Solutions \u2013 Empowering Businesses with Smart IT Services", "category": "Software company", "street": "jaspal dhaba", "city": "Vaibhav luxmi nagar gali no. 5", "phone": "09617246882", "website": "https://ruknovo.vercel.app/", "rating": 4.4, "review_count": "", "latitude": 22.744614, "longitude": 75.9150983, "maps_url": "https://www.google.com/maps/place/?q=place_id:0x3962e34a8fcd256d:0xb0153f4ca5a38996"}, {"place_id": "0x3962fdff2fceeaa1:0x269a40cdd619a473", "name": "Logicweb Technology", "category": "Computer support and services", "street": "204,2nd floor", "city": "AB Rd", "phone": "", "website": "", "rating": 5, "review_count": "", "latitude": 22.6886546, "longitude": 75.8628136, "maps_url": "https://www.google.com/maps/place/?q=place_id:0x3962fdff2fceeaa1:0x269a40cdd619a473"}, {"place_id": "0x3962e5ffe82b8d53:0xe4358c81ee0f7136", "name": "Ayka Pharma", "category": "Pharmaceutical company", "street": "Halka No.61, Serve No.156/1/1/1, Jamaniya Khurd", "city": "Indore, Madhya Pradesh 452016", "phone": "", "website": "", "rating": 4.5, "review_count": "", "latitude": 22.6416291, "longitude": 75.9589909, "maps_url": "https://www.google.com/maps/place/?q=place_id:0x3962e5ffe82b8d53:0xe4358c81ee0f7136"}, {"place_id": "0x3962fd7be9357d4f:0xb9a7bbb603b98163", "name": "Inwizards Software Technology", "category": "Software company", "street": "603", "city": "Airen Heights", "phone": "09667584436", "website": "https://www.inwizards.com/", "rating": 4.7, "review_count": "", "latitude": 22.745121299999997, "longitude": 75.89222699999999, "maps_url": "https://www.google.com/maps/place/?q=place_id:0x3962fd7be9357d4f:0xb9a7bbb603b98163"}, {"place_id": "0x39631df3a9155229:0x54dd3edab4a6d180", "name": "sarthak intelliroot technocrats", "category": "Computer Hardware Company", "street": "56", "city": "Mahadev Sahara, mangalvihar colony, Manglaya Sadak", "phone": "08319963809", "website": "https://indiamart.in/MpRgbz95", "rating": 5, "review_count": "", "latitude": 22.8167246, "longitude": 75.9255585, "maps_url": "https://www.google.com/maps/place/?q=place_id:0x39631df3a9155229:0x54dd3edab4a6d180"}, {"place_id": "0x3962fd146cfcd09f:0x67a4e90ed3f3e3f9", "name": "Walking Dreamz Technologies | Web & Mobile App Development Indore", "category": "Software company", "street": "2, Annapurna Rd", "city": "near Luv kush bakery", "phone": "07000961866", "website": "http://walkingdreamz.com/", "rating": 4.6, "review_count": "", "latitude": 22.6789485, "longitude": 75.8346431, "maps_url": "https://www.google.com/maps/place/?q=place_id:0x3962fd146cfcd09f:0x67a4e90ed3f3e3f9"}, {"place_id": "0x3962fd447b4de707:0x24093ad8d03871ae", "name": "EngineerBabu", "category": "Software company", "street": "Infront of Prestige College", "city": "Plot no 156", "phone": "07771890007", "website": "https://www.engineerbabu.com/", "rating": 4.1, "review_count": "", "latitude": 22.764306599999998, "longitude": 75.8871281, "maps_url": "https://www.google.com/maps/place/?q=place_id:0x3962fd447b4de707:0x24093ad8d03871ae"}, {"place_id": "0x3962fd91141818ad:0xa496e301e28e3226", "name": "Sion Data matics India Pvt. Ltd| Best IT Company In Madhya Pradesh", "category": "Software company", "street": "11,5", "city": "bano doctor compound", "phone": "07880136882", "website": "https://www.sdmipl.com/", "rating": 3.9, "review_count": "", "latitude": 22.7181933, "longitude": 75.87494319999999, "maps_url": "https://www.google.com/maps/place/?q=place_id:0x3962fd91141818ad:0xa496e301e28e3226"}, {"place_id": "0x3962e39b92ff9d77:0xc79d3a2696ab1651", "name": "Mxpertz Infolabs - Transforming By Tech | Web & Mobile Development | UI/UX Design | Cloud Solutions | AI/ML Innovations", "category": "Software company", "street": "105", "city": "Captain C.S Naidu Arcade", "phone": "07314957900", "website": "https://www.mxpertz.com/", "rating": 3.9, "review_count": "", "latitude": 22.725223699999997, "longitude": 75.8902705, "maps_url": "https://www.google.com/maps/place/?q=place_id:0x3962e39b92ff9d77:0xc79d3a2696ab1651"}, {"place_id": "0x3962e4551af38277:0xec2445de18fdf0b9", "name": "PRIYA STUDIO & PHOTOCOPY", "category": "Photography studio", "street": "Tillore khud", "city": "near Bank of India", "phone": "09926805315", "website": "", "rating": 4.5, "review_count": "", "latitude": 22.616911299999998, "longitude": 75.9487869, "maps_url": "https://www.google.com/maps/place/?q=place_id:0x3962e4551af38277:0xec2445de18fdf0b9"}, {"place_id": "0x3962fce00dab6609:0x4eb255304aefd4af", "name": "Webwiders Software Solutions", "category": "Website designer", "street": "Pukhraj Corporate", "city": "315", "phone": "07869213333", "website": "https://webwiders.com/", "rating": 4.6, "review_count": "", "latitude": 22.7004876, "longitude": 75.8759815, "maps_url": "https://www.google.com/maps/place/?q=place_id:0x3962fce00dab6609:0x4eb255304aefd4af"}, {"place_id": "0x3962fdbd30b56e2f:0x6e2142278b0505b8", "name": "Cybernet Services-Digital Marketing, Website Designing & Development, Mobile App Development, Company in Indore | CNS", "category": "Software company", "street": "66, Manik Bagh Rd", "city": "Phadnis Colony, Ashoka Colony, Nandanvan Colony", "phone": "07314248982", "website": "https://cybernetservices.net/", "rating": 5, "review_count": "", "latitude": 22.6927481, "longitude": 75.8550762, "maps_url": "https://www.google.com/maps/place/?q=place_id:0x3962fdbd30b56e2f:0x6e2142278b0505b8"}, {"place_id": "0x3962e55f9afb01a5:0xa908d4803d9c573c", "name": "Grow Tech website Designing and Developement Company Indore", "category": "Website designer", "street": "BUSINESS PARK", "city": "AB, Indore Bypass Rd", "phone": "07746006410", "website": "https://growtechservices.com/", "rating": 5, "review_count": "", "latitude": 22.6577672, "longitude": 75.9091621, "maps_url": "https://www.google.com/maps/place/?q=place_id:0x3962e55f9afb01a5:0xa908d4803d9c573c"}, {"place_id": "0x3962fc386a21aff9:0xfb223420f9d0092d", "name": "Impulse Websystems", "category": "Software company", "street": "9930 Spaces, Office no 302", "city": "Mangal Nagar", "phone": "", "website": "", "rating": 5, "review_count": "", "latitude": 22.6862229, "longitude": 75.8597972, "maps_url": "https://www.google.com/maps/place/?q=place_id:0x3962fc386a21aff9:0xfb223420f9d0092d"}, {"place_id": "0x396303a0b00a9073:0x14504de356ba36a3", "name": "Supersourcing", "category": "Software company", "street": "Plot no 156, Scheme no 78", "city": "behind Vrindawan Restaurant", "phone": "08225007007", "website": "https://supersourcing.com/", "rating": 4.4, "review_count": "", "latitude": 22.7643359, "longitude": 75.88706479999999, "maps_url": "https://www.google.com/maps/place/?q=place_id:0x396303a0b00a9073:0x14504de356ba36a3"}, {"place_id": "0x39631d3398181fb3:0x36571d5568ee09ed", "name": "Viprax - Website Design Company In Indore", "category": "Website designer", "street": "Shekhar central", "city": "717", "phone": "07999685683", "website": "https://viprax.com/", "rating": 4.6, "review_count": "", "latitude": 22.7228618, "longitude": 75.8869101, "maps_url": "https://www.google.com/maps/place/?q=place_id:0x39631d3398181fb3:0x36571d5568ee09ed"}, {"place_id": "0x20890d3a3dd7e915:0xf2d4aa73357f00b9", "name": "Thincodz IT Solution Indore | Software Development services| Mobile App Development | Website designing| IT Support services", "category": "Website designer", "street": "4th Floor, Industry House", "city": "Infront of decathlon", "phone": "09329579940", "website": "https://www.thincodz.com/", "rating": 5, "review_count": "", "latitude": 22.728397299999997, "longitude": 75.8878424, "maps_url": "https://www.google.com/maps/place/?q=place_id:0x20890d3a3dd7e915:0xf2d4aa73357f00b9"}, {"place_id": "0x3962e4fd236ad5c7:0x1cf9b2b7102464ca", "name": "Shivajirao Kadam Institute of Technology and Management", "category": "College", "street": "Indore Bypass Road Near Ralamandal, Tillore", "city": "Village", "phone": "09770907106", "website": "https://skitm.in/", "rating": 4, "review_count": "", "latitude": 22.6156574, "longitude": 75.9361639, "maps_url": "https://www.google.com/maps/place/?q=place_id:0x3962e4fd236ad5c7:0x1cf9b2b7102464ca"}, {"place_id": "0x396302aaf5500001:0xb7ca9e747df71628", "name": "Codingkart IT Services", "category": "Software company", "street": "", "city": "", "phone": "08349889628", "website": "http://www.codingkart.com/", "rating": 4.1, "review_count": "", "latitude": 21.0680074, "longitude": 82.7525294, "maps_url": "https://www.google.com/maps/place/?q=place_id:0x396302aaf5500001:0xb7ca9e747df71628"}, {"place_id": "0x3962fdcc6f2d6f87:0x9645b5e3f6ea6f04", "name": "ExpressTech Software Solutions Pvt Ltd", "category": "Software company", "street": "Office 311", "city": "Sai Ram Plaza", "phone": "07314992666", "website": "https://expresstechsoftwares.com/", "rating": 4, "review_count": "", "latitude": 22.685712, "longitude": 75.85970449999999, "maps_url": "https://www.google.com/maps/place/?q=place_id:0x3962fdcc6f2d6f87:0x9645b5e3f6ea6f04"}, {"place_id": "0x39631dbb2049dd65:0xb667eb306f1b92c5", "name": "IT Company", "category": "Information services", "street": "Chikitsak Nagar", "city": "Indore, Madhya Pradesh 452010", "phone": "", "website": "", "rating": 2, "review_count": "", "latitude": 22.7569083, "longitude": 75.9056753, "maps_url": "https://www.google.com/maps/place/?q=place_id:0x39631dbb2049dd65:0xb667eb306f1b92c5"}, {"place_id": "0x3962f9236d105caf:0xbbc3c9013b8d48dc", "name": "Compli-Tech - Startup Consultant | Company Registration | Website Designing | Ecommerce Website Development", "category": "Business management consultant", "street": "Malwa Complex", "city": "88", "phone": "09302151441", "website": "https://compli-tech.odoo.com/", "rating": "", "review_count": "", "latitude": 22.5676845, "longitude": 75.7600538, "maps_url": "https://www.google.com/maps/place/?q=place_id:0x3962f9236d105caf:0xbbc3c9013b8d48dc"}, {"place_id": "0x3962fcfd67751637:0x847cc32e35ba100d", "name": "Webonex Technologies LLP", "category": "Software company", "street": "Ground Floor", "city": "Crystal It park", "phone": "08602401061", "website": "https://techstuff.cloud/", "rating": "", "review_count": "", "latitude": 22.6860739, "longitude": 75.8725353, "maps_url": "https://www.google.com/maps/place/?q=place_id:0x3962fcfd67751637:0x847cc32e35ba100d"}, {"place_id": "0x3962e3e2960b98f7:0xe6edcca61da2f17d", "name": "Inspark Technologies", "category": "Website designer", "street": "101, Shree vinayak residency Bengali Square", "city": "Madhya Pradesh 452016", "phone": "09407116798", "website": "https://insparktechnologies.com/", "rating": 5, "review_count": "", "latitude": 22.7249613, "longitude": 75.9085673, "maps_url": "https://www.google.com/maps/place/?q=place_id:0x3962e3e2960b98f7:0xe6edcca61da2f17d"}, {"place_id": "0x3962fdf80bee3ccb:0x687eaae2d2acdc7a", "name": "UltraModern Technologies Pvt. Ltd.", "category": "Software company", "street": "565, Sapna Sangeeta Rd", "city": "nearby axis bank", "phone": "08640089400", "website": "http://www.ultramoderntechnologies.com/", "rating": 5, "review_count": "", "latitude": 22.702948, "longitude": 75.8688236, "maps_url": "https://www.google.com/maps/place/?q=place_id:0x3962fdf80bee3ccb:0x687eaae2d2acdc7a"}, {"place_id": "0x3962e5bb23dd7835:0x1a00ebd623a2ba26", "name": "Oyster Retreat - 2 by Oyster Group Indore", "category": "Apartment building", "street": "Kacharod, Madhya Pradesh 452020", "city": "", "phone": "09407447733", "website": "http://oysterindia.com/", "rating": 4.4, "review_count": "", "latitude": 22.6010432, "longitude": 75.9591207, "maps_url": "https://www.google.com/maps/place/?q=place_id:0x3962e5bb23dd7835:0x1a00ebd623a2ba26"}, {"place_id": "0x3962fd3b47d815f7:0xbc42d69ae78dfaa9", "name": "Techunity IT Consultant Agency", "category": "Software company", "street": "Eco Town, Shree Krishna Avenue Phase 1", "city": "101/34", "phone": "07000097015", "website": "https://techunity.info/", "rating": "", "review_count": "", "latitude": 22.6620769, "longitude": 75.8909614, "maps_url": "https://www.google.com/maps/place/?q=place_id:0x3962fd3b47d815f7:0xbc42d69ae78dfaa9"}, {"place_id": "0x3be7c21b5901e181:0x7fe794585addc1f6", "name": "Smartinfologiks - Software Development Company in India | IT Solutions", "category": "Software company", "street": "Hilton Center", "city": "514", "phone": "07400064691", "website": "https://www.smartinfologiks.com/", "rating": 4.6, "review_count": "", "latitude": 19.0139592, "longitude": 73.0382705, "maps_url": "https://www.google.com/maps/place/?q=place_id:0x3be7c21b5901e181:0x7fe794585addc1f6"}, {"place_id": "0x3bc2becdc35b6937:0x515ac559c349eee3", "name": "Thinkitive Technologies Private Limited", "category": "Software company", "street": "4th Floor", "city": "ABIL IMPERIAL COMMERCIAL SPACES", "phone": "08956467327", "website": "https://www.thinkitive.com/", "rating": 3.9, "review_count": "", "latitude": 18.5563888, "longitude": 73.7729748, "maps_url": "https://www.google.com/maps/place/?q=place_id:0x3bc2becdc35b6937:0x515ac559c349eee3"}, {"place_id": "0x3962fd1528c961ef:0x62b25d266448236e", "name": "Tejhaksh Technologies Pvt. Ltd. Digital Marketing, Website Design, Website Development, Graphic Design Company in Indore", "category": "Marketing agency", "street": "5th Floor", "city": "Kanchan Sagar", "phone": "07049001117", "website": "https://www.tejhaksh.com/", "rating": 5, "review_count": "", "latitude": 22.728439599999998, "longitude": 75.8878573, "maps_url": "https://www.google.com/maps/place/?q=place_id:0x3962fd1528c961ef:0x62b25d266448236e"}, {"place_id": "0x3962e2c8b661e3cd:0xc761b7784b672eb2", "name": "Techiasm IT Company", "category": "Software company", "street": "near Bengali square", "city": "Ashish Nagar", "phone": "", "website": "", "rating": "", "review_count": "", "latitude": 22.7227757, "longitude": 75.9102118, "maps_url": "https://www.google.com/maps/place/?q=place_id:0x3962e2c8b661e3cd:0xc761b7784b672eb2"}, {"place_id": "0x3962fde2dc789579:0x763f3759bd38263a", "name": "Digiatto IT Services - Web and Mobile App Development Company", "category": "Software company", "street": "Plot Number 109-110 PU4, Scheme Number 54", "city": "Behind C21 Mall, Vijay Nagar", "phone": "03155155026", "website": "https://digiatto.com/", "rating": 2.5, "review_count": "", "latitude": 22.7438714, "longitude": 75.89673499999999, "maps_url": "https://www.google.com/maps/place/?q=place_id:0x3962fde2dc789579:0x763f3759bd38263a"}, {"place_id": "0x39631d6ae4f42a97:0x83bc825e66f9983", "name": "Techwave IT Solutions Pvt Ltd | Software Development Company in Indore | Top IT Company in Indore | India", "category": "Software company", "street": "Bhopal Motors JCB", "city": "near Panchvati", "phone": "09009155444", "website": "http://techwaveitsolutions.com/", "rating": "", "review_count": "", "latitude": 22.792078399999998, "longitude": 75.90735409999999, "maps_url": "https://www.google.com/maps/place/?q=place_id:0x39631d6ae4f42a97:0x83bc825e66f9983"}, {"place_id": "0x3962e37b64b9370b:0x9e561b536c709b5", "name": "Rakuten Symphony", "category": "Corporate office", "street": "Pushp Vihar Colony, Scheme No 131", "city": "Indore, Madhya Pradesh 452010", "phone": "", "website": "https://symphony.rakuten.com/", "rating": 4.2, "review_count": "", "latitude": 22.750048, "longitude": 75.9052169, "maps_url": "https://www.google.com/maps/place/?q=place_id:0x3962e37b64b9370b:0x9e561b536c709b5"}, {"place_id": "0xa80d097507ba7c69:0xde2472e26bce6106", "name": "Videlify | Animated Explainer Video Company", "category": "Animation Studio", "street": "534", "city": "Pusap Ratan Park Colony, Devguradia", "phone": "09755511219", "website": "https://www.videlify.com/", "rating": 5, "review_count": "", "latitude": 22.681278499999998, "longitude": 75.92929989999999, "maps_url": "https://www.google.com/maps/place/?q=place_id:0xa80d097507ba7c69:0xde2472e26bce6106"}, {"place_id": "0x39631d35746c83dd:0x3138096265609d87", "name": "Inflatech solutions", "category": "Website designer", "street": "c-48", "city": "Ansal Town, Talawali Chanda", "phone": "", "website": "", "rating": 5, "review_count": "", "latitude": 22.7940514, "longitude": 75.9177673, "maps_url": "https://www.google.com/maps/place/?q=place_id:0x39631d35746c83dd:0x3138096265609d87"}, {"place_id": "0x3963031c00643839:0x8e799c31760d97c9", "name": "Etcetera Technologies", "category": "Software company", "street": "Minal Shree Apartment", "city": "19", "phone": "", "website": "", "rating": 4.8, "review_count": "", "latitude": 22.732077099999998, "longitude": 75.87504489999999, "maps_url": "https://www.google.com/maps/place/?q=place_id:0x3963031c00643839:0x8e799c31760d97c9"}, {"place_id": "0x396303bd0b505bf9:0xf91ea7b7a07c038e", "name": "Cohort Innovations - A software development company", "category": "Software company", "street": "467, Shyam Nagar Main Rd", "city": "Shyam Nagar, Sukhliya", "phone": "07771000776", "website": "http://cohortinnovations.com/", "rating": 5, "review_count": "", "latitude": 22.7588278, "longitude": 75.8677902, "maps_url": "https://www.google.com/maps/place/?q=place_id:0x396303bd0b505bf9:0xf91ea7b7a07c038e"}, {"place_id": "0x3962fdce31c4270b:0x3aeacf83c156deb9", "name": "Pcrafter Technologies", "category": "Software company", "street": "6/1 office No", "city": "201", "phone": "09424848155", "website": "http://pcrafter.com/", "rating": 3.1, "review_count": "", "latitude": 22.710080299999998, "longitude": 75.87664149999999, "maps_url": "https://www.google.com/maps/place/?q=place_id:0x3962fdce31c4270b:0x3aeacf83c156deb9"}, {"place_id": "0x39631de00ec84e57:0x14035a526020af38", "name": "Adid Infotech", "category": "Software company", "street": "Amrit Palace", "city": "M-4/B, Nipania Main Rd", "phone": "", "website": "", "rating": "", "review_count": "", "latitude": 22.7646408, "longitude": 75.9283339, "maps_url": "https://www.google.com/maps/place/?q=place_id:0x39631de00ec84e57:0x14035a526020af38"}, {"place_id": "0x3962e36da9de8203:0x26ea81b78b79ea6d", "name": "Jaspal Singh And Company", "category": "Computer support and services", "street": "58/1", "city": "Nayta Mundala, Dinesh Nagar, Palda", "phone": "09826051703", "website": "", "rating": "", "review_count": "", "latitude": 22.6829097, "longitude": 75.90622909999999, "maps_url": "https://www.google.com/maps/place/?q=place_id:0x3962e36da9de8203:0x26ea81b78b79ea6d"}, {"place_id": "0x3963032ba08fa9f3:0x610e7ddf34fc355f", "name": "RAJ INFOTECH SOFTWARE PRIVATE LIMITED", "category": "Software company", "street": "B 355-366,Sector-D", "city": "Industrial estate, Sanwer Road Industrial Area", "phone": "", "website": "", "rating": "", "review_count": "", "latitude": 22.758760799999997, "longitude": 75.8512959, "maps_url": "https://www.google.com/maps/place/?q=place_id:0x3963032ba08fa9f3:0x610e7ddf34fc355f"}]}