{"timestamp": 1773730277.007152, "keyword": "IT company", "location": "delhi", "cell_idx": 213, "results": [{"place_id": "0x390d1f5abfb25fe1:0x7d9c4d5e159f2955", "name": "Jaimru Technology Pvt Ltd", "category": "Software company", "street": "WARD NO. 2", "city": "Plot No. 178 M 33 A/1", "phone": "07838153420", "website": "https://www.jaimru.com/", "rating": 4.9, "review_count": "", "latitude": 28.524347499999998, "longitude": 77.1731889, "maps_url": "https://www.google.com/maps/place/?q=place_id:0x390d1f5abfb25fe1:0x7d9c4d5e159f2955"}, {"place_id": "0x390d1c32a16c2629:0xa37e7b027558a29e", "name": "Avalon Information Systems Pvt. Ltd.", "category": "Software company", "street": "Plot No. 7, Institutional Area Phase II, 3rd Floor", "city": "Vasant Kunj", "phone": "09319391086", "website": "https://www.avaloninfosys.com/", "rating": 3.7, "review_count": "", "latitude": 28.5431746, "longitude": 77.146245, "maps_url": "https://www.google.com/maps/place/?q=place_id:0x390d1c32a16c2629:0xa37e7b027558a29e"}, {"place_id": "0x390d1d95931171db:0xf4c24d49d831b27", "name": "Muniwar Technologies Private Limited", "category": "Software company", "street": "2nd Floor", "city": "Hanuman Mandir Market", "phone": "01143050611", "website": "https://www.muniwar.com/", "rating": 4.4, "review_count": "", "latitude": 28.557070699999997, "longitude": 77.1732794, "maps_url": "https://www.google.com/maps/place/?q=place_id:0x390d1d95931171db:0xf4c24d49d831b27"}, {"place_id": "0x390ce1597b5509e5:0xfd8209b937b44d3c", "name": "IT Solutions India Private Limited", "category": "Software company", "street": "D-88/5", "city": "Pocket D, Okhla Phase I, Okhla Industrial Estate", "phone": "09810017429", "website": "https://www.itsipl.com/", "rating": 4.2, "review_count": "", "latitude": 28.520146, "longitude": 77.280431, "maps_url": "https://www.google.com/maps/place/?q=place_id:0x390ce1597b5509e5:0xfd8209b937b44d3c"}, {"place_id": "0x390ce3d37923490d:0xdfb649d44b805ce8", "name": "IndiQus Technologies", "category": "Software company", "street": "Plot 5 & 6, Allied House, B-7", "city": "C/o AWFIS", "phone": "01140551411", "website": "https://www.apiculus.com/", "rating": 4.4, "review_count": "", "latitude": 28.5338876, "longitude": 77.15280159999999, "maps_url": "https://www.google.com/maps/place/?q=place_id:0x390ce3d37923490d:0xdfb649d44b805ce8"}, {"place_id": "0x390ce458d0000001:0xf2123bd299ec4501", "name": "IT Company India", "category": "Software company", "street": "D56", "city": "D Block, Sector 10", "phone": "09999244854", "website": "https://www.itcompanyindia.in/", "rating": 4.7, "review_count": "", "latitude": 28.589917699999997, "longitude": 77.3351153, "maps_url": "https://www.google.com/maps/place/?q=place_id:0x390ce458d0000001:0xf2123bd299ec4501"}, {"place_id": "0x390d1dcc2ad28223:0xe6c9335344cab1e3", "name": "Gourmet Investments Private Limited", "category": "Corporate office", "street": "MARUTI SUZUKI HO", "city": "1, Nelson Mandela Marg", "phone": "", "website": "", "rating": 4.2, "review_count": "", "latitude": 28.539903199999998, "longitude": 77.15413319999999, "maps_url": "https://www.google.com/maps/place/?q=place_id:0x390d1dcc2ad28223:0xe6c9335344cab1e3"}, {"place_id": "0x390ce3c153b89811:0xe7a279685777e9ca", "name": "IT Company", "category": "Automation company", "street": "A-14", "city": "near iskcon temple", "phone": "", "website": "http://www.opuswiz.com/", "rating": 3, "review_count": "", "latitude": 28.557167, "longitude": 77.25424819999999, "maps_url": "https://www.google.com/maps/place/?q=place_id:0x390ce3c153b89811:0xe7a279685777e9ca"}, {"place_id": "0x390d1c154aba0acd:0xc90313ce54cb43e9", "name": "Midas IT Services India Pvt Ltd", "category": "Software company", "street": "L", "city": "42", "phone": "", "website": "http://www.midaswebtech.com/", "rating": 4.6, "review_count": "", "latitude": 28.545162299999998, "longitude": 77.12531, "maps_url": "https://www.google.com/maps/place/?q=place_id:0x390d1c154aba0acd:0xc90313ce54cb43e9"}, {"place_id": "0x390d1dcc2af98305:0x3a2256908388d2bd", "name": "Indus Towers Ltd", "category": "Back Office", "street": "1, Aravali Crescent", "city": "Nelson Mandela Marg", "phone": "01244296766", "website": "https://www.industowers.com/", "rating": 3.8, "review_count": "", "latitude": 28.5399893, "longitude": 77.154032, "maps_url": "https://www.google.com/maps/place/?q=place_id:0x390d1dcc2af98305:0x3a2256908388d2bd"}, {"place_id": "0x390d1df079759d1f:0x8bfa70033f6c672a", "name": "NR Technoserve Pvt. Ltd.", "category": "Software company", "street": "133, Katwaria Sarai", "city": "Phase-2, Qutab Institutional Area", "phone": "07289096762", "website": "http://www.nrtechnoserve.co.in/", "rating": 4.4, "review_count": "", "latitude": 28.5413306, "longitude": 77.18495519999999, "maps_url": "https://www.google.com/maps/place/?q=place_id:0x390d1df079759d1f:0x8bfa70033f6c672a"}, {"place_id": "0x2a72b8b69d7b6493:0x11251466d4d34cac", "name": "WebZonal IT Company", "category": "Website designer", "street": "Wz-258/2-3, D Block Rd", "city": "Khazan Basti, Nangal Raya, Janakpuri", "phone": "09811170903", "website": "http://webzonal.com/", "rating": 5, "review_count": "", "latitude": 28.6122102, "longitude": 77.11159549999999, "maps_url": "https://www.google.com/maps/place/?q=place_id:0x2a72b8b69d7b6493:0x11251466d4d34cac"}, {"place_id": "0x390d1d9ce0eaada3:0xc5a1a0a2458099e3", "name": "CODENCREATIVE TECH PVT LTD", "category": "Software company", "street": "DDA Flat", "city": "RBI Officers Colony, Vasant Vihar", "phone": "09717047610", "website": "https://codencreative.com/", "rating": 4.9, "review_count": "", "latitude": 28.563302099999998, "longitude": 77.1519732, "maps_url": "https://www.google.com/maps/place/?q=place_id:0x390d1d9ce0eaada3:0xc5a1a0a2458099e3"}, {"place_id": "0xac577056c2b5ff3d:0xaf00253141553d04", "name": "Devnotam | IT Company", "category": "Internet marketing service", "street": "", "city": "", "phone": "", "website": "https://devnotam.com/", "rating": 5, "review_count": "", "latitude": 28.692404999999997, "longitude": 77.090042, "maps_url": "https://www.google.com/maps/place/?q=place_id:0xac577056c2b5ff3d:0xaf00253141553d04"}, {"place_id": "0xa3f7b500ba6bee9b:0xbf6f44de92b28de", "name": "Yuvocreations Private Limited ( \u092f\u0941\u0935\u094b\u0915\u094d\u0930\u093f\u090f\u0936\u0928\u094d\u0938 \u092a\u094d\u0930\u093e\u0907\u0935\u0947\u091f \u0932\u093f\u092e\u093f\u091f\u0947\u0921 ) - Website Designing & Digital Marketing Agency", "category": "Software company", "street": "Lane no.4", "city": "Khasra no. 258, Westend Marg", "phone": "07042123166", "website": "https://yuvocreations.com/", "rating": 5, "review_count": "", "latitude": 28.5169774, "longitude": 77.19925789999999, "maps_url": "https://www.google.com/maps/place/?q=place_id:0xa3f7b500ba6bee9b:0xbf6f44de92b28de"}, {"place_id": "0x390ce1fb44618b65:0x8e06b2a6128352d1", "name": "Acropolis Infotech - Delhi Office", "category": "Software company", "street": "metro station gate", "city": "55, 2nd Floor, Lane 2", "phone": "09999876593", "website": "https://www.acropolisinfotech.com/", "rating": 4.6, "review_count": "", "latitude": 28.518907, "longitude": 77.2015435, "maps_url": "https://www.google.com/maps/place/?q=place_id:0x390ce1fb44618b65:0x8e06b2a6128352d1"}, {"place_id": "0x390d195c26bfa369:0x69bd8efd2e3a31fe", "name": "Radical Minds Technologies Pvt. Ltd.", "category": "BPO Company", "street": "368", "city": "Phase II, Udyog Vihar, Sector 20", "phone": "01244338366", "website": "http://www.radicalminds.in/", "rating": 4.2, "review_count": "", "latitude": 28.506335099999998, "longitude": 77.0877546, "maps_url": "https://www.google.com/maps/place/?q=place_id:0x390d195c26bfa369:0x69bd8efd2e3a31fe"}, {"place_id": "0x390d1e08d71a257f:0xea4e129d751fc99", "name": "Sukrit Infotech", "category": "Software company", "street": "1043 Ward No 8 1042/2D 2nd Floor Mehrauli Near Babar Building", "city": "Mehrauli", "phone": "01145607265", "website": "http://www.sukritinfotech.com/", "rating": 4.5, "review_count": "", "latitude": 28.517589599999997, "longitude": 77.1802435, "maps_url": "https://www.google.com/maps/place/?q=place_id:0x390d1e08d71a257f:0xea4e129d751fc99"}, {"place_id": "0x331745c76a06d77:0x3f5c561237cb7a3e", "name": "Webreachpro Technologies", "category": "Marketing agency", "street": "Phase-2", "city": "25B", "phone": "09643014632", "website": "https://webreachpro.in/", "rating": 5, "review_count": "", "latitude": 28.5415092, "longitude": 77.1842592, "maps_url": "https://www.google.com/maps/place/?q=place_id:0x331745c76a06d77:0x3f5c561237cb7a3e"}, {"place_id": "0x390d1d86a4f12173:0x3a6b42ea6f4b8260", "name": "Softvanz Technologies Private Limited", "category": "Software company", "street": "Somdutt Chamber 1", "city": "BT-22/9", "phone": "", "website": "https://softvanz.com/", "rating": 5, "review_count": "", "latitude": 28.567948899999998, "longitude": 77.1889269, "maps_url": "https://www.google.com/maps/place/?q=place_id:0x390d1d86a4f12173:0x3a6b42ea6f4b8260"}, {"place_id": "0x390ce5fdcc79e755:0x309ce99251b84ef6", "name": "Optyminds IT Solutions - Top AI and IT company I Best Digital agency in Noida | Delhi NCR | India", "category": "Software company", "street": "1st Floor", "city": "B-70", "phone": "08929075975", "website": "https://optyminds.com/", "rating": 4.9, "review_count": "", "latitude": 28.584679599999998, "longitude": 77.3135042, "maps_url": "https://www.google.com/maps/place/?q=place_id:0x390ce5fdcc79e755:0x309ce99251b84ef6"}, {"place_id": "0x2a72b8b69d7b6493:0x11251466d4d34cac", "name": "WebZonal IT Company", "category": "Website designer", "street": "Wz-258/2-3, D Block Rd", "city": "Khazan Basti, Nangal Raya, Janakpuri", "phone": "09811170903", "website": "http://webzonal.com/", "rating": 5, "review_count": "", "latitude": 28.6122102, "longitude": 77.11159549999999, "maps_url": "https://www.google.com/maps/place/?q=place_id:0x2a72b8b69d7b6493:0x11251466d4d34cac"}, {"place_id": "0x390d19298db2fb35:0xcaa0d46737c4561c", "name": "MLM Software Developer | Sunny citrix", "category": "Software company", "street": "office no 427C, 4th floor, vashisht complex", "city": "Sikanderpur", "phone": "07906059336", "website": "http://sunnycitrix.com/", "rating": 4.8, "review_count": "", "latitude": 28.4816798, "longitude": 77.09770569999999, "maps_url": "https://www.google.com/maps/place/?q=place_id:0x390d19298db2fb35:0xcaa0d46737c4561c"}, {"place_id": "0x390d0306a5205339:0xc8417239bcfe9f11", "name": "RSS INFOTECH PVT.LTD", "category": "Software company", "street": "1st floor, Didar Complex", "city": "6 DLE Industrial Area office no -128,129", "phone": "09953134732", "website": "https://www.rssindia.com/", "rating": 4.5, "review_count": "", "latitude": 28.656828299999997, "longitude": 77.1425177, "maps_url": "https://www.google.com/maps/place/?q=place_id:0x390d0306a5205339:0xc8417239bcfe9f11"}, {"place_id": "0x390d165555555555:0xf57c20f7d07d8fd1", "name": "Teckinfo Solutions Pvt Ltd", "category": "Software company", "street": "1/1 BA, 3rd Floor, Mohammadpur,", "city": "Bhikaji Cama Place", "phone": "01149605500", "website": "https://www.teckinfo.com/", "rating": 4.6, "review_count": "", "latitude": 28.566004099999997, "longitude": 77.187579, "maps_url": "https://www.google.com/maps/place/?q=place_id:0x390d165555555555:0xf57c20f7d07d8fd1"}, {"place_id": "0x390d02994de5e515:0xd908bc03409a0d37", "name": "Himalayan IT Solutions | Best Website Designing Company in Delhi | SEO/Digital Marketing Company in Delhi NCR, India", "category": "Software company", "street": "61/4255, Padam Singh Rd", "city": "Block 29, Block 1, Regar Pura, Karol Bagh", "phone": "09899098509", "website": "http://www.himalayanitsolutions.com/", "rating": 3.9, "review_count": "", "latitude": 28.649673999999997, "longitude": 77.186599, "maps_url": "https://www.google.com/maps/place/?q=place_id:0x390d02994de5e515:0xd908bc03409a0d37"}, {"place_id": "0x390d1d6cc7b13bdf:0x70f1a589b20bac43", "name": "Dell Exclusive Store - Ambience Mall, Vasasnt Kunj", "category": "Computer store", "street": "Ambience Mall", "city": "S-223", "phone": "08048009834", "website": "https://www.dellretailstores.in/national-capital-territory-of-delhi-south-west-delhi-1628?utm_source=GMB_Lead&campaign=GMB&nav=contact", "rating": 4.8, "review_count": "", "latitude": 28.540953499999997, "longitude": 77.1550359, "maps_url": "https://www.google.com/maps/place/?q=place_id:0x390d1d6cc7b13bdf:0x70f1a589b20bac43"}, {"place_id": "0x4215c6da63b4b82f:0x794ba814a6ada964", "name": "Asha Tech | Website Design, App Development & IT Solutions Delhi", "category": "Software company", "street": "no 2", "city": "195, Lane No. 1", "phone": "07531080874", "website": "https://ashatech.co.in/", "rating": 4.7, "review_count": "", "latitude": 28.519994099999998, "longitude": 77.2008791, "maps_url": "https://www.google.com/maps/place/?q=place_id:0x4215c6da63b4b82f:0x794ba814a6ada964"}, {"place_id": "0x390ce3094f4a9af1:0xdc21c66946b829ad", "name": "BAUDHYANTRAM IT Solutions | Website Designing | Web Development | Software Company in Delhi", "category": "Software company", "street": "H82 2nd Floor", "city": "opposite Bengali Sweet Center", "phone": "07900899996", "website": "http://www.baudhyantram.in/", "rating": 4.8, "review_count": "", "latitude": 28.5695803, "longitude": 77.221047, "maps_url": "https://www.google.com/maps/place/?q=place_id:0x390ce3094f4a9af1:0xdc21c66946b829ad"}, {"place_id": "0x390d1dc539fc39dd:0xa8d421a9d22cb256", "name": "India best website development company", "category": "Software company", "street": "RZ74, RZ Rd", "city": "Hans Park, Block RZ, Sagarpur East, Sagar Pur", "phone": "", "website": "https://techbuddy31.co.in/", "rating": 5, "review_count": "", "latitude": 28.6054396, "longitude": 77.1082699, "maps_url": "https://www.google.com/maps/place/?q=place_id:0x390d1dc539fc39dd:0xa8d421a9d22cb256"}, {"place_id": "0x41ddcb5488aa4703:0x5290c64921de1a5b", "name": "Bloatware IT Software Development Company | Game Development | Software Company in delhi", "category": "Software company", "street": "SILVER OAK FARMS", "city": "660, Mehrauli-Gurgaon Rd", "phone": "", "website": "https://bloatwareitsolutions.com/", "rating": 5, "review_count": "", "latitude": 28.4911034, "longitude": 77.1432663, "maps_url": "https://www.google.com/maps/place/?q=place_id:0x41ddcb5488aa4703:0x5290c64921de1a5b"}, {"place_id": "0x390d1be7f1a44f95:0x84524a5425f8930d", "name": "InfraDost Technologies Pvt Ltd.- Microsoft Adobe Corel Draw & Security Solution Provider", "category": "Software company", "street": "Gurgaon - Delhi Expy", "city": "Block B, Mahipalpur Village, Mahipalpur", "phone": "08287792542", "website": "http://www.infradost.com/", "rating": 4.6, "review_count": "", "latitude": 28.5485743, "longitude": 77.1264697, "maps_url": "https://www.google.com/maps/place/?q=place_id:0x390d1be7f1a44f95:0x84524a5425f8930d"}, {"place_id": "0x390d1dcea2d8797d:0x9bddde19324f976", "name": "Reliance Digital", "category": "Electronics store", "street": "No S231/232/233, 2nd Flr", "city": "Ambience Mall", "phone": "08071889926", "website": "https://www.reliancedigitalstores.in/reliance-digital-ambience-vasantkunj-del-electronics-retail-and-repair-shop-vasant-kunj-new-delhi-240511/Home", "rating": 4.7, "review_count": "", "latitude": 28.5412681, "longitude": 77.1548251, "maps_url": "https://www.google.com/maps/place/?q=place_id:0x390d1dcea2d8797d:0x9bddde19324f976"}, {"place_id": "0x390ce1e4317e5aab:0x5d1c04d23170494d", "name": "RoboSlog", "category": "Automation company", "street": "75/9, kishangarh", "city": "Aruna Asaf Ali Marg", "phone": "06306854780", "website": "https://roboslog.in/", "rating": 4.1, "review_count": "", "latitude": 28.5201557, "longitude": 77.163664, "maps_url": "https://www.google.com/maps/place/?q=place_id:0x390ce1e4317e5aab:0x5d1c04d23170494d"}, {"place_id": "0x390d1da3b4d40c49:0x808ae3f0292f74d6", "name": "ASUS Exclusive Store - Cass Infotech, Ambience Mall", "category": "Computer store", "street": "Second Floor", "city": "Ambience Mall", "phone": "08037016569", "website": "https://shopnearme.asus.com/in-asus/laptop-store-in-new-delhi/laptop-store-in-vasant-kunj/asus-exclusive-store-cass-infotech-in-vasant-kunj-new-delhi--8ee7dca5-e105-42b3-a05e-04b169e129e3/home", "rating": 4.9, "review_count": "", "latitude": 28.5409385, "longitude": 77.1555305, "maps_url": "https://www.google.com/maps/place/?q=place_id:0x390d1da3b4d40c49:0x808ae3f0292f74d6"}, {"place_id": "0x390d03adaef37299:0xd8b343093deaee7", "name": "Ruminate IT Solution | Best software company in Delhi NCR | IT Software company", "category": "Software company", "street": "C-64", "city": "Pocket B, Hari Nagar", "phone": "09625650376", "website": "https://www.ruminateitsolution.com/", "rating": 5, "review_count": "", "latitude": 28.628819, "longitude": 77.10428399999999, "maps_url": "https://www.google.com/maps/place/?q=place_id:0x390d03adaef37299:0xd8b343093deaee7"}, {"place_id": "0x390ce26dc4d4ba2d:0x9486a6d620e379f9", "name": "Akal Information Systems Ltd.", "category": "Software company", "street": "Tower J, World Trade Center", "city": "103", "phone": "01146503545", "website": "https://www.akalinfo.com/", "rating": 3.9, "review_count": "", "latitude": 28.567935499999997, "longitude": 77.1923202, "maps_url": "https://www.google.com/maps/place/?q=place_id:0x390ce26dc4d4ba2d:0x9486a6d620e379f9"}, {"place_id": "0x4ebf586dbe4d7c09:0x968455c83bf5226c", "name": "Anchor IT Solutions- App Development | Website Development | Digital Marketing", "category": "Software company", "street": "4", "city": "Vinoba Puri, Lajpat Nagar II, Lajpat Nagar", "phone": "07678658584", "website": "", "rating": 4.8, "review_count": "", "latitude": 28.566371399999998, "longitude": 77.2486924, "maps_url": "https://www.google.com/maps/place/?q=place_id:0x4ebf586dbe4d7c09:0x968455c83bf5226c"}, {"place_id": "0x390ce1ce534cb1e5:0x39fe77c42bc52616", "name": "ITeSolution- Odoo ERP , Mobile/Web Application Development Software Company in Noida, Delhi NCR India.", "category": "Software company", "street": "RZ60/9", "city": "T/F, Tughlakabad Extension, Tughlakabad", "phone": "09889294124", "website": "https://www.itesolution.co.in/", "rating": 4.9, "review_count": "", "latitude": 28.520523899999997, "longitude": 77.2570535, "maps_url": "https://www.google.com/maps/place/?q=place_id:0x390ce1ce534cb1e5:0x39fe77c42bc52616"}, {"place_id": "0x390ce226100110ef:0xe529d399458dbf03", "name": "First IT", "category": "Software company", "street": "S/F 776-A", "city": "Chirag Dilli", "phone": "", "website": "https://www.firstit.in/", "rating": 5, "review_count": "", "latitude": 28.5376318, "longitude": 77.2282863, "maps_url": "https://www.google.com/maps/place/?q=place_id:0x390ce226100110ef:0xe529d399458dbf03"}, {"place_id": "0x390ce3c50d455555:0x625e4cf2def0b6ac", "name": "Infonative Solutions Limited", "category": "Computer support and services", "street": "107, 108", "city": "DLF South Court", "phone": "08448141818", "website": "https://infonative.net/", "rating": 4.7, "review_count": "", "latitude": 28.5274255, "longitude": 77.2209031, "maps_url": "https://www.google.com/maps/place/?q=place_id:0x390ce3c50d455555:0x625e4cf2def0b6ac"}, {"place_id": "0x390d1d2cb4e3885f:0x9ff5229476e1da80", "name": "Lenovo Exclusive Store - DG Infotech", "category": "Computer store", "street": "S-223 2nd floor", "city": "Ambience Mall", "phone": "08048158682", "website": "https://store.lenovo.com/in/en/marketplace/seller/profile/shop/1690542999", "rating": 4.9, "review_count": "", "latitude": 28.5410947, "longitude": 77.1551367, "maps_url": "https://www.google.com/maps/place/?q=place_id:0x390d1d2cb4e3885f:0x9ff5229476e1da80"}, {"place_id": "0x390ce3a2021e9897:0x28bf52d36a7d0c19", "name": "It Softtech - Website Designing and Development Company in Delhi, India", "category": "Internet marketing service", "street": "149, Ring Rd", "city": "opp. Maharani Bagh", "phone": "09810056177", "website": "", "rating": 5, "review_count": "", "latitude": 28.5763395, "longitude": 77.2640869, "maps_url": "https://www.google.com/maps/place/?q=place_id:0x390ce3a2021e9897:0x28bf52d36a7d0c19"}, {"place_id": "0x390ce11068dacbdd:0xac4070cb73f9c1b1", "name": "Reedham It solutions pvt ltd", "category": "Software company", "street": "1297B, H 16 Rd", "city": "Block G 1, Talimabad, Sangam Vihar", "phone": "01146012950", "website": "http://reedhamitsolution.com/", "rating": 5, "review_count": "", "latitude": 28.5017906, "longitude": 77.25404069999999, "maps_url": "https://www.google.com/maps/place/?q=place_id:0x390ce11068dacbdd:0xac4070cb73f9c1b1"}, {"place_id": "0x390d1dcc2af98305:0x3a2256908388d2bd", "name": "Indus Towers Ltd", "category": "Back Office", "street": "1, Aravali Crescent", "city": "Nelson Mandela Marg", "phone": "01244296766", "website": "https://www.industowers.com/", "rating": 3.8, "review_count": "", "latitude": 28.5399893, "longitude": 77.154032, "maps_url": "https://www.google.com/maps/place/?q=place_id:0x390d1dcc2af98305:0x3a2256908388d2bd"}, {"place_id": "0x390d191598f48ef3:0x70991b4ff870f05d", "name": "Shree Partners LLC", "category": "Software company", "street": "1, Tower A, Building, Cyber City", "city": "Corporate Edge Level", "phone": "01246728815", "website": "https://www.shreepartners.com/", "rating": 4.3, "review_count": "", "latitude": 28.4936018, "longitude": 77.088325, "maps_url": "https://www.google.com/maps/place/?q=place_id:0x390d191598f48ef3:0x70991b4ff870f05d"}, {"place_id": "0x390d1ed3c6e9f579:0x322eccdb00f350d2", "name": "Techjockey", "category": "Software company", "street": "Ground floor, Habitat India", "city": "C-3", "phone": "01142213003", "website": "https://www.techjockey.com/", "rating": 4, "review_count": "", "latitude": 28.536615299999998, "longitude": 77.1902978, "maps_url": "https://www.google.com/maps/place/?q=place_id:0x390d1ed3c6e9f579:0x322eccdb00f350d2"}, {"place_id": "0x390d1f61836cd921:0x776e9717979fe108", "name": "Saiway Tech", "category": "Web hosting company", "street": "702", "city": "Near, Maruti Chowk", "phone": "07982506339", "website": "http://saiwaytech.com/", "rating": 4.8, "review_count": "", "latitude": 28.4924629, "longitude": 77.1411129, "maps_url": "https://www.google.com/maps/place/?q=place_id:0x390d1f61836cd921:0x776e9717979fe108"}, {"place_id": "0x390d1e186527b451:0x3d552630d3703e21", "name": "Inca Infotech Technologies Pvt Ltd", "category": "Computer support and services", "street": "D-23/405, UGF", "city": "100 Feet Rd", "phone": "18008891907", "website": "https://www.incainfotech.com/", "rating": 3.6, "review_count": "", "latitude": 28.506226899999998, "longitude": 77.1850521, "maps_url": "https://www.google.com/maps/place/?q=place_id:0x390d1e186527b451:0x3d552630d3703e21"}, {"place_id": "0x213278d23258ed1:0xda7ca71736196291", "name": "Astha Technologies - Top Mobile App Development Company in Delhi | Android & iOS", "category": "Software company", "street": "2ND FLOOR", "city": "55, LANE-2, Westend Marg", "phone": "", "website": "https://asthatechnologies.org/mobile-app-development-company-delhi/", "rating": 5, "review_count": "", "latitude": 28.518466099999998, "longitude": 77.19880739999999, "maps_url": "https://www.google.com/maps/place/?q=place_id:0x213278d23258ed1:0xda7ca71736196291"}, {"place_id": "0x390ce1b9de54d101:0xc5184256693b27dd", "name": "LCK Technologies - Website designing development company South Delhi", "category": "Website designer", "street": "439 1st floor", "city": "438", "phone": "09891337955", "website": "https://lckdigitalmedia.in/", "rating": 4.9, "review_count": "", "latitude": 28.5089698, "longitude": 77.20114769999999, "maps_url": "https://www.google.com/maps/place/?q=place_id:0x390ce1b9de54d101:0xc5184256693b27dd"}, {"place_id": "0x390d1fb9b19cd7d7:0x2febfba590f33428", "name": "Corapana Technologies - Mobile App Development and Web Design Development Company Delhi", "category": "Software company", "street": "Ground floor", "city": "D-23", "phone": "08295242621", "website": "https://corapana.com/", "rating": 4.8, "review_count": "", "latitude": 28.496378999999997, "longitude": 77.17898, "maps_url": "https://www.google.com/maps/place/?q=place_id:0x390d1fb9b19cd7d7:0x2febfba590f33428"}, {"place_id": "0x390ce3d606c913ef:0xd246bd5631eb2cad", "name": "Delvetech", "category": "Software company", "street": "87A/1, 3rd Floor, Opp. Block N-115, G.K-1, Near Moolchand Merto", "city": "Block B, Zamrudpur, Greater Kailash", "phone": "09873895154", "website": "http://www.delvetech.co.in/", "rating": 4.1, "review_count": "", "latitude": 28.5570597, "longitude": 77.2356981, "maps_url": "https://www.google.com/maps/place/?q=place_id:0x390ce3d606c913ef:0xd246bd5631eb2cad"}, {"place_id": "0x390d1dcda4226131:0xa904d88f126c2e0f", "name": "Bharti Enterprises Corporate Office", "category": "Corporate office", "street": "1, Nelson Mandela Marg", "city": "Vasant Kunj II, Vasant Kunj", "phone": "01146666100", "website": "http://www.bharti.com/", "rating": 3.6, "review_count": "", "latitude": 28.5401398, "longitude": 77.1541195, "maps_url": "https://www.google.com/maps/place/?q=place_id:0x390d1dcda4226131:0xa904d88f126c2e0f"}, {"place_id": "0x390ce253e1a13e4b:0xb206f61d818e9126", "name": "K2S Consulting Pvt Ltd", "category": "Business management consultant", "street": "B-7, Allied House, Plot no. 5 and 6, Shopping complex", "city": "Vasant Kunj", "phone": "04083007899", "website": "https://www.k2s.co/", "rating": 2, "review_count": "", "latitude": 28.5337954, "longitude": 77.1526956, "maps_url": "https://www.google.com/maps/place/?q=place_id:0x390ce253e1a13e4b:0xb206f61d818e9126"}, {"place_id": "0x390ce1e9a7083cb7:0xe2a6861849a12032", "name": "Manish Gupta", "category": "Computer consultant", "street": "On", "city": "P1A 246 (D-14 Neb Valley", "phone": "09810207228", "website": "", "rating": 4.2, "review_count": "", "latitude": 28.5105653, "longitude": 77.2097086, "maps_url": "https://www.google.com/maps/place/?q=place_id:0x390ce1e9a7083cb7:0xe2a6861849a12032"}, {"place_id": "0x390d1960c2b8367f:0xd2d30e45ac71acea", "name": "Vorombetech Solutions - Top IT & Digitalization Service Company in Gurugram", "category": "Software company", "street": "249", "city": "Phase IV, Udyog Vihar, Sector 19", "phone": "", "website": "https://vorombetech.com/", "rating": 4.8, "review_count": "", "latitude": 28.4941475, "longitude": 77.0808448, "maps_url": "https://www.google.com/maps/place/?q=place_id:0x390d1960c2b8367f:0xd2d30e45ac71acea"}, {"place_id": "0x390d1dc8e1c70ee3:0x3d8673eb9d295b8e", "name": "Oil and Natural Gas Corporation Limited (ONGC)", "category": "Oil & natural gas company", "street": "5, Nelson Mandela Marg", "city": "Vasant Kunj II, Vasant Kunj", "phone": "01126750111", "website": "https://www.ongcindia.com/wps/wcm/connect/en/home/", "rating": 4.7, "review_count": "", "latitude": 28.5444951, "longitude": 77.1572075, "maps_url": "https://www.google.com/maps/place/?q=place_id:0x390d1dc8e1c70ee3:0x3d8673eb9d295b8e"}, {"place_id": "0x65afd373fe4cb277:0xb57ca7e757c2def3", "name": "Eimager -Employees Background Verification SaaS", "category": "Software company", "street": "GF 5", "city": "672, Mehrauli-Gurgaon Rd", "phone": "", "website": "https://eimager.com/", "rating": 5, "review_count": "", "latitude": 28.4911376, "longitude": 77.1398955, "maps_url": "https://www.google.com/maps/place/?q=place_id:0x65afd373fe4cb277:0xb57ca7e757c2def3"}, {"place_id": "0x390d1e748ef61961:0x754ceb660996cfdb", "name": "ACS System Solutions", "category": "Software company", "street": "Kishangarh, Kishangarh Village, Vasant Kunj", "city": "New Delhi, Delhi 110070", "phone": "01149858620", "website": "http://acssystem.in/", "rating": 3.4, "review_count": "", "latitude": 28.522178699999998, "longitude": 77.1692609, "maps_url": "https://www.google.com/maps/place/?q=place_id:0x390d1e748ef61961:0x754ceb660996cfdb"}, {"place_id": "0x390d195c26bfa369:0x69bd8efd2e3a31fe", "name": "Radical Minds Technologies Pvt. Ltd.", "category": "BPO Company", "street": "368", "city": "Phase II, Udyog Vihar, Sector 20", "phone": "01244338366", "website": "http://www.radicalminds.in/", "rating": 4.2, "review_count": "", "latitude": 28.506335099999998, "longitude": 77.0877546, "maps_url": "https://www.google.com/maps/place/?q=place_id:0x390d195c26bfa369:0x69bd8efd2e3a31fe"}, {"place_id": "0x390ce45bcd61048f:0x5f6a5602f4155df7", "name": "JK Technosoft Limited", "category": "Software company", "street": "F", "city": "3", "phone": "01204606300", "website": "https://jktech.com/", "rating": 4.2, "review_count": "", "latitude": 28.5802509, "longitude": 77.31793329999999, "maps_url": "https://www.google.com/maps/place/?q=place_id:0x390ce45bcd61048f:0x5f6a5602f4155df7"}, {"place_id": "0x390ce17b94309bbf:0x2a7be4bbd23e8470", "name": "Nexinfotech", "category": "Software company", "street": "Gali No. 5", "city": "Block J 1, Devli, Sangam Vihar", "phone": "09319089231", "website": "https://nexinfotech.com/", "rating": 5, "review_count": "", "latitude": 28.4901479, "longitude": 77.2463212, "maps_url": "https://www.google.com/maps/place/?q=place_id:0x390ce17b94309bbf:0x2a7be4bbd23e8470"}, {"place_id": "0x390d1dcc2ad28223:0xe6c9335344cab1e3", "name": "Gourmet Investments Private Limited", "category": "Corporate office", "street": "MARUTI SUZUKI HO", "city": "1, Nelson Mandela Marg", "phone": "", "website": "", "rating": 4.2, "review_count": "", "latitude": 28.539903199999998, "longitude": 77.15413319999999, "maps_url": "https://www.google.com/maps/place/?q=place_id:0x390d1dcc2ad28223:0xe6c9335344cab1e3"}, {"place_id": "0x390ce242f9a4a027:0xb1f2b4656ab9d166", "name": "Metasoft IT Systems Pvt Ltd", "category": "Software company", "street": "South Extension Plaza 2", "city": "401 402, Guneet Kashyap Marg Rd", "phone": "09910975699", "website": "http://www.metasoft.co.in/", "rating": "", "review_count": "", "latitude": 28.5636208, "longitude": 77.2198183, "maps_url": "https://www.google.com/maps/place/?q=place_id:0x390ce242f9a4a027:0xb1f2b4656ab9d166"}, {"place_id": "0x390d068daabb01c5:0x9f458c7c5e28f8f0", "name": "Tekniko Global - Top Mobile App Development Company in Delhi | Android & iOS", "category": "Software company", "street": "", "city": "", "phone": "09311620027", "website": "https://www.teknikoglobal.com/", "rating": 4.5, "review_count": "", "latitude": 28.5870636, "longitude": 77.1721882, "maps_url": "https://www.google.com/maps/place/?q=place_id:0x390d068daabb01c5:0x9f458c7c5e28f8f0"}, {"place_id": "0x390cfd3522132487:0x5decdf23b12670c3", "name": "All India Council For Technical Education (AICTE)", "category": "Government office", "street": "G5P3+8PH", "city": "Nelson Mandela Marg", "phone": "01126131578", "website": "http://www.aicte-india.org/", "rating": 4.4, "review_count": "", "latitude": 28.535802099999998, "longitude": 77.1543733, "maps_url": "https://www.google.com/maps/place/?q=place_id:0x390cfd3522132487:0x5decdf23b12670c3"}, {"place_id": "0x390d1dcc2ad28223:0x346965a077a035ad", "name": "NEXA HO", "category": "Corporate office", "street": "Maruti Suzuki India Head Office", "city": "1, Nelson Mandela Marg", "phone": "01146781000", "website": "https://www.nexaexperience.com/", "rating": 4.2, "review_count": "", "latitude": 28.5401398, "longitude": 77.1541195, "maps_url": "https://www.google.com/maps/place/?q=place_id:0x390d1dcc2ad28223:0x346965a077a035ad"}, {"place_id": "0x390d1dac6517e03d:0x9db70a08e0c36a03", "name": "Apple Premium Reseller - Aptronix - Ambience Mall, Vasant Kunj, New Delhi", "category": "Cell phone store", "street": "Ambience Mall", "city": "F-106", "phone": "08044953837", "website": "https://www.aptronixindia.com/", "rating": 4.4, "review_count": "", "latitude": 28.5410713, "longitude": 77.1550781, "maps_url": "https://www.google.com/maps/place/?q=place_id:0x390d1dac6517e03d:0x9db70a08e0c36a03"}, {"place_id": "0x390d1dce62f3a397:0x347357ccf44b3e89", "name": "Maruti Suzuki Insurance Broking Private Limited", "category": "Insurance broker", "street": "Plot No", "city": "1, Nelson Mandela Marg", "phone": "01133774477", "website": "https://www.marutisuzukiinsurance.com/", "rating": 4.6, "review_count": "", "latitude": 28.5399283, "longitude": 77.154096, "maps_url": "https://www.google.com/maps/place/?q=place_id:0x390d1dce62f3a397:0x347357ccf44b3e89"}, {"place_id": "0x390d1db0aef40171:0xb748a2e6079dd53d", "name": "YB INFORMATICS", "category": "Computer support and services", "street": "43, Poorvi Marg", "city": "Block A, Vasant Vihar", "phone": "09650920040", "website": "http://www.ybinformatics.com/", "rating": 5, "review_count": "", "latitude": 28.560817399999998, "longitude": 77.1666408, "maps_url": "https://www.google.com/maps/place/?q=place_id:0x390d1db0aef40171:0xb748a2e6079dd53d"}, {"place_id": "0x390ce1bef0c8c071:0xb0a64e46c6405fc6", "name": "Tech rise dynamics", "category": "Website designer", "street": "293, Lane-2, Westend Marg", "city": "near Saket Metro Station", "phone": "08750557052", "website": "https://www.techrisedynamics.com/", "rating": 5, "review_count": "", "latitude": 28.5177321, "longitude": 77.1986237, "maps_url": "https://www.google.com/maps/place/?q=place_id:0x390ce1bef0c8c071:0xb0a64e46c6405fc6"}, {"place_id": "0x390d1dce7e5e769f:0x8e0cab7c9821a6cf", "name": "Maruti Suzuki India Head Office", "category": "Corporate office", "street": "Corporate Communications, Maruti Suzuki India Limited", "city": "1, Nelson Mandela Marg", "phone": "18001026392", "website": "https://www.marutisuzuki.com/", "rating": 4, "review_count": "", "latitude": 28.539903199999998, "longitude": 77.1541331, "maps_url": "https://www.google.com/maps/place/?q=place_id:0x390d1dce7e5e769f:0x8e0cab7c9821a6cf"}, {"place_id": "0x390d1d75739a3c07:0xae6dfa05588e14e3", "name": "C S Construction Company Pvt. Ltd", "category": "Real Estate Builders & Construction Company", "street": "Plot No. 2, near HDFC bank, Local Shopping Complex", "city": "9", "phone": "01147169900", "website": "", "rating": 4.6, "review_count": "", "latitude": 28.5380695, "longitude": 77.1431051, "maps_url": "https://www.google.com/maps/place/?q=place_id:0x390d1d75739a3c07:0xae6dfa05588e14e3"}, {"place_id": "0x390ce21e692e0283:0xa33efbc3468a3d7d", "name": "Tally Software Services", "category": "Software company", "street": "C 220/4, Savtri Nagar, Malviya Nagar", "city": "New Delhi, Delhi 110017", "phone": "09810311011", "website": "", "rating": 3.8, "review_count": "", "latitude": 28.533087, "longitude": 77.2128759, "maps_url": "https://www.google.com/maps/place/?q=place_id:0x390ce21e692e0283:0xa33efbc3468a3d7d"}, {"place_id": "0xa3f7b500ba6bee9b:0xbf6f44de92b28de", "name": "Yuvocreations Private Limited ( \u092f\u0941\u0935\u094b\u0915\u094d\u0930\u093f\u090f\u0936\u0928\u094d\u0938 \u092a\u094d\u0930\u093e\u0907\u0935\u0947\u091f \u0932\u093f\u092e\u093f\u091f\u0947\u0921 ) - Website Designing & Digital Marketing Agency", "category": "Software company", "street": "Lane no.4", "city": "Khasra no. 258, Westend Marg", "phone": "07042123166", "website": "https://yuvocreations.com/", "rating": 5, "review_count": "", "latitude": 28.5169774, "longitude": 77.19925789999999, "maps_url": "https://www.google.com/maps/place/?q=place_id:0xa3f7b500ba6bee9b:0xbf6f44de92b28de"}, {"place_id": "0x390d19c4f81c373b:0x569790526001fe47", "name": "Pasenture Technologies - Web Development Company in Gurugram, Software Development Company in Gurgaon for CRM & Saas Software", "category": "Software company", "street": "2nd Floor", "city": "90, IDC", "phone": "09717197498", "website": "https://pasenture.in/", "rating": 4, "review_count": "", "latitude": 28.4716508, "longitude": 77.0509349, "maps_url": "https://www.google.com/maps/place/?q=place_id:0x390d19c4f81c373b:0x569790526001fe47"}, {"place_id": "0x390d1d187e8f18f3:0xd314c67dce19ccb4", "name": "IT Solutions", "category": "Computer service", "street": "Motilal Nehru Camp, Old JNU Campus, Munirka", "city": "New Delhi, Delhi 110067", "phone": "07838560178", "website": "https://computerservices365.wordpress.com/", "rating": 5, "review_count": "", "latitude": 28.5522942, "longitude": 77.178367, "maps_url": "https://www.google.com/maps/place/?q=place_id:0x390d1d187e8f18f3:0xd314c67dce19ccb4"}, {"place_id": "0x390d1f0df92e353d:0x54e79553d987073c", "name": "Zombie Marketers | Performance Marketing | Digital Marketing | Website development company in Delhi | SEO company in Delhi", "category": "Marketing agency", "street": "89/9 Mamman House B Block 4th Floor", "city": "Kishangarh Village, Vasant Kunj", "phone": "08527273938", "website": "", "rating": 4.4, "review_count": "", "latitude": 28.5189249, "longitude": 77.1646754, "maps_url": "https://www.google.com/maps/place/?q=place_id:0x390d1f0df92e353d:0x54e79553d987073c"}, {"place_id": "0x390d011e517039e5:0xd7871aa892609a4c", "name": "Top #1 Website Company in delhi", "category": "Software company", "street": "P56H+9CP, Commercial Complex, Gopal Nagar, Model Town", "city": "near Akash Cinema", "phone": "", "website": "", "rating": 4.6, "review_count": "", "latitude": 28.7109375, "longitude": 77.1785625, "maps_url": "https://www.google.com/maps/place/?q=place_id:0x390d011e517039e5:0xd7871aa892609a4c"}, {"place_id": "0x390d1ff0709f9a15:0x73645b28383600af", "name": "Pronounce Solar | Pronounce Sunhealth Services Pvt Ltd", "category": "Solar Energy Company", "street": "First Floor, Plot No 30, Masoodpur Dairy", "city": "near JIMS", "phone": "08368603894", "website": "https://pronouncesolar.in/", "rating": 4.7, "review_count": "", "latitude": 28.528717399999998, "longitude": 77.1505494, "maps_url": "https://www.google.com/maps/place/?q=place_id:0x390d1ff0709f9a15:0x73645b28383600af"}, {"place_id": "0x390d1dfc87bfee7d:0xef56b6a091714ee8", "name": "Croma - Ambience Mall (Vasantkunj)", "category": "Electronics store", "street": "Bearing No 2, Ambience Mall", "city": "No S232, 2nd Flr", "phone": "08929519904", "website": "https://store.croma.com/croma-ambience-mall-vasantkunj-electronics-retail-and-repair-shop-vasant-kunj-2-new-delhi-263478/Home", "rating": 4.7, "review_count": "", "latitude": 28.540691799999998, "longitude": 77.1546201, "maps_url": "https://www.google.com/maps/place/?q=place_id:0x390d1dfc87bfee7d:0xef56b6a091714ee8"}, {"place_id": "0x390d1dcec630c751:0x989ae7383d7c3859", "name": "Dyson Store, DLF Promenade, Vasant Kunj, New Delhi", "category": "Electronics Company", "street": "Shop Number 212", "city": "3, Nelson Mandela Marg", "phone": "09599110942", "website": "https://www.dyson.in/?utm_source=GMB&utm_medium=Organic&utm_campaign=DLF_Promenade_Delhi_Direct_Demo", "rating": 4.6, "review_count": "", "latitude": 28.5427158, "longitude": 77.1555266, "maps_url": "https://www.google.com/maps/place/?q=place_id:0x390d1dcec630c751:0x989ae7383d7c3859"}, {"place_id": "0x390d1b2e70dc4643:0x7169c217c950fb21", "name": "SM workforce Pvt Ltd", "category": "Event management company", "street": "55, Street Number 1", "city": "Masoodpur, Sector B, Vasant Kunj", "phone": "09116103492", "website": "http://smworkforce.com/", "rating": 4.8, "review_count": "", "latitude": 28.530208499999997, "longitude": 77.1504137, "maps_url": "https://www.google.com/maps/place/?q=place_id:0x390d1b2e70dc4643:0x7169c217c950fb21"}, {"place_id": "0x390ce23eeab015ab:0x92d6a7e8dbc46e1a", "name": "Odyssey Website Development Company", "category": "Website designer", "street": "B-59", "city": "Block B, Soami Nagar South, Soami Nagar", "phone": "09654486464", "website": "http://odysseyin.com/?utm_source=GMB&utm_medium=Organic&utm_term=Odyssey&utm_content=Listing&utm_campaign=GMB1", "rating": 3.6, "review_count": "", "latitude": 28.541823599999997, "longitude": 77.2262008, "maps_url": "https://www.google.com/maps/place/?q=place_id:0x390ce23eeab015ab:0x92d6a7e8dbc46e1a"}, {"place_id": "0x61679272b097afaf:0x2d8ff2b0d95a1e18", "name": "Busybots | RPA & Robotic Process Automation for Banking, Healthcare, AI Services & UiPath, Python Training in Delhi", "category": "Software company", "street": "1st Floor, D", "city": "25, 100 Feet Rd", "phone": "09315867465", "website": "https://www.busybots.in/", "rating": 5, "review_count": "", "latitude": 28.5055157, "longitude": 77.1852263, "maps_url": "https://www.google.com/maps/place/?q=place_id:0x61679272b097afaf:0x2d8ff2b0d95a1e18"}, {"place_id": "0x331745c76a06d77:0x3f5c561237cb7a3e", "name": "Webreachpro Technologies", "category": "Marketing agency", "street": "Phase-2", "city": "25B", "phone": "09643014632", "website": "https://webreachpro.in/", "rating": 5, "review_count": "", "latitude": 28.5415092, "longitude": 77.1842592, "maps_url": "https://www.google.com/maps/place/?q=place_id:0x331745c76a06d77:0x3f5c561237cb7a3e"}, {"place_id": "0x390d1dce277411dd:0xb06fb46241b11675", "name": "DELNET", "category": "Library", "street": "G5P4+WGW, Jawaharlal Nehru University", "city": "J.N.U Campus, Nelson Mandela Road (Next to Paschimabad Gate of", "phone": "01126742222", "website": "http://www.delnet.in/", "rating": 4.6, "review_count": "", "latitude": 28.5373511, "longitude": 77.156339, "maps_url": "https://www.google.com/maps/place/?q=place_id:0x390d1dce277411dd:0xb06fb46241b11675"}, {"place_id": "0x390d1dd455555555:0xf0c0ae7cb8e85b43", "name": "AtoZ Group of Companies", "category": "Property management company", "street": "37/537, Vasant Kunj Rd", "city": "Block A, Mahipalpur Village, Mahipalpur", "phone": "09810818888", "website": "http://www.atozgroup.in/", "rating": 3.7, "review_count": "", "latitude": 28.5452659, "longitude": 77.128058, "maps_url": "https://www.google.com/maps/place/?q=place_id:0x390d1dd455555555:0xf0c0ae7cb8e85b43"}, {"place_id": "0x390d1de4927b2a03:0x2533739c7b861d05", "name": "ONGC Videsh Ltd.", "category": "Corporate campus", "street": "Tower B", "city": "5, Nelson Mandela Marg", "phone": "01126129344", "website": "https://ongcvidesh.com/", "rating": 4.8, "review_count": "", "latitude": 28.544493199999998, "longitude": 77.15786229999999, "maps_url": "https://www.google.com/maps/place/?q=place_id:0x390d1de4927b2a03:0x2533739c7b861d05"}, {"place_id": "0x390cfea83f36661b:0x893715bf8766e4ee", "name": "IT Solution", "category": "Software company", "street": "P7CG+RPF", "city": "Mahalaxmi Vihar, Phase 7, Block A, Shiv Vihar, Karawal Nagar", "phone": "09818231784", "website": "", "rating": 5, "review_count": "", "latitude": 28.722054399999998, "longitude": 77.2768011, "maps_url": "https://www.google.com/maps/place/?q=place_id:0x390cfea83f36661b:0x893715bf8766e4ee"}, {"place_id": "0x390d1dce984ae8d1:0x1bcc94df12f20b99", "name": "Helios Watch Store - Ambience Mall, New Delhi", "category": "Watch store", "street": "Shop No F112-124, First Floor", "city": "Ambience Mall", "phone": "08929879269", "website": "https://www.helioswatchstore.com/store-locator/new-delhi/watch-store-in-ambience-mall-hamn", "rating": 5, "review_count": "", "latitude": 28.5412105, "longitude": 77.1548679, "maps_url": "https://www.google.com/maps/place/?q=place_id:0x390d1dce984ae8d1:0x1bcc94df12f20b99"}, {"place_id": "0x390d193c3a36e523:0xe68f8d2568faeaad", "name": "Espire Infolabs Pvt. Ltd.", "category": "Software company", "street": "486 & 487", "city": "Phase III, Udyog Vihar III, Sector 20", "phone": "01247173000", "website": "http://www.espire.com/", "rating": 4.1, "review_count": "", "latitude": 28.5119516, "longitude": 77.0899661, "maps_url": "https://www.google.com/maps/place/?q=place_id:0x390d193c3a36e523:0xe68f8d2568faeaad"}, {"place_id": "0x390d05677ee3aecd:0xa51743b53fa39187", "name": "Weblife Infotech Pvt Ltd (Destech Media)", "category": "Software company", "street": "", "city": "", "phone": "07042569776", "website": "http://www.weblifeindia.in/", "rating": 2.9, "review_count": "", "latitude": 28.5273522, "longitude": 77.20898509999999, "maps_url": "https://www.google.com/maps/place/?q=place_id:0x390d05677ee3aecd:0xa51743b53fa39187"}, {"place_id": "0x390cfb4bf15a6733:0xaf50e6f3c5fb7641", "name": "Digitals Daddy: Web & App Development Company", "category": "Software company", "street": "Metro Gate No. 2", "city": "Nearest Sikandarpur", "phone": "09818286609", "website": "https://www.digitalsdaddy.com/", "rating": 4.9, "review_count": "", "latitude": 28.4847884, "longitude": 77.0922192, "maps_url": "https://www.google.com/maps/place/?q=place_id:0x390cfb4bf15a6733:0xaf50e6f3c5fb7641"}, {"place_id": "0xac577056c2b5ff3d:0xaf00253141553d04", "name": "Devnotam | IT Company", "category": "Internet marketing service", "street": "", "city": "", "phone": "", "website": "https://devnotam.com/", "rating": 5, "review_count": "", "latitude": 28.692404999999997, "longitude": 77.090042, "maps_url": "https://www.google.com/maps/place/?q=place_id:0xac577056c2b5ff3d:0xaf00253141553d04"}, {"place_id": "0x390d1e468f7d9be9:0xa99cc0711073f53e", "name": "Brands Impact", "category": "Media company", "street": "Building No. 2A, 4th Floor", "city": "Masoodpur, Sector B, Vasant Kunj", "phone": "08949748185", "website": "http://brandsimpact.in/", "rating": 4.9, "review_count": "", "latitude": 28.528944, "longitude": 77.15211099999999, "maps_url": "https://www.google.com/maps/place/?q=place_id:0x390d1e468f7d9be9:0xa99cc0711073f53e"}, {"place_id": "0x390d19345bcdc4f3:0x61d5221ed2c17f35", "name": "Cognizant", "category": "Software company", "street": "Tower C, SEZ Building, Building No 6, 5th & 6th Floor DLF C yber City Rd W Block", "city": "Near Shankar Chowk", "phone": "", "website": "http://www.cognizant.com/india", "rating": 4.1, "review_count": "", "latitude": 28.4964521, "longitude": 77.096576, "maps_url": "https://www.google.com/maps/place/?q=place_id:0x390d19345bcdc4f3:0x61d5221ed2c17f35"}, {"place_id": "0x390d1db98fbbe5b7:0xabdb488c915e4ba4", "name": "NEW IT VENTURE INDIA PVT. LTD. (NITV INDIA)", "category": "Software company", "street": "C-9", "city": "9401", "phone": "01141755580", "website": "https://www.newitventure.com/", "rating": "", "review_count": "", "latitude": 28.5400377, "longitude": 77.1432359, "maps_url": "https://www.google.com/maps/place/?q=place_id:0x390d1db98fbbe5b7:0xabdb488c915e4ba4"}, {"place_id": "0x390d1f18f7b28d41:0x9accd4eda4ce1669", "name": "Cuberoot Technologies Pvt. Ltd", "category": "Corporate office", "street": "House, 2nd floor", "city": "Acme", "phone": "09069142350", "website": "http://www.cuberoot.co/", "rating": 5, "review_count": "", "latitude": 28.5263055, "longitude": 77.1904443, "maps_url": "https://www.google.com/maps/place/?q=place_id:0x390d1f18f7b28d41:0x9accd4eda4ce1669"}]}