{"timestamp": 1773731152.7000165, "keyword": "IT company", "location": "delhi", "cell_idx": 351, "results": [{"place_id": "0x390d05f1c70d0d6b:0x80d816e36f28618f", "name": "Katchin Tech Private Limited | Software Development Company in Delhi NCR", "category": "Software company", "street": "A-4", "city": "near skin decor", "phone": "07669005215", "website": "https://www.katchintech.com/", "rating": 5, "review_count": "", "latitude": 28.575834099999998, "longitude": 77.05139609999999, "maps_url": "https://www.google.com/maps/place/?q=place_id:0x390d05f1c70d0d6b:0x80d816e36f28618f"}, {"place_id": "0x390d1b1fb85c71ed:0x1aa4ba2a08b02c1d", "name": "Tecmicra Solutions - Software, Website Development & Digital Marketing Company", "category": "Software company", "street": "Floor, D410", "city": "3rd", "phone": "07042387253", "website": "https://tecmicra.co.in/", "rating": 5, "review_count": "", "latitude": 28.5849324, "longitude": 77.071085, "maps_url": "https://www.google.com/maps/place/?q=place_id:0x390d1b1fb85c71ed:0x1aa4ba2a08b02c1d"}, {"place_id": "0x390d1b0ad6565c37:0x9ee772d45ffed70d", "name": "IOTtech Softwares", "category": "Software company", "street": "First & Second Floor", "city": "Lucky Plaza", "phone": "08034798583", "website": "", "rating": 4.9, "review_count": "", "latitude": 28.5847981, "longitude": 77.07323199999999, "maps_url": "https://www.google.com/maps/place/?q=place_id:0x390d1b0ad6565c37:0x9ee772d45ffed70d"}, {"place_id": "0x390d04ae48526021:0xfc8962573381adb3", "name": "Softonic Solution", "category": "Software company", "street": "Building A", "city": "Block A, 2nd Floor, Plot No. 11, 12, 16, 17 Palam Extension", "phone": "09990944381", "website": "", "rating": 4.9, "review_count": "", "latitude": 28.582297399999998, "longitude": 77.07083709999999, "maps_url": "https://www.google.com/maps/place/?q=place_id:0x390d04ae48526021:0xfc8962573381adb3"}, {"place_id": "0x390d1b3d620205b1:0xe21a1fe217f40c4", "name": "InFutive Technology Pvt Ltd.", "category": "Software company", "street": "C-Block", "city": "B - 282 Palam Extension", "phone": "08882283917", "website": "http://www.infutive.com/", "rating": 5, "review_count": "", "latitude": 28.5862752, "longitude": 77.0697868, "maps_url": "https://www.google.com/maps/place/?q=place_id:0x390d1b3d620205b1:0xe21a1fe217f40c4"}, {"place_id": "0x390d1bb72bd328b1:0xd9425539dc10edb3", "name": "SOFT INDIA WEB SOFTWARE DEVELOPMENT PVT LTD", "category": "Software company", "street": "Ground Floor", "city": "A- 107", "phone": "09625503688", "website": "http://www.softindia.in/", "rating": 3.2, "review_count": "", "latitude": 28.587611, "longitude": 77.0704514, "maps_url": "https://www.google.com/maps/place/?q=place_id:0x390d1bb72bd328b1:0xd9425539dc10edb3"}, {"place_id": "0x390d1b18046bbffb:0xb21dca8c6a640dbf", "name": "GreenTrans Logistics and Transport Software Company", "category": "Software company", "street": "A 59,IIIrd Floor", "city": "Sector 8 Dwarka, Dwarka", "phone": "09958840764", "website": "https://greentrans.in/", "rating": 4.9, "review_count": "", "latitude": 28.5742418, "longitude": 77.0705795, "maps_url": "https://www.google.com/maps/place/?q=place_id:0x390d1b18046bbffb:0xb21dca8c6a640dbf"}, {"place_id": "0x390ce21b8d636751:0xda2fa1d06a704eab", "name": "Prinknest Technology LLP", "category": "Software company", "street": "1st Floor", "city": "RZ 122 D, Plot No.1", "phone": "08076833804", "website": "https://prinknest.com/", "rating": 4.8, "review_count": "", "latitude": 28.606828, "longitude": 77.0816226, "maps_url": "https://www.google.com/maps/place/?q=place_id:0x390ce21b8d636751:0xda2fa1d06a704eab"}, {"place_id": "0x390d1ac4f284e761:0x9464ca79c229a74d", "name": "Times IT Services Pvt. Ltd", "category": "Software company", "street": "Vardhman Bahnhof Plaza", "city": "204", "phone": "09650012304", "website": "https://www.timesitservices.com/", "rating": 4.9, "review_count": "", "latitude": 28.5906919, "longitude": 77.043549, "maps_url": "https://www.google.com/maps/place/?q=place_id:0x390d1ac4f284e761:0x9464ca79c229a74d"}, {"place_id": "0x390d013ca8ac1387:0x8a0db85b518267d5", "name": "NexGen Innovators", "category": "Software company", "street": "114B, 3rd floor, Dwarka Mor", "city": "New Delhi, Delhi 110059", "phone": "", "website": "https://www.nexgi.com/", "rating": 4.9, "review_count": "", "latitude": 28.618961, "longitude": 77.0322202, "maps_url": "https://www.google.com/maps/place/?q=place_id:0x390d013ca8ac1387:0x8a0db85b518267d5"}, {"place_id": "0x390d1ac339555557:0x9e72f1346ffa17f8", "name": "DIGIWIZ TECHNOLOGIES PVT LTD", "category": "Software company", "street": "112,MANISH MARKET", "city": "Sector 11 Dwarka, Dwarka", "phone": "08800643456", "website": "https://seoservicessk.com/seo-services-in-dwarka-seo-course-in-dwarka/", "rating": 4.9, "review_count": "", "latitude": 28.586458, "longitude": 77.0457241, "maps_url": "https://www.google.com/maps/place/?q=place_id:0x390d1ac339555557:0x9e72f1346ffa17f8"}, {"place_id": "0x390d04d87fa425e9:0xabbae143206fe3b7", "name": "Xcrino Business Solutions Pvt Ltd", "category": "Software company", "street": "3rd Floor", "city": "Goma Plaza", "phone": "09211352844", "website": "https://www.xcrino.com/", "rating": 3.8, "review_count": "", "latitude": 28.585049599999998, "longitude": 77.0719654, "maps_url": "https://www.google.com/maps/place/?q=place_id:0x390d04d87fa425e9:0xabbae143206fe3b7"}, {"place_id": "0x390d1bdf0a3e7f61:0x9183ef9d4cac657c", "name": "TechBinge India", "category": "Software company", "street": "E-515, 1st Floor", "city": "Block E, Sector 7 Dwarka, Dwarka", "phone": "09871056158", "website": "https://techbinge.org/", "rating": 4.3, "review_count": "", "latitude": 28.5850108, "longitude": 77.07190899999999, "maps_url": "https://www.google.com/maps/place/?q=place_id:0x390d1bdf0a3e7f61:0x9183ef9d4cac657c"}, {"place_id": "0x390d053af4b9fae1:0xa955718786ea4c90", "name": "Efficient IT & Electronic Services Private Limited", "category": "Software company", "street": "1st floor", "city": "VV Plaza building", "phone": "08750042191", "website": "http://www.efficientindia.com/", "rating": 4.4, "review_count": "", "latitude": 28.6100702, "longitude": 77.03385709999999, "maps_url": "https://www.google.com/maps/place/?q=place_id:0x390d053af4b9fae1:0xa955718786ea4c90"}, {"place_id": "0x390d058eebd4e349:0xe3540cff21ac1db4", "name": "Matrix Infotech Solution | Software Development Company in Delhi", "category": "Software company", "street": "3rd floor, Besmate Indian Bank, housing complex", "city": "Main Market", "phone": "08920817059", "website": "https://www.matrixinfotechsolution.com/", "rating": 5, "review_count": "", "latitude": 28.6165375, "longitude": 77.0282521, "maps_url": "https://www.google.com/maps/place/?q=place_id:0x390d058eebd4e349:0xe3540cff21ac1db4"}, {"place_id": "0x390ce458d0000001:0xf2123bd299ec4501", "name": "IT Company India", "category": "Software company", "street": "D56", "city": "D Block, Sector 10", "phone": "09999244854", "website": "https://www.itcompanyindia.in/", "rating": 4.7, "review_count": "", "latitude": 28.589917699999997, "longitude": 77.3351153, "maps_url": "https://www.google.com/maps/place/?q=place_id:0x390ce458d0000001:0xf2123bd299ec4501"}, {"place_id": "0x390d059150d8d8d3:0xa88f8d2856eab58e", "name": "Codemez It Solutions", "category": "Software company", "street": "Ground Floor", "city": "H No 271", "phone": "08800598521", "website": "https://codemez.com/", "rating": 5, "review_count": "", "latitude": 28.6140609, "longitude": 77.0312409, "maps_url": "https://www.google.com/maps/place/?q=place_id:0x390d059150d8d8d3:0xa88f8d2856eab58e"}, {"place_id": "0x390d1da73a24973f:0xfcbd561b3e6e5b0b", "name": "Adsource IT Solutions", "category": "Software company", "street": "Metro Pilllar, metro station", "city": "Dwarka More", "phone": "", "website": "https://www.adsourceitsolutions.com/", "rating": 5, "review_count": "", "latitude": 28.619874, "longitude": 77.0310854, "maps_url": "https://www.google.com/maps/place/?q=place_id:0x390d1da73a24973f:0xfcbd561b3e6e5b0b"}, {"place_id": "0x390d1b524d89b769:0xb5c7f7f25cdd761a", "name": "Inowix Technologies", "category": "Software company", "street": "224 Dada Dev Tower 3rd Floor Behind Akash Hospital, main road, rajapuri chowk, opp sector 4 dwarka", "city": "Raja Puri, Matiala", "phone": "", "website": "https://www.inowix.in/", "rating": 5, "review_count": "", "latitude": 28.5708961, "longitude": 77.07486089999999, "maps_url": "https://www.google.com/maps/place/?q=place_id:0x390d1b524d89b769:0xb5c7f7f25cdd761a"}, {"place_id": "0x390d1c153a0323ff:0x48e3aad9be77d23c", "name": "Msinterface Technologies Pvt Ltd - Website Designer in Dwarka", "category": "Software company", "street": "Mahavir Enclave", "city": "Mahavir Enclave I, Sector 1 Dwarka, Dwarka", "phone": "09971787219", "website": "https://www.msinterface.in/", "rating": 5, "review_count": "", "latitude": 28.5961926, "longitude": 77.0823114, "maps_url": "https://www.google.com/maps/place/?q=place_id:0x390d1c153a0323ff:0x48e3aad9be77d23c"}, {"place_id": "0x390d1b8d94bfebb9:0xdbd74207ae3d35e7", "name": "SysTools Software Pvt Ltd", "category": "Software company", "street": "City Centre", "city": "528", "phone": "06230830862", "website": "https://www.systoolsgroup.com/", "rating": 4.5, "review_count": "", "latitude": 28.5921344, "longitude": 77.0417265, "maps_url": "https://www.google.com/maps/place/?q=place_id:0x390d1b8d94bfebb9:0xdbd74207ae3d35e7"}, {"place_id": "0x390d1b86b6b5582d:0x36c722e124b57be8", "name": "kdrsoft Technologies - website designing company in delhi", "category": "Website designer", "street": "2nd Floor", "city": "Manish Global Mall", "phone": "09910258463", "website": "https://www.kdrsoft.com/", "rating": 4.9, "review_count": "", "latitude": 28.559937299999998, "longitude": 77.0596687, "maps_url": "https://www.google.com/maps/place/?q=place_id:0x390d1b86b6b5582d:0x36c722e124b57be8"}, {"place_id": "0x390d1b4247c3e999:0x23b346992f7a49c6", "name": "SE Technology", "category": "Website designer", "street": "Sector 10 Dwarka, Dwarka", "city": "New Delhi, Delhi, 110075", "phone": "09891827147", "website": "http://www.sparroweye.com/", "rating": 4.9, "review_count": "", "latitude": 28.585585799999997, "longitude": 77.0577191, "maps_url": "https://www.google.com/maps/place/?q=place_id:0x390d1b4247c3e999:0x23b346992f7a49c6"}, {"place_id": "0x390d1b3d95555591:0x43c9fe791aed7a0e", "name": "Acetech Information Systems Pvt. Ltd", "category": "Software company", "street": "Unit No. 469-470, Vegas Mall", "city": "Commercial Towers", "phone": "09650972345", "website": "http://www.acetechindia.com/", "rating": 4.4, "review_count": "", "latitude": 28.601454, "longitude": 77.0294002, "maps_url": "https://www.google.com/maps/place/?q=place_id:0x390d1b3d95555591:0x43c9fe791aed7a0e"}, {"place_id": "0x2a72b8b69d7b6493:0x11251466d4d34cac", "name": "WebZonal IT Company", "category": "Website designer", "street": "Wz-258/2-3, D Block Rd", "city": "Khazan Basti, Nangal Raya, Janakpuri", "phone": "09811170903", "website": "http://webzonal.com/", "rating": 5, "review_count": "", "latitude": 28.6122102, "longitude": 77.11159549999999, "maps_url": "https://www.google.com/maps/place/?q=place_id:0x2a72b8b69d7b6493:0x11251466d4d34cac"}, {"place_id": "0x390d1b162ed2908d:0x35f238c42a340589", "name": "Udigie - Best Website Development Company In Delhi", "category": "Website designer", "street": "D-486, 1st Floor", "city": "Ramphal Chowk Rd", "phone": "07982140540", "website": "https://udigie.com/", "rating": 5, "review_count": "", "latitude": 28.5847357, "longitude": 77.0703491, "maps_url": "https://www.google.com/maps/place/?q=place_id:0x390d1b162ed2908d:0x35f238c42a340589"}, {"place_id": "0x390d05681896eb21:0xcfed89ab43cdd65", "name": "Mrmmbs Vision", "category": "Software company", "street": "", "city": "", "phone": "", "website": "https://www.mrmmbsvision.com/", "rating": 4.8, "review_count": "", "latitude": 14.157641199999999, "longitude": 0, "maps_url": "https://www.google.com/maps/place/?q=place_id:0x390d05681896eb21:0xcfed89ab43cdd65"}, {"place_id": "0x390d1b53669611a7:0xd0180d327b46ea0e", "name": "GRK Info Services Pvt Ltd", "category": "Software company", "street": "E - 595, UGF", "city": "Daani Plaza", "phone": "", "website": "http://grkpl.com/", "rating": 4.6, "review_count": "", "latitude": 28.5852842, "longitude": 77.0713699, "maps_url": "https://www.google.com/maps/place/?q=place_id:0x390d1b53669611a7:0xd0180d327b46ea0e"}, {"place_id": "0x390d1bd120730869:0x82fb7a0ec8df1b34", "name": "DDA SFS Flats", "category": "Software company", "street": "Sector 9, Dwarka, New Delhi, Delhi", "city": "45", "phone": "", "website": "http://www.copyprotect.in/", "rating": 4.1, "review_count": "", "latitude": 28.5791161, "longitude": 77.0660224, "maps_url": "https://www.google.com/maps/place/?q=place_id:0x390d1bd120730869:0x82fb7a0ec8df1b34"}, {"place_id": "0x390d05cd2ace8d53:0xf82774e10e1ff47c", "name": "Quicky Technologies", "category": "Software company", "street": "3rd Floor", "city": "C-85, Rama Park Rd", "phone": "09899550472", "website": "https://www.quickytechnologies.com/", "rating": 5, "review_count": "", "latitude": 28.622149999999998, "longitude": 77.03673069999999, "maps_url": "https://www.google.com/maps/place/?q=place_id:0x390d05cd2ace8d53:0xf82774e10e1ff47c"}, {"place_id": "0x390d1b38fd32b4f3:0x82d62331243c57ca", "name": "Techiedom", "category": "Software company", "street": "12, 16", "city": "Block A, 2nd Floor, Plot No. 11", "phone": "08076944161", "website": "https://www.techiedom.com/", "rating": 4.7, "review_count": "", "latitude": 28.592847, "longitude": 77.07793199999999, "maps_url": "https://www.google.com/maps/place/?q=place_id:0x390d1b38fd32b4f3:0x82d62331243c57ca"}, {"place_id": "0x390d02e520aee25b:0x322870f3355c7f4b", "name": "Delphi Infotech (Cybersecurity & Cloud Solutions)", "category": "Software company", "street": "225A, D-21", "city": "Corporate Park", "phone": "01145075151", "website": "https://www.delphiinfo.com/", "rating": 4.2, "review_count": "", "latitude": 28.5618181, "longitude": 77.0670596, "maps_url": "https://www.google.com/maps/place/?q=place_id:0x390d02e520aee25b:0x322870f3355c7f4b"}, {"place_id": "0x390d1bfd61687473:0x878fa1ec1c9a9d7f", "name": "T&N Business Services Pvt Ltd Delhi", "category": "Business management consultant", "street": "3rd", "city": "E-517", "phone": "09455579997", "website": "http://www.tnservices.in/", "rating": 4.7, "review_count": "", "latitude": 28.584938899999997, "longitude": 77.072231, "maps_url": "https://www.google.com/maps/place/?q=place_id:0x390d1bfd61687473:0x878fa1ec1c9a9d7f"}, {"place_id": "0x390d1be996551767:0xb2f7b290665076b9", "name": "Xntrova Technologies \u2013 Best Digital Marketing Agency in Delhi | SEO Services in Delhi", "category": "Internet marketing service", "street": "2nd floor", "city": "A 107", "phone": "08683828646", "website": "https://www.xntrova.com/", "rating": 4.6, "review_count": "", "latitude": 28.5745203, "longitude": 77.0711895, "maps_url": "https://www.google.com/maps/place/?q=place_id:0x390d1be996551767:0xb2f7b290665076b9"}, {"place_id": "0x390ce3c153b89811:0xe7a279685777e9ca", "name": "IT Company", "category": "Automation company", "street": "A-14", "city": "near iskcon temple", "phone": "", "website": "http://www.opuswiz.com/", "rating": 3, "review_count": "", "latitude": 28.557167, "longitude": 77.25424819999999, "maps_url": "https://www.google.com/maps/place/?q=place_id:0x390ce3c153b89811:0xe7a279685777e9ca"}, {"place_id": "0x390ce54a2ffa7a35:0xbc45f708bc311be9", "name": "MLM Software Company in Delhi | MLM Software Development Company in Delhi | India - SOFTKWIT", "category": "Software company", "street": "801B", "city": "Janakpuri District Center, Janakpuri", "phone": "08882925582", "website": "https://softkwit.in/mlm-software.php", "rating": 5, "review_count": "", "latitude": 28.630030599999998, "longitude": 77.0809543, "maps_url": "https://www.google.com/maps/place/?q=place_id:0x390ce54a2ffa7a35:0xbc45f708bc311be9"}, {"place_id": "0x448aa981f5f4e8af:0x24d0bd0e978530df", "name": "Tech Rajendra", "category": "Software company", "street": "3rd Floor", "city": "Plot no. 190, Golf Course Rd", "phone": "09540020546", "website": "https://www.techrajendra.com/", "rating": 4.5, "review_count": "", "latitude": 28.586822299999998, "longitude": 77.0276827, "maps_url": "https://www.google.com/maps/place/?q=place_id:0x448aa981f5f4e8af:0x24d0bd0e978530df"}, {"place_id": "0x390d1b07258b26f1:0x8226854068152e3e", "name": "Softcom Technologies - Web Designing Company in Delhi", "category": "Website designer", "street": "S-89, Manish Global Mall", "city": "Sector 22 Dwarka, Dwarka", "phone": "09910258463", "website": "https://www.softcomtechnologies.com/", "rating": 5, "review_count": "", "latitude": 28.559992299999998, "longitude": 77.0596212, "maps_url": "https://www.google.com/maps/place/?q=place_id:0x390d1b07258b26f1:0x8226854068152e3e"}, {"place_id": "0x390d0165c4c0adb7:0x24c751b1139cf8dc", "name": "StartupGali", "category": "License bureau", "street": "2nd Floor", "city": "D-480", "phone": "09650082009", "website": "https://www.startupgali.com/", "rating": 4.9, "review_count": "", "latitude": 28.584743399999997, "longitude": 77.069817, "maps_url": "https://www.google.com/maps/place/?q=place_id:0x390d0165c4c0adb7:0x24c751b1139cf8dc"}, {"place_id": "0x390d05713cbc05f9:0x29ec332097ea9861", "name": "Bluebyte It Solutions", "category": "Software company", "street": "MS-83", "city": "Block MS, Mohan Garden, Uttam Nagar", "phone": "08178838292", "website": "https://www.bluebyteitsolutions.com/", "rating": 5, "review_count": "", "latitude": 28.6289797, "longitude": 77.0335781, "maps_url": "https://www.google.com/maps/place/?q=place_id:0x390d05713cbc05f9:0x29ec332097ea9861"}, {"place_id": "0x390d1ba812ffffff:0xca4c275bd9c34fa7", "name": "KV Human Resources Services Pvt. Ltd", "category": "Corporate office", "street": "A 59 2nd floor", "city": "Block A, Sector 8 Dwarka, Dwarka", "phone": "07669100805", "website": "http://kvhr.in/", "rating": 4.5, "review_count": "", "latitude": 28.574257099999997, "longitude": 77.0715393, "maps_url": "https://www.google.com/maps/place/?q=place_id:0x390d1ba812ffffff:0xca4c275bd9c34fa7"}, {"place_id": "0x390d05713cbc05f9:0x29ec332097ea9861", "name": "Bluebyte It Solutions", "category": "Software company", "street": "MS-83", "city": "Block MS, Mohan Garden, Uttam Nagar", "phone": "08178838292", "website": "https://www.bluebyteitsolutions.com/", "rating": 5, "review_count": "", "latitude": 28.6289797, "longitude": 77.0335781, "maps_url": "https://www.google.com/maps/place/?q=place_id:0x390d05713cbc05f9:0x29ec332097ea9861"}, {"place_id": "0x390d1b0092bb37f3:0x45cc290714ffd31e", "name": "Bitsonline Technologies", "category": "Store", "street": "D492, 2nd Floor, Palam Extn", "city": "Ramphal Chowk Rd", "phone": "09871009851", "website": "http://www.bitsonlinetech.com/", "rating": 4.8, "review_count": "", "latitude": 28.5846348, "longitude": 77.07012139999999, "maps_url": "https://www.google.com/maps/place/?q=place_id:0x390d1b0092bb37f3:0x45cc290714ffd31e"}, {"place_id": "0x390d1be0f1470549:0x17a9d7f6d78b0d57", "name": "Cognam Technologies", "category": "Corporate office", "street": "B299&300, 1st Floor, Palam Extn", "city": "near Ramphal Chowk Road", "phone": "", "website": "https://www.cognam.com/", "rating": 4.3, "review_count": "", "latitude": 28.5860047, "longitude": 77.07136419999999, "maps_url": "https://www.google.com/maps/place/?q=place_id:0x390d1be0f1470549:0x17a9d7f6d78b0d57"}, {"place_id": "0x390d1b8e5b6999a1:0x522ffbc2c7c23362", "name": "Techthastu Private Limited (Techthaastu)", "category": "Software company", "street": "Techthaastu Office, Pt. Mehru Marg, Outer Bharthal Firni road Bharthal Village", "city": "near Govt. Girls senior secondary School", "phone": "08383889042", "website": "https://www.techthaastu.com/", "rating": 5, "review_count": "", "latitude": 28.5403192, "longitude": 77.0524594, "maps_url": "https://www.google.com/maps/place/?q=place_id:0x390d1b8e5b6999a1:0x522ffbc2c7c23362"}, {"place_id": "0x390d1b825c7a9765:0x26bce6ac0c3000af", "name": "MobilePe", "category": "E-commerce service", "street": "3rd Floor", "city": "D-485, Ramphal Chowk Rd", "phone": "01141034199", "website": "https://mobilepe.co.in/", "rating": 4.7, "review_count": "", "latitude": 28.5848539, "longitude": 77.07025879999999, "maps_url": "https://www.google.com/maps/place/?q=place_id:0x390d1b825c7a9765:0x26bce6ac0c3000af"}, {"place_id": "0x390d05c021c5643f:0x4c5794b17406c81c", "name": "Web2online Solutions - web designing and web development company in delhi, seo company delhi", "category": "Website designer", "street": "C 917", "city": "Block C, Sector 7 Dwarka, Dwarka", "phone": "08860303721", "website": "https://web2onlinesolutions.com/", "rating": 4.9, "review_count": "", "latitude": 28.585333499999997, "longitude": 77.0707252, "maps_url": "https://www.google.com/maps/place/?q=place_id:0x390d05c021c5643f:0x4c5794b17406c81c"}, {"place_id": "0x390d1b2440000001:0x7b52a88f21fc0d82", "name": "DesignDot Technologies | #1 Best Website & App Development | Top Software & AIML Solutions Company in Delhi", "category": "Software company", "street": "RZ 1/13, 3RD FLOOR, Main Road Above HDFC Bank, Dwarka, Near Palam Metro Gate 2", "city": "New Delhi, Delhi 110077", "phone": "09999652812", "website": "https://www.designdot.co.in/", "rating": 5, "review_count": "", "latitude": 28.587238199999998, "longitude": 77.0850727, "maps_url": "https://www.google.com/maps/place/?q=place_id:0x390d1b2440000001:0x7b52a88f21fc0d82"}, {"place_id": "0x390d05c94d5ebb61:0xe8289327a1223c5", "name": "Shivnik Technology", "category": "Software company", "street": "3rd floor", "city": "245, Om Vihar St", "phone": "", "website": "https://www.instagram.com/shivniktechnology/", "rating": 5, "review_count": "", "latitude": 28.622485299999997, "longitude": 77.0498868, "maps_url": "https://www.google.com/maps/place/?q=place_id:0x390d05c94d5ebb61:0xe8289327a1223c5"}, {"place_id": "0x390d05c8987801e5:0x128e04dce6c4cbc4", "name": "Matrix Infotech Solution | Software Development Company", "category": "Software company", "street": "j j", "city": "Dwarka Mor, Block WE, Mohan Garden, Razapur Khurd", "phone": "08920817059", "website": "http://www.matrixinfotechsolution.com/", "rating": 3.9, "review_count": "", "latitude": 28.637037, "longitude": 77.0291258, "maps_url": "https://www.google.com/maps/place/?q=place_id:0x390d05c8987801e5:0x128e04dce6c4cbc4"}, {"place_id": "0x20616dbf813c03ef:0xc8fd1ca47f902e9e", "name": "Bloatware IT Software Company | website Designing Company | Software Company | MLM |CRM | Android Apps", "category": "Software company", "street": "C1", "city": "Rama Park", "phone": "08920750797", "website": "https://bloatwareitsolutions.com/", "rating": 4.5, "review_count": "", "latitude": 28.621265599999997, "longitude": 77.0324943, "maps_url": "https://www.google.com/maps/place/?q=place_id:0x20616dbf813c03ef:0xc8fd1ca47f902e9e"}, {"place_id": "0x390d1ac494680599:0x9d9346abbd7fc498", "name": "Barcode Vaults a true company for rfid and barcode solutions", "category": "Printing equipment supplier", "street": "S-4, Plot No-7", "city": "1030", "phone": "", "website": "https://www.barcodevault.com/", "rating": 4.9, "review_count": "", "latitude": 28.591197899999997, "longitude": 77.04425619999999, "maps_url": "https://www.google.com/maps/place/?q=place_id:0x390d1ac494680599:0x9d9346abbd7fc498"}, {"place_id": "0x390d1bf076ad40a5:0x6e54f7930154b26d", "name": "pNthaan: Technologies - Digital Marketing Company in Delhi - Social Media Marketing", "category": "Software company", "street": "D2/15, Dabri - Palam Rd", "city": "Vinod Puri, Block B 3, Vijay Enclave, Mahavir Enclave", "phone": "09810455309", "website": "https://pnthaan.com/", "rating": 4.9, "review_count": "", "latitude": 28.602663399999997, "longitude": 77.0801891, "maps_url": "https://www.google.com/maps/place/?q=place_id:0x390d1bf076ad40a5:0x6e54f7930154b26d"}, {"place_id": "0x390d050d9e7ce6a3:0xa72607a5a8be6510", "name": "Shri Sai Tech Solutions", "category": "Software company", "street": "Pillar number 783", "city": "Metro Station Dwarka Mor A-109, Street No. 4", "phone": "07210868167", "website": "https://shrisaitechsolutions.com/", "rating": 4.3, "review_count": "", "latitude": 28.6189075, "longitude": 77.0333678, "maps_url": "https://www.google.com/maps/place/?q=place_id:0x390d050d9e7ce6a3:0xa72607a5a8be6510"}, {"place_id": "0x390d1df0721e08c5:0x49d5fd4648a33c2d", "name": "Nibble Software | Website Design & Development | Travel Web API & CRM | SEO, SMO, Paid Ads, Amazon & Flipkart Marketing", "category": "Website designer", "street": "4th Floor", "city": "Moolchand Tower", "phone": "09971066697", "website": "https://www.nibblesoftware.com/", "rating": 4.8, "review_count": "", "latitude": 28.6000862, "longitude": 77.0818018, "maps_url": "https://www.google.com/maps/place/?q=place_id:0x390d1df0721e08c5:0x49d5fd4648a33c2d"}, {"place_id": "0x390d1b1a3948b9d9:0x57a5ec5ae587ff46", "name": "HK Chhabra & Company", "category": "Chartered accountant", "street": "DDA SFS Flats", "city": "49, Dwarka Sector 9 Rd", "phone": "07838884545", "website": "http://hkcindia.com/", "rating": 4.9, "review_count": "", "latitude": 28.579157499999997, "longitude": 77.06604469999999, "maps_url": "https://www.google.com/maps/place/?q=place_id:0x390d1b1a3948b9d9:0x57a5ec5ae587ff46"}, {"place_id": "0x390d1bf7b99f3135:0x7b59ef65ff972e2", "name": "XB Software Development Company", "category": "Software company", "street": "Goma Plaza", "city": "E-512, Ramphal Chowk Rd", "phone": "08802878718", "website": "", "rating": 5, "review_count": "", "latitude": 28.586331899999998, "longitude": 77.0716807, "maps_url": "https://www.google.com/maps/place/?q=place_id:0x390d1bf7b99f3135:0x7b59ef65ff972e2"}, {"place_id": "0x390d1b0e55555555:0x5906afe3e1eb2d07", "name": "FPS LOGISTICS", "category": "Logistics service", "street": "shop no 4 and 5 1st and 2nd floor", "city": "Plot No 5", "phone": "09810769388", "website": "http://fpslogistics.in/", "rating": 4.7, "review_count": "", "latitude": 28.5741314, "longitude": 77.07054819999999, "maps_url": "https://www.google.com/maps/place/?q=place_id:0x390d1b0e55555555:0x5906afe3e1eb2d07"}, {"place_id": "0x390d055ab880b807:0xcb5c025daa2b2795", "name": "Tech Web Mantra", "category": "Software company", "street": "B-77", "city": "near Dwarka Mor Metro Station", "phone": "09871521039", "website": "https://www.techwebmantra.com/", "rating": 5, "review_count": "", "latitude": 28.614187899999997, "longitude": 77.0362179, "maps_url": "https://www.google.com/maps/place/?q=place_id:0x390d055ab880b807:0xcb5c025daa2b2795"}, {"place_id": "0x2f57245dcbe5cdc5:0xe07413eae661292f", "name": "Hyper Cloud Digital Solutions", "category": "Software company", "street": "", "city": "", "phone": "09152552222", "website": "https://www.hyperclouddigital.com/", "rating": 5, "review_count": "", "latitude": 21.0680074, "longitude": 82.7525294, "maps_url": "https://www.google.com/maps/place/?q=place_id:0x2f57245dcbe5cdc5:0xe07413eae661292f"}, {"place_id": "0x390d1b9ddfccb265:0xb589ee8b4aaaa57c", "name": "50 Hertz Limited", "category": "Software company", "street": "Corporate Park", "city": "303, 3rd Floor, D21", "phone": "01140110747", "website": "https://www.50hertz.in/", "rating": 4.6, "review_count": "", "latitude": 28.5618181, "longitude": 77.0670596, "maps_url": "https://www.google.com/maps/place/?q=place_id:0x390d1b9ddfccb265:0xb589ee8b4aaaa57c"}, {"place_id": "0x390d1bcd76384d39:0xdb32f9430e255f8e", "name": "WINISHTECH IT SOLUTIONS PRIVATE LIMITED", "category": "Software company", "street": "B1/639 A", "city": "Janakpuri West, Block B1, Janakpuri", "phone": "", "website": "https://winishtechitsolutions.com/", "rating": 5, "review_count": "", "latitude": 28.6324707, "longitude": 77.0857044, "maps_url": "https://www.google.com/maps/place/?q=place_id:0x390d1bcd76384d39:0xdb32f9430e255f8e"}, {"place_id": "0x390d1b0545b2c0cd:0x23ba5665da999202", "name": "Animeria Technologies - Software & App Development | Digital Marketing", "category": "Software company", "street": "A30", "city": "Block D, Sector 8 Dwarka, Dwarka", "phone": "08882612956", "website": "https://www.animeriatechnologies.com/", "rating": 5, "review_count": "", "latitude": 28.572037899999998, "longitude": 77.070837, "maps_url": "https://www.google.com/maps/place/?q=place_id:0x390d1b0545b2c0cd:0x23ba5665da999202"}, {"place_id": "0x390d04d2f6575abb:0xd5553781913e9a53", "name": "Espial Infotech", "category": "Software company", "street": "Uttam Vihar, Block B, Uttam Nagar, Bindapur", "city": "Delhi, 110059", "phone": "", "website": "http://espial.in/", "rating": 5, "review_count": "", "latitude": 28.611546399999998, "longitude": 77.06602269999999, "maps_url": "https://www.google.com/maps/place/?q=place_id:0x390d04d2f6575abb:0xd5553781913e9a53"}, {"place_id": "0x390d052a1265bc33:0xd1f77384fcc24135", "name": "Grace Techno | Web Designing Company in Delhi | Web & Software Development Company in Delhi", "category": "Software company", "street": "First Floor", "city": "Building Burger King", "phone": "08595273503", "website": "https://gracetechno.online/", "rating": 5, "review_count": "", "latitude": 28.6198245, "longitude": 77.054174, "maps_url": "https://www.google.com/maps/place/?q=place_id:0x390d052a1265bc33:0xd1f77384fcc24135"}, {"place_id": "0x390d1b1636772253:0x90fb52e5011143a6", "name": "Janus Global LLP", "category": "Computer support and services", "street": "D 459A, Ramphal Chowk Rd", "city": "Block D, Sector 7 Dwarka, Dwarka", "phone": "09999216234", "website": "https://janusglobal.in/", "rating": 5, "review_count": "", "latitude": 28.585091, "longitude": 77.06935159999999, "maps_url": "https://www.google.com/maps/place/?q=place_id:0x390d1b1636772253:0x90fb52e5011143a6"}, {"place_id": "0x390d1baaff346a7b:0x1b774913c94bd822", "name": "Ontech Digital Technologies Pvt. Ltd.", "category": "Website designer", "street": "3rd floor", "city": "Shyam Kunj Tower", "phone": "08802377021", "website": "https://ontechdigital.com/", "rating": 5, "review_count": "", "latitude": 28.5994429, "longitude": 77.0819152, "maps_url": "https://www.google.com/maps/place/?q=place_id:0x390d1baaff346a7b:0x1b774913c94bd822"}, {"place_id": "0x390d1b4cbe0c8793:0x3e284c9da451bfe3", "name": "Barcode - myHQ Coworking", "category": "Coworking space", "street": "3rd Floor", "city": "228, Service Centre", "phone": "09205006361", "website": "https://myhq.in/coworking-space/Barcode", "rating": 4, "review_count": "", "latitude": 28.5748693, "longitude": 77.0673783, "maps_url": "https://www.google.com/maps/place/?q=place_id:0x390d1b4cbe0c8793:0x3e284c9da451bfe3"}, {"place_id": "0x390d1b3da538ce51:0x652ecff8388c42ac", "name": "Dynpro India Pvt. Ltd.", "category": "Software company", "street": "E-523, Ramphal Chowk Rd", "city": "Block A, Sector 7 Dwarka, Palam", "phone": "01125300500", "website": "http://www.dynproindia.com/", "rating": 3.4, "review_count": "", "latitude": 28.584993599999997, "longitude": 77.07244969999999, "maps_url": "https://www.google.com/maps/place/?q=place_id:0x390d1b3da538ce51:0x652ecff8388c42ac"}, {"place_id": "0x390d1b62358abaad:0xd3b84b17bc079d1d", "name": "GST, TRADEMARK REGISTRATION IN DWARKA - COMPANIFY INDIA PRIVATE LIMITED", "category": "Legal services", "street": "RZG-5, 2nd Floor, Sood Plaza Main Palam Dabri Road, Mahavir Enclave", "city": "above IndusInd Bank", "phone": "07827298043", "website": "https://www.companify.in/", "rating": 4.9, "review_count": "", "latitude": 28.5997466, "longitude": 77.0817431, "maps_url": "https://www.google.com/maps/place/?q=place_id:0x390d1b62358abaad:0xd3b84b17bc079d1d"}, {"place_id": "0x390d1b2e3e454c3d:0x1f00bbefc62a4b30", "name": "Website Designing Company in India", "category": "Website designer", "street": "Gali No 32", "city": "Block T, Rajapuri, Uttam Nagar", "phone": "08800245633", "website": "https://webcareindia.com/", "rating": 4.9, "review_count": "", "latitude": 28.6053942, "longitude": 77.0586278, "maps_url": "https://www.google.com/maps/place/?q=place_id:0x390d1b2e3e454c3d:0x1f00bbefc62a4b30"}, {"place_id": "0x390d1b5c83984955:0xab519a2222070475", "name": "Vision Web India | Best Web Development & Digital Marketing Company In Delhi", "category": "Website designer", "street": "B 252, Palam Extension", "city": "Ramphal Chowk Rd", "phone": "09667719394", "website": "https://visionwebindia.com/", "rating": 5, "review_count": "", "latitude": 28.586551699999998, "longitude": 77.0690965, "maps_url": "https://www.google.com/maps/place/?q=place_id:0x390d1b5c83984955:0xab519a2222070475"}, {"place_id": "0x390d1bb75bb88cff:0x97475c8f31c81dc4", "name": "DigiHunk Technologies Private Limited", "category": "Software company", "street": "F", "city": "Besides Sports Fit Gym", "phone": "07303475226", "website": "https://www.digihunk.com/", "rating": 5, "review_count": "", "latitude": 28.586438899999997, "longitude": 77.0716399, "maps_url": "https://www.google.com/maps/place/?q=place_id:0x390d1bb75bb88cff:0x97475c8f31c81dc4"}, {"place_id": "0x390d1b6807b97c57:0xb6dc40e91d71681f", "name": "Algo2bots Infotech", "category": "Software company", "street": "WZ-291, Street Number 8", "city": "Sadh Nagar I, Sadh Nagar, Palam", "phone": "09911447760", "website": "http://algo2botsinfotech.com/", "rating": 5, "review_count": "", "latitude": 28.587672599999998, "longitude": 77.09199129999999, "maps_url": "https://www.google.com/maps/place/?q=place_id:0x390d1b6807b97c57:0xb6dc40e91d71681f"}, {"place_id": "0x390d1b0039355461:0x54756ad2de14aa72", "name": "IHMCL (Indian Highways Management Company Limited)", "category": "Government office", "street": "H3G5+JRP", "city": "205 Delhi Rd", "phone": "", "website": "https://ihmcl.co.in/", "rating": 5, "review_count": "", "latitude": 28.576597099999997, "longitude": 77.05956359999999, "maps_url": "https://www.google.com/maps/place/?q=place_id:0x390d1b0039355461:0x54756ad2de14aa72"}, {"place_id": "0x390d03e135b5a225:0x27a1c20fb383cc7a", "name": "Hindquest Consultancy Services", "category": "Executive search firm", "street": "Metro Gate 2", "city": "Near Metro Pillar No. 775, Dwarka Mor, Sewak Park, New Delhi,1 10049", "phone": "07210072251", "website": "", "rating": 4.9, "review_count": "", "latitude": 28.5750562, "longitude": 77.06904589999999, "maps_url": "https://www.google.com/maps/place/?q=place_id:0x390d03e135b5a225:0x27a1c20fb383cc7a"}, {"place_id": "0x390d1ba4b50ab3a1:0x4202088df86f7f0", "name": "Lozy Warehousing Company", "category": "Warehouse", "street": "Vardhman Crown Mall", "city": "G-41", "phone": "", "website": "http://lozy.in/", "rating": 5, "review_count": "", "latitude": 28.5751028, "longitude": 77.0510513, "maps_url": "https://www.google.com/maps/place/?q=place_id:0x390d1ba4b50ab3a1:0x4202088df86f7f0"}, {"place_id": "0xa27a8e7eb74ff3a5:0x84aee7a753da91b", "name": "onlydigitalway | digital marketing agency in dwarka", "category": "Marketing agency", "street": "3rd floor", "city": "Rawat plaza", "phone": "09211225817", "website": "http://onlydigitalway.com/", "rating": 4.4, "review_count": "", "latitude": 28.585135899999997, "longitude": 77.07260579999999, "maps_url": "https://www.google.com/maps/place/?q=place_id:0xa27a8e7eb74ff3a5:0x84aee7a753da91b"}, {"place_id": "0x41d0a87c8f4afaf:0x24b53b7f7ad5bf06", "name": "Fox Beryl - Digital Marketing Company", "category": "Website designer", "street": "G-16/2 Street NO. 2 Raj nagar", "city": "Part-2, Palam", "phone": "08595869757", "website": "https://foxberyl.in/", "rating": 5, "review_count": "", "latitude": 28.585067199999997, "longitude": 77.0815736, "maps_url": "https://www.google.com/maps/place/?q=place_id:0x41d0a87c8f4afaf:0x24b53b7f7ad5bf06"}, {"place_id": "0x390d05380e193067:0xf20ea63eb212ad4", "name": "Web2connectindia | Best Digital Marketing Agency in Delhi Ncr,Delhi, New Delhi, Uttam Nagar, India", "category": "Software company", "street": "Third floor D-157", "city": "Uttam NagarNear Mudgal Garden Complex Bal Udhyan Road New Delhi West delhi 110059", "phone": "", "website": "https://www.web2connectindia.com/", "rating": 4.6, "review_count": "", "latitude": 28.621762999999998, "longitude": 77.05582299999999, "maps_url": "https://www.google.com/maps/place/?q=place_id:0x390d05380e193067:0xf20ea63eb212ad4"}, {"place_id": "0x390d1acf7916f8e5:0x274db7eb7d70a6a5", "name": "The Case Company", "category": "E-commerce service", "street": "T-1 Manish Chamber-3 New", "city": "Sector 12 Dwarka, Dwarka", "phone": "", "website": "http://www.thecasecompany.in/", "rating": 4.2, "review_count": "", "latitude": 28.5954953, "longitude": 77.041816, "maps_url": "https://www.google.com/maps/place/?q=place_id:0x390d1acf7916f8e5:0x274db7eb7d70a6a5"}, {"place_id": "0x390d04b086f34175:0x650c866cae893a0b", "name": "Spire Elevators, Passenger Elevators in Delhi, Residential Elevators in Gurugram, Goods Elevators in Delhi", "category": "Elevator Manufacturer", "street": "Sector 19B, Nanda Enclave, Sector 19 Dwarka, Dwarka", "city": "Delhi, 110075", "phone": "09996664600", "website": "https://www.spireelevators.com/", "rating": 4.8, "review_count": "", "latitude": 28.5771968, "longitude": 77.0466592, "maps_url": "https://www.google.com/maps/place/?q=place_id:0x390d04b086f34175:0x650c866cae893a0b"}, {"place_id": "0x390d1bacbe628815:0xbf8c15cdd00eb0a1", "name": "Asia Bhawan", "category": "Corporate office", "street": "H3G5+JQ5", "city": "Dwarka Sector 9, Dwarka", "phone": "", "website": "", "rating": 4.5, "review_count": "", "latitude": 28.576513199999997, "longitude": 77.0594741, "maps_url": "https://www.google.com/maps/place/?q=place_id:0x390d1bacbe628815:0xbf8c15cdd00eb0a1"}, {"place_id": "0x390d1b2ee6fef4a1:0x7c17412d3b1bd5d3", "name": "SD Global Logistics India Pvt Ltd", "category": "Warehouse", "street": "3rd Floor, D21, Corporate Park, Metro Station", "city": "314A", "phone": "09354898033", "website": "https://sdgloballogistics.com/", "rating": 4.6, "review_count": "", "latitude": 28.5618579, "longitude": 77.0674429, "maps_url": "https://www.google.com/maps/place/?q=place_id:0x390d1b2ee6fef4a1:0x7c17412d3b1bd5d3"}, {"place_id": "0x390d1b0010fc2321:0x12e9154c815cf007", "name": "Prashant Dwivedi IT company", "category": "Warehouse", "street": "G3P5+GVC", "city": "Nayak Pura, Bijwasan", "phone": "", "website": "", "rating": "", "review_count": "", "latitude": 28.536316, "longitude": 77.059649, "maps_url": "https://www.google.com/maps/place/?q=place_id:0x390d1b0010fc2321:0x12e9154c815cf007"}, {"place_id": "0x390d1bffa87acef1:0x46675627987ad8a0", "name": "WE DESIGNS - BEST GRAPHIC AGENCY IN DELHI NCR", "category": "Website designer", "street": "E-596, Ramphal Chowk Rd", "city": "above Adhara Bank", "phone": "09654398877", "website": "https://wedesigns1.in/", "rating": 4.7, "review_count": "", "latitude": 28.5851544, "longitude": 77.07242939999999, "maps_url": "https://www.google.com/maps/place/?q=place_id:0x390d1bffa87acef1:0x46675627987ad8a0"}, {"place_id": "0x4f697d3361ddeb39:0xe0e2b2ed3253d014", "name": "Oceanic Studio - Web Development & Digital Marketing Company in Delhi", "category": "Website designer", "street": "Basement, 249", "city": "Block B, Sector 8 Dwarka, Dwarka", "phone": "09891043380", "website": "http://www.oceanicstudio.net/", "rating": 5, "review_count": "", "latitude": 28.5701, "longitude": 77.079269, "maps_url": "https://www.google.com/maps/place/?q=place_id:0x4f697d3361ddeb39:0xe0e2b2ed3253d014"}, {"place_id": "0x390d1b80fb9da03d:0xd77ea97dd9a2aa4a", "name": "Nextwebi IT Solutions Pvt Ltd", "category": "Website designer", "street": "45, Street Number 2", "city": "Palam Extension, Sector 7 Dwarka, Dwarka", "phone": "08904240871", "website": "", "rating": 5, "review_count": "", "latitude": 28.5945388, "longitude": 77.0857647, "maps_url": "https://www.google.com/maps/place/?q=place_id:0x390d1b80fb9da03d:0xd77ea97dd9a2aa4a"}, {"place_id": "0x390cfc13e34b8ea1:0x482abe6fb68aede7", "name": "Techindia Infotech", "category": "Internet marketing service", "street": "Ground floor", "city": "Pocket 7", "phone": "", "website": "https://www.techindiainfotech.com/", "rating": 4.5, "review_count": "", "latitude": 28.5605801, "longitude": 77.04042199999999, "maps_url": "https://www.google.com/maps/place/?q=place_id:0x390cfc13e34b8ea1:0x482abe6fb68aede7"}, {"place_id": "0xac577056c2b5ff3d:0xaf00253141553d04", "name": "Devnotam | IT Company", "category": "Internet marketing service", "street": "", "city": "", "phone": "", "website": "https://devnotam.com/", "rating": 5, "review_count": "", "latitude": 28.692404999999997, "longitude": 77.090042, "maps_url": "https://www.google.com/maps/place/?q=place_id:0xac577056c2b5ff3d:0xaf00253141553d04"}, {"place_id": "0x390d05cb67f9d089:0xeb99e0b2ca44d1b6", "name": "Website Design | SEO | Wonyx IT Solutions", "category": "Software company", "street": "D36 F/F Mohit Nagar", "city": "Sector 15 Dwarka, Kakrola", "phone": "07011134755", "website": "https://mywonyx.com/", "rating": 5, "review_count": "", "latitude": 28.6076153, "longitude": 77.0345814, "maps_url": "https://www.google.com/maps/place/?q=place_id:0x390d05cb67f9d089:0xeb99e0b2ca44d1b6"}, {"place_id": "0x390d1b7998d92781:0xf6e8529ee31215f4", "name": "The Media Ad Company (Mediadco)", "category": "Advertising agency", "street": "Ground Floor", "city": "House 126A", "phone": "08342012954", "website": "https://mediadco.com/", "rating": 4.8, "review_count": "", "latitude": 28.572390799999997, "longitude": 77.0754208, "maps_url": "https://www.google.com/maps/place/?q=place_id:0x390d1b7998d92781:0xf6e8529ee31215f4"}, {"place_id": "0x390d1b51fee90fed:0x6abe7c7c604a4f0f", "name": "Delhi Ecommerce Solutions", "category": "E-commerce service", "street": "3rd Floor, Service Centre", "city": "228", "phone": "", "website": "https://delhiecommerce.com/", "rating": 4.2, "review_count": "", "latitude": 28.5787934, "longitude": 77.0665377, "maps_url": "https://www.google.com/maps/place/?q=place_id:0x390d1b51fee90fed:0x6abe7c7c604a4f0f"}, {"place_id": "0x390d1baa56300001:0x8fdc5fd163cf1d42", "name": "Anusandhan Technology Solutions", "category": "Contractor", "street": "S - 63", "city": "Manish Global Mall", "phone": "", "website": "https://anusandhan-india.com/", "rating": 4.9, "review_count": "", "latitude": 28.5617187, "longitude": 77.05990589999999, "maps_url": "https://www.google.com/maps/place/?q=place_id:0x390d1baa56300001:0x8fdc5fd163cf1d42"}, {"place_id": "0x390d1b44dac29e85:0xd19c8cf2057c43e8", "name": "AVC Dotfy LLP", "category": "Software company", "street": "C-157, Janak Cinema Community Center Janakpuri Janak Cinema Community Center", "city": "110056", "phone": "09821830895", "website": "https://dotfy.in/", "rating": 4.7, "review_count": "", "latitude": 28.6114547, "longitude": 77.0945327, "maps_url": "https://www.google.com/maps/place/?q=place_id:0x390d1b44dac29e85:0xd19c8cf2057c43e8"}, {"place_id": "0x390d100571f38bc9:0x228f8118b0000000", "name": "K N G B AND COMPANY", "category": "Certified public accountant", "street": "GROUND FLOOR, 6/3", "city": "PLOT NO 57", "phone": "09716813357", "website": "", "rating": 4.9, "review_count": "", "latitude": 28.5773387, "longitude": 77.050676, "maps_url": "https://www.google.com/maps/place/?q=place_id:0x390d100571f38bc9:0x228f8118b0000000"}, {"place_id": "0xa631d82b19e63007:0x8c2868cc83503bf6", "name": "Aj Web Technologies", "category": "Software company", "street": "", "city": "", "phone": "09266094455", "website": "https://www.ajwebtechnologies.com/", "rating": 5, "review_count": "", "latitude": 40.266869, "longitude": -39.2735501, "maps_url": "https://www.google.com/maps/place/?q=place_id:0xa631d82b19e63007:0x8c2868cc83503bf6"}, {"place_id": "0x390d1b2bf45c5015:0x68a080aa5c27e74e", "name": "Source Solution", "category": "Website designer", "street": "D136B, Surya kunj, Kali piou", "city": "CRPF Rd", "phone": "", "website": "", "rating": 4.6, "review_count": "", "latitude": 28.5711876, "longitude": 77.0686575, "maps_url": "https://www.google.com/maps/place/?q=place_id:0x390d1b2bf45c5015:0x68a080aa5c27e74e"}, {"place_id": "0x390d1b9c9b83e99b:0x4d1dc1e20deb3318", "name": "MICE Emporio India LLP", "category": "Event management company", "street": "479, Pocket 1, Lower ground floor", "city": "Sector-19, Dwarka", "phone": "09999942049", "website": "https://miceemporio.com/", "rating": 4.8, "review_count": "", "latitude": 28.5807342, "longitude": 77.0511155, "maps_url": "https://www.google.com/maps/place/?q=place_id:0x390d1b9c9b83e99b:0x4d1dc1e20deb3318"}, {"place_id": "0x390ce25e35301717:0xc928e6782b250d7c", "name": "FOSTIIMA Business School", "category": "Business school", "street": "Plot No. HAF-1", "city": "Pocket 2, Dwarka Sector 9, Dwarka", "phone": "09891844585", "website": "http://www.fostiima.org/", "rating": 3.8, "review_count": "", "latitude": 28.580943899999998, "longitude": 77.0667725, "maps_url": "https://www.google.com/maps/place/?q=place_id:0x390ce25e35301717:0xc928e6782b250d7c"}]}