{"timestamp": 1773735064.5371742, "keyword": "IT company", "location": "Indore", "cell_idx": 168, "results": [{"place_id": "0x3962fd71266aaa83:0x82398caa17930a40", "name": "Octavian InfoTech LLP", "category": "Software company", "street": "A 41 Ayodhya Puri", "city": "Kodriya", "phone": "09977741168", "website": "https://www.octavianinfotech.com/", "rating": 5, "review_count": "", "latitude": 22.537258599999998, "longitude": 75.7726136, "maps_url": "https://www.google.com/maps/place/?q=place_id:0x3962fd71266aaa83:0x82398caa17930a40"}, {"place_id": "0x396301dfdd265089:0x8d426dc410b817f2", "name": "Aucwini Technologies", "category": "Software company", "street": "Satpuda Parishar", "city": "B-02", "phone": "", "website": "https://www.aucwinitechnologies.com/", "rating": 4.8, "review_count": "", "latitude": 22.7436178, "longitude": 75.793398, "maps_url": "https://www.google.com/maps/place/?q=place_id:0x396301dfdd265089:0x8d426dc410b817f2"}, {"place_id": "0x390ce458d0000001:0xf2123bd299ec4501", "name": "IT Company India", "category": "Software company", "street": "D56", "city": "D Block, Sector 10", "phone": "09999244854", "website": "https://www.itcompanyindia.in/", "rating": 4.7, "review_count": "", "latitude": 28.589917699999997, "longitude": 77.3351153, "maps_url": "https://www.google.com/maps/place/?q=place_id:0x390ce458d0000001:0xf2123bd299ec4501"}, {"place_id": "0x3962e3d56c170eb1:0x876e329535a3531d", "name": "AG TECHNOLOGIES, Software Company in Indore", "category": "Software company", "street": "28, Shree Krishna Vihar Colony, Near Shree Chintaman Hanuman Mandir, Opp Malviya Petrol Pump, Radisson Square", "city": "Madhya Pradesh 452016", "phone": "", "website": "", "rating": 5, "review_count": "", "latitude": 22.744705999999997, "longitude": 75.910692, "maps_url": "https://www.google.com/maps/place/?q=place_id:0x3962e3d56c170eb1:0x876e329535a3531d"}, {"place_id": "0x39631da2cb03209f:0xcb74a142f168537d", "name": "Instech Era Private Limited", "category": "Software company", "street": "B166", "city": "Ansal Town, Talawali Chanda", "phone": "08080003034", "website": "", "rating": 5, "review_count": "", "latitude": 22.795197899999998, "longitude": 75.9148294, "maps_url": "https://www.google.com/maps/place/?q=place_id:0x39631da2cb03209f:0xcb74a142f168537d"}, {"place_id": "0x8071eb02d8a9ff01:0xca4d6546e7562539", "name": "Chats buddy official", "category": "Software company", "street": "", "city": "", "phone": "", "website": "https://chatsbuddyofficial.com/", "rating": 5, "review_count": "", "latitude": 21.0680074, "longitude": 82.7525294, "maps_url": "https://www.google.com/maps/place/?q=place_id:0x8071eb02d8a9ff01:0xca4d6546e7562539"}, {"place_id": "0x3963010784998da9:0x1593784b5c591afe", "name": "codezens soft solution", "category": "Software company", "street": "Rameshwaram Building", "city": "175", "phone": "08516012341", "website": "https://codezens.com/", "rating": 5, "review_count": "", "latitude": 22.742460299999998, "longitude": 75.76699239999999, "maps_url": "https://www.google.com/maps/place/?q=place_id:0x3963010784998da9:0x1593784b5c591afe"}, {"place_id": "0x3963010000da2b31:0xbdc541f870e5fac3", "name": "LMS Solutions (India) Pvt. Ltd.", "category": "Software company", "street": "Bada Bangarda", "city": "Indore, Madhya Pradesh 453112", "phone": "", "website": "https://www.lmsin.com/", "rating": 5, "review_count": "", "latitude": 22.7515027, "longitude": 75.79997039999999, "maps_url": "https://www.google.com/maps/place/?q=place_id:0x3963010000da2b31:0xbdc541f870e5fac3"}, {"place_id": "0x3962fd6051e1fa61:0xea1ac49345f39345", "name": "Bluetech IT Services", "category": "Software company", "street": "", "city": "", "phone": "09893509996", "website": "https://www.bluetechitservices.com/", "rating": 4.6, "review_count": "", "latitude": 14.157641199999999, "longitude": -16.7424939, "maps_url": "https://www.google.com/maps/place/?q=place_id:0x3962fd6051e1fa61:0xea1ac49345f39345"}, {"place_id": "0x39631df3a9155229:0x54dd3edab4a6d180", "name": "sarthak intelliroot technocrats", "category": "Computer Hardware Company", "street": "56", "city": "Mahadev Sahara, mangalvihar colony, Manglaya Sadak", "phone": "08319963809", "website": "https://indiamart.in/MpRgbz95", "rating": 5, "review_count": "", "latitude": 22.8167246, "longitude": 75.9255585, "maps_url": "https://www.google.com/maps/place/?q=place_id:0x39631df3a9155229:0x54dd3edab4a6d180"}, {"place_id": "0x3963a1ca02332f0d:0x57604114aac08b69", "name": "Maliwal Web And IT Solutions", "category": "Computer support and services", "street": "625, Main Rd", "city": "chandrawati ganj", "phone": "", "website": "http://h4ck4u.wordpress.com/", "rating": 5, "review_count": "", "latitude": 23.0136193, "longitude": 75.68262399999999, "maps_url": "https://www.google.com/maps/place/?q=place_id:0x3963a1ca02332f0d:0x57604114aac08b69"}, {"place_id": "0x3be7c21b5901e181:0x7fe794585addc1f6", "name": "Smartinfologiks - Software Development Company in India | IT Solutions", "category": "Software company", "street": "Hilton Center", "city": "514", "phone": "07400064691", "website": "https://www.smartinfologiks.com/", "rating": 4.6, "review_count": "", "latitude": 19.0139592, "longitude": 73.0382705, "maps_url": "https://www.google.com/maps/place/?q=place_id:0x3be7c21b5901e181:0x7fe794585addc1f6"}, {"place_id": "0x3bc2becdc35b6937:0x515ac559c349eee3", "name": "Thinkitive Technologies Private Limited", "category": "Software company", "street": "4th Floor", "city": "ABIL IMPERIAL COMMERCIAL SPACES", "phone": "08956467327", "website": "https://www.thinkitive.com/", "rating": 3.9, "review_count": "", "latitude": 18.5563888, "longitude": 73.7729748, "maps_url": "https://www.google.com/maps/place/?q=place_id:0x3bc2becdc35b6937:0x515ac559c349eee3"}, {"place_id": "0x4e4c2b148ba44951:0x91574ab0e27fab2c", "name": "YoSoftTech", "category": "Software company", "street": "", "city": "", "phone": "", "website": "https://www.yosofttech.com/", "rating": 5, "review_count": "", "latitude": 21.0680074, "longitude": 82.7525294, "maps_url": "https://www.google.com/maps/place/?q=place_id:0x4e4c2b148ba44951:0x91574ab0e27fab2c"}, {"place_id": "0x3963ad9d9d11f7a3:0x2a05595ecbfdcd65", "name": "IND Digital Solutions", "category": "Software company", "street": "54,Gram Khadi", "city": "Tehsil Rd", "phone": "07879636019", "website": "", "rating": 5, "review_count": "", "latitude": 22.8059504, "longitude": 75.5349099, "maps_url": "https://www.google.com/maps/place/?q=place_id:0x3963ad9d9d11f7a3:0x2a05595ecbfdcd65"}, {"place_id": "0x3962f9236d105caf:0xbbc3c9013b8d48dc", "name": "Compli-Tech - Startup Consultant | Company Registration | Website Designing | Ecommerce Website Development", "category": "Business management consultant", "street": "Malwa Complex", "city": "88", "phone": "09302151441", "website": "https://compli-tech.odoo.com/", "rating": "", "review_count": "", "latitude": 22.5676845, "longitude": 75.7600538, "maps_url": "https://www.google.com/maps/place/?q=place_id:0x3962f9236d105caf:0xbbc3c9013b8d48dc"}, {"place_id": "0x396301fb918b6af7:0x15fc9a17b64f1af3", "name": "3A Softwares", "category": "Software company", "street": "Akash Greens", "city": "52", "phone": "", "website": "https://3asoftwares.vercel.app/", "rating": 5, "review_count": "", "latitude": 22.7469358, "longitude": 75.7788295, "maps_url": "https://www.google.com/maps/place/?q=place_id:0x396301fb918b6af7:0x15fc9a17b64f1af3"}, {"place_id": "0x39631d6ae4f42a97:0x83bc825e66f9983", "name": "Techwave IT Solutions Pvt Ltd | Software Development Company in Indore | Top IT Company in Indore | India", "category": "Software company", "street": "Bhopal Motors JCB", "city": "near Panchvati", "phone": "09009155444", "website": "http://techwaveitsolutions.com/", "rating": "", "review_count": "", "latitude": 22.792078399999998, "longitude": 75.90735409999999, "maps_url": "https://www.google.com/maps/place/?q=place_id:0x39631d6ae4f42a97:0x83bc825e66f9983"}, {"place_id": "0x3962fce330e1541b:0x125ef4cec09bea4e", "name": "Twarak Infotech Pvt Ltd", "category": "Software company", "street": "201 Sankalp 1", "city": "Chinar Residency, Kishanganj", "phone": "08770604745", "website": "https://www.twarakinfotech.com/", "rating": 4.5, "review_count": "", "latitude": 22.5789062, "longitude": 75.77662269999999, "maps_url": "https://www.google.com/maps/place/?q=place_id:0x3962fce330e1541b:0x125ef4cec09bea4e"}, {"place_id": "0x396303bd0b505bf9:0xf91ea7b7a07c038e", "name": "Cohort Innovations - A software development company", "category": "Software company", "street": "467, Shyam Nagar Main Rd", "city": "Shyam Nagar, Sukhliya", "phone": "07771000776", "website": "http://cohortinnovations.com/", "rating": 5, "review_count": "", "latitude": 22.7588278, "longitude": 75.8677902, "maps_url": "https://www.google.com/maps/place/?q=place_id:0x396303bd0b505bf9:0xf91ea7b7a07c038e"}, {"place_id": "0x3963bb50d4981333:0xccb2aaa7a36f29e5", "name": "P C ONLINE PROJECT SERVICE AND TRAINING CENTER GTM", "category": "Computer support and services", "street": "GOVT. G.H", "city": "111/1, S.SCHOOL ROAD", "phone": "06260100890", "website": "http://pcoproser541.blogspot.com/", "rating": 3, "review_count": "", "latitude": 22.9871469, "longitude": 75.5246913, "maps_url": "https://www.google.com/maps/place/?q=place_id:0x3963bb50d4981333:0xccb2aaa7a36f29e5"}, {"place_id": "0x3963bb9675fd0a03:0x59792394d5f6aead", "name": "SMART CITY", "category": "Real Estate Builders & Construction Company", "street": "RUNJI GAUTAMPURA", "city": "ROAD", "phone": "09425081161", "website": "", "rating": 5, "review_count": "", "latitude": 22.9844258, "longitude": 75.5246726, "maps_url": "https://www.google.com/maps/place/?q=place_id:0x3963bb9675fd0a03:0x59792394d5f6aead"}, {"place_id": "0x3962fce330e1541b:0x125ef4cec09bea4e", "name": "Twarak Infotech Pvt Ltd", "category": "Software company", "street": "201 Sankalp 1", "city": "Chinar Residency, Kishanganj", "phone": "08770604745", "website": "https://www.twarakinfotech.com/", "rating": 4.5, "review_count": "", "latitude": 22.5789062, "longitude": 75.77662269999999, "maps_url": "https://www.google.com/maps/place/?q=place_id:0x3962fce330e1541b:0x125ef4cec09bea4e"}, {"place_id": "0x3963022a4ff9285f:0xb090e0338248ef91", "name": "Saffron Leaf", "category": "Real Estate Builders & Construction Company", "street": "Tehsil Gram", "city": "Bada Bangarda", "phone": "08982252600", "website": "", "rating": 4.4, "review_count": "", "latitude": 22.762237, "longitude": 75.7956146, "maps_url": "https://www.google.com/maps/place/?q=place_id:0x3963022a4ff9285f:0xb090e0338248ef91"}, {"place_id": "0x3963017c5410fc7b:0x43a814e9dfbf919e", "name": "Printers repairing", "category": "Printer repair service", "street": "6", "city": "Sankar colony, Gandhi Nagar", "phone": "08839552529", "website": "", "rating": 5, "review_count": "", "latitude": 22.7463171, "longitude": 75.79441539999999, "maps_url": "https://www.google.com/maps/place/?q=place_id:0x3963017c5410fc7b:0x43a814e9dfbf919e"}, {"place_id": "0x390ce55ffe34c78d:0x5e0691a2f679aa6a", "name": "ANR Software Private Limited", "category": "Software company", "street": "B 103-104, Sector 63 Rd", "city": "B Block, Sector 63", "phone": "", "website": "https://www.anrsoftware.com/", "rating": 3.9, "review_count": "", "latitude": 28.615819, "longitude": 77.3785242, "maps_url": "https://www.google.com/maps/place/?q=place_id:0x390ce55ffe34c78d:0x5e0691a2f679aa6a"}, {"place_id": "0x396301f3730ffe87:0x8431446a24a1772b", "name": "Answera Creation, Indore", "category": "Website designer", "street": "MR5, Road", "city": "Bada Bangarda", "phone": "09763220372", "website": "https://www.answeracreation.com/", "rating": 4.9, "review_count": "", "latitude": 22.7622277, "longitude": 75.7792437, "maps_url": "https://www.google.com/maps/place/?q=place_id:0x396301f3730ffe87:0x8431446a24a1772b"}, {"place_id": "0x3963010044c68897:0xd66a1063ef36841b", "name": "Palm Jumeirah, Indore", "category": "Real Estate Builders & Construction Company", "street": "QQWH+M8", "city": "Songir, Madhya Pradesh 453112", "phone": "", "website": "", "rating": 4.9, "review_count": "", "latitude": 22.7966667, "longitude": 75.7782867, "maps_url": "https://www.google.com/maps/place/?q=place_id:0x3963010044c68897:0xd66a1063ef36841b"}, {"place_id": "0x396301de8d847e3b:0x52f4c1a4328a4363", "name": "GRM Business Park", "category": "Corporate office", "street": "Bada Bangarda", "city": "Indore, Madhya Pradesh 453112", "phone": "", "website": "", "rating": 4.5, "review_count": "", "latitude": 22.7522485, "longitude": 75.80097889999999, "maps_url": "https://www.google.com/maps/place/?q=place_id:0x396301de8d847e3b:0x52f4c1a4328a4363"}, {"place_id": "0x3963bf2d31a0e70b:0x14c53c5feb65370c", "name": "Aman Agro Industries", "category": "Manufacturer", "street": "Industrial area, Runija Rd", "city": "Sahjalalpura", "phone": "09039512330", "website": "https://www.kisan24.com/seller/2718469053/AMAN-AGRO-INDUSTRIES", "rating": 4.4, "review_count": "", "latitude": 23.0604595, "longitude": 75.3730783, "maps_url": "https://www.google.com/maps/place/?q=place_id:0x3963bf2d31a0e70b:0x14c53c5feb65370c"}, {"place_id": "0x3963ae373aec6001:0xbcb4e4a41d15771c", "name": "mponline kiosk", "category": "Kiosk", "street": "Major District Rd", "city": "Depalpur, Madhya Pradesh 453115", "phone": "07322222888", "website": "", "rating": 4.6, "review_count": "", "latitude": 22.848993399999998, "longitude": 75.546157, "maps_url": "https://www.google.com/maps/place/?q=place_id:0x3963ae373aec6001:0xbcb4e4a41d15771c"}, {"place_id": "0x3963014b76f2fe59:0x2a5a48a92250d7e7", "name": "BORENTTO ( Rental Service)", "category": "Computer support and services", "street": "253", "city": "near Gommatgiri", "phone": "09691910211", "website": "http://www.borentto.com/", "rating": 5, "review_count": "", "latitude": 22.7433732, "longitude": 75.7657736, "maps_url": "https://www.google.com/maps/place/?q=place_id:0x3963014b76f2fe59:0x2a5a48a92250d7e7"}, {"place_id": "0x3963af8ad17aaf0f:0x5975f0dde2faab35", "name": "Shree Sanwariya Online", "category": "Computer support and services", "street": "01, Betma Rd", "city": "Takipura, Madhya Pradesh 453115", "phone": "09479444955", "website": "", "rating": "", "review_count": "", "latitude": 22.8262426, "longitude": 75.5408921, "maps_url": "https://www.google.com/maps/place/?q=place_id:0x3963af8ad17aaf0f:0x5975f0dde2faab35"}, {"place_id": "0x3963afad371e58cb:0x40162cc8f9e2dac8", "name": "RAJAT R JAIN & ASSOCIATES", "category": "Certified public accountant", "street": "7 Bad Chok, Tilak Marg", "city": "Depalpur, INDORE, Madhya Pradesh 453115", "phone": "09926552626", "website": "", "rating": 5, "review_count": "", "latitude": 22.8502884, "longitude": 75.5436134, "maps_url": "https://www.google.com/maps/place/?q=place_id:0x3963afad371e58cb:0x40162cc8f9e2dac8"}, {"place_id": "0x3963bf6035abb1cf:0x12fa3baa32d5336f", "name": "CA Hemant Khabia and Company", "category": "Chartered accountant", "street": "184/1, Hazaribagh Rd", "city": "opposite ICICI Bank", "phone": "09770642342", "website": "", "rating": 4.9, "review_count": "", "latitude": 23.0469516, "longitude": 75.376344, "maps_url": "https://www.google.com/maps/place/?q=place_id:0x3963bf6035abb1cf:0x12fa3baa32d5336f"}, {"place_id": "0x396303bd0b505bf9:0xf91ea7b7a07c038e", "name": "Cohort Innovations - A software development company", "category": "Software company", "street": "467, Shyam Nagar Main Rd", "city": "Shyam Nagar, Sukhliya", "phone": "07771000776", "website": "http://cohortinnovations.com/", "rating": 5, "review_count": "", "latitude": 22.7588278, "longitude": 75.8677902, "maps_url": "https://www.google.com/maps/place/?q=place_id:0x396303bd0b505bf9:0xf91ea7b7a07c038e"}, {"place_id": "0x3963a53ea6ab7497:0x7e3842b850bc8bc9", "name": "Bhawan patel b", "category": "Housing complex", "street": "WJV8+MVQ", "city": "Sunala, Madhya Pradesh 453220", "phone": "", "website": "", "rating": 5, "review_count": "", "latitude": 22.944440999999998, "longitude": 75.61618179999999, "maps_url": "https://www.google.com/maps/place/?q=place_id:0x3963a53ea6ab7497:0x7e3842b850bc8bc9"}, {"place_id": "0x39630109442b0525:0x38894dbd4c3af5e2", "name": "Divya Ayurved Anusandhan Kendra", "category": "Pharmaceutical company", "street": "12A/3, Dist", "city": "Industrial area", "phone": "09406600297", "website": "", "rating": 5, "review_count": "", "latitude": 22.8006903, "longitude": 75.7450266, "maps_url": "https://www.google.com/maps/place/?q=place_id:0x39630109442b0525:0x38894dbd4c3af5e2"}, {"place_id": "0x396306db0d68c595:0x42240de071078c16", "name": "Shubham Sisodiya", "category": "Engineer", "street": "130", "city": "Mata Barodi, Madhya Pradesh 453111", "phone": "09826069485", "website": "", "rating": 4.9, "review_count": "", "latitude": 22.8480687, "longitude": 75.76981549999999, "maps_url": "https://www.google.com/maps/place/?q=place_id:0x396306db0d68c595:0x42240de071078c16"}, {"place_id": "0x3963018fe3841cbd:0xd0884f122cce3f97", "name": "Super Corridor Indore", "category": "Real Estate Builders & Construction Company", "street": "Super Corridor", "city": "Indore, Madhya Pradesh 452005", "phone": "09893029299", "website": "http://www.supercorridorindore.ind.in/", "rating": 4.4, "review_count": "", "latitude": 22.754849699999998, "longitude": 75.8048809, "maps_url": "https://www.google.com/maps/place/?q=place_id:0x3963018fe3841cbd:0xd0884f122cce3f97"}, {"place_id": "0x396301d41ca3a667:0xee2f960b545a3017", "name": "Gyanam IT Solution", "category": "Corporate office", "street": "346, 347 Arihant Nagar", "city": "near GomatGiri Temple", "phone": "07312882311", "website": "", "rating": 3.8, "review_count": "", "latitude": 22.743543199999998, "longitude": 75.7658855, "maps_url": "https://www.google.com/maps/place/?q=place_id:0x396301d41ca3a667:0xee2f960b545a3017"}, {"place_id": "0x396301a3e91d9d31:0x95962fe5a2b4b7c4", "name": "Central IT Corridor", "category": "Housing society", "street": "Unnamed Road", "city": "Palakhedi", "phone": "", "website": "", "rating": 5, "review_count": "", "latitude": 22.7853818, "longitude": 75.8068302, "maps_url": "https://www.google.com/maps/place/?q=place_id:0x396301a3e91d9d31:0x95962fe5a2b4b7c4"}, {"place_id": "0x39630119d5583fcb:0x97d74c243eaf9fa3", "name": "HM Realty", "category": "Property management company", "street": "Maharaj Daksh prajapati Chouraha", "city": "Sch. No. 169-B,MR5 square", "phone": "", "website": "", "rating": 5, "review_count": "", "latitude": 22.754022799999998, "longitude": 75.8021198, "maps_url": "https://www.google.com/maps/place/?q=place_id:0x39630119d5583fcb:0x97d74c243eaf9fa3"}, {"place_id": "0x396301001ca1055f:0x76d24e395e395e5d", "name": "Kewat ji industry", "category": "Steel construction company", "street": "India", "city": "Indore, Mali Badodia, Madhya Pradesh 453111", "phone": "06265480890", "website": "https://youtube.com/@arjunkewat1432?si=P2JFl_VwKNkfSASr", "rating": 5, "review_count": "", "latitude": 22.7431383, "longitude": 75.7272883, "maps_url": "https://www.google.com/maps/place/?q=place_id:0x396301001ca1055f:0x76d24e395e395e5d"}, {"place_id": "0x396301000a4b6917:0xa10445bfc48d66c4", "name": "Nilesh Kethwas Graphic Designer", "category": "Graphic designer", "street": "503", "city": "Paliya Haidar, Paliya, Madhya Pradesh 453111", "phone": "07987810050", "website": "", "rating": 4.6, "review_count": "", "latitude": 22.8317121, "longitude": 75.7979634, "maps_url": "https://www.google.com/maps/place/?q=place_id:0x396301000a4b6917:0xa10445bfc48d66c4"}, {"place_id": "0x396301003b17702b:0x98f0da2aa8f505a6", "name": "Chanderiya plot central IT", "category": "Housing society", "street": "QRP4+4F", "city": "Palakhedi", "phone": "", "website": "", "rating": "", "review_count": "", "latitude": 22.7852994, "longitude": 75.80619779999999, "maps_url": "https://www.google.com/maps/place/?q=place_id:0x396301003b17702b:0x98f0da2aa8f505a6"}, {"place_id": "0x3963017c0bf79657:0x79696477cf3cde39", "name": "Realmaker pvt ltd", "category": "Industrial real estate agency", "street": "Plot no. 02 sch. No. 69B Mr5 square", "city": "road, Super Corridor", "phone": "08815172617", "website": "http://realmakeronline.com/", "rating": 3.9, "review_count": "", "latitude": 22.7538837, "longitude": 75.8020162, "maps_url": "https://www.google.com/maps/place/?q=place_id:0x3963017c0bf79657:0x79696477cf3cde39"}, {"place_id": "0x396301b3031a2133:0x3aee4e358607b28d", "name": "MODERN ANCHORS INDORE", "category": "Event management company", "street": "Ramkamal Residency", "city": "Gandhi Nagar", "phone": "06263976171", "website": "https://modernanchor.in/", "rating": 5, "review_count": "", "latitude": 22.741619999999998, "longitude": 75.77645989999999, "maps_url": "https://www.google.com/maps/place/?q=place_id:0x396301b3031a2133:0x3aee4e358607b28d"}, {"place_id": "0x3963008d594d8317:0x5736e0a97054ea02", "name": "GR HERBALS", "category": "Manufacturer", "street": "11-B D-2 Industrial Area Kankariya", "city": "Road", "phone": "07314004400", "website": "http://www.grherbals.com/", "rating": 4.1, "review_count": "", "latitude": 22.80068, "longitude": 75.7448139, "maps_url": "https://www.google.com/maps/place/?q=place_id:0x3963008d594d8317:0x5736e0a97054ea02"}, {"place_id": "0x3963b74f84c37403:0x76b04182b309ee16", "name": "Kharari agro and machinery", "category": "Agricultural Product Wholesaler", "street": "Busstand", "city": "Khachroda, Madhya Pradesh 456771", "phone": "09977574005", "website": "", "rating": 3.4, "review_count": "", "latitude": 22.8569334, "longitude": 75.4064248, "maps_url": "https://www.google.com/maps/place/?q=place_id:0x3963b74f84c37403:0x76b04182b309ee16"}, {"place_id": "0x396253e7b00f8147:0x42f443cf3d570895", "name": "Mahakal Online Services", "category": "Computer support and services", "street": "A/20", "city": "Chaupati, Gautampura", "phone": "09171993073", "website": "", "rating": "", "review_count": "", "latitude": 22.9875103, "longitude": 75.52552279999999, "maps_url": "https://www.google.com/maps/place/?q=place_id:0x396253e7b00f8147:0x42f443cf3d570895"}, {"place_id": "0x39630196d8240cab:0x28ec4db9c03a79", "name": "Xlivora Ink Private Limited", "category": "Book publisher", "street": "Singapore Lifestyle", "city": "55", "phone": "09039176877", "website": "http://xilvoraink.com/", "rating": 5, "review_count": "", "latitude": 22.7641867, "longitude": 75.7839269, "maps_url": "https://www.google.com/maps/place/?q=place_id:0x39630196d8240cab:0x28ec4db9c03a79"}, {"place_id": "0x39630190db58047b:0x84ed24546ef5bc6", "name": "Anjais Urja House Private Limited", "category": "Solar energy system service", "street": "Gandhi Nagar", "city": "Indore, Madhya Pradesh 453112", "phone": "09827229397", "website": "https://www.anjaisurjahouse.com/", "rating": 5, "review_count": "", "latitude": 22.7436178, "longitude": 75.793398, "maps_url": "https://www.google.com/maps/place/?q=place_id:0x39630190db58047b:0x84ed24546ef5bc6"}, {"place_id": "0x3963010047d5bf6d:0xd1b4ff65c2c2167f", "name": "Kailasam Farm land Farm House & Villa With Swimming Pool (For parties, family functions & Kitty Party - Indore)", "category": "Farmstay", "street": "QP79+7C", "city": "Kalmer Badi, Madhya Pradesh 453111", "phone": "", "website": "https://www.instagram.com/farmland_bykailasam?igsh=MWJsNXRmZTFnajNjMA%3D%3D&utm_source=qr", "rating": 4.8, "review_count": "", "latitude": 22.763138899999998, "longitude": 75.71852779999999, "maps_url": "https://www.google.com/maps/place/?q=place_id:0x3963010047d5bf6d:0xd1b4ff65c2c2167f"}, {"place_id": "0x396301bc2f3e44c9:0x353e0dddbaff026b", "name": "Vibrant mahant", "category": "Housing development", "street": "QQCM+V33", "city": "Budhaniya, Madhya Pradesh 453112", "phone": "", "website": "", "rating": 4.7, "review_count": "", "latitude": 22.7721451, "longitude": 75.7826826, "maps_url": "https://www.google.com/maps/place/?q=place_id:0x396301bc2f3e44c9:0x353e0dddbaff026b"}, {"place_id": "0x396301fa0a76ebd3:0x618b67e9e36dd687", "name": "Skycity", "category": "Real estate developer", "street": "Super Corridor", "city": "Bada Bangarda", "phone": "09993335361", "website": "", "rating": 3.9, "review_count": "", "latitude": 22.753399599999998, "longitude": 75.80045059999999, "maps_url": "https://www.google.com/maps/place/?q=place_id:0x396301fa0a76ebd3:0x618b67e9e36dd687"}, {"place_id": "0x153abb3b3a33e45:0xabc916c81ffb4eff", "name": "Deltospark", "category": "Software company", "street": "", "city": "", "phone": "09826008783", "website": "", "rating": "", "review_count": "", "latitude": 30.271448, "longitude": 156.7419629, "maps_url": "https://www.google.com/maps/place/?q=place_id:0x153abb3b3a33e45:0xabc916c81ffb4eff"}, {"place_id": "0x3963013fb3c3cedf:0xae2dce641277c89a", "name": "Infragram", "category": "Property management company", "street": "MR 5", "city": "Super Corridor", "phone": "", "website": "", "rating": 5, "review_count": "", "latitude": 22.7548316, "longitude": 75.8012715, "maps_url": "https://www.google.com/maps/place/?q=place_id:0x3963013fb3c3cedf:0xae2dce641277c89a"}, {"place_id": "0x3963af00710de539:0xde0029a6157dda26", "name": "SHIVAY SUBLIMATION", "category": "Gift shop", "street": "Lohar patti", "city": "Depalpur, Madhya Pradesh 453115", "phone": "07898140450", "website": "", "rating": 4.9, "review_count": "", "latitude": 22.8492033, "longitude": 75.5434782, "maps_url": "https://www.google.com/maps/place/?q=place_id:0x3963af00710de539:0xde0029a6157dda26"}, {"place_id": "0x3963a1003686b5a5:0x174cd618c907819e", "name": "Dethliya home", "category": "Housing development", "street": "3J4R+CH3", "city": "Ajrana, Madhya Pradesh 456006", "phone": "", "website": "", "rating": 5, "review_count": "", "latitude": 23.056273899999997, "longitude": 75.6415933, "maps_url": "https://www.google.com/maps/place/?q=place_id:0x3963a1003686b5a5:0x174cd618c907819e"}, {"place_id": "0x3963018979e42163:0x557b21ad706ce5ae", "name": "Sakar Corridor", "category": "Real Estate Builders & Construction Company", "street": "QRC3+PF4", "city": "Bada Bangarda", "phone": "08878888874", "website": "", "rating": 3.5, "review_count": "", "latitude": 22.7717506, "longitude": 75.8037057, "maps_url": "https://www.google.com/maps/place/?q=place_id:0x3963018979e42163:0x557b21ad706ce5ae"}, {"place_id": "0x39630946c9cc3a41:0xff6819b53536aa35", "name": "ShivPura Kheda", "category": "Housing society", "street": "2P6F+5MG", "city": "Balria, Madhya Pradesh 453551", "phone": "", "website": "", "rating": 3.9, "review_count": "", "latitude": 23.0104258, "longitude": 75.7242047, "maps_url": "https://www.google.com/maps/place/?q=place_id:0x39630946c9cc3a41:0xff6819b53536aa35"}, {"place_id": "0x39630150d97f6197:0x5be3a7af599279b7", "name": "Shubhechha Solar", "category": "Solar Energy Company", "street": "block no 16", "city": "Harshita city", "phone": "09685756200", "website": "https://shubhechhasolar.com/", "rating": 5, "review_count": "", "latitude": 22.7413253, "longitude": 75.7751493, "maps_url": "https://www.google.com/maps/place/?q=place_id:0x39630150d97f6197:0x5be3a7af599279b7"}, {"place_id": "0x3963ae916d3f7dff:0x8b1d36bd36aae89a", "name": "Shreenath Cold Storage", "category": "Cold storage facility", "street": "Shreenath cold storage Indore", "city": "Depalpur Rd", "phone": "09669779111", "website": "", "rating": 3.8, "review_count": "", "latitude": 22.8319862, "longitude": 75.58954729999999, "maps_url": "https://www.google.com/maps/place/?q=place_id:0x3963ae916d3f7dff:0x8b1d36bd36aae89a"}, {"place_id": "0x396301f448e3d3ef:0x93405b2b165d0ad2", "name": "TAKSHIT TOWN", "category": "Housing development", "street": "RQHV+972", "city": "Paliya, Paliya Haidar, Madhya Pradesh 453111", "phone": "", "website": "", "rating": 5, "review_count": "", "latitude": 22.8283851, "longitude": 75.7931315, "maps_url": "https://www.google.com/maps/place/?q=place_id:0x396301f448e3d3ef:0x93405b2b165d0ad2"}, {"place_id": "0x3963010015de708f:0x8cb68c4722fd3c7d", "name": "Playotel Resort Indore", "category": "Resort hotel", "street": "Tigaria Badshah Super Corridor Tigaria Badshah", "city": "Super Corridor", "phone": "07529998998", "website": "https://www.playotel.com/hotel/playotel-resort-indore", "rating": 4.8, "review_count": "", "latitude": 22.7568084, "longitude": 75.8011558, "maps_url": "https://www.google.com/maps/place/?q=place_id:0x3963010015de708f:0x8cb68c4722fd3c7d"}, {"place_id": "0x39630185b5d07965:0x6ec579098657bede", "name": "MILLENNIUM CORRIDOR", "category": "Real estate developer", "street": "QQHX+PJ5", "city": "Millennium Corridor", "phone": "07312551637", "website": "", "rating": 4.1, "review_count": "", "latitude": 22.7792671, "longitude": 75.79910129999999, "maps_url": "https://www.google.com/maps/place/?q=place_id:0x39630185b5d07965:0x6ec579098657bede"}, {"place_id": "0x3963077e917fa1bb:0xb046d3c375160457", "name": "Vijay Singh panwar", "category": "Corporate office", "street": "VQV9+Q83", "city": "Indore, Madhya Pradesh 453551", "phone": "", "website": "", "rating": "", "review_count": "", "latitude": 22.894391799999998, "longitude": 75.768233, "maps_url": "https://www.google.com/maps/place/?q=place_id:0x3963077e917fa1bb:0xb046d3c375160457"}, {"place_id": "0x396301b92ecb3711:0x35e1ef657f00d50", "name": "Drushika paradise", "category": "Real estate developer", "street": "Drushika imperial", "city": "Indore, Madhya Pradesh 453112", "phone": "", "website": "", "rating": 4.9, "review_count": "", "latitude": 22.8055467, "longitude": 75.8059042, "maps_url": "https://www.google.com/maps/place/?q=place_id:0x396301b92ecb3711:0x35e1ef657f00d50"}, {"place_id": "0x3963afa81cbfbe4b:0x25fb6fdb52e78545", "name": "INGLE JI PHOTOGRAPHY", "category": "Photography studio", "street": "Betma Rd", "city": "Depalpur, Madhya Pradesh 453115", "phone": "07747996349", "website": "https://instagram.com/ingle_ji_photography?igshid=YmMyMTA2M2Y=", "rating": 5, "review_count": "", "latitude": 22.846721199999998, "longitude": 75.5389174, "maps_url": "https://www.google.com/maps/place/?q=place_id:0x3963afa81cbfbe4b:0x25fb6fdb52e78545"}, {"place_id": "0x39630b012c9eeea7:0x69d7e5548b82e58c", "name": "Patel puralal siddhnath warehouse", "category": "Warehouse", "street": "4Q2Q+W84", "city": "Indore Rd", "phone": "", "website": "", "rating": 5, "review_count": "", "latitude": 23.1022514, "longitude": 75.78834119999999, "maps_url": "https://www.google.com/maps/place/?q=place_id:0x39630b012c9eeea7:0x69d7e5548b82e58c"}, {"place_id": "0x39630a80257f749b:0x4cd123718cdf404c", "name": "Gram Panchayat Lekoda Jila Ujjain Madhya Pradesh Pin Code 4 56 0 0 6", "category": "Corporate office", "street": "Lekoda, Madhya Pradesh 456006", "city": "", "phone": "", "website": "", "rating": 3.9, "review_count": "", "latitude": 23.0622001, "longitude": 75.7144388, "maps_url": "https://www.google.com/maps/place/?q=place_id:0x39630a80257f749b:0x4cd123718cdf404c"}, {"place_id": "0x3963b9b0500420dd:0xd8ce52193c05ee62", "name": "Hindustan Petroleum Corporation Limited", "category": "Petrol Pump", "street": "Ground Floor", "city": "Kesur Road", "phone": "09893823933", "website": "https://petrolpump.hpretail.in/hindustan-petroleum-corporation-limited-nakoda-sales-service-petrol-pump-badnagar-ujjain-391205/Home?utm_source=locator&utm_medium=googleplaces", "rating": 4.5, "review_count": "", "latitude": 22.9236601, "longitude": 75.3973001, "maps_url": "https://www.google.com/maps/place/?q=place_id:0x3963b9b0500420dd:0xd8ce52193c05ee62"}, {"place_id": "0x3963bf5f3b6f0ec1:0xed588994948ce5e3", "name": "LifeLine Enterprises Barnagar", "category": "Electrical supply store", "street": "Barnagar - Badnawar Rd", "city": "Teachers Colony", "phone": "09575444507", "website": "", "rating": 5, "review_count": "", "latitude": 23.040120299999998, "longitude": 75.3715108, "maps_url": "https://www.google.com/maps/place/?q=place_id:0x3963bf5f3b6f0ec1:0xed588994948ce5e3"}, {"place_id": "0x3963bfb737841c6f:0xca394c8f152b1a0f", "name": "MADHUR INVESTMENT", "category": "Investment service", "street": "33, Subhas Path", "city": "Barnagar, Madhya Pradesh 456771", "phone": "08982977155", "website": "", "rating": 5, "review_count": "", "latitude": 23.0471346, "longitude": 75.3786021, "maps_url": "https://www.google.com/maps/place/?q=place_id:0x3963bfb737841c6f:0xca394c8f152b1a0f"}, {"place_id": "0x396301749829f1eb:0x512928a99fb24ab0", "name": "Extraan orchid park", "category": "Housing development", "street": "Bada Bangarda-Palakhedi Road", "city": "Madhya Pradesh 453112", "phone": "", "website": "", "rating": 4, "review_count": "", "latitude": 22.7918842, "longitude": 75.7851582, "maps_url": "https://www.google.com/maps/place/?q=place_id:0x396301749829f1eb:0x512928a99fb24ab0"}, {"place_id": "0x396301b959686519:0xf0d2a04386cc15f0", "name": "Ideal Paramount City", "category": "BMX park", "street": "MR-5", "city": "Mahalaxmi Nagar", "phone": "07610777770", "website": "", "rating": 4.6, "review_count": "", "latitude": 22.7674149, "longitude": 75.77665689999999, "maps_url": "https://www.google.com/maps/place/?q=place_id:0x396301b959686519:0xf0d2a04386cc15f0"}, {"place_id": "0x39630152581bb389:0x5f84601013e23c5c", "name": "Ashutosh Video & Films", "category": "Photography studio", "street": "near Railway gate", "city": "Paliya, Paliya Haidar, Madhya Pradesh 453111", "phone": "09977113169", "website": "", "rating": 4.2, "review_count": "", "latitude": 22.8262341, "longitude": 75.8015568, "maps_url": "https://www.google.com/maps/place/?q=place_id:0x39630152581bb389:0x5f84601013e23c5c"}, {"place_id": "0x396301c9046ca6e3:0xcf79beb98a7aa33", "name": "taxiindoreservice", "category": "Travel agency", "street": "House Number 62", "city": "Gram Pitawali Tahsil", "phone": "09301957366", "website": "https://taxiindoreservice.com/", "rating": 4.9, "review_count": "", "latitude": 22.792833599999998, "longitude": 75.7386027, "maps_url": "https://www.google.com/maps/place/?q=place_id:0x396301c9046ca6e3:0xcf79beb98a7aa33"}, {"place_id": "0x3963a00989d88f6f:0x61b82cef62ac17fb", "name": "Avantika University MITID Campus", "category": "Design institute", "street": "Avantika University", "city": "Vishwanathpuram", "phone": "07723013455", "website": "https://www.avantikauniversity.edu.in/", "rating": 4.1, "review_count": "", "latitude": 23.0873203, "longitude": 75.7170521, "maps_url": "https://www.google.com/maps/place/?q=place_id:0x3963a00989d88f6f:0x61b82cef62ac17fb"}, {"place_id": "0x3963ab0030e3d453:0xd15164a717fa5fe8", "name": "LOTUS \"By the Lake\"", "category": "Villa", "street": "QPV5+4X", "city": "Fulkaradiya, Madhya Pradesh 453111", "phone": "", "website": "https://www.instagram.com/lotus.bythelake", "rating": 4.9, "review_count": "", "latitude": 22.7928455, "longitude": 75.7098918, "maps_url": "https://www.google.com/maps/place/?q=place_id:0x3963ab0030e3d453:0xd15164a717fa5fe8"}, {"place_id": "0x3963014fb75ca655:0x104036c8e99bbb49", "name": "MAHIMA SMART CITY", "category": "Townhouse complex", "street": "QQ4X+C53", "city": "Unnamed Road", "phone": "", "website": "", "rating": 4.2, "review_count": "", "latitude": 22.756014, "longitude": 75.7979253, "maps_url": "https://www.google.com/maps/place/?q=place_id:0x3963014fb75ca655:0x104036c8e99bbb49"}, {"place_id": "0x39630119a5231e63:0xd1104f531c839868", "name": "Godha Estate Premium", "category": "Industrial real estate agency", "street": "PQWV+56W", "city": "Near, Narsee Monjee Institute of Management Studies Bada Bangarda", "phone": "09109066662", "website": "", "rating": 4.9, "review_count": "", "latitude": 22.7468593, "longitude": 75.79145199999999, "maps_url": "https://www.google.com/maps/place/?q=place_id:0x39630119a5231e63:0xd1104f531c839868"}, {"place_id": "0x396301cf6a205bc3:0x9ab8d591f9d51564", "name": "Millenium icon", "category": "Housing society", "street": "road", "city": "Budhaniya, Madhya Pradesh 453112", "phone": "", "website": "", "rating": 4.8, "review_count": "", "latitude": 22.769246, "longitude": 75.7812526, "maps_url": "https://www.google.com/maps/place/?q=place_id:0x396301cf6a205bc3:0x9ab8d591f9d51564"}, {"place_id": "0x2ac9c054251e7f15:0x813f96da338357c8", "name": "FaizanWebDeveloper", "category": "Website designer", "street": "", "city": "", "phone": "07725072295", "website": "https://faizanwebdeveloper.infinityfreeapp.com/", "rating": "", "review_count": "", "latitude": 22.723972699999997, "longitude": 75.86384989999999, "maps_url": "https://www.google.com/maps/place/?q=place_id:0x2ac9c054251e7f15:0x813f96da338357c8"}, {"place_id": "0x3962fdbd6d139499:0xa41c3a93d53b55d2", "name": "AeroSoft", "category": "Aviation consultant", "street": "108, Ambikapuri Extn, Airport Road", "city": "behind Indore Airport Police Station", "phone": "07869904923", "website": "", "rating": 4, "review_count": "", "latitude": 22.758045799999998, "longitude": 75.7894943, "maps_url": "https://www.google.com/maps/place/?q=place_id:0x3962fdbd6d139499:0xa41c3a93d53b55d2"}, {"place_id": "0x3963ab8d24c156db:0xe54cb8381b8b2df9", "name": "Sharma Online", "category": "Computer support and services", "street": "06, Main Road", "city": "Usha Pura", "phone": "09753354412", "website": "", "rating": "", "review_count": "", "latitude": 22.809557899999998, "longitude": 75.6726741, "maps_url": "https://www.google.com/maps/place/?q=place_id:0x3963ab8d24c156db:0xe54cb8381b8b2df9"}, {"place_id": "0x396301b1cf069cb9:0xa30b0a4d42a72ce5", "name": "Nr Computer Service", "category": "Computer support and services", "street": "Vinyank Township", "city": "6 A, Devgrdiya Devgrdiya", "phone": "09926660765", "website": "", "rating": "", "review_count": "", "latitude": 22.8293267, "longitude": 75.79921259999999, "maps_url": "https://www.google.com/maps/place/?q=place_id:0x396301b1cf069cb9:0xa30b0a4d42a72ce5"}, {"place_id": "0x39630b006503f131:0x711de93351e6fab", "name": "Shree Nath Farms", "category": "Property investment company", "street": "3RX3+PG8", "city": "Piplyaragho, Madhya Pradesh 456006", "phone": "", "website": "", "rating": 5, "review_count": "", "latitude": 23.0992929, "longitude": 75.8038371, "maps_url": "https://www.google.com/maps/place/?q=place_id:0x39630b006503f131:0x711de93351e6fab"}]}