{"timestamp": 1773730659.525476, "keyword": "IT company", "location": "delhi", "cell_idx": 273, "results": [{"place_id": "0x390ce3c7b85554e5:0x34e439c15e247631", "name": "HAUT IT Solutions Pvt. Ltd", "category": "Software company", "street": "390", "city": "Sant Nagar, East of Kailash", "phone": "09934753003", "website": "http://www.hautitsolutions.com/", "rating": 4.3, "review_count": "", "latitude": 28.554910099999997, "longitude": 77.25111249999999, "maps_url": "https://www.google.com/maps/place/?q=place_id:0x390ce3c7b85554e5:0x34e439c15e247631"}, {"place_id": "0x390ce3a75ede042b:0xb2a550fe88875661", "name": "Cache Infotech Pvt.ltd.", "category": "Software company", "street": "L-30", "city": "near Kailash Colony Metro Station", "phone": "08447088465", "website": "http://cacheinfotech.com/", "rating": 4.6, "review_count": "", "latitude": 28.555188599999997, "longitude": 77.2418936, "maps_url": "https://www.google.com/maps/place/?q=place_id:0x390ce3a75ede042b:0xb2a550fe88875661"}, {"place_id": "0x390ce232369fa0ef:0xdf51f1dafb4ed1a8", "name": "Umami Solutions", "category": "Software company", "street": "S 204, 2nd Floor", "city": "Greater Kailash -1", "phone": "08800824304", "website": "http://www.umamification.com/", "rating": 4.8, "review_count": "", "latitude": 28.5472637, "longitude": 77.2359165, "maps_url": "https://www.google.com/maps/place/?q=place_id:0x390ce232369fa0ef:0xdf51f1dafb4ed1a8"}, {"place_id": "0x390ce1597b5509e5:0xfd8209b937b44d3c", "name": "IT Solutions India Private Limited", "category": "Software company", "street": "D-88/5", "city": "Pocket D, Okhla Phase I, Okhla Industrial Estate", "phone": "09810017429", "website": "https://www.itsipl.com/", "rating": 4.2, "review_count": "", "latitude": 28.520146, "longitude": 77.280431, "maps_url": "https://www.google.com/maps/place/?q=place_id:0x390ce1597b5509e5:0xfd8209b937b44d3c"}, {"place_id": "0x390ce458d0000001:0xf2123bd299ec4501", "name": "IT Company India", "category": "Software company", "street": "D56", "city": "D Block, Sector 10", "phone": "09999244854", "website": "https://www.itcompanyindia.in/", "rating": 4.7, "review_count": "", "latitude": 28.589917699999997, "longitude": 77.3351153, "maps_url": "https://www.google.com/maps/place/?q=place_id:0x390ce458d0000001:0xf2123bd299ec4501"}, {"place_id": "0x390ce3b68b67bf77:0x230736611437ecc2", "name": "SIGN INFOTECH PVT. LTD.", "category": "Software company", "street": "Tarachand Complex", "city": "Ramesh Market", "phone": "09990968968", "website": "https://www.signinfotech.com/", "rating": 4.7, "review_count": "", "latitude": 28.560171699999998, "longitude": 77.2470374, "maps_url": "https://www.google.com/maps/place/?q=place_id:0x390ce3b68b67bf77:0x230736611437ecc2"}, {"place_id": "0x390ce22b1e3df285:0xc37f9f117b75ba56", "name": "Ubitech Solutions Pvt Ltd", "category": "Software company", "street": "S-553, Inder Mohan Bhardwaj Marg", "city": "Block E, Greater Kailash II, Greater Kailash", "phone": "", "website": "http://www.ubitechsolutions.com/", "rating": 4.7, "review_count": "", "latitude": 28.5364878, "longitude": 77.2388501, "maps_url": "https://www.google.com/maps/place/?q=place_id:0x390ce22b1e3df285:0xc37f9f117b75ba56"}, {"place_id": "0x390ce3c574d00001:0x81d331cc03695f5d", "name": "Trojan Hunt India LLP", "category": "Computer security service", "street": "1st Floor", "city": "C, 96", "phone": "08178440079", "website": "https://trojanhuntindia.com/", "rating": 5, "review_count": "", "latitude": 28.5497217, "longitude": 77.23992779999999, "maps_url": "https://www.google.com/maps/place/?q=place_id:0x390ce3c574d00001:0x81d331cc03695f5d"}, {"place_id": "0x390ce1ce534cb1e5:0x39fe77c42bc52616", "name": "ITeSolution- Odoo ERP , Mobile/Web Application Development Software Company in Noida, Delhi NCR India.", "category": "Software company", "street": "RZ60/9", "city": "T/F, Tughlakabad Extension, Tughlakabad", "phone": "09889294124", "website": "https://www.itesolution.co.in/", "rating": 4.9, "review_count": "", "latitude": 28.520523899999997, "longitude": 77.2570535, "maps_url": "https://www.google.com/maps/place/?q=place_id:0x390ce1ce534cb1e5:0x39fe77c42bc52616"}, {"place_id": "0x390ce23302432a97:0x958611082ad1f0e3", "name": "Incyber Media And Technologies", "category": "Web hosting company", "street": "R-134", "city": "R = Name of Block, Block R, Greater Kailash I, Greater Kailash", "phone": "01126411111", "website": "http://economicalhost.com/", "rating": 5, "review_count": "", "latitude": 28.5494858, "longitude": 77.244468, "maps_url": "https://www.google.com/maps/place/?q=place_id:0x390ce23302432a97:0x958611082ad1f0e3"}, {"place_id": "0x390ce341a27d9fef:0xb819d32e29a1a8bd", "name": "Topfilings", "category": "Legal services", "street": "Lower Ground Floor", "city": "E274", "phone": "01140503140", "website": "https://topfilings.com/", "rating": 5, "review_count": "", "latitude": 28.550458, "longitude": 77.242449, "maps_url": "https://www.google.com/maps/place/?q=place_id:0x390ce341a27d9fef:0xb819d32e29a1a8bd"}, {"place_id": "0x390ce411e05c92b7:0xe16c979019ecc88d", "name": "Creando Associates Pvt Ltd", "category": "Wholesaler", "street": "1st Floor", "city": "C-38", "phone": "01141641170", "website": "http://www.creando.in/", "rating": 3.9, "review_count": "", "latitude": 28.5483779, "longitude": 77.2389907, "maps_url": "https://www.google.com/maps/place/?q=place_id:0x390ce411e05c92b7:0xe16c979019ecc88d"}, {"place_id": "0x390ce233aaaaaaab:0xa2c0c982f805a105", "name": "Titus & Co. Advocates", "category": "Lawyer", "street": "R-77A", "city": "Greater Kailash-1, Block R, Greater Kailash I, Greater Kailash", "phone": "01126470700", "website": "http://www.titusindia.com/", "rating": 4.2, "review_count": "", "latitude": 28.5489821, "longitude": 77.2429624, "maps_url": "https://www.google.com/maps/place/?q=place_id:0x390ce233aaaaaaab:0xa2c0c982f805a105"}, {"place_id": "0x390ce3c273658277:0x5e5150780f1ea710", "name": "CPC Construction Group", "category": "Real Estate Builders & Construction Company", "street": "Office No-A 126", "city": "Second Floor", "phone": "09433554363", "website": "", "rating": 4.6, "review_count": "", "latitude": 28.5502164, "longitude": 77.2397968, "maps_url": "https://www.google.com/maps/place/?q=place_id:0x390ce3c273658277:0x5e5150780f1ea710"}, {"place_id": "0x390d1f1504ba61c7:0x104ed2146b8eb2c1", "name": "ACCUMENT RESEARCH AND FIELD SOLUTIONS PRIVATE LIMITED", "category": "Market researcher", "street": "", "city": "", "phone": "01143105921", "website": "http://www.accumentresearch.com/", "rating": 4.8, "review_count": "", "latitude": 28.5543715, "longitude": 77.25187799999999, "maps_url": "https://www.google.com/maps/place/?q=place_id:0x390d1f1504ba61c7:0x104ed2146b8eb2c1"}, {"place_id": "0x390d04bf060ed55f:0x326330e5b5a39535", "name": "Centrik Group", "category": "Legal services", "street": "Plot no. 19, LGF", "city": "behind Gurudwara Lane", "phone": "01146074008", "website": "https://www.centrik.in/", "rating": 4.5, "review_count": "", "latitude": 28.5496646, "longitude": 77.24726179999999, "maps_url": "https://www.google.com/maps/place/?q=place_id:0x390d04bf060ed55f:0x326330e5b5a39535"}, {"place_id": "0x390ce3c542c39f3b:0xbd72f598fdbfef05", "name": "Vizz Media", "category": "Software company", "street": "", "city": "", "phone": "09873098730", "website": "", "rating": 4.6, "review_count": "", "latitude": 18.4114574, "longitude": 77.7760752, "maps_url": "https://www.google.com/maps/place/?q=place_id:0x390ce3c542c39f3b:0xbd72f598fdbfef05"}, {"place_id": "0x390ce30ada79d59b:0x4cf9642e95ef66e7", "name": "Gaur Nitai Marketing Solutions", "category": "Event management company", "street": "Greater Kailash-1, Kailash Kunj, Greater Kailash", "city": "New Delhi, Delhi 110048", "phone": "09811873199", "website": "http://www.gnms.in/", "rating": 4.9, "review_count": "", "latitude": 28.551850599999998, "longitude": 77.24596559999999, "maps_url": "https://www.google.com/maps/place/?q=place_id:0x390ce30ada79d59b:0x4cf9642e95ef66e7"}, {"place_id": "0x390ce3f152a209eb:0x358ca06850bdf652", "name": "Asian Consulting Engineers (Pvt.) Ltd.", "category": "Environmental consultant", "street": "2ND Floor", "city": "66, Hemkunt Colony Rd", "phone": "01141635644", "website": "https://asianconsulting.co.in/", "rating": 5, "review_count": "", "latitude": 28.548167, "longitude": 77.2471741, "maps_url": "https://www.google.com/maps/place/?q=place_id:0x390ce3f152a209eb:0x358ca06850bdf652"}, {"place_id": "0x390ce38dc566bc43:0x1258e708cc1a2450", "name": "Dhanlaxmi services", "category": "Computer support and services", "street": "", "city": "", "phone": "09312851567", "website": "", "rating": 5, "review_count": "", "latitude": 28.5310104, "longitude": 77.20898509999999, "maps_url": "https://www.google.com/maps/place/?q=place_id:0x390ce38dc566bc43:0x1258e708cc1a2450"}, {"place_id": "0xafb67836b05c62fb:0xedf1f44495f5c7b3", "name": "Averiq Solutions", "category": "Software company", "street": "", "city": "", "phone": "", "website": "https://www.averiqsolutions.com/", "rating": 5, "review_count": "", "latitude": 21.0680074, "longitude": 82.7525294, "maps_url": "https://www.google.com/maps/place/?q=place_id:0xafb67836b05c62fb:0xedf1f44495f5c7b3"}, {"place_id": "0x390ce3c5646d4343:0x87cf7d7181600ef7", "name": "Methodex Systems Pvt. Ltd.", "category": "Manufacturer", "street": "", "city": "", "phone": "01126432475", "website": "", "rating": 4.1, "review_count": "", "latitude": 21.0680074, "longitude": 82.7525294, "maps_url": "https://www.google.com/maps/place/?q=place_id:0x390ce3c5646d4343:0x87cf7d7181600ef7"}, {"place_id": "0x850f3621c48c3af5:0xe3ba213663da7314", "name": "ACCURATE EMPLOYEES", "category": "Software company", "street": "", "city": "", "phone": "07847983797", "website": "https://www.accurateemployees.com/", "rating": 4.9, "review_count": "", "latitude": 28.5543715, "longitude": 77.25187799999999, "maps_url": "https://www.google.com/maps/place/?q=place_id:0x850f3621c48c3af5:0xe3ba213663da7314"}, {"place_id": "0x390ce35fc21969f7:0x552fbacbeeff3999", "name": "Harela foundation", "category": "Corporate office", "street": "286A, Chirag Enclave Main Rd", "city": "Greater Kailash-1, Block E, Greater Kailash I, Greater Kailash", "phone": "", "website": "", "rating": 4.8, "review_count": "", "latitude": 28.550703499999997, "longitude": 77.2428942, "maps_url": "https://www.google.com/maps/place/?q=place_id:0x390ce35fc21969f7:0x552fbacbeeff3999"}, {"place_id": "0x390ce360351fd741:0xc3ea6d0eaa0dcf2", "name": "SS IT SOLUTIONS", "category": "Business networking company", "street": "House no-231, Gali no-10 ,Garhi village, Amrita puri-B, East of Kailash New Delhi-210065", "city": "nr. iskon temple", "phone": "", "website": "", "rating": 5, "review_count": "", "latitude": 28.5571506, "longitude": 77.2518224, "maps_url": "https://www.google.com/maps/place/?q=place_id:0x390ce360351fd741:0xc3ea6d0eaa0dcf2"}, {"place_id": "0x390ce3ccdc7cc0ab:0x9f7a40ef292b1755", "name": "Maskon Brands", "category": "Website designer", "street": "", "city": "", "phone": "09810381388", "website": "http://www.maskonbrands.com/", "rating": 4.8, "review_count": "", "latitude": 21.0680074, "longitude": 82.7525294, "maps_url": "https://www.google.com/maps/place/?q=place_id:0x390ce3ccdc7cc0ab:0x9f7a40ef292b1755"}, {"place_id": "0x390ce35293d0bb17:0xf04ecd18b6213f0e", "name": "InvestNow Realtech", "category": "Real estate consultant", "street": "Basement C-116", "city": "Greater Kailash-1, C Block, Greater Kailash I, Greater Kailash", "phone": "", "website": "", "rating": 5, "review_count": "", "latitude": 28.5502164, "longitude": 77.2397968, "maps_url": "https://www.google.com/maps/place/?q=place_id:0x390ce35293d0bb17:0xf04ecd18b6213f0e"}, {"place_id": "0x390ce3dc074c3927:0x8ff9fc7900bd8a2c", "name": "FusionHawk", "category": "Software company", "street": "", "city": "", "phone": "09999305197", "website": "https://www.fusionhawk.io/", "rating": 4, "review_count": "", "latitude": 28.549156, "longitude": 77.2527764, "maps_url": "https://www.google.com/maps/place/?q=place_id:0x390ce3dc074c3927:0x8ff9fc7900bd8a2c"}, {"place_id": "0x390d01982dabe0b1:0xe7eff1aec6f93d23", "name": "TOTAL SOLUTIONS", "category": "Computer repair service", "street": "", "city": "", "phone": "", "website": "https://total-solutions.grexa.site/", "rating": 5, "review_count": "", "latitude": 28.549156, "longitude": 77.2527764, "maps_url": "https://www.google.com/maps/place/?q=place_id:0x390d01982dabe0b1:0xe7eff1aec6f93d23"}, {"place_id": "0x390d05f34f10b09b:0xed4b31a6e1e1f964", "name": "CoLEAD LLP", "category": "Architecture firm", "street": "70, Basement", "city": "Hemkunt Colony Rd", "phone": "09650036273", "website": "http://colead.in/", "rating": 3.9, "review_count": "", "latitude": 28.548437, "longitude": 77.2473904, "maps_url": "https://www.google.com/maps/place/?q=place_id:0x390d05f34f10b09b:0xed4b31a6e1e1f964"}, {"place_id": "0x390ce3c9bb4e63c1:0xf2a2fd5e71e194df", "name": "Dharma Life", "category": "Social services organization", "street": "E328", "city": "Greater Kailash-1, Block E, Greater Kailash I, Greater Kailash", "phone": "", "website": "http://www.dharmalife.in/", "rating": 4.1, "review_count": "", "latitude": 28.550728099999997, "longitude": 77.2405634, "maps_url": "https://www.google.com/maps/place/?q=place_id:0x390ce3c9bb4e63c1:0xf2a2fd5e71e194df"}, {"place_id": "0x390ce3d740b8e499:0x2db66070f4b6715a", "name": "DUBEY ANAND & CO., Chartered Accountants", "category": "Chartered accountant", "street": "E-263", "city": "Greater Kailash-1, Block E, Greater Kailash I, Greater Kailash", "phone": "08448170641", "website": "https://caananddubey.com/", "rating": 5, "review_count": "", "latitude": 28.550481599999998, "longitude": 77.2418859, "maps_url": "https://www.google.com/maps/place/?q=place_id:0x390ce3d740b8e499:0x2db66070f4b6715a"}, {"place_id": "0x390ce3cb377c7273:0x4c7be7166ebad947", "name": "PRATHAM Test Prep", "category": "Coaching Center", "street": "HS-13, 2nd Floor", "city": "Kailash Colony", "phone": "09999975392", "website": "https://www.prathamonline.com/", "rating": 4.5, "review_count": "", "latitude": 28.552584999999997, "longitude": 77.24119999999999, "maps_url": "https://www.google.com/maps/place/?q=place_id:0x390ce3cb377c7273:0x4c7be7166ebad947"}, {"place_id": "0x390ce22ae5104c51:0x2323d373ce668ed3", "name": "IT-TAAS Pvt Ltd", "category": "Software company", "street": "E-506, Inder Mohan Bhardwaj Marg", "city": "Block E, Greater Kailash II, Greater Kailash", "phone": "09810134631", "website": "http://it-taas.com/", "rating": "", "review_count": "", "latitude": 28.535871999999998, "longitude": 77.23848699999999, "maps_url": "https://www.google.com/maps/place/?q=place_id:0x390ce22ae5104c51:0x2323d373ce668ed3"}, {"place_id": "0x390ce383b402f199:0xe1af8e2d84aeb768", "name": "Blue Tokai Coffee Roasters | GK 1", "category": "Cafe", "street": "53, Hansraj Gupta Rd", "city": "Phase 1, Block R, Greater Kailash I, Greater Kailash", "phone": "09289416333", "website": "https://stores.bluetokaicoffee.com/blue-tokai-coffee-roasters-gk-1-cafe-greater-kailash-new-delhi-436777/Home?utm_source=locator&utm_medium=googleplaces", "rating": 4.4, "review_count": "", "latitude": 28.5483507, "longitude": 77.2417064, "maps_url": "https://www.google.com/maps/place/?q=place_id:0x390ce383b402f199:0xe1af8e2d84aeb768"}, {"place_id": "0x390ce37f79e401a9:0xbf9dfa5deca83846", "name": "Happy & Gai", "category": "Cheese manufacturer", "street": "D-1", "city": "Kailash Colony, Block D, Greater Kailash", "phone": "09810120144", "website": "http://www.happyandgai.com/", "rating": 5, "review_count": "", "latitude": 28.5519642, "longitude": 77.2415187, "maps_url": "https://www.google.com/maps/place/?q=place_id:0x390ce37f79e401a9:0xbf9dfa5deca83846"}, {"place_id": "0x390ce3d3636558cd:0x9bb292f053dbc9c1", "name": "Nukkad Kailash Colony", "category": "Cafe", "street": "HS-7, IIIrd Floor", "city": "Kailash Colony Market", "phone": "09311266437", "website": "https://www.nukkaddelhi.com/", "rating": 4.6, "review_count": "", "latitude": 28.552488999999998, "longitude": 77.2419015, "maps_url": "https://www.google.com/maps/place/?q=place_id:0x390ce3d3636558cd:0x9bb292f053dbc9c1"}, {"place_id": "0x390ce312c0b331ff:0xf015e1c678b625d7", "name": "The Timbernation", "category": "Modular home builder", "street": "E-64 GROUND FLOOR", "city": "2", "phone": "08800774420", "website": "", "rating": 4.5, "review_count": "", "latitude": 28.5487, "longitude": 77.2380177, "maps_url": "https://www.google.com/maps/place/?q=place_id:0x390ce312c0b331ff:0xf015e1c678b625d7"}, {"place_id": "0x390ce30846b76133:0xd567f7eca1059e50", "name": "Ninja Things Official", "category": "Film Production Company", "street": "B 16", "city": "Kailash Colony, Block B, Greater Kailash", "phone": "", "website": "", "rating": 4, "review_count": "", "latitude": 28.552173699999997, "longitude": 77.240134, "maps_url": "https://www.google.com/maps/place/?q=place_id:0x390ce30846b76133:0xd567f7eca1059e50"}, {"place_id": "0x390ce3ccc2bb9d99:0xf909358da1eedff8", "name": "ATPL Architects", "category": "Architecture firm", "street": "E 35", "city": "Greater Kailash-1, Block E, Greater Kailash I, Greater Kailash", "phone": "01129231832", "website": "http://www.atpl-architects.com/", "rating": 4.9, "review_count": "", "latitude": 28.5492706, "longitude": 77.2418158, "maps_url": "https://www.google.com/maps/place/?q=place_id:0x390ce3ccc2bb9d99:0xf909358da1eedff8"}, {"place_id": "0x390ce3ccc2bb9d99:0xf909358da1eedff8", "name": "ATPL Architects", "category": "Architecture firm", "street": "E 35", "city": "Greater Kailash-1, Block E, Greater Kailash I, Greater Kailash", "phone": "01129231832", "website": "http://www.atpl-architects.com/", "rating": 4.9, "review_count": "", "latitude": 28.5492706, "longitude": 77.2418158, "maps_url": "https://www.google.com/maps/place/?q=place_id:0x390ce3ccc2bb9d99:0xf909358da1eedff8"}, {"place_id": "0x390ce3bfa1e60c63:0xd2dbe489f5243c38", "name": "Tzirres ( T'zires )", "category": "Wedding planner", "street": "Hemkunt Colony, Greater Kailash", "city": "New Delhi, Delhi 110048", "phone": "09910584354", "website": "http://www.tzires.com/", "rating": 4.9, "review_count": "", "latitude": 28.5494427, "longitude": 77.2469915, "maps_url": "https://www.google.com/maps/place/?q=place_id:0x390ce3bfa1e60c63:0xd2dbe489f5243c38"}, {"place_id": "0x390ce235f13de331:0x181e0b71d3508a0f", "name": "Atrium Design Studio", "category": "Architecture firm", "street": "B11, S Swaran Singh Bhandari Marg", "city": "Kailash Colony, Block B, Greater Kailash", "phone": "09810035514", "website": "http://www.atriumarchitects.in/", "rating": 4.7, "review_count": "", "latitude": 28.551729899999998, "longitude": 77.2406638, "maps_url": "https://www.google.com/maps/place/?q=place_id:0x390ce235f13de331:0x181e0b71d3508a0f"}, {"place_id": "0x4334ec44c1ff9d5f:0x4c2ce22d18e50e96", "name": "Microrent India", "category": "Computer service", "street": "", "city": "", "phone": "09810122495", "website": "https://www.microrentindia.com/", "rating": 5, "review_count": "", "latitude": 21.0680074, "longitude": 82.7525294, "maps_url": "https://www.google.com/maps/place/?q=place_id:0x4334ec44c1ff9d5f:0x4c2ce22d18e50e96"}, {"place_id": "0x390ce3f32d2b32a1:0xf9406a49d643b767", "name": "Couple Hood", "category": "Clothing store", "street": "V Make Custom", "city": "Kailash Colony, Block B, Greater Kailash I, Greater Kailash", "phone": "08700005399", "website": "https://www.thecouplehood.com/", "rating": 4.9, "review_count": "", "latitude": 28.5503903, "longitude": 77.24153989999999, "maps_url": "https://www.google.com/maps/place/?q=place_id:0x390ce3f32d2b32a1:0xf9406a49d643b767"}, {"place_id": "0x390ce3c5630feee9:0x9b4c24743b14196f", "name": "Laptop world", "category": "Computer store", "street": "", "city": "", "phone": "08800952258", "website": "", "rating": 4.1, "review_count": "", "latitude": 21.0680074, "longitude": 82.7525294, "maps_url": "https://www.google.com/maps/place/?q=place_id:0x390ce3c5630feee9:0x9b4c24743b14196f"}, {"place_id": "0x390ce373e181782f:0xfaaed54810d9ef09", "name": "parag singal architects pvt ltd", "category": "Architecture firm", "street": "Lower Ground", "city": "55, Hemkunt Colony Rd", "phone": "01141306777", "website": "http://www.paragsingalarchitects.com/", "rating": 5, "review_count": "", "latitude": 28.5490525, "longitude": 77.2463479, "maps_url": "https://www.google.com/maps/place/?q=place_id:0x390ce373e181782f:0xfaaed54810d9ef09"}, {"place_id": "0x390ce3f07be5c00b:0x4ad9274fb9d414ea", "name": "Refine Ro Solutions-Kent, Aquaguard RO Service", "category": "Water Filter Supplier", "street": "Shop No. 119, D.D.A. Market", "city": "2", "phone": "08178602504", "website": "https://ro-servicecenter.in/refine-ro-solutions/", "rating": 4.5, "review_count": "", "latitude": 28.548538599999997, "longitude": 77.2379547, "maps_url": "https://www.google.com/maps/place/?q=place_id:0x390ce3f07be5c00b:0x4ad9274fb9d414ea"}, {"place_id": "0x390ce3e356b47205:0x8b472fc61ed9e090", "name": "Alpha Mri & Diagnostics", "category": "Medical diagnostic imaging center", "street": "opposite Blue Tokai Roaster", "city": "E-16", "phone": "09811197027", "website": "", "rating": 4.2, "review_count": "", "latitude": 28.5485683, "longitude": 77.2415532, "maps_url": "https://www.google.com/maps/place/?q=place_id:0x390ce3e356b47205:0x8b472fc61ed9e090"}, {"place_id": "0x390ce3cd29fcf431:0x2728330ad95b29d6", "name": "Punia Traveleaze Pvt. Ltd.", "category": "Car rental agency", "street": "IInd Floor", "city": "M-2", "phone": "01126413730", "website": "", "rating": 4.8, "review_count": "", "latitude": 28.548154999999998, "longitude": 77.240909, "maps_url": "https://www.google.com/maps/place/?q=place_id:0x390ce3cd29fcf431:0x2728330ad95b29d6"}, {"place_id": "0x390ce357928a1e71:0x8910eb68a94ed576", "name": "Tiro Hospitality | Commercial Kitchen Equipments", "category": "Kitchen supply store", "street": "E-533, Inder Mohan Bhardwaj Marg", "city": "Greater Kailash-1, Block E, Greater Kailash I, Greater Kailash", "phone": "09999260662", "website": "https://www.tirohospitality.com/", "rating": 4.5, "review_count": "", "latitude": 28.5500778, "longitude": 77.24004529999999, "maps_url": "https://www.google.com/maps/place/?q=place_id:0x390ce357928a1e71:0x8910eb68a94ed576"}, {"place_id": "0x390ce3cc71d3ece7:0xc38478e71006ffb7", "name": "Sound Garden Studio", "category": "Recording studio", "street": "95, Block E Greater Kailash Rd Number 3", "city": "Greater Kailash-1, Block E, Greater Kailash I, Jahanpanah City Forest", "phone": "09667400104", "website": "http://www.soundgardenstudio.com/", "rating": 4.7, "review_count": "", "latitude": 28.5506234, "longitude": 77.24426989999999, "maps_url": "https://www.google.com/maps/place/?q=place_id:0x390ce3cc71d3ece7:0xc38478e71006ffb7"}, {"place_id": "0x390ce38e48c2ccb3:0x70a34f9264c359b5", "name": "Maamla Legal Hai.com", "category": "Legal services", "street": "5, Base Floor", "city": "E-175", "phone": "", "website": "https://maamlalegalhai.com/", "rating": 5, "review_count": "", "latitude": 28.550456399999998, "longitude": 77.2428929, "maps_url": "https://www.google.com/maps/place/?q=place_id:0x390ce38e48c2ccb3:0x70a34f9264c359b5"}, {"place_id": "0x212d93e602b5782f:0xe9dc77aac7a522af", "name": "IT CRAWLER", "category": "Software company", "street": "", "city": "", "phone": "", "website": "https://it-crawler.com/", "rating": "", "review_count": "", "latitude": 33.6891999, "longitude": -5.9506969, "maps_url": "https://www.google.com/maps/place/?q=place_id:0x212d93e602b5782f:0xe9dc77aac7a522af"}, {"place_id": "0x390ce3099d626c23:0xb135a33e4d3709d2", "name": "Jurist & Jurist international Law Firm", "category": "Law firm", "street": "Block E", "city": "E 26", "phone": "01141588855", "website": "http://www.juristandjurist.com/", "rating": 4.7, "review_count": "", "latitude": 28.548938, "longitude": 77.2420255, "maps_url": "https://www.google.com/maps/place/?q=place_id:0x390ce3099d626c23:0xb135a33e4d3709d2"}, {"place_id": "0x390ce33af4a6ab97:0x80946384cbf746b9", "name": "Lifetime Journeys", "category": "Travel agency", "street": "W-104,LGF", "city": "Greater Kailash-1, Block R, Greater Kailash I, Greater Kailash", "phone": "09953162333", "website": "https://www.lifetimejourneys.co.in/", "rating": 5, "review_count": "", "latitude": 28.548202, "longitude": 77.2380163, "maps_url": "https://www.google.com/maps/place/?q=place_id:0x390ce33af4a6ab97:0x80946384cbf746b9"}, {"place_id": "0x390ce39ea3a7eead:0xe55e0dfee02d5fc3", "name": "Best Hearing Solutions", "category": "Hearing aid store", "street": "R-21, Greater Kailash-1, Near Cabana Hotel, Delhi- 110 048, Indi", "city": "Delhi, 110048", "phone": "09999997791", "website": "https://www.besthearingsolutions.com/", "rating": 4.2, "review_count": 123, "latitude": 28.5480241, "longitude": 77.2398046, "maps_url": "https://www.google.com/maps/place/?q=place_id:0x390ce39ea3a7eead:0xe55e0dfee02d5fc3"}, {"place_id": "0x390ce3300795716f:0xb65e7f6585af4634", "name": "DOR", "category": "Clothing store", "street": "C-30", "city": "Greater Kailash-1, C Block, Greater Kailash I, Greater Kailash", "phone": "09811069696", "website": "", "rating": 4.9, "review_count": "", "latitude": 28.5482527, "longitude": 77.2384319, "maps_url": "https://www.google.com/maps/place/?q=place_id:0x390ce3300795716f:0xb65e7f6585af4634"}, {"place_id": "0x390ce309c272af57:0x59527c65e2d205fe", "name": "EWANDZDIGITAL SERVICES", "category": "Computer support and services", "street": "", "city": "", "phone": "", "website": "", "rating": 5, "review_count": "", "latitude": 21.0680074, "longitude": 82.7525294, "maps_url": "https://www.google.com/maps/place/?q=place_id:0x390ce309c272af57:0x59527c65e2d205fe"}, {"place_id": "0x4fdaa74d5803dded:0x19497328ba1e3329", "name": "Tower Rise Technologies", "category": "Telecommunications equipment supplier", "street": "", "city": "", "phone": "", "website": "", "rating": 5, "review_count": "", "latitude": 28.5936474, "longitude": 77.17272439999999, "maps_url": "https://www.google.com/maps/place/?q=place_id:0x4fdaa74d5803dded:0x19497328ba1e3329"}, {"place_id": "0x4fdaa74d5803dded:0x19497328ba1e3329", "name": "Tower Rise Technologies", "category": "Telecommunications equipment supplier", "street": "", "city": "", "phone": "", "website": "", "rating": 5, "review_count": "", "latitude": 28.5936474, "longitude": 77.17272439999999, "maps_url": "https://www.google.com/maps/place/?q=place_id:0x4fdaa74d5803dded:0x19497328ba1e3329"}, {"place_id": "0x3a27af07389cb377:0x21e2b7ff74e93852", "name": "Just dial holiday", "category": "Travel agency", "street": "", "city": "", "phone": "", "website": "", "rating": 3, "review_count": "", "latitude": 21.0680074, "longitude": 82.7525294, "maps_url": "https://www.google.com/maps/place/?q=place_id:0x3a27af07389cb377:0x21e2b7ff74e93852"}, {"place_id": "0x390ce3cd8821116d:0x91b3258b7f9e5a0b", "name": "BDK Law", "category": "Apartment building", "street": "120 E Block", "city": "Greater Kailash-1, Block E, Greater Kailash I, Greater Kailash", "phone": "", "website": "", "rating": 5, "review_count": "", "latitude": 28.5491595, "longitude": 77.2407186, "maps_url": "https://www.google.com/maps/place/?q=place_id:0x390ce3cd8821116d:0x91b3258b7f9e5a0b"}, {"place_id": "0x390ce23543228da1:0x81207d80ab380ddb", "name": "Pankaj Billa & Co", "category": "Chartered accountant", "street": "Flat No-102", "city": "B-6", "phone": "01141630332", "website": "http://www.pbc-india.com/", "rating": 4.8, "review_count": "", "latitude": 28.5516734, "longitude": 77.2428735, "maps_url": "https://www.google.com/maps/place/?q=place_id:0x390ce23543228da1:0x81207d80ab380ddb"}, {"place_id": "0x390ce3a9bc2b5a95:0xdad9053863fd6cc9", "name": "AAA INTERIORS", "category": "Interior designer", "street": "basement", "city": "E-6a", "phone": "09971644634", "website": "", "rating": 5, "review_count": "", "latitude": 28.552386, "longitude": 77.242448, "maps_url": "https://www.google.com/maps/place/?q=place_id:0x390ce3a9bc2b5a95:0xdad9053863fd6cc9"}, {"place_id": "0x390d1d946d3a19c1:0x62da20db9eeee950", "name": "A Sleepy Fox", "category": "Backpacker Hostel", "street": "Second Floor", "city": "B 13", "phone": "07827606631", "website": "", "rating": 4.3, "review_count": "", "latitude": 28.5518926, "longitude": 77.2403786, "maps_url": "https://www.google.com/maps/place/?q=place_id:0x390d1d946d3a19c1:0x62da20db9eeee950"}, {"place_id": "0x390ce397e519d2ad:0x5b2e8f46ef16210a", "name": "Sagar Saxena Advocate", "category": "Legal services", "street": "R251", "city": "Greater Kailash-1, Block R, Greater Kailash I, Greater Kailash", "phone": "09871156571", "website": "", "rating": 4.8, "review_count": "", "latitude": 28.548215799999998, "longitude": 77.2434748, "maps_url": "https://www.google.com/maps/place/?q=place_id:0x390ce397e519d2ad:0x5b2e8f46ef16210a"}, {"place_id": "0x390ce2483aaaaaab:0xf961ea9b9be87bc9", "name": "Indus Biznotel", "category": "Hotel", "street": "R-71, Hansraj Gupta Rd", "city": "Greater Kailash-1, Block R, Greater Kailash I, Greater Kailash", "phone": "01140267700", "website": "", "rating": 4.3, "review_count": "", "latitude": 28.548764199999997, "longitude": 77.2428279, "maps_url": "https://www.google.com/maps/place/?q=place_id:0x390ce2483aaaaaab:0xf961ea9b9be87bc9"}, {"place_id": "0x390ce3a1df8aca85:0x169faf3f8f20be62", "name": "Indian Institute of Arbitration & Mediation, Delhi", "category": "Legal services", "street": "C-51", "city": "Greater Kailash-1, C Block, Greater Kailash I, Greater Kailash", "phone": "", "website": "http://www.arbitrationindia.com/", "rating": 4.8, "review_count": "", "latitude": 28.548755399999997, "longitude": 77.2388636, "maps_url": "https://www.google.com/maps/place/?q=place_id:0x390ce3a1df8aca85:0x169faf3f8f20be62"}, {"place_id": "0x390ce233f88c088d:0x1a2b351702117efb", "name": "Townhouse Greater Kailash", "category": "Hotel", "street": "Plot No. E 54, Hansraj Gupta Rd", "city": "Greater Kailash-1, Block E, Greater Kailash I, Greater Kailash", "phone": "01244330599", "website": "https://www.oyorooms.com/221235?utm_source=Google&utm_medium=GMB", "rating": 3.4, "review_count": "", "latitude": 28.5498579, "longitude": 77.2438262, "maps_url": "https://www.google.com/maps/place/?q=place_id:0x390ce233f88c088d:0x1a2b351702117efb"}, {"place_id": "0x390ce2347c50783b:0x194cbd01720943e6", "name": "Excel Advance Urology Centre", "category": "Hospital", "street": "Ground Floor", "city": "C-48 A, Hansraj Gupta Rd", "phone": "09643438106", "website": "http://www.drashishsaini.com/", "rating": 4.8, "review_count": "", "latitude": 28.5483613, "longitude": 77.2398146, "maps_url": "https://www.google.com/maps/place/?q=place_id:0x390ce2347c50783b:0x194cbd01720943e6"}, {"place_id": "0x390ce363dae07081:0x5118ba4b3f660373", "name": "Maison de Fouzdar Perfume Store", "category": "Perfume store", "street": "Ground Floor", "city": "R-45", "phone": "09266114800", "website": "https://www.mdfparfums.com/", "rating": 5, "review_count": "", "latitude": 28.548271999999997, "longitude": 77.2410938, "maps_url": "https://www.google.com/maps/place/?q=place_id:0x390ce363dae07081:0x5118ba4b3f660373"}, {"place_id": "0x390ce3507551a7d7:0x320fc16a3103b909", "name": "SKS & Partners (Advocates & Legal Consultants)", "category": "Legal services", "street": "Lower Ground Floor", "city": "C-172", "phone": "09810329829", "website": "http://www.skspartners.in/", "rating": 4.7, "review_count": "", "latitude": 28.550445999999997, "longitude": 77.23849109999999, "maps_url": "https://www.google.com/maps/place/?q=place_id:0x390ce3507551a7d7:0x320fc16a3103b909"}, {"place_id": "0x390ce333989f6309:0x73dcc49a413a9f20", "name": "Bespoke home furniture", "category": "Sofa store", "street": "Hansraj Gupta Rd", "city": "near HSBC BANK", "phone": "09871274657", "website": "", "rating": 5, "review_count": "", "latitude": 28.548016999999998, "longitude": 77.2389788, "maps_url": "https://www.google.com/maps/place/?q=place_id:0x390ce333989f6309:0x73dcc49a413a9f20"}, {"place_id": "0x390ce233f1479ab3:0xa7ae3903c519afb5", "name": "HSBC Branch and ATM", "category": "Bank", "street": "Plot No R/47", "city": "Block E, Greater Kailash I, Greater Kailash", "phone": "18002673456", "website": "https://www.hsbc.co.in/", "rating": 4.3, "review_count": "", "latitude": 28.5485318, "longitude": 77.2411924, "maps_url": "https://www.google.com/maps/place/?q=place_id:0x390ce233f1479ab3:0xa7ae3903c519afb5"}, {"place_id": "0x390ce368b07a89b7:0x70c57fa3e98f3718", "name": "Infinity Properties", "category": "Real estate consultant", "street": "GROUND FLOOR", "city": "R-281", "phone": "09810274842", "website": "http://www.southdelhiresidential.com/", "rating": 5, "review_count": "", "latitude": 28.548685799999998, "longitude": 77.2439294, "maps_url": "https://www.google.com/maps/place/?q=place_id:0x390ce368b07a89b7:0x70c57fa3e98f3718"}, {"place_id": "0x390ce232d85c36af:0x8c108c93d5df3972", "name": "Treebo Cabana", "category": "Hotel", "street": "R-23, Hansraj Gupta Rd", "city": "near M-Block Market", "phone": "09322800100", "website": "https://www.treebo.com/hotels-in-delhi/treebo-cabana-greater-kailash-1-3923/?utm_source=partnerships&utm_medium=gmb&utm_campaign=gmblisting", "rating": 4.3, "review_count": "", "latitude": 28.5480369, "longitude": 77.23965799999999, "maps_url": "https://www.google.com/maps/place/?q=place_id:0x390ce232d85c36af:0x8c108c93d5df3972"}, {"place_id": "0x3be7c21b5901e181:0x7fe794585addc1f6", "name": "Smartinfologiks - Software Development Company in India | IT Solutions", "category": "Software company", "street": "Hilton Center", "city": "514", "phone": "07400064691", "website": "https://www.smartinfologiks.com/", "rating": 4.6, "review_count": "", "latitude": 19.0139592, "longitude": 73.0382705, "maps_url": "https://www.google.com/maps/place/?q=place_id:0x3be7c21b5901e181:0x7fe794585addc1f6"}, {"place_id": "0x390ce3457c2cc1df:0xe203beb9428b5cb", "name": "V-Law Chambers", "category": "Law firm", "street": "Lower Ground Floor", "city": "R- 209, Greater Kailash Rd", "phone": "09910544118", "website": "", "rating": 4.7, "review_count": "", "latitude": 28.548019699999998, "longitude": 77.2429298, "maps_url": "https://www.google.com/maps/place/?q=place_id:0x390ce3457c2cc1df:0xe203beb9428b5cb"}, {"place_id": "0x3bc2becdc35b6937:0x515ac559c349eee3", "name": "Thinkitive Technologies Private Limited", "category": "Software company", "street": "4th Floor", "city": "ABIL IMPERIAL COMMERCIAL SPACES", "phone": "08956467327", "website": "https://www.thinkitive.com/", "rating": 3.9, "review_count": "", "latitude": 18.5563888, "longitude": 73.7729748, "maps_url": "https://www.google.com/maps/place/?q=place_id:0x3bc2becdc35b6937:0x515ac559c349eee3"}, {"place_id": "0x390ce344914a805d:0x77ad3f2aec209f", "name": "Treebo Ace Luxe", "category": "Hotel", "street": "E-54, Hansraj Gupta Rd", "city": "opp. R - 81", "phone": "09322800100", "website": "https://www.treebo.com/hotels-in-new-delhi/treebo-ace-luxe-greater-kailash-4218/?utm_source=partnerships&utm_medium=gmb&utm_term=-gmblisting", "rating": 4.5, "review_count": "", "latitude": 28.5497309, "longitude": 77.2439042, "maps_url": "https://www.google.com/maps/place/?q=place_id:0x390ce344914a805d:0x77ad3f2aec209f"}, {"place_id": "0x390ce362e93aeacb:0x93009a61a8f1aa7c", "name": "Iris Events", "category": "Wedding planner", "street": "Greater Kailash-1, Block S, Greater Kailash I, Greater Kailash", "city": "South Delhi, New Delhi, Delhi 110048", "phone": "09205381176", "website": "https://unfoldevent.com/", "rating": 5, "review_count": "", "latitude": 28.548210899999997, "longitude": 77.23797139999999, "maps_url": "https://www.google.com/maps/place/?q=place_id:0x390ce362e93aeacb:0x93009a61a8f1aa7c"}, {"place_id": "0x390ce37e4289c65b:0xe4dca4f394760407", "name": "MAICAT HEALTHCARE - The Treatment of Stopping Medicines", "category": "Medical Center", "street": "Ground Floor", "city": "R 45", "phone": "08076762599", "website": "https://maicat.org/", "rating": 4.3, "review_count": "", "latitude": 28.5483203, "longitude": 77.24118349999999, "maps_url": "https://www.google.com/maps/place/?q=place_id:0x390ce37e4289c65b:0xe4dca4f394760407"}, {"place_id": "0x390ce3be17f96dd7:0xcec5810ebf16e3a9", "name": "iPley Music Studio", "category": "Music school", "street": "E-201", "city": "Greater Kailash-1, Block E, Greater Kailash I, Greater Kailash", "phone": "09213978803", "website": "https://www.ipleymusic.com/", "rating": 4.3, "review_count": "", "latitude": 28.550940599999997, "longitude": 77.2436439, "maps_url": "https://www.google.com/maps/place/?q=place_id:0x390ce3be17f96dd7:0xcec5810ebf16e3a9"}, {"place_id": "0x390ce249ccd36c13:0x5592f0bf3d3fa183", "name": "Hotel Meridian Plaza", "category": "Hotel", "street": "R-41, Hansraj Gupta Rd", "city": "Block E, Greater Kailash I, Greater Kailash", "phone": "09560096963", "website": "https://www.hotelmeridianplaza.com/", "rating": 3.9, "review_count": "", "latitude": 28.5482212, "longitude": 77.24090819999999, "maps_url": "https://www.google.com/maps/place/?q=place_id:0x390ce249ccd36c13:0x5592f0bf3d3fa183"}, {"place_id": "0x390ce3975f6f6f5d:0x6d6fc922bbdad172", "name": "Smart Meble", "category": "Furniture store", "street": "3rd floor", "city": "R-281", "phone": "09968998866", "website": "https://www.smartmeble.com/", "rating": 5, "review_count": "", "latitude": 28.5486023, "longitude": 77.24369999999999, "maps_url": "https://www.google.com/maps/place/?q=place_id:0x390ce3975f6f6f5d:0x6d6fc922bbdad172"}, {"place_id": "0x390ce30006b7408b:0xdafc9af10fe7cf1b", "name": "PraTithi Organic & Natural Foods", "category": "Organic food store", "street": "Shop No.3", "city": "C-44", "phone": "07496965959", "website": "http://www.buypratithifoods.com/", "rating": 5, "review_count": "", "latitude": 28.5483791, "longitude": 77.2394108, "maps_url": "https://www.google.com/maps/place/?q=place_id:0x390ce30006b7408b:0xdafc9af10fe7cf1b"}, {"place_id": "0x390ce3ccd7d2bef7:0xcf872ea06411bf26", "name": "OYO Premium 189 GK 1 R Block", "category": "Hotel", "street": "Plot No. R-41", "city": "Block R, Part - 1, Greater Kailash", "phone": "01246201616", "website": "https://www.oyorooms.com/934", "rating": 3.8, "review_count": "", "latitude": 28.548218, "longitude": 77.241061, "maps_url": "https://www.google.com/maps/place/?q=place_id:0x390ce3ccd7d2bef7:0xcf872ea06411bf26"}, {"place_id": "0x390ce35c69f9570d:0xbbd3e0fc84498082", "name": "First Coffee | Greater Kailash 1", "category": "Cafe", "street": "Ground Floor", "city": "22 Main Road", "phone": "09289008402", "website": "https://nearme.firstcoffee.co.in/first-coffee-greater-kailash-1-44150/home", "rating": 4.2, "review_count": "", "latitude": 28.5486686, "longitude": 77.24180059999999, "maps_url": "https://www.google.com/maps/place/?q=place_id:0x390ce35c69f9570d:0xbbd3e0fc84498082"}, {"place_id": "0x390ce36d1e68e76f:0xa941e60c86973365", "name": "Serene R134 GK-1", "category": "Apartment building", "street": "2nd floor", "city": "R-134", "phone": "", "website": "", "rating": 4.5, "review_count": "", "latitude": 28.5491392, "longitude": 77.24430579999999, "maps_url": "https://www.google.com/maps/place/?q=place_id:0x390ce36d1e68e76f:0xa941e60c86973365"}, {"place_id": "0x1d6c5ca3c3b77bf:0xe694401370aa6d19", "name": "Coagulate Global", "category": "Website designer", "street": "", "city": "", "phone": "", "website": "https://cgspl.in/", "rating": "", "review_count": "", "latitude": 14.157641199999999, "longitude": -16.7424939, "maps_url": "https://www.google.com/maps/place/?q=place_id:0x1d6c5ca3c3b77bf:0xe694401370aa6d19"}, {"place_id": "0x885c60a49d8499d:0xd72b58e04e91428b", "name": "shree kalka ji it solutions private limited", "category": "Supplier", "street": "", "city": "", "phone": "09610660493", "website": "https://www.kalkajiitsolutions.in/", "rating": "", "review_count": "", "latitude": 20.6432678, "longitude": 76.7698374, "maps_url": "https://www.google.com/maps/place/?q=place_id:0x885c60a49d8499d:0xd72b58e04e91428b"}, {"place_id": "0x390ce33b00220b79:0x72ac0d0d5d4f1836", "name": "Sansui Service Center", "category": "Electronics store", "street": "A", "city": "54", "phone": "07264908913", "website": "https://sansuitvservicecentre.com/", "rating": 4, "review_count": "", "latitude": 28.5526272, "longitude": 77.2451178, "maps_url": "https://www.google.com/maps/place/?q=place_id:0x390ce33b00220b79:0x72ac0d0d5d4f1836"}, {"place_id": "0x65beb96a7b0f635b:0xc4973dc67106dd69", "name": "Brandz Honour", "category": "Business development service", "street": "", "city": "", "phone": "07678647430", "website": "https://brandzhonour.com/", "rating": 5, "review_count": "", "latitude": 21.0680074, "longitude": 82.7525294, "maps_url": "https://www.google.com/maps/place/?q=place_id:0x65beb96a7b0f635b:0xc4973dc67106dd69"}, {"place_id": "0x390ce3ccb468eda7:0xfe6731f82c7e5cf5", "name": "Anushkaa Bajaj", "category": "Fashion designer", "street": "R3", "city": "Greater Kailash-1, Block R, Greater Kailash I, Greater Kailash", "phone": "", "website": "https://anushkaabajaj.com/", "rating": 5, "review_count": "", "latitude": 28.547946999999997, "longitude": 77.238209, "maps_url": "https://www.google.com/maps/place/?q=place_id:0x390ce3ccb468eda7:0xfe6731f82c7e5cf5"}, {"place_id": "0x390ce3892d37c02f:0x38b524ce7db0d020", "name": "Ravi kumar Professional Massage Therapist - Home & Hotel Visit Only", "category": "Massage therapist", "street": "R Block, South", "city": "Greater Kailash-1, Block R, Greater Kailash I, Greater Kailash", "phone": "09999664556", "website": "http://raviprofessionaltherapist.in/", "rating": 4.9, "review_count": "", "latitude": 28.549001099999998, "longitude": 77.242785, "maps_url": "https://www.google.com/maps/place/?q=place_id:0x390ce3892d37c02f:0x38b524ce7db0d020"}, {"place_id": "0x390ce396e8b246fd:0xc8fcc5c83a8bded7", "name": "Vedic Voyages Retreats", "category": "Travel agency", "street": "B", "city": "12", "phone": "09911599336", "website": "https://vedicvoyages.com/", "rating": 5, "review_count": "", "latitude": 28.551878199999997, "longitude": 77.2405508, "maps_url": "https://www.google.com/maps/place/?q=place_id:0x390ce396e8b246fd:0xc8fcc5c83a8bded7"}, {"place_id": "0x390ce3cc6c92552f:0x74a5829aaefd609c", "name": "FabHotel Regalia GK1 (Duplicate)", "category": "Hotel", "street": "Regalia Retreat, E-72, Greater Kailash, Part-1", "city": "New Delhi, Delhi 110048", "phone": "07042424242", "website": "https://www.fabhotels.com/hotels-in-new-delhi/?utm_source=Google_Maps&utm_medium=organic&utm_campaign=Google_Maps_Clicks", "rating": 3.7, "review_count": "", "latitude": 28.550407, "longitude": 77.244676, "maps_url": "https://www.google.com/maps/place/?q=place_id:0x390ce3cc6c92552f:0x74a5829aaefd609c"}, {"place_id": "0x390ce23303e313c3:0x46620e6815666331", "name": "IT GIRL", "category": "Women's clothing store", "street": "S-500", "city": "Greater Kailash-1, C Block, Part 1, Greater Kailash", "phone": "08799797643", "website": "http://itgirl.in/", "rating": 1, "review_count": "", "latitude": 28.5482609, "longitude": 77.2381789, "maps_url": "https://www.google.com/maps/place/?q=place_id:0x390ce23303e313c3:0x46620e6815666331"}, {"place_id": "0x390ce23345555555:0xb38d47c3b992b0fe", "name": "Green Leaf Apartment and Suites", "category": "Apartment building", "street": "E 148 Ground floor", "city": "S Swaran Singh Bhandari Marg", "phone": "08383915342", "website": "http://greenleafsuites.com/", "rating": 4.9, "review_count": "", "latitude": 28.5502164, "longitude": 77.2397968, "maps_url": "https://www.google.com/maps/place/?q=place_id:0x390ce23345555555:0xb38d47c3b992b0fe"}]}