{"timestamp": 1773729187.4664311, "keyword": "IT company", "location": "delhi", "cell_idx": 51, "results": [{"place_id": "0x390d191100000001:0x83e113ab96f792a6", "name": "Aithent Technologies Private Limited", "category": "Software company", "street": "Plot 8 & 9", "city": "Electronic City, Udyog Vihar, Sector 18", "phone": "01244514600", "website": "", "rating": 4.3, "review_count": "", "latitude": 28.4992287, "longitude": 77.0683609, "maps_url": "https://www.google.com/maps/place/?q=place_id:0x390d191100000001:0x83e113ab96f792a6"}, {"place_id": "0x390d191100000001:0x424476192b3b5b5b", "name": "Binary Semantics Limited", "category": "Software company", "street": "PLot no", "city": "38", "phone": "08929156505", "website": "https://www.binarysemantics.com/", "rating": 3.7, "review_count": "", "latitude": 28.5018823, "longitude": 77.0701466, "maps_url": "https://www.google.com/maps/place/?q=place_id:0x390d191100000001:0x424476192b3b5b5b"}, {"place_id": "0x390d04dd5b5a36ef:0xc6294dd24c52409", "name": "XeliumTech Solutions - Best Mobile App Development Company", "category": "Software company", "street": "Xeliumtech Solutions - Mobile App Development Company", "city": "5, Tenon Ln", "phone": "08800464848", "website": "http://www.xeliumtech.com/", "rating": 4.3, "review_count": "", "latitude": 28.4991502, "longitude": 77.0675995, "maps_url": "https://www.google.com/maps/place/?q=place_id:0x390d04dd5b5a36ef:0xc6294dd24c52409"}, {"place_id": "0x390d195a92420de3:0xd6701c9035757e12", "name": "Sia infotech solutions pvt ltd", "category": "Software company", "street": "2", "city": "Palam Vihar Extension", "phone": "", "website": "https://siainfotech.solutions/", "rating": 4.7, "review_count": "", "latitude": 28.498268799999998, "longitude": 77.0616969, "maps_url": "https://www.google.com/maps/place/?q=place_id:0x390d195a92420de3:0xd6701c9035757e12"}, {"place_id": "0x390d19440bc59efb:0xda6549686148f7b4", "name": "PerfectionGeeks Technologies", "category": "Software company", "street": "Plot 378-379, Udyog Vihar Phase 4 Rd", "city": "near nokia building", "phone": "08920947884", "website": "http://www.perfectiongeeks.com/", "rating": 4.9, "review_count": "", "latitude": 28.5002221, "longitude": 77.0730516, "maps_url": "https://www.google.com/maps/place/?q=place_id:0x390d19440bc59efb:0xda6549686148f7b4"}, {"place_id": "0x390d19174792f4db:0xcb5f589caa71b6e7", "name": "Knocial India Limited", "category": "Software company", "street": "60B", "city": "Udyog Vihar, Sector 22", "phone": "09354120847", "website": "https://www.knocialindia.com/", "rating": 4.7, "review_count": "", "latitude": 28.504239499999997, "longitude": 77.0651981, "maps_url": "https://www.google.com/maps/place/?q=place_id:0x390d19174792f4db:0xcb5f589caa71b6e7"}, {"place_id": "0x390d196dd557600b:0x9d4d1908b3f87bc1", "name": "MetaDesign Solutions - AI , Gen AI & Software Development Company", "category": "Software company", "street": "Plot 28-29", "city": "Electronic City, Phase IV, Udyog Vihar, Sector 18", "phone": "07669913462", "website": "https://metadesignsolutions.com/", "rating": 3.9, "review_count": "", "latitude": 28.5005469, "longitude": 77.0717586, "maps_url": "https://www.google.com/maps/place/?q=place_id:0x390d196dd557600b:0x9d4d1908b3f87bc1"}, {"place_id": "0x390d192b25446fd9:0xfa30aac40a8f26ad", "name": "Digitem", "category": "Software company", "street": "7th Floor", "city": "STPI", "phone": "", "website": "http://www.digitem.tech/", "rating": 5, "review_count": "", "latitude": 28.5006655, "longitude": 77.06961919999999, "maps_url": "https://www.google.com/maps/place/?q=place_id:0x390d192b25446fd9:0xfa30aac40a8f26ad"}, {"place_id": "0x390d192fc20b97e7:0x3048b25634f6d955", "name": "Nagarro", "category": "Software company", "street": "Plot 6B, Sub. Major Laxmi Chand Rd", "city": "Maruti Udyog, Sector 18", "phone": "", "website": "https://www.nagarro.com/en", "rating": 4.5, "review_count": "", "latitude": 28.491098599999997, "longitude": 77.0673492, "maps_url": "https://www.google.com/maps/place/?q=place_id:0x390d192fc20b97e7:0x3048b25634f6d955"}, {"place_id": "0x390d190c870c17bd:0x4409f3685fd1baf3", "name": "ALITSO INDIA IT CONSULTING PVT LTD", "category": "Computer Hardware Company", "street": "Plot No. 76 D", "city": "Phase IV, Sector 18", "phone": "09168491495", "website": "http://www.alitso.com/", "rating": 5, "review_count": "", "latitude": 28.4851782, "longitude": 77.0657025, "maps_url": "https://www.google.com/maps/place/?q=place_id:0x390d190c870c17bd:0x4409f3685fd1baf3"}, {"place_id": "0x390d192ead051335:0x1f45fb98e90cc397", "name": "Honeysha Technologies, Software Company in Gurgaon, Digital Marketing Agency in Gurgaon", "category": "Software company", "street": "Cyber City", "city": "U-79/18, Rd Number 79", "phone": "07692079000", "website": "https://honeyshatech.com/", "rating": 4.5, "review_count": "", "latitude": 28.4900566, "longitude": 77.09324459999999, "maps_url": "https://www.google.com/maps/place/?q=place_id:0x390d192ead051335:0x1f45fb98e90cc397"}, {"place_id": "0x390d233423cb9d69:0xa575a6f599ef7db6", "name": "Proswl Technology Private Limited", "category": "Software company", "street": "90B, Delhi - Jaipur Expy", "city": "Udyog Vihar, Sector 18", "phone": "01244271015", "website": "https://proswl.com/", "rating": 5, "review_count": "", "latitude": 28.485295999999998, "longitude": 77.0746961, "maps_url": "https://www.google.com/maps/place/?q=place_id:0x390d233423cb9d69:0xa575a6f599ef7db6"}, {"place_id": "0x390d192339c95cdf:0x48126251f4963f65", "name": "Srchout Software Mobile Application Development Company", "category": "Software company", "street": "Plot No. 8 & 9", "city": "Phase IV, Udyog Vihar, Sector 18", "phone": "08005282881", "website": "https://srchoutsoftware.com/", "rating": 3.7, "review_count": "", "latitude": 28.4909952, "longitude": 77.07843629999999, "maps_url": "https://www.google.com/maps/place/?q=place_id:0x390d192339c95cdf:0x48126251f4963f65"}, {"place_id": "0x390d191bdd750067:0xe9639855574194dd", "name": "Digiware It Solutions Pvt Ltd", "category": "Software company", "street": "1st Floor", "city": "plot no 60", "phone": "09999794342", "website": "https://digiwareitsolution.com/", "rating": 5, "review_count": "", "latitude": 28.4874852, "longitude": 77.06640709999999, "maps_url": "https://www.google.com/maps/place/?q=place_id:0x390d191bdd750067:0xe9639855574194dd"}, {"place_id": "0x390d1964921a1d9b:0x1fde406005cf8a72", "name": "Software Development Company in Gurgaon | Metafrone", "category": "Software company", "street": "M-45, First Floor", "city": "Mehrauli-Gurgaon Rd", "phone": "09811004471", "website": "http://www.insoftsys.com/", "rating": 5, "review_count": "", "latitude": 28.4693562, "longitude": 77.0441388, "maps_url": "https://www.google.com/maps/place/?q=place_id:0x390d1964921a1d9b:0x1fde406005cf8a72"}, {"place_id": "0x390ce458d0000001:0xf2123bd299ec4501", "name": "IT Company India", "category": "Software company", "street": "D56", "city": "D Block, Sector 10", "phone": "09999244854", "website": "https://www.itcompanyindia.in/", "rating": 4.7, "review_count": "", "latitude": 28.589917699999997, "longitude": 77.3351153, "maps_url": "https://www.google.com/maps/place/?q=place_id:0x390ce458d0000001:0xf2123bd299ec4501"}, {"place_id": "0x390d1960c2b8367f:0xd2d30e45ac71acea", "name": "Vorombetech Solutions - Top IT & Digitalization Service Company in Gurugram", "category": "Software company", "street": "249", "city": "Phase IV, Udyog Vihar, Sector 19", "phone": "", "website": "https://vorombetech.com/", "rating": 4.8, "review_count": "", "latitude": 28.4941475, "longitude": 77.0808448, "maps_url": "https://www.google.com/maps/place/?q=place_id:0x390d1960c2b8367f:0xd2d30e45ac71acea"}, {"place_id": "0x390d190dd05e2f47:0xc8bbd0ff4d3e91b0", "name": "Programming.com", "category": "Corporate office", "street": "46", "city": "Sector 18", "phone": "01724946000", "website": "https://programming.com/", "rating": 4.1, "review_count": "", "latitude": 28.4887834, "longitude": 77.0657227, "maps_url": "https://www.google.com/maps/place/?q=place_id:0x390d190dd05e2f47:0xc8bbd0ff4d3e91b0"}, {"place_id": "0x390d191598f48ef3:0x70991b4ff870f05d", "name": "Shree Partners LLC", "category": "Software company", "street": "1, Tower A, Building, Cyber City", "city": "Corporate Edge Level", "phone": "01246728815", "website": "https://www.shreepartners.com/", "rating": 4.3, "review_count": "", "latitude": 28.4936018, "longitude": 77.088325, "maps_url": "https://www.google.com/maps/place/?q=place_id:0x390d191598f48ef3:0x70991b4ff870f05d"}, {"place_id": "0x390d196c2ea9c4a7:0x88fb059582025d82", "name": "Amosta Solutions Pvt Ltd. (Background Verification Company Pan India)", "category": "Website designer", "street": "Hartron Technology Park", "city": "Amosta Solutions Pvt. Ltd. 301-B, Flatted Factory Complex", "phone": "01244215321", "website": "https://amosta.com/", "rating": 4.2, "review_count": "", "latitude": 28.500068, "longitude": 77.0713037, "maps_url": "https://www.google.com/maps/place/?q=place_id:0x390d196c2ea9c4a7:0x88fb059582025d82"}, {"place_id": "0x390d3dd2bfd13b5f:0x17876af02ea58f2f", "name": "Hughes Communications India Pvt Ltd", "category": "Corporate office", "street": "Plot No", "city": "1, Tenon Ln", "phone": "01247132500", "website": "http://www.hughes.in/", "rating": 4.2, "review_count": "", "latitude": 28.4991202, "longitude": 77.0668518, "maps_url": "https://www.google.com/maps/place/?q=place_id:0x390d3dd2bfd13b5f:0x17876af02ea58f2f"}, {"place_id": "0x390d193ff211b3fb:0xd964ffb67296e058", "name": "IStrat Software Pvt. Ltd.", "category": "Software company", "street": "90D,", "city": "Udyog Vihar Phase IV, Sector 18", "phone": "01244121000", "website": "", "rating": 3.8, "review_count": "", "latitude": 28.485205399999998, "longitude": 77.0740924, "maps_url": "https://www.google.com/maps/place/?q=place_id:0x390d193ff211b3fb:0xd964ffb67296e058"}, {"place_id": "0x390d195c26bfa369:0x69bd8efd2e3a31fe", "name": "Radical Minds Technologies Pvt. Ltd.", "category": "BPO Company", "street": "368", "city": "Phase II, Udyog Vihar, Sector 20", "phone": "01244338366", "website": "http://www.radicalminds.in/", "rating": 4.2, "review_count": "", "latitude": 28.506335099999998, "longitude": 77.0877546, "maps_url": "https://www.google.com/maps/place/?q=place_id:0x390d195c26bfa369:0x69bd8efd2e3a31fe"}, {"place_id": "0x390d1910da46a7db:0x18c0a10a69f503f8", "name": "Coforge", "category": "Corporate office", "street": "5th & 6th Floor", "city": "Plot No-13", "phone": "02240103100", "website": "https://www.coforge.com/", "rating": 3.9, "review_count": "", "latitude": 28.4915973, "longitude": 77.07432709999999, "maps_url": "https://www.google.com/maps/place/?q=place_id:0x390d1910da46a7db:0x18c0a10a69f503f8"}, {"place_id": "0x390d192409eb1411:0xbf1f68f4b2dd1d69", "name": "Appicia Technologies", "category": "Software company", "street": "Third floor", "city": "Ashirwad", "phone": "08076917265", "website": "https://appicia.com/", "rating": 5, "review_count": "", "latitude": 28.4885505, "longitude": 77.01963889999999, "maps_url": "https://www.google.com/maps/place/?q=place_id:0x390d192409eb1411:0xbf1f68f4b2dd1d69"}, {"place_id": "0x390ce58c7403e0a1:0x2a35ba3fcd3ecb95", "name": "Akhil Systems Pvt Ltd - Electronic Medical Records Software, Best Hospital Software India, Hospital Management Software", "category": "Software company", "street": "5th Floor", "city": "Incuspaze Building", "phone": "08448799453", "website": "https://akhilsystems.com/", "rating": 3.4, "review_count": "", "latitude": 28.4914019, "longitude": 77.0771321, "maps_url": "https://www.google.com/maps/place/?q=place_id:0x390ce58c7403e0a1:0x2a35ba3fcd3ecb95"}, {"place_id": "0x390d1915fa5d766d:0x1d92c0eb013cd4f2", "name": "FIS Global Business Solutions India Pvt. Ltd.", "category": "Corporate office", "street": "402, I Park, Plot No. 15", "city": "Phase IV", "phone": "01243927500", "website": "https://www.fisglobal.com/", "rating": 4.1, "review_count": "", "latitude": 28.490092899999997, "longitude": 77.078841, "maps_url": "https://www.google.com/maps/place/?q=place_id:0x390d1915fa5d766d:0x1d92c0eb013cd4f2"}, {"place_id": "0x390d191d0bb8a9db:0xf6295047e107a843", "name": "Robust Infotech - IT Services | Digital Transformation | Best Website/Software Development Company", "category": "Software company", "street": "90B, Delhi - Jaipur Expy", "city": "Nitin Vihar, Udyog Vihar, Sector 18", "phone": "07982914476", "website": "", "rating": 5, "review_count": "", "latitude": 28.441292299999997, "longitude": 77.0148859, "maps_url": "https://www.google.com/maps/place/?q=place_id:0x390d191d0bb8a9db:0xf6295047e107a843"}, {"place_id": "0x390d19f48e8d6125:0xb650a846d2e4b04b", "name": "DO Communication | Best SEO Company Gurgaon", "category": "Website designer", "street": "Hartron Complex", "city": "B-8", "phone": "09999661915", "website": "https://www.docommunication.io/seo-company-gurgaon.php?&utm_source=gbp_grg&utm_medium=organic&utm_campaign=profile_click&utm_term=gbp_profile_click", "rating": 4.9, "review_count": "", "latitude": 28.500157299999998, "longitude": 77.0700324, "maps_url": "https://www.google.com/maps/place/?q=place_id:0x390d19f48e8d6125:0xb650a846d2e4b04b"}, {"place_id": "0x390d1905cf9418ab:0x68c73ef2c55c6a92", "name": "Dixinfotech | Best Web Development Company in Gurgaon", "category": "Software company", "street": "Plot No. 96, 1st Floor", "city": "Udyog Vihar Phase 1, Sector 20", "phone": "09717106162", "website": "https://www.dixinfotech.com/website-designing-company-in-gurgaon", "rating": 5, "review_count": "", "latitude": 28.5169219, "longitude": 77.0803425, "maps_url": "https://www.google.com/maps/place/?q=place_id:0x390d1905cf9418ab:0x68c73ef2c55c6a92"}, {"place_id": "0x390d196c28ae1975:0x904216893b48e7f4", "name": "Hartron Technology Park", "category": "Business center", "street": "Plot No. 25 A", "city": "Electronic City, Phase IV, Udyog Vihar, Sector 18", "phone": "07007840923", "website": "", "rating": 3.8, "review_count": "", "latitude": 28.499900999999998, "longitude": 77.07125649999999, "maps_url": "https://www.google.com/maps/place/?q=place_id:0x390d196c28ae1975:0x904216893b48e7f4"}, {"place_id": "0x390d19c4f81c373b:0x569790526001fe47", "name": "Pasenture Technologies - Web Development Company in Gurugram, Software Development Company in Gurgaon for CRM & Saas Software", "category": "Software company", "street": "2nd Floor", "city": "90, IDC", "phone": "09717197498", "website": "https://pasenture.in/", "rating": 4, "review_count": "", "latitude": 28.4716508, "longitude": 77.0509349, "maps_url": "https://www.google.com/maps/place/?q=place_id:0x390d19c4f81c373b:0x569790526001fe47"}, {"place_id": "0x390d197477a0058f:0xd96a69103afb25e1", "name": "Cardrop India Private Limited", "category": "Logistics service", "street": "Plot No. 69, Gali No.1A", "city": "1, Satguru Enclave Rd", "phone": "", "website": "", "rating": 4, "review_count": "", "latitude": 28.497158, "longitude": 77.0610848, "maps_url": "https://www.google.com/maps/place/?q=place_id:0x390d197477a0058f:0xd96a69103afb25e1"}, {"place_id": "0x390d191100000001:0x66a3fef85f7a646b", "name": "HughesNet Broadband for Business", "category": "Internet service provider", "street": "Plot No. 1", "city": "Electronic City, Phase IV, Udyog Vihar, Sector 18", "phone": "01243072500", "website": "http://www.hughes.in/", "rating": 4.3, "review_count": "", "latitude": 28.4992174, "longitude": 77.0665459, "maps_url": "https://www.google.com/maps/place/?q=place_id:0x390d191100000001:0x66a3fef85f7a646b"}, {"place_id": "0x390d19ddca215291:0x8cb2310b330f57bb", "name": "SR SMART HOME", "category": "Home automation company", "street": "Shop no 3", "city": "no 1", "phone": "09773530669", "website": "", "rating": 5, "review_count": "", "latitude": 28.497123499999997, "longitude": 77.0589679, "maps_url": "https://www.google.com/maps/place/?q=place_id:0x390d19ddca215291:0x8cb2310b330f57bb"}, {"place_id": "0x390d191166a8cffb:0x29bd2d69ac691781", "name": "AGRITEK INDIA", "category": "Agricultural service", "street": "Satguru Enclave", "city": "Palam Vihar, Gali No 11", "phone": "", "website": "https://agritek.co.in/", "rating": 4.9, "review_count": "", "latitude": 28.4962472, "longitude": 77.0582786, "maps_url": "https://www.google.com/maps/place/?q=place_id:0x390d191166a8cffb:0x29bd2d69ac691781"}, {"place_id": "0x390d191e212ddf7d:0xabfdc1378b49746d", "name": "Chemicals Ranxess solutions LLP", "category": "Chemical Manufacturer", "street": "Plot No. 528, Satguru Enclave Rd", "city": "opp. Maruti Gate-2", "phone": "09771301074", "website": "", "rating": 5, "review_count": "", "latitude": 28.4958414, "longitude": 77.0587882, "maps_url": "https://www.google.com/maps/place/?q=place_id:0x390d191e212ddf7d:0xabfdc1378b49746d"}, {"place_id": "0x390d195b82955c11:0x4ac608c95db239fa", "name": "Worxpertise (Edge Business Solutions Pvt. Ltd.)", "category": "Business to business service", "street": "4th Floor, WING-B", "city": "AIHP Tower", "phone": "", "website": "https://worxpertise.com/", "rating": 4.1, "review_count": "", "latitude": 28.497374899999997, "longitude": 77.0827276, "maps_url": "https://www.google.com/maps/place/?q=place_id:0x390d195b82955c11:0x4ac608c95db239fa"}, {"place_id": "0x390cfb4bf15a6733:0xaf50e6f3c5fb7641", "name": "Digitals Daddy: Web & App Development Company", "category": "Software company", "street": "Metro Gate No. 2", "city": "Nearest Sikandarpur", "phone": "09818286609", "website": "https://www.digitalsdaddy.com/", "rating": 4.9, "review_count": "", "latitude": 28.4847884, "longitude": 77.0922192, "maps_url": "https://www.google.com/maps/place/?q=place_id:0x390cfb4bf15a6733:0xaf50e6f3c5fb7641"}, {"place_id": "0x390d192c30bd0265:0xfb9ebdcc15406371", "name": "NEO research Consulting Pvt Ltd.", "category": "Marketing agency", "street": "303/1, Carterpuri Marg", "city": "Palam Vihar Extension", "phone": "", "website": "http://www.theneoresearch.com/", "rating": 4.4, "review_count": "", "latitude": 28.4954269, "longitude": 77.0585582, "maps_url": "https://www.google.com/maps/place/?q=place_id:0x390d192c30bd0265:0xfb9ebdcc15406371"}, {"place_id": "0x390d1f2a4b22b1a1:0x27b030e96b661676", "name": "MAISON D' AURAINE", "category": "Corporate office", "street": "Building no 22", "city": "Electronic City, Phase IV, Udyog Vihar, Sector 18", "phone": "01244015666", "website": "", "rating": 4.1, "review_count": "", "latitude": 28.4993661, "longitude": 77.07116599999999, "maps_url": "https://www.google.com/maps/place/?q=place_id:0x390d1f2a4b22b1a1:0x27b030e96b661676"}, {"place_id": "0x390d195483e39b25:0xdb284651b4ad712", "name": "Defitex Innovative Solutions Pvt Ltd", "category": "Consultant", "street": "MiQB", "city": "Maruti Industrial Development Area", "phone": "04069867149", "website": "", "rating": 4.5, "review_count": "", "latitude": 28.4895772, "longitude": 77.06224379999999, "maps_url": "https://www.google.com/maps/place/?q=place_id:0x390d195483e39b25:0xdb284651b4ad712"}, {"place_id": "0x390d195a9766f40d:0xe74eff9543ba680b", "name": "Maruti office (karoshi)", "category": "Corporate office", "street": "F3W8+CJW", "city": "Maruti Udyog, Sector 18", "phone": "", "website": "https://www.marutisuzuki.com/", "rating": 4.4, "review_count": "", "latitude": 28.4961207, "longitude": 77.0665819, "maps_url": "https://www.google.com/maps/place/?q=place_id:0x390d195a9766f40d:0xe74eff9543ba680b"}, {"place_id": "0x390d192fe96fb443:0xabf12c096ce4fc37", "name": "Gyan Logistics | Car Transportation Company", "category": "Transportation service", "street": "Shop no.24 ,1st Floor", "city": "1, Old Delhi Gurugram Rd", "phone": "08814006003", "website": "https://www.gyanlogistics.in/", "rating": 4.9, "review_count": "", "latitude": 28.4977616, "longitude": 77.0631475, "maps_url": "https://www.google.com/maps/place/?q=place_id:0x390d192fe96fb443:0xabf12c096ce4fc37"}, {"place_id": "0x390d19b4279dddfb:0xf51d92503a0579b3", "name": "Rapidophilia Travel Solutions", "category": "Travel agency", "street": "Street No 5", "city": "Plot no - 299, Satguru Enclave Rd", "phone": "09911192050", "website": "https://www.rapidophilia.com/", "rating": 4.7, "review_count": "", "latitude": 28.4971155, "longitude": 77.0603196, "maps_url": "https://www.google.com/maps/place/?q=place_id:0x390d19b4279dddfb:0xf51d92503a0579b3"}, {"place_id": "0x390d194e005d7e83:0xc65cba385cef1c9e", "name": "iLive Co-Living PG Gurgaon", "category": "Hostel", "street": "213", "city": "Noble Enclave, Lane#3", "phone": "09311239800", "website": "", "rating": 4.6, "review_count": "", "latitude": 28.499931699999998, "longitude": 77.0612393, "maps_url": "https://www.google.com/maps/place/?q=place_id:0x390d194e005d7e83:0xc65cba385cef1c9e"}, {"place_id": "0x390d193fb867e159:0xd852be0413024e8e", "name": "Power2SME Private Limited", "category": "Business to business service", "street": "First Floor", "city": "Nimai Tower", "phone": "18001032322", "website": "https://www.power2sme.com/", "rating": 4, "review_count": "", "latitude": 28.4998929, "longitude": 77.076022, "maps_url": "https://www.google.com/maps/place/?q=place_id:0x390d193fb867e159:0xd852be0413024e8e"}, {"place_id": "0x390d19775f96c833:0x8b5dade36db0c227", "name": "Space Art Private Limited", "category": "Office furniture store", "street": "Khasra 4363 70", "city": "near Toyota Showroom", "phone": "09910493027", "website": "http://www.spaceartfurniture.in/", "rating": 4.7, "review_count": "", "latitude": 28.495808, "longitude": 77.061646, "maps_url": "https://www.google.com/maps/place/?q=place_id:0x390d19775f96c833:0x8b5dade36db0c227"}, {"place_id": "0x390d19803d179c8f:0xfd2743e817e28b2b", "name": "Indxx Tower", "category": "Corporate office", "street": "390", "city": "Electronic City, Phase IV, Udyog Vihar, Sector 18", "phone": "", "website": "", "rating": 4.3, "review_count": "", "latitude": 28.4999593, "longitude": 77.0742388, "maps_url": "https://www.google.com/maps/place/?q=place_id:0x390d19803d179c8f:0xfd2743e817e28b2b"}, {"place_id": "0x390d1b0010fc2321:0x12e9154c815cf007", "name": "Prashant Dwivedi IT company", "category": "Warehouse", "street": "G3P5+GVC", "city": "Nayak Pura, Bijwasan", "phone": "", "website": "", "rating": "", "review_count": "", "latitude": 28.536316, "longitude": 77.059649, "maps_url": "https://www.google.com/maps/place/?q=place_id:0x390d1b0010fc2321:0x12e9154c815cf007"}, {"place_id": "0x390d19b34d9d89d9:0xe73cecaf09a92379", "name": "Magicdeals", "category": "Electronics wholesaler", "street": "44-45, Old Delhi Gurugram Rd", "city": "Sector 18", "phone": "", "website": "https://www.magicdeals.shop/", "rating": 5, "review_count": "", "latitude": 28.4952258, "longitude": 77.0608958, "maps_url": "https://www.google.com/maps/place/?q=place_id:0x390d19b34d9d89d9:0xe73cecaf09a92379"}, {"place_id": "0x390d19b3bcbc3395:0x61c602d6a75730ed", "name": "Electrical Equipment Co.", "category": "Electrical supply store", "street": "Noble Enclave, Palam Vihar Extension", "city": "Gurugram, Haryana 122022", "phone": "09311105778", "website": "", "rating": 4.4, "review_count": "", "latitude": 28.4989192, "longitude": 77.0638864, "maps_url": "https://www.google.com/maps/place/?q=place_id:0x390d19b3bcbc3395:0x61c602d6a75730ed"}, {"place_id": "0x390d19a2b4355ad7:0xb74baccb8acc3d43", "name": "DTDC Domestic & International Courier Service", "category": "Courier service", "street": "SHOP NO. 1", "city": "1, Satguru Enclave Rd", "phone": "09711156444", "website": "http://www.dtdc.com/", "rating": 4.8, "review_count": "", "latitude": 28.4972131, "longitude": 77.062165, "maps_url": "https://www.google.com/maps/place/?q=place_id:0x390d19a2b4355ad7:0xb74baccb8acc3d43"}, {"place_id": "0x390d1953b954d953:0x497df5fea0154a0f", "name": "Friends PG", "category": "Guest house", "street": "Gali no 03", "city": "Satguru enclave", "phone": "01205244599", "website": "https://friendspg.in/", "rating": 4.9, "review_count": "", "latitude": 28.499282299999997, "longitude": 77.0611685, "maps_url": "https://www.google.com/maps/place/?q=place_id:0x390d1953b954d953:0x497df5fea0154a0f"}, {"place_id": "0x390d19f73284b88f:0x1c362595e32e6411", "name": "ALL INDIA CAR TRANSPORT COMPANY (REGD.)", "category": "Transportation service", "street": "Office no.1, F3V5+CRM", "city": "Gate no.2", "phone": "09899435585", "website": "http://www.allindiacartransport.com/", "rating": 4.9, "review_count": "", "latitude": 28.493619799999998, "longitude": 77.05951519999999, "maps_url": "https://www.google.com/maps/place/?q=place_id:0x390d19f73284b88f:0x1c362595e32e6411"}, {"place_id": "0x390d197500000001:0xb46484ef0faeb1a", "name": "Inde Hotels", "category": "Corporate office", "street": "Level 5, Srei Signature, Plot 14 A, Anath Road, Udyog Vihar", "city": "Sector - 18", "phone": "09910334411", "website": "http://indehotel.com/", "rating": 5, "review_count": "", "latitude": 28.496375399999998, "longitude": 77.0593243, "maps_url": "https://www.google.com/maps/place/?q=place_id:0x390d197500000001:0xb46484ef0faeb1a"}, {"place_id": "0x390d19d4e12ebe0b:0xae4d249594f63671", "name": "Aahan International DTDC", "category": "Courier service", "street": "maruti sezuk gate.1", "city": "6, Satguru Enclave Rd", "phone": "09990018272", "website": "http://www.dtdc.com/", "rating": 4.9, "review_count": "", "latitude": 28.497793599999998, "longitude": 77.0600922, "maps_url": "https://www.google.com/maps/place/?q=place_id:0x390d19d4e12ebe0b:0xae4d249594f63671"}, {"place_id": "0x390d19e14ecf0631:0x4f0be1412631b806", "name": "DTDC Courier- JBM International Service", "category": "Courier service", "street": "Gate No 1", "city": "Shop No.1B, Nobel Enclave", "phone": "", "website": "https://workspace.dtdc.com/", "rating": 4.5, "review_count": "", "latitude": 28.4989174, "longitude": 77.0640138, "maps_url": "https://www.google.com/maps/place/?q=place_id:0x390d19e14ecf0631:0x4f0be1412631b806"}, {"place_id": "0x390d1973cfe936d9:0x49c565ba46509290", "name": "Anytime Packers and Movers", "category": "Moving service", "street": "Ardee City Gate No. 2", "city": "Neval Elclave", "phone": "08239310451", "website": "", "rating": 1.5, "review_count": "", "latitude": 28.4989535, "longitude": 77.06443089999999, "maps_url": "https://www.google.com/maps/place/?q=place_id:0x390d1973cfe936d9:0x49c565ba46509290"}, {"place_id": "0x390d193644be9be9:0xa1cf8b42ee2241b", "name": "BHARAT CAR TRANSPORT COMPANY", "category": "Transportation service", "street": "Gate No.2", "city": "Office No.2", "phone": "09813038243", "website": "http://www.bharatcartransport.com/", "rating": 4.9, "review_count": "", "latitude": 28.493641, "longitude": 77.0595025, "maps_url": "https://www.google.com/maps/place/?q=place_id:0x390d193644be9be9:0xa1cf8b42ee2241b"}, {"place_id": "0x390d19a2b4355ad7:0xb74baccb8acc3d43", "name": "DTDC Domestic & International Courier Service", "category": "Courier service", "street": "SHOP NO. 1", "city": "1, Satguru Enclave Rd", "phone": "09711156444", "website": "http://www.dtdc.com/", "rating": 4.8, "review_count": "", "latitude": 28.4972131, "longitude": 77.062165, "maps_url": "https://www.google.com/maps/place/?q=place_id:0x390d19a2b4355ad7:0xb74baccb8acc3d43"}, {"place_id": "0x390d1953b954d953:0x497df5fea0154a0f", "name": "Friends PG", "category": "Guest house", "street": "Gali no 03", "city": "Satguru enclave", "phone": "01205244599", "website": "https://friendspg.in/", "rating": 4.9, "review_count": "", "latitude": 28.499282299999997, "longitude": 77.0611685, "maps_url": "https://www.google.com/maps/place/?q=place_id:0x390d1953b954d953:0x497df5fea0154a0f"}, {"place_id": "0x390d19f73284b88f:0x1c362595e32e6411", "name": "ALL INDIA CAR TRANSPORT COMPANY (REGD.)", "category": "Transportation service", "street": "Office no.1, F3V5+CRM", "city": "Gate no.2", "phone": "09899435585", "website": "http://www.allindiacartransport.com/", "rating": 4.9, "review_count": "", "latitude": 28.493619799999998, "longitude": 77.05951519999999, "maps_url": "https://www.google.com/maps/place/?q=place_id:0x390d19f73284b88f:0x1c362595e32e6411"}, {"place_id": "0x390d197500000001:0xb46484ef0faeb1a", "name": "Inde Hotels", "category": "Corporate office", "street": "Level 5, Srei Signature, Plot 14 A, Anath Road, Udyog Vihar", "city": "Sector - 18", "phone": "09910334411", "website": "http://indehotel.com/", "rating": 5, "review_count": "", "latitude": 28.496375399999998, "longitude": 77.0593243, "maps_url": "https://www.google.com/maps/place/?q=place_id:0x390d197500000001:0xb46484ef0faeb1a"}, {"place_id": "0x390d19d4e12ebe0b:0xae4d249594f63671", "name": "Aahan International DTDC", "category": "Courier service", "street": "maruti sezuk gate.1", "city": "6, Satguru Enclave Rd", "phone": "09990018272", "website": "http://www.dtdc.com/", "rating": 4.9, "review_count": "", "latitude": 28.497793599999998, "longitude": 77.0600922, "maps_url": "https://www.google.com/maps/place/?q=place_id:0x390d19d4e12ebe0b:0xae4d249594f63671"}, {"place_id": "0x390d19e14ecf0631:0x4f0be1412631b806", "name": "DTDC Courier- JBM International Service", "category": "Courier service", "street": "Gate No 1", "city": "Shop No.1B, Nobel Enclave", "phone": "", "website": "https://workspace.dtdc.com/", "rating": 4.5, "review_count": "", "latitude": 28.4989174, "longitude": 77.0640138, "maps_url": "https://www.google.com/maps/place/?q=place_id:0x390d19e14ecf0631:0x4f0be1412631b806"}, {"place_id": "0x390d1973cfe936d9:0x49c565ba46509290", "name": "Anytime Packers and Movers", "category": "Moving service", "street": "Ardee City Gate No. 2", "city": "Neval Elclave", "phone": "08239310451", "website": "", "rating": 1.5, "review_count": "", "latitude": 28.4989535, "longitude": 77.06443089999999, "maps_url": "https://www.google.com/maps/place/?q=place_id:0x390d1973cfe936d9:0x49c565ba46509290"}, {"place_id": "0x390d193644be9be9:0xa1cf8b42ee2241b", "name": "BHARAT CAR TRANSPORT COMPANY", "category": "Transportation service", "street": "Gate No.2", "city": "Office No.2", "phone": "09813038243", "website": "http://www.bharatcartransport.com/", "rating": 4.9, "review_count": "", "latitude": 28.493641, "longitude": 77.0595025, "maps_url": "https://www.google.com/maps/place/?q=place_id:0x390d193644be9be9:0xa1cf8b42ee2241b"}, {"place_id": "0x390d19930d731c73:0x629c231f54431371", "name": "Seva Groups Logistics", "category": "Transportation service", "street": "Main street Maruti gate", "city": "no.2, Old Delhi Gurugram Rd", "phone": "", "website": "", "rating": 4.9, "review_count": "", "latitude": 28.4968865, "longitude": 77.05828249999999, "maps_url": "https://www.google.com/maps/place/?q=place_id:0x390d19930d731c73:0x629c231f54431371"}, {"place_id": "0x390d19370cfcd425:0xd26d20d9006ab820", "name": "Publicis Sapient", "category": "Business management consultant", "street": "Shop, Street Number 56", "city": "Unitech Infospace Tower A Building 2", "phone": "01244996000", "website": "http://www.publicissapient.com/", "rating": 4.4, "review_count": "", "latitude": 28.5101101, "longitude": 77.0728888, "maps_url": "https://www.google.com/maps/place/?q=place_id:0x390d19370cfcd425:0xd26d20d9006ab820"}, {"place_id": "0x390d195357d2a527:0xfa6ea26c05f9016c", "name": "ORANGE PG CO-LIVING", "category": "Hostel", "street": "House no332 satguru farm", "city": "Sector 22A", "phone": "09897484630", "website": "", "rating": 4.4, "review_count": "", "latitude": 28.4970759, "longitude": 77.0603036, "maps_url": "https://www.google.com/maps/place/?q=place_id:0x390d195357d2a527:0xfa6ea26c05f9016c"}, {"place_id": "0x390d19ed163bea59:0xc98f288899e42e62", "name": "IYRA pg for boys and girls", "category": "Hostel", "street": "IYRA house pg, gate no 1, Gali no 1 Satguru farm house opp maruti gate 1 Old Delhi gurugram road", "city": "Road", "phone": "08799990004", "website": "", "rating": 4.1, "review_count": "", "latitude": 28.498419199999997, "longitude": 77.062139, "maps_url": "https://www.google.com/maps/place/?q=place_id:0x390d19ed163bea59:0xc98f288899e42e62"}, {"place_id": "0x390d19a9c4bb99e1:0x6403986bddde4ad8", "name": "Safe CarMovers", "category": "Transportation service", "street": "H. No 212 Gali No 3", "city": "Noble Enclave, Palam Vihar", "phone": "09355855001", "website": "", "rating": 4.9, "review_count": "", "latitude": 28.499864799999997, "longitude": 77.0610056, "maps_url": "https://www.google.com/maps/place/?q=place_id:0x390d19a9c4bb99e1:0x6403986bddde4ad8"}, {"place_id": "0x390d1973db277415:0xc1f71a9888ce2a56", "name": "Sai Tower", "category": "Boys' hostel", "street": "1 Noble Enclave", "city": "Old, Old Delhi Gurugram Rd", "phone": "", "website": "", "rating": 3.6, "review_count": "", "latitude": 28.499084399999997, "longitude": 77.0640583, "maps_url": "https://www.google.com/maps/place/?q=place_id:0x390d1973db277415:0xc1f71a9888ce2a56"}, {"place_id": "0x390d1987380b3d81:0x853dbb7e8f3a4797", "name": "Jangra Hardware & electronics", "category": "Hardware store", "street": "Noble Enclave, Palam Vihar Extension", "city": "Gurugram, Haryana 122015", "phone": "09991179803", "website": "", "rating": 4.6, "review_count": "", "latitude": 28.499060699999998, "longitude": 77.0600212, "maps_url": "https://www.google.com/maps/place/?q=place_id:0x390d1987380b3d81:0x853dbb7e8f3a4797"}, {"place_id": "0x390d190052206e2d:0x4dd4d6e20964d6e0", "name": "Enkay tower,Noble Enclave", "category": "Hostel", "street": "Gali No. 7", "city": "Momo's PG", "phone": "", "website": "", "rating": 4.8, "review_count": "", "latitude": 28.4983839, "longitude": 77.06267129999999, "maps_url": "https://www.google.com/maps/place/?q=place_id:0x390d190052206e2d:0x4dd4d6e20964d6e0"}, {"place_id": "0x390d19e5a8735bc5:0xa46c3a352dd81e16", "name": "Vishwa Healthcare Consultant", "category": "Health consultant", "street": "Plot No, 13", "city": "Noble Enclave Rd", "phone": "", "website": "", "rating": 5, "review_count": "", "latitude": 28.498991, "longitude": 77.0625391, "maps_url": "https://www.google.com/maps/place/?q=place_id:0x390d19e5a8735bc5:0xa46c3a352dd81e16"}, {"place_id": "0x390d197030fdf9d5:0x78b6132e477ef79f", "name": "8 Weekends", "category": "Travel agency", "street": "no 10", "city": "Satguru Enclave Rd", "phone": "", "website": "https://www.instagram.com/8_weekends_?igsh=OHUwaDJldDJyeWc=", "rating": 5, "review_count": "", "latitude": 28.4975608, "longitude": 77.0579281, "maps_url": "https://www.google.com/maps/place/?q=place_id:0x390d197030fdf9d5:0x78b6132e477ef79f"}, {"place_id": "0x390d196458ed45cf:0xdf80767b95185a47", "name": "R1 RCM sector 21 GGN", "category": "Corporate office", "street": "Tower A Building", "city": "Candor Info Space", "phone": "01244879200", "website": "http://www.r1rcm.com/", "rating": 4.1, "review_count": "", "latitude": 28.5101628, "longitude": 77.0707752, "maps_url": "https://www.google.com/maps/place/?q=place_id:0x390d196458ed45cf:0xdf80767b95185a47"}, {"place_id": "0x390d1937d09e1231:0xf61423f219ef1d41", "name": "IntellyLabs Technologies", "category": "Software company", "street": "3rd Floor, Building Number: 9", "city": "DLF Cyber City, DLF Phase 2, Sector 24", "phone": "01244081571", "website": "http://intellylabs.com/", "rating": 5, "review_count": "", "latitude": 28.496289299999997, "longitude": 77.0931434, "maps_url": "https://www.google.com/maps/place/?q=place_id:0x390d1937d09e1231:0xf61423f219ef1d41"}, {"place_id": "0x390d19b594b925dd:0xaffb386a875523bf", "name": "The Elite Venue PG", "category": "Hostel", "street": "Gali No. 6", "city": "Noble Enclave, Palam vihar, Palam Vihar Extension", "phone": "09563826000", "website": "http://theelitevenue.com/", "rating": 4.6, "review_count": "", "latitude": 28.498664599999998, "longitude": 77.06256619999999, "maps_url": "https://www.google.com/maps/place/?q=place_id:0x390d19b594b925dd:0xaffb386a875523bf"}, {"place_id": "0x390d196322c9b131:0x7ec3b5577efa488c", "name": "Trusted PG", "category": "Backpacker Hostel", "street": "ltd", "city": "plot no 24A, Noble enclave near sector 22 &", "phone": "08506094000", "website": "", "rating": 4.3, "review_count": "", "latitude": 28.4992429, "longitude": 77.06327879999999, "maps_url": "https://www.google.com/maps/place/?q=place_id:0x390d196322c9b131:0x7ec3b5577efa488c"}, {"place_id": "0x390d1976b4e56f85:0x4d22b05ec5d1acaa", "name": "Rudra pg", "category": "Student housing center", "street": "House no. 209", "city": "Gali Number 3", "phone": "08954517799", "website": "", "rating": 4.3, "review_count": "", "latitude": 28.4999187, "longitude": 77.06105459999999, "maps_url": "https://www.google.com/maps/place/?q=place_id:0x390d1976b4e56f85:0x4d22b05ec5d1acaa"}, {"place_id": "0x390d1981f39bfb03:0x69325b93f2e1bc62", "name": "Mom's PG 16", "category": "Boys' hostel", "street": "Old Delhi Gurugram Rd", "city": "opp. Maruti Get", "phone": "07053148600", "website": "http://www.momspg.com/", "rating": 4.3, "review_count": "", "latitude": 28.4996011, "longitude": 77.06260019999999, "maps_url": "https://www.google.com/maps/place/?q=place_id:0x390d1981f39bfb03:0x69325b93f2e1bc62"}, {"place_id": "0x390d19e6a6bdaeb5:0x27932e07fd4c8105", "name": "krishvi Pg for Boys & Girls", "category": "Industrial real estate agency", "street": "Plot 6", "city": "near Maruti Gate 1", "phone": "", "website": "", "rating": 4.8, "review_count": "", "latitude": 28.4980275, "longitude": 77.06289389999999, "maps_url": "https://www.google.com/maps/place/?q=place_id:0x390d19e6a6bdaeb5:0x27932e07fd4c8105"}, {"place_id": "0x3bc2becdc35b6937:0x515ac559c349eee3", "name": "Thinkitive Technologies Private Limited", "category": "Software company", "street": "4th Floor", "city": "ABIL IMPERIAL COMMERCIAL SPACES", "phone": "08956467327", "website": "https://www.thinkitive.com/", "rating": 3.9, "review_count": "", "latitude": 18.5563888, "longitude": 73.7729748, "maps_url": "https://www.google.com/maps/place/?q=place_id:0x3bc2becdc35b6937:0x515ac559c349eee3"}, {"place_id": "0x390d190052190783:0x9634101f00a1de4", "name": "Riya Car Transport", "category": "Transportation service", "street": "gate no.1", "city": "satguru enclave, plot no.580", "phone": "", "website": "http://riyacartransport.in/", "rating": 4.9, "review_count": "", "latitude": 28.4960237, "longitude": 77.0583482, "maps_url": "https://www.google.com/maps/place/?q=place_id:0x390d190052190783:0x9634101f00a1de4"}, {"place_id": "0x3be7c21b5901e181:0x7fe794585addc1f6", "name": "Smartinfologiks - Software Development Company in India | IT Solutions", "category": "Software company", "street": "Hilton Center", "city": "514", "phone": "07400064691", "website": "https://www.smartinfologiks.com/", "rating": 4.6, "review_count": "", "latitude": 19.0139592, "longitude": 73.0382705, "maps_url": "https://www.google.com/maps/place/?q=place_id:0x3be7c21b5901e181:0x7fe794585addc1f6"}, {"place_id": "0x390d19d9725dac79:0x8d70a20845e5d189", "name": "Elite Homes\u2122 PG - Boys/Girls/Co-living", "category": "Home Stay", "street": "Gali No 10", "city": "Plot number 34, Satguru Enclave Rd", "phone": "09220928565", "website": "https://wa.me/+919220928565", "rating": 4.6, "review_count": "", "latitude": 28.497708399999997, "longitude": 77.05882199999999, "maps_url": "https://www.google.com/maps/place/?q=place_id:0x390d19d9725dac79:0x8d70a20845e5d189"}, {"place_id": "0x390d199cdc348589:0x5a5756e4da080ca5", "name": "Aalayam PG", "category": "Hostel", "street": "plot 26, Noble Enclave Rd", "city": "Noble Enclave, Maruti Udyog, Palam Vihar Extension", "phone": "", "website": "", "rating": 4.8, "review_count": "", "latitude": 28.499026599999997, "longitude": 77.06279359999999, "maps_url": "https://www.google.com/maps/place/?q=place_id:0x390d199cdc348589:0x5a5756e4da080ca5"}, {"place_id": "0x390d199dddbed4a9:0x6da62d808e823e4a", "name": "TARA PG", "category": "Roommate referral service", "street": "no 6", "city": "37E Street", "phone": "09211964333", "website": "", "rating": 4.1, "review_count": "", "latitude": 28.498982899999998, "longitude": 77.062221, "maps_url": "https://www.google.com/maps/place/?q=place_id:0x390d199dddbed4a9:0x6da62d808e823e4a"}, {"place_id": "0x390d19392c6bd61b:0x18bca5b97f416ac2", "name": "Daily Delights", "category": "Food products supplier", "street": "H No", "city": "2, Lane no 2", "phone": "09220964546", "website": "", "rating": "", "review_count": "", "latitude": 28.499510899999997, "longitude": 77.0598802, "maps_url": "https://www.google.com/maps/place/?q=place_id:0x390d19392c6bd61b:0x18bca5b97f416ac2"}, {"place_id": "0x390d19d3803bd60d:0x8544b921807eef21", "name": "Sparsh PG | PG Near Cyber City | Boy Pg | Girls PG | Colive PG|Sec 18 pg|udhyog vihar phase IV pg|Gurgaon PG|", "category": "Backpacker Hostel", "street": "Lane Number 8, Satguru Enclave Rd", "city": "Palam Vihar Extension", "phone": "08053658849", "website": "https://sparshpg.com/", "rating": 3.9, "review_count": "", "latitude": 28.4982361, "longitude": 77.0594454, "maps_url": "https://www.google.com/maps/place/?q=place_id:0x390d19d3803bd60d:0x8544b921807eef21"}, {"place_id": "0x390d19005bf421a1:0x3249e23c600e6630", "name": "Moms PG building 10", "category": "Apartment building", "street": "Mom's pg", "city": ": 10, Old Delhi Gurugram Rd", "phone": "", "website": "", "rating": 4.9, "review_count": "", "latitude": 28.498449599999997, "longitude": 77.0623786, "maps_url": "https://www.google.com/maps/place/?q=place_id:0x390d19005bf421a1:0x3249e23c600e6630"}, {"place_id": "0x390d198adaed8991:0x1cd6d61504bc07cc", "name": "Sandu PG 40", "category": "Hostel", "street": "Gali No. 2", "city": "Plot No. 120, Satguru Enclave Rd", "phone": "09711173784", "website": "", "rating": 4, "review_count": "", "latitude": 28.49784, "longitude": 77.0615018, "maps_url": "https://www.google.com/maps/place/?q=place_id:0x390d198adaed8991:0x1cd6d61504bc07cc"}, {"place_id": "0x390d192ced38a29d:0x9b5d7cc6ea1d9c4d", "name": "The Romania Luxury PG", "category": "Hostel", "street": "Plot no 20-21 Gali no 11", "city": "40 feet road, Satguru Enclave Rd", "phone": "", "website": "", "rating": 5, "review_count": "", "latitude": 28.4976713, "longitude": 77.05781689999999, "maps_url": "https://www.google.com/maps/place/?q=place_id:0x390d192ced38a29d:0x9b5d7cc6ea1d9c4d"}, {"place_id": "0x390d190047f7bc01:0xa5d4011b9ba0ce9b", "name": "Sapna PG", "category": "Apartment building", "street": "40, Noble Enclave Rd", "city": "Noble Enclave, Palam Vihar Extension", "phone": "", "website": "", "rating": 5, "review_count": "", "latitude": 28.4999318, "longitude": 77.0626991, "maps_url": "https://www.google.com/maps/place/?q=place_id:0x390d190047f7bc01:0xa5d4011b9ba0ce9b"}, {"place_id": "0x390d197bfb1d5193:0xc73a81069565f748", "name": "Pg Bloom", "category": "Hostel", "street": "H.No. 351", "city": "Gali No. 6, Satguru Enclave Rd", "phone": "09625982006", "website": "https://www.pgbloom.com/", "rating": 4.8, "review_count": "", "latitude": 28.4976573, "longitude": 77.0600982, "maps_url": "https://www.google.com/maps/place/?q=place_id:0x390d197bfb1d5193:0xc73a81069565f748"}, {"place_id": "0x77330b9268048b7:0x4f9e4f29d915d1a3", "name": "DSIS TECHNOLOGIES", "category": "Computer support and services", "street": "", "city": "", "phone": "09910254810", "website": "https://www.dsisit.com/", "rating": "", "review_count": "", "latitude": -0.1206588, "longitude": 93.37736849999999, "maps_url": "https://www.google.com/maps/place/?q=place_id:0x77330b9268048b7:0x4f9e4f29d915d1a3"}, {"place_id": "0x390d1940c21c58e3:0xca6176581bbbfe7d", "name": "Mango IT Solutions", "category": "Software company", "street": "579", "city": "Phase V, Udyog Vihar, Sector 19", "phone": "01128063050", "website": "", "rating": 2, "review_count": "", "latitude": 28.497657999999998, "longitude": 77.083917, "maps_url": "https://www.google.com/maps/place/?q=place_id:0x390d1940c21c58e3:0xca6176581bbbfe7d"}]}