{"timestamp": 1773733477.4582512, "keyword": "IT company", "location": "Indore", "cell_idx": 63, "results": [{"place_id": "0x396257edbb3a0893:0xe7479b53ae320e14", "name": "Universe Capsules Biotech Pvt. Ltd", "category": "Pharmaceutical company", "street": "Plot No. 83, Smart Industrial Park", "city": "Pithampur", "phone": "09589872422", "website": "https://universecapsules.com/", "rating": 5, "review_count": "", "latitude": 22.5730923, "longitude": 75.5957118, "maps_url": "https://www.google.com/maps/place/?q=place_id:0x396257edbb3a0893:0xe7479b53ae320e14"}, {"place_id": "0x3962577de7732179:0xb01bf9b9dae7632f", "name": "C.S Technology", "category": "Computer support and services", "street": "near New Genius School", "city": "Chhatrachhaya, Sagour Kuti", "phone": "07000654574", "website": "https://www.cstechnologypithampur.com/", "rating": 4.9, "review_count": "", "latitude": 22.6051872, "longitude": 75.68249209999999, "maps_url": "https://www.google.com/maps/place/?q=place_id:0x3962577de7732179:0xb01bf9b9dae7632f"}, {"place_id": "0x396255efadca2437:0xfed5742d979c4770", "name": "PRATAP DIGITAL COMMUNICATIONS PVT. LTD.", "category": "Manufacturer", "street": "Smart Industrial Park Natrip", "city": "Plot no. 40", "phone": "", "website": "https://www.corsis.in/", "rating": 4.7, "review_count": "", "latitude": 22.5818367, "longitude": 75.593475, "maps_url": "https://www.google.com/maps/place/?q=place_id:0x396255efadca2437:0xfed5742d979c4770"}, {"place_id": "0x39625774032b2dd1:0x101c44ef5a877752", "name": "Varcas Nexgen | Digital Marketing & IT Services Company", "category": "Software company", "street": "AL163", "city": "H.B Colony", "phone": "08602758854", "website": "https://www.varcasnexgen.com/", "rating": 5, "review_count": "", "latitude": 22.599356999999998, "longitude": 75.68772539999999, "maps_url": "https://www.google.com/maps/place/?q=place_id:0x39625774032b2dd1:0x101c44ef5a877752"}, {"place_id": "0x39625176f708b433:0xd14d3dedb56604c0", "name": "Tenneco Clean Air India Pvt Ltd", "category": "Industrial consultant", "street": "Asukhedi, Madhya Pradesh 454774", "city": "", "phone": "", "website": "", "rating": 4.2, "review_count": "", "latitude": 22.571509799999998, "longitude": 75.59651509999999, "maps_url": "https://www.google.com/maps/place/?q=place_id:0x39625176f708b433:0xd14d3dedb56604c0"}, {"place_id": "0x3962fd71266aaa83:0x82398caa17930a40", "name": "Octavian InfoTech LLP", "category": "Software company", "street": "A 41 Ayodhya Puri", "city": "Kodriya", "phone": "09977741168", "website": "https://www.octavianinfotech.com/", "rating": 5, "review_count": "", "latitude": 22.537258599999998, "longitude": 75.7726136, "maps_url": "https://www.google.com/maps/place/?q=place_id:0x3962fd71266aaa83:0x82398caa17930a40"}, {"place_id": "0x3962f90d10bd7993:0xe34f9616e2e32c5e", "name": "Welloft IT Solutions", "category": "Website designer", "street": "301 Love App", "city": "SIMROL ROAD Sai Shardha colony Love apartment", "phone": "08819832755", "website": "https://wellsoft.in/", "rating": 5, "review_count": "", "latitude": 22.556339599999998, "longitude": 75.7805716, "maps_url": "https://www.google.com/maps/place/?q=place_id:0x3962f90d10bd7993:0xe34f9616e2e32c5e"}, {"place_id": "0x396257f915e1a59f:0x9fa3df09323e3543", "name": "NATRAX Client Workshops", "category": "Warehouse", "street": "Unnamed Road", "city": "Kalyansi Khedi, Madhya Pradesh 454774", "phone": "", "website": "", "rating": 4.4, "review_count": "", "latitude": 22.571133399999997, "longitude": 75.621186, "maps_url": "https://www.google.com/maps/place/?q=place_id:0x396257f915e1a59f:0x9fa3df09323e3543"}, {"place_id": "0x3962f9d55308990b:0xb6ebe2e177c52632", "name": "Prodigitaly Technologies", "category": "Software company", "street": "L-31 Supercity , Opposite Shanti Nagar ,Mhowgaon", "city": "Dr. Ambedkar Nagar, Madhya Pradesh 453441", "phone": "09877530727", "website": "https://prodigitaly.com/", "rating": 5, "review_count": "", "latitude": 22.5524372, "longitude": 75.7565273, "maps_url": "https://www.google.com/maps/place/?q=place_id:0x3962f9d55308990b:0xb6ebe2e177c52632"}, {"place_id": "0x396250c4f79000b3:0x2065ae31850dd525", "name": "NATRAX", "category": "Driving test center", "street": "National Automotive Test Tracks (NATRAX) Agra \u2013 Mumbai Highway(NH-52), Next to Pithampur Flyover (From Indore) Post : State :- Madhya Pradesh", "city": "near Pithampur", "phone": "09893892310", "website": "https://www.natrax.in/", "rating": 4.7, "review_count": "", "latitude": 22.5718343, "longitude": 75.61399159999999, "maps_url": "https://www.google.com/maps/place/?q=place_id:0x396250c4f79000b3:0x2065ae31850dd525"}, {"place_id": "0x3962fd5eec2cf6a9:0xe1b5f67b53e20d06", "name": "Technoecorp Service Private Limited", "category": "Software company", "street": "C 180 chhatra Chhaya sector 01 Pithampur", "city": "Distt", "phone": "", "website": "http://www.technoecorp.com/", "rating": 4.9, "review_count": "", "latitude": 22.6052993, "longitude": 75.6858365, "maps_url": "https://www.google.com/maps/place/?q=place_id:0x3962fd5eec2cf6a9:0xe1b5f67b53e20d06"}, {"place_id": "0x3962fd6d5c629411:0xf6c83fcf3257fec1", "name": "Appalto Electronics Pvt Ltd", "category": "Electronics Company", "street": "IT Park", "city": "24-25, Indore - Dhar Rd", "phone": "07314780800", "website": "http://www.appalto.in/", "rating": 4, "review_count": "", "latitude": 22.6925815, "longitude": 75.7888832, "maps_url": "https://www.google.com/maps/place/?q=place_id:0x3962fd6d5c629411:0xf6c83fcf3257fec1"}, {"place_id": "0x396256a28661ad75:0xa315a629fe76f6be", "name": "Cummins Turbo Technologies Ltd.", "category": "Manufacturer", "street": "Indore Special Economic Zone Phase II", "city": "Division of Cummins Technologies India ltd, Plot No. M5, Sector 3", "phone": "07292301300", "website": "http://www.cummins.com/turbos", "rating": 4.5, "review_count": "", "latitude": 22.625135699999998, "longitude": 75.6430572, "maps_url": "https://www.google.com/maps/place/?q=place_id:0x396256a28661ad75:0xa315a629fe76f6be"}, {"place_id": "0x390ce458d0000001:0xf2123bd299ec4501", "name": "IT Company India", "category": "Software company", "street": "D56", "city": "D Block, Sector 10", "phone": "09999244854", "website": "https://www.itcompanyindia.in/", "rating": 4.7, "review_count": "", "latitude": 28.589917699999997, "longitude": 77.3351153, "maps_url": "https://www.google.com/maps/place/?q=place_id:0x390ce458d0000001:0xf2123bd299ec4501"}, {"place_id": "0x3962510037b3ab4f:0xc6a1b304890d6ae7", "name": "Uno Minda Limited, Seating Division.", "category": "Manufacturer", "street": "HHGQ+P2X", "city": "Suhagpura, Madhya Pradesh 454774", "phone": "", "website": "http://www.unominda.com/", "rating": 5, "review_count": "", "latitude": 22.5768515, "longitude": 75.5876213, "maps_url": "https://www.google.com/maps/place/?q=place_id:0x3962510037b3ab4f:0xc6a1b304890d6ae7"}, {"place_id": "0x3962571f328ba1d1:0x7052e3a0dc6e3536", "name": "Altis Industries Pvt. Ltd.", "category": "Corporate office", "street": "BR 04, Industrial Growth Center Pithampur - V, De-Notified Area", "city": "Madhya Pradesh 454774", "phone": "07314780800", "website": "http://www.altis.in/", "rating": 4.1, "review_count": "", "latitude": 22.6199776, "longitude": 75.6465839, "maps_url": "https://www.google.com/maps/place/?q=place_id:0x3962571f328ba1d1:0x7052e3a0dc6e3536"}, {"place_id": "0x396256464da4be57:0x81feca1ea650d13a", "name": "Kores India Engineering", "category": "Manufacturer", "street": "Plot no.6", "city": "Sector 1, Industrial Area, Sagour Kuti", "phone": "09223286731", "website": "https://engineering.kores.in/", "rating": 4.2, "review_count": "", "latitude": 22.6052629, "longitude": 75.68751019999999, "maps_url": "https://www.google.com/maps/place/?q=place_id:0x396256464da4be57:0x81feca1ea650d13a"}, {"place_id": "0x3962517f515688ed:0xde8f4000edf9aa47", "name": "Jalpa Devi Engineering Pvt. Ltd., Dilip Buildcon Limited", "category": "Corporate office", "street": "Plot no. 831 to 836", "city": "near Indorama Mandir", "phone": "", "website": "", "rating": 4.4, "review_count": "", "latitude": 22.6217869, "longitude": 75.5746976, "maps_url": "https://www.google.com/maps/place/?q=place_id:0x3962517f515688ed:0xde8f4000edf9aa47"}, {"place_id": "0x39625665383e0ec3:0xe07ade2d739f8b42", "name": "Acoem India", "category": "Manufacturer", "street": "Plot No 57 Pithampur", "city": "Sector 2", "phone": "07292426409", "website": "https://www.acoem.com/india", "rating": 4.5, "review_count": "", "latitude": 22.6248209, "longitude": 75.6773436, "maps_url": "https://www.google.com/maps/place/?q=place_id:0x39625665383e0ec3:0xe07ade2d739f8b42"}, {"place_id": "0x3962fb25e310c02f:0xc3b411c572aa8f40", "name": "Growtech Agri Science and Research Pvt Ltd", "category": "Corporate office", "street": "GMG7+7HW", "city": "Unnamed Road", "phone": "07312856994", "website": "http://www.growtechagriscience.com/", "rating": 4.7, "review_count": "", "latitude": 22.525745999999998, "longitude": 75.6639651, "maps_url": "https://www.google.com/maps/place/?q=place_id:0x3962fb25e310c02f:0xc3b411c572aa8f40"}, {"place_id": "0x396256a4c71572d3:0x347474341f5c85e3", "name": "Lupin Limited", "category": "Pharmaceutical company", "street": "Plot No. 2, SEZ Phase-II, Misc Zone, Apparel Park", "city": "District Dhar", "phone": "07292417300", "website": "https://www.lupin.com/", "rating": 4.1, "review_count": "", "latitude": 22.622044499999998, "longitude": 75.637076, "maps_url": "https://www.google.com/maps/place/?q=place_id:0x396256a4c71572d3:0x347474341f5c85e3"}, {"place_id": "0x39625614deab87c9:0xac1a988eafd5ac01", "name": "Aeon Medical Private Limited", "category": "Manufacturer", "street": "Sector No.-1", "city": "62, 63 & 64A", "phone": "08989978403", "website": "http://www.aeonmedical.co.in/", "rating": 4.9, "review_count": "", "latitude": 22.6169555, "longitude": 75.6897161, "maps_url": "https://www.google.com/maps/place/?q=place_id:0x39625614deab87c9:0xac1a988eafd5ac01"}, {"place_id": "0x396257edbe90eae9:0xccff87a9d6813219", "name": "Hi tech computer", "category": "Computer accessories store", "street": "Manwani Road", "city": "Pithampur Industrial Area, Sagour Kuti", "phone": "07049506966", "website": "", "rating": 4.4, "review_count": "", "latitude": 22.6081611, "longitude": 75.68183499999999, "maps_url": "https://www.google.com/maps/place/?q=place_id:0x396257edbe90eae9:0xccff87a9d6813219"}, {"place_id": "0x3962ffd473a40201:0xa76c73231d4845e7", "name": "Medibest TechServ LLP", "category": "Software company", "street": "303", "city": "IT Park Center IT Park", "phone": "09171341515", "website": "https://medibest.in/", "rating": 4.6, "review_count": "", "latitude": 22.6900619, "longitude": 75.7868108, "maps_url": "https://www.google.com/maps/place/?q=place_id:0x3962ffd473a40201:0xa76c73231d4845e7"}, {"place_id": "0x3962fb25e310c02f:0xc3b411c572aa8f40", "name": "Growtech Agri Science and Research Pvt Ltd", "category": "Corporate office", "street": "GMG7+7HW", "city": "Unnamed Road", "phone": "07312856994", "website": "http://www.growtechagriscience.com/", "rating": 4.7, "review_count": "", "latitude": 22.525745999999998, "longitude": 75.6639651, "maps_url": "https://www.google.com/maps/place/?q=place_id:0x3962fb25e310c02f:0xc3b411c572aa8f40"}, {"place_id": "0x3962561639dcf60f:0x73f3c8893e81980b", "name": "Cipla Limited (Unit 1)", "category": "Pharmaceutical company", "street": "Plot no. 9, SEZ", "city": "Pithampur Industrial Area", "phone": "02224826000", "website": "http://www.cipla.com/", "rating": 4.2, "review_count": "", "latitude": 22.629214899999997, "longitude": 75.6227652, "maps_url": "https://www.google.com/maps/place/?q=place_id:0x3962561639dcf60f:0x73f3c8893e81980b"}, {"place_id": "0x3962565de2c263eb:0x3f95f7eb8a7214c5", "name": "VE Commercial Vehicles Limited", "category": "Corporate office", "street": "Pithampur Industrial Area", "city": "Pithampur, Madhya Pradesh 454775", "phone": "01244415600", "website": "http://www.vecv.in/", "rating": 4.3, "review_count": "", "latitude": 22.611927299999998, "longitude": 75.6744796, "maps_url": "https://www.google.com/maps/place/?q=place_id:0x3962565de2c263eb:0x3f95f7eb8a7214c5"}, {"place_id": "0x396257738d472b69:0xac0ef39ab243dda7", "name": "ZF Steering Gear (India) Limited", "category": "Manufacturer", "street": "Pithampur Industrial Area", "city": "Pithampur, Madhya Pradesh 454774", "phone": "02137305100", "website": "http://www.zfindia.com/", "rating": 4.4, "review_count": "", "latitude": 22.6219598, "longitude": 75.6457784, "maps_url": "https://www.google.com/maps/place/?q=place_id:0x396257738d472b69:0xac0ef39ab243dda7"}, {"place_id": "0x3962522c60474e65:0x7c886eb4fd5691be", "name": "SIMRAN AGRITECH PVT. LTD.", "category": "Food manufacturer", "street": "Plot no. 63", "city": "Pithampur Industrial Area, Industrial Area, Sector-3", "phone": "", "website": "", "rating": 4, "review_count": "", "latitude": 22.635094799999997, "longitude": 75.5705401, "maps_url": "https://www.google.com/maps/place/?q=place_id:0x3962522c60474e65:0x7c886eb4fd5691be"}, {"place_id": "0x396257adf5285e4f:0x47f23c9e72775fa", "name": "Eicher Company Pithampur", "category": "Manufacturer", "street": "Pithampur Industrial Area", "city": "Pithampur, Madhya Pradesh 454775", "phone": "", "website": "", "rating": 4.4, "review_count": "", "latitude": 22.6113166, "longitude": 75.6747529, "maps_url": "https://www.google.com/maps/place/?q=place_id:0x396257adf5285e4f:0x47f23c9e72775fa"}, {"place_id": "0x3962518119320775:0x7fdc9b44dfe0d9e5", "name": "Torrent Pharmaceuticals Ltd", "category": "Pharmaceutical company", "street": "Plot. No. 810, Sector III, Industrial Area Pithampur", "city": "Kalibillod, Madhya Pradesh 454774", "phone": "07292256224", "website": "http://www.torrentpharma.com/", "rating": 4.3, "review_count": "", "latitude": 22.6242345, "longitude": 75.56933529999999, "maps_url": "https://www.google.com/maps/place/?q=place_id:0x3962518119320775:0x7fdc9b44dfe0d9e5"}, {"place_id": "0x3962574b1d4b7ad7:0xc529786f6313d2cf", "name": "PC Care", "category": "Computer service", "street": "132", "city": "behind Hero Honda Showroom", "phone": "", "website": "", "rating": 5, "review_count": "", "latitude": 22.6024878, "longitude": 75.68776179999999, "maps_url": "https://www.google.com/maps/place/?q=place_id:0x3962574b1d4b7ad7:0xc529786f6313d2cf"}, {"place_id": "0x39625767960203b9:0x8e9aa38da9226aa5", "name": "Krishna cctv installation and maintenance(Best Sarvices Work)", "category": "Computer support and services", "street": "Pithampur Industrial Area", "city": "Dhar, Pithampur, Madhya Pradesh 454775", "phone": "09752434802", "website": "http://krishnacctv.com/", "rating": 4.8, "review_count": "", "latitude": 22.6100288, "longitude": 75.6773978, "maps_url": "https://www.google.com/maps/place/?q=place_id:0x39625767960203b9:0x8e9aa38da9226aa5"}, {"place_id": "0x396256403e4814d1:0x3ac3418031db49ba", "name": "Prashanti Engineering Works Pvt. Ltd.", "category": "Auto parts manufacturer", "street": "Pithampur Industrial Area", "city": "Pithampur, Madhya Pradesh 454775", "phone": "", "website": "https://prashantiengg.com/", "rating": 4.2, "review_count": "", "latitude": 22.613792099999998, "longitude": 75.68907349999999, "maps_url": "https://www.google.com/maps/place/?q=place_id:0x396256403e4814d1:0x3ac3418031db49ba"}, {"place_id": "0x396256ac375b75eb:0x2401e406b4ae6cf9", "name": "Bridgestone India Private Limited", "category": "Corporate office", "street": "Kheda Growth Centre", "city": "Plot No. 12, Post", "phone": "07292423333", "website": "http://www.bridgestone.co.in/", "rating": 4.3, "review_count": "", "latitude": 22.6240867, "longitude": 75.6249787, "maps_url": "https://www.google.com/maps/place/?q=place_id:0x396256ac375b75eb:0x2401e406b4ae6cf9"}, {"place_id": "0x396256877c6df571:0xd046f0f12a79401f", "name": "Piramal Pharma Limited", "category": "Pharmaceutical company", "street": "plot 67", "city": "70", "phone": "07292428383", "website": "https://www.piramalpharmasolutions.com/", "rating": 4.3, "review_count": "", "latitude": 22.6280648, "longitude": 75.6670381, "maps_url": "https://www.google.com/maps/place/?q=place_id:0x396256877c6df571:0xd046f0f12a79401f"}, {"place_id": "0x3962fce330e1541b:0x125ef4cec09bea4e", "name": "Twarak Infotech Pvt Ltd", "category": "Software company", "street": "201 Sankalp 1", "city": "Chinar Residency, Kishanganj", "phone": "08770604745", "website": "https://www.twarakinfotech.com/", "rating": 4.5, "review_count": "", "latitude": 22.5789062, "longitude": 75.77662269999999, "maps_url": "https://www.google.com/maps/place/?q=place_id:0x3962fce330e1541b:0x125ef4cec09bea4e"}, {"place_id": "0x3be7c21b5901e181:0x7fe794585addc1f6", "name": "Smartinfologiks - Software Development Company in India | IT Solutions", "category": "Software company", "street": "Hilton Center", "city": "514", "phone": "07400064691", "website": "https://www.smartinfologiks.com/", "rating": 4.6, "review_count": "", "latitude": 19.0139592, "longitude": 73.0382705, "maps_url": "https://www.google.com/maps/place/?q=place_id:0x3be7c21b5901e181:0x7fe794585addc1f6"}, {"place_id": "0x396256a9a6a6b611:0xd257ef1a76381913", "name": "Glenmark Pharmaceuticals Ltd.", "category": "Pharmaceutical company", "street": "Plot No.2, Phase II, Pharma Zone, ISEZ", "city": "Pithampur, Madhya Pradesh 454774", "phone": "07292667900", "website": "http://glenmarkpharma.com/", "rating": 4.5, "review_count": "", "latitude": 22.6303257, "longitude": 75.6284524, "maps_url": "https://www.google.com/maps/place/?q=place_id:0x396256a9a6a6b611:0xd257ef1a76381913"}, {"place_id": "0x396257148c4549b1:0x9a4ad0de3d372f5e", "name": "Motherson Sumi Wiring India Ltd (Plant 1)", "category": "Auto parts manufacturer", "street": "Plot No. 8", "city": "Sector-5", "phone": "", "website": "https://www.motherson.com/", "rating": 4.1, "review_count": "", "latitude": 22.618008, "longitude": 75.638375, "maps_url": "https://www.google.com/maps/place/?q=place_id:0x396257148c4549b1:0x9a4ad0de3d372f5e"}, {"place_id": "0x396256a9a6a6b611:0xd257ef1a76381913", "name": "Glenmark Pharmaceuticals Ltd.", "category": "Pharmaceutical company", "street": "Plot No.2, Phase II, Pharma Zone, ISEZ", "city": "Pithampur, Madhya Pradesh 454774", "phone": "07292667900", "website": "http://glenmarkpharma.com/", "rating": 4.5, "review_count": "", "latitude": 22.6303257, "longitude": 75.6284524, "maps_url": "https://www.google.com/maps/place/?q=place_id:0x396256a9a6a6b611:0xd257ef1a76381913"}, {"place_id": "0x396257148c4549b1:0x9a4ad0de3d372f5e", "name": "Motherson Sumi Wiring India Ltd (Plant 1)", "category": "Auto parts manufacturer", "street": "Plot No. 8", "city": "Sector-5", "phone": "", "website": "https://www.motherson.com/", "rating": 4.1, "review_count": "", "latitude": 22.618008, "longitude": 75.638375, "maps_url": "https://www.google.com/maps/place/?q=place_id:0x396257148c4549b1:0x9a4ad0de3d372f5e"}, {"place_id": "0x3962522ccec2044d:0xb118c4e81afaec7a", "name": "Gallard Steel Limited", "category": "Foundry", "street": "66, Sector 3", "city": "Pithampur Industrial Area", "phone": "09926904052", "website": "http://gallardsteel.com/", "rating": 4.3, "review_count": "", "latitude": 22.6203894, "longitude": 75.5703683, "maps_url": "https://www.google.com/maps/place/?q=place_id:0x3962522ccec2044d:0xb118c4e81afaec7a"}, {"place_id": "0x39625181a8160835:0xc71f64a785bc90ce", "name": "Signet Industries Ltd.", "category": "Pipe Manufacturer", "street": "JHFC+JHC", "city": "Pithampur Industrial Area", "phone": "07314217800", "website": "https://www.groupsignet.com/contact-us.html", "rating": 3.2, "review_count": "", "latitude": 22.624068599999998, "longitude": 75.571404, "maps_url": "https://www.google.com/maps/place/?q=place_id:0x39625181a8160835:0xc71f64a785bc90ce"}, {"place_id": "0x396259da410abe79:0x4fc2a3217ca52728", "name": "Shakti Cold Storage India Pvt.Ltd and Ware House", "category": "Cold storage facility", "street": "GMM3+QJ8", "city": "Awlay, Madhya Pradesh 453661", "phone": "09074755555", "website": "", "rating": 3.9, "review_count": "", "latitude": 22.534401, "longitude": 75.65408, "maps_url": "https://www.google.com/maps/place/?q=place_id:0x396259da410abe79:0x4fc2a3217ca52728"}, {"place_id": "0x3bc2becdc35b6937:0x515ac559c349eee3", "name": "Thinkitive Technologies Private Limited", "category": "Software company", "street": "4th Floor", "city": "ABIL IMPERIAL COMMERCIAL SPACES", "phone": "08956467327", "website": "https://www.thinkitive.com/", "rating": 3.9, "review_count": "", "latitude": 18.5563888, "longitude": 73.7729748, "maps_url": "https://www.google.com/maps/place/?q=place_id:0x3bc2becdc35b6937:0x515ac559c349eee3"}, {"place_id": "0x3962519fa04c9a8f:0x16d70a86722b557d", "name": "Vivekananda Enterprise", "category": "Computer support and services", "street": "Mukati Colony", "city": "Sagore Rd", "phone": "08109742835", "website": "", "rating": 5, "review_count": "", "latitude": 22.599554299999998, "longitude": 75.6015196, "maps_url": "https://www.google.com/maps/place/?q=place_id:0x3962519fa04c9a8f:0x16d70a86722b557d"}, {"place_id": "0x396253ffce365433:0x2f204a66b907cbd6", "name": "Mylan laboratories LIMITED,PITHAMPUR", "category": "Company", "street": "JJM9+39P", "city": "Pithampur Industrial Area", "phone": "07292370200", "website": "http://www.mylan.com/", "rating": 4.1, "review_count": "", "latitude": 22.632723499999997, "longitude": 75.6184401, "maps_url": "https://www.google.com/maps/place/?q=place_id:0x396253ffce365433:0x2f204a66b907cbd6"}, {"place_id": "0x396253e0f2611e75:0xe217224899890f7a", "name": "Larsen & Toubro Limited", "category": "Corporate office", "street": "158-B, 454774", "city": "Pithampur Industrial Area, Sector-3", "phone": "07292400740", "website": "http://www.larsentoubro.com/", "rating": 4.1, "review_count": "", "latitude": 22.6347052, "longitude": 75.59804799999999, "maps_url": "https://www.google.com/maps/place/?q=place_id:0x396253e0f2611e75:0xe217224899890f7a"}, {"place_id": "0x396253d6cb5bf6e3:0x35b077e731d80aef", "name": "Simplex Metal Processors(I) Pvt. Ltd.", "category": "Manufacturer", "street": "Plot No. 70 D & 70C", "city": "Pithampur Industrial Area, Sector-3", "phone": "09752494211", "website": "http://simplexmetalprocessors.com/", "rating": 4.3, "review_count": "", "latitude": 22.632206099999998, "longitude": 75.581861, "maps_url": "https://www.google.com/maps/place/?q=place_id:0x396253d6cb5bf6e3:0x35b077e731d80aef"}, {"place_id": "0x396256bcd8cfab9b:0x2ab07550da5c6766", "name": "Rubicon Research Ltd, Pithampur", "category": "Manufacturer", "street": "JJCR+G98", "city": "Pithampur Industrial Area", "phone": "", "website": "http://www.rubicon.co.in/", "rating": 4.4, "review_count": "", "latitude": 22.6212967, "longitude": 75.6409537, "maps_url": "https://www.google.com/maps/place/?q=place_id:0x396256bcd8cfab9b:0x2ab07550da5c6766"}, {"place_id": "0x3962573e64a3132f:0x1fff58d012af4d03", "name": "Motherson Sumi Electric Wires(MSEW)", "category": "Automation company", "street": "Plot No 3, Industrial Growth Centre", "city": "Pithampur Industrial Area", "phone": "", "website": "http://www.motherson.com/", "rating": 4, "review_count": "", "latitude": 22.6211363, "longitude": 75.6293762, "maps_url": "https://www.google.com/maps/place/?q=place_id:0x3962573e64a3132f:0x1fff58d012af4d03"}, {"place_id": "0x3962515b2909ef5f:0xfa7d0d95951452f4", "name": "Makin Laboratories Pvt.Ltd", "category": "Pharmaceutical company", "street": "JJC3+68Q", "city": "Pithampur Industrial Area", "phone": "", "website": "http://makinlaboratories.com/", "rating": 3.5, "review_count": "", "latitude": 22.6205851, "longitude": 75.60336749999999, "maps_url": "https://www.google.com/maps/place/?q=place_id:0x3962515b2909ef5f:0xfa7d0d95951452f4"}, {"place_id": "0x39625163ce25524d:0xda13e14634646d84", "name": "Erawat Pharma Limited", "category": "Manufacturer", "street": "512, Industrial Area No. 3, Pithampur, Rau - Pithampur Rd", "city": "Pithampur Industrial Area", "phone": "07316659100", "website": "http://www.erawat.com/", "rating": 3.9, "review_count": "", "latitude": 22.6256748, "longitude": 75.59043489999999, "maps_url": "https://www.google.com/maps/place/?q=place_id:0x39625163ce25524d:0xda13e14634646d84"}, {"place_id": "0x396256654b689cb5:0x86b5879129e0e77c", "name": "SPM Autocomp Pvt. Ltd.", "category": "Foundry", "street": "Unnamed Road", "city": "Pithampur Industrial Area", "phone": "08869977348", "website": "", "rating": 4.2, "review_count": "", "latitude": 22.6259072, "longitude": 75.67884289999999, "maps_url": "https://www.google.com/maps/place/?q=place_id:0x396256654b689cb5:0x86b5879129e0e77c"}, {"place_id": "0x39625619956530f7:0x52ada2b7713e79d5", "name": "Diversitech General Engg. Pvt. Ltd. Unit 2", "category": "Manufacturer", "street": "Plot no. 201 A", "city": "Pithampur Industrial Area, Sector no. 1", "phone": "07292403106", "website": "https://www.diversitech.in/", "rating": 4.3, "review_count": "", "latitude": 22.621321, "longitude": 75.70338319999999, "maps_url": "https://www.google.com/maps/place/?q=place_id:0x39625619956530f7:0x52ada2b7713e79d5"}, {"place_id": "0x39625645e121197b:0xd41db358856b3af3", "name": "Dream Computers", "category": "Computer store", "street": "C 62, chatrachaya colony", "city": "near by ram mandir pithampur", "phone": "09827436198", "website": "", "rating": 4, "review_count": "", "latitude": 22.604222999999998, "longitude": 75.684519, "maps_url": "https://www.google.com/maps/place/?q=place_id:0x39625645e121197b:0xd41db358856b3af3"}, {"place_id": "0x396256630fad880d:0x34336f61dc52c36", "name": "Swaraj Technocraft Ltd", "category": "Industrial equipment supplier", "street": "plot no. 40", "city": "Pithampur Industrial Area, Sector 2", "phone": "09752265813", "website": "http://swarajtechnocrafts.com/", "rating": 3.9, "review_count": "", "latitude": 22.6231241, "longitude": 75.6709223, "maps_url": "https://www.google.com/maps/place/?q=place_id:0x396256630fad880d:0x34336f61dc52c36"}, {"place_id": "0x39625660ec89125b:0x29aefc453942d63f", "name": "Mahindra Sona Ltd. Pithampur", "category": "Manufacturer", "street": "JM8C+2G7", "city": "Unnamed Road", "phone": "", "website": "", "rating": 3.9, "review_count": "", "latitude": 22.615047099999998, "longitude": 75.67130089999999, "maps_url": "https://www.google.com/maps/place/?q=place_id:0x39625660ec89125b:0x29aefc453942d63f"}, {"place_id": "0x39625792f4c37da9:0x46ed324b14a9e54b", "name": "TECHNO BUILD ENTERPRISES", "category": "Civil engineering company", "street": "", "city": "", "phone": "07024869869", "website": "", "rating": 4.6, "review_count": "", "latitude": 22.6051772, "longitude": 75.68250119999999, "maps_url": "https://www.google.com/maps/place/?q=place_id:0x39625792f4c37da9:0x46ed324b14a9e54b"}, {"place_id": "0x39625646b84ffd91:0xceee27e308cc205d", "name": "Medilux Laboratories Pvt. Ltd.", "category": "Pharmaceutical company", "street": "Plot No. 98-99, Sector-1 454 775", "city": "Pithampur Industrial Area", "phone": "07292409991", "website": "https://www.medilux.co.in/", "rating": 4.4, "review_count": "", "latitude": 22.608520199999997, "longitude": 75.6872619, "maps_url": "https://www.google.com/maps/place/?q=place_id:0x39625646b84ffd91:0xceee27e308cc205d"}, {"place_id": "0x396257d83e2b5983:0x82cd2685ff7efd3", "name": "P.C Services", "category": "Printer repair service", "street": "EM 325 B Indus Town", "city": "2", "phone": "09977607027", "website": "", "rating": 3.6, "review_count": "", "latitude": 22.600024299999998, "longitude": 75.6835845, "maps_url": "https://www.google.com/maps/place/?q=place_id:0x396257d83e2b5983:0x82cd2685ff7efd3"}, {"place_id": "0x396253d8042890b9:0x8bd88116fbab4c2a", "name": "SRF Limited", "category": "Manufacturer", "street": "JHHP+QGG", "city": "Mhow-Ghatabillod Road, Pithampur Industrial Area", "phone": "09425776389", "website": "http://www.srf.com/", "rating": 4.2, "review_count": "", "latitude": 22.62944, "longitude": 75.5863433, "maps_url": "https://www.google.com/maps/place/?q=place_id:0x396253d8042890b9:0x8bd88116fbab4c2a"}, {"place_id": "0x396256a3e438039f:0x15974c118b438a5b", "name": "Kusum Healthcare Pvt. Ltd.", "category": "Corporate office", "street": "M-3 SEZ", "city": "Pithampur, 454774", "phone": "01141005147", "website": "http://www.kusumhealthcare.com/", "rating": 4.4, "review_count": "", "latitude": 22.6272023, "longitude": 75.6386335, "maps_url": "https://www.google.com/maps/place/?q=place_id:0x396256a3e438039f:0x15974c118b438a5b"}, {"place_id": "0x3963ffe90de78f43:0xad94a873253734ed", "name": "APK APPARELS PRIVATE LIMITED", "category": "Garment Exporter", "street": "PLOT NO. 33", "city": "Pithampur Industrial Area, SECTOR 2, Industrial Area", "phone": "09893408014", "website": "http://www.apkapparels.in/", "rating": 4.9, "review_count": "", "latitude": 22.625024699999997, "longitude": 75.6742846, "maps_url": "https://www.google.com/maps/place/?q=place_id:0x3963ffe90de78f43:0xad94a873253734ed"}, {"place_id": "0x3962563fe9af31c1:0x48a50e88ce4f80b5", "name": "Rajshree Engineering Pvt. Ltd.", "category": "Manufacturer", "street": "JM7R+PQ6", "city": "Pithampur Industrial Area", "phone": "", "website": "", "rating": 3.7, "review_count": "", "latitude": 22.614297999999998, "longitude": 75.691891, "maps_url": "https://www.google.com/maps/place/?q=place_id:0x3962563fe9af31c1:0x48a50e88ce4f80b5"}, {"place_id": "0x39625640604a6b41:0xab63dc34d60adf94", "name": "Decostyle Technics Pvt. Ltd.", "category": "Laser Cutting Service Provider", "street": "Plot No . 57,Industrial Area, Sector 1", "city": "Pithampur, Madhya Pradesh 454775", "phone": "", "website": "http://www.decostyletech.com/", "rating": 4.2, "review_count": "", "latitude": 22.6120567, "longitude": 75.6894617, "maps_url": "https://www.google.com/maps/place/?q=place_id:0x39625640604a6b41:0xab63dc34d60adf94"}, {"place_id": "0x3962515478556daf:0x3dd1a9ec6de9c546", "name": "Kodixodel Pvt Ltd", "category": "Manufacturer", "street": "23-ABCD", "city": "Pithampur Industrial Area, Sector-3, Sagore Kuti", "phone": "08435103700", "website": "http://www.kodixodel.com/", "rating": 5, "review_count": "", "latitude": 22.614180299999997, "longitude": 75.60323249999999, "maps_url": "https://www.google.com/maps/place/?q=place_id:0x3962515478556daf:0x3dd1a9ec6de9c546"}, {"place_id": "0x396253c4379a5143:0xca08a61266281a58", "name": "Ipca Laboratories Ltd. (Biotech)", "category": "Pharmaceutical company", "street": "JHHC+5H4", "city": "Unnamed Road", "phone": "", "website": "", "rating": 4.2, "review_count": "", "latitude": 22.6278893, "longitude": 75.57146089999999, "maps_url": "https://www.google.com/maps/place/?q=place_id:0x396253c4379a5143:0xca08a61266281a58"}, {"place_id": "0x3962515dde4668a3:0x7286ce5608020e7a", "name": "NBR COOLING SYSTEMS PRIVATE LIMITED", "category": "Manufacturer", "street": "Plot No. 36/A", "city": "near Bridgestone Factory", "phone": "09926906819", "website": "http://nbrradiator.co.in/", "rating": 4.3, "review_count": "", "latitude": 22.6181075, "longitude": 75.6050261, "maps_url": "https://www.google.com/maps/place/?q=place_id:0x3962515dde4668a3:0x7286ce5608020e7a"}, {"place_id": "0x3962517e0c74fa11:0xa0a3d22fdafc3a15", "name": "Shakti Pumps India Limited", "category": "Corporate office", "street": "Plot No. 401, 402, & 413 Industrial Area", "city": "Sector-3", "phone": "07292410500", "website": "https://www.shaktipumps.com/", "rating": 4.3, "review_count": "", "latitude": 22.626606, "longitude": 75.58131569999999, "maps_url": "https://www.google.com/maps/place/?q=place_id:0x3962517e0c74fa11:0xa0a3d22fdafc3a15"}, {"place_id": "0x396253d5f1876d4d:0xf110959a715082b7", "name": "Shakti Irrigation India Limited", "category": "Farm equipment supplier", "street": "Pithampur Sector-3, Plot No. 396-399", "city": "Pithampur, Madhya Pradesh 454774", "phone": "18001035555", "website": "http://www.shaktiirrigation.com/", "rating": 4.3, "review_count": "", "latitude": 22.62889, "longitude": 75.578982, "maps_url": "https://www.google.com/maps/place/?q=place_id:0x396253d5f1876d4d:0xf110959a715082b7"}, {"place_id": "0x39625733b87b6e93:0x5e675ffca155dd4d", "name": "Sawariya Computer Classes", "category": "Computer service", "street": "CM/5", "city": "near Pani Tanki & Government School", "phone": "09303180791", "website": "https://www.instagram.com/sawariyacomputerclasses/", "rating": 5, "review_count": "", "latitude": 22.5983117, "longitude": 75.6861125, "maps_url": "https://www.google.com/maps/place/?q=place_id:0x39625733b87b6e93:0x5e675ffca155dd4d"}, {"place_id": "0x396253d8f5506d15:0x19fc54f1756e33f3", "name": "Mohini Health & Hygiene Ltd (Formerly known as Mohini Fibers Pvt Ltd)", "category": "Pharmaceutical company", "street": "JHJQ+GJ5", "city": "109, Sector 3", "phone": "07292426665", "website": "http://mohinihealthandhygiene.com/", "rating": 4.3, "review_count": "", "latitude": 22.631111, "longitude": 75.588921, "maps_url": "https://www.google.com/maps/place/?q=place_id:0x396253d8f5506d15:0x19fc54f1756e33f3"}, {"place_id": "0x3962510cf276ec53:0xafd50c42944e01fe", "name": "J S Machine India Private Limited", "category": "Manufacturer", "street": "plot number 628", "city": "Pithampur Industrial Area, Sector-3", "phone": "", "website": "http://www.jspackmach.com/", "rating": 3.7, "review_count": "", "latitude": 22.6229496, "longitude": 75.5848049, "maps_url": "https://www.google.com/maps/place/?q=place_id:0x3962510cf276ec53:0xafd50c42944e01fe"}, {"place_id": "0x3962561792d09c63:0xa5d9f36ed1078e96", "name": "MAHLE Engine Components India Pvr. Ltd., Pithampur", "category": "Auto parts manufacturer", "street": "Pithampur Industrial Area", "city": "Pithampur, Madhya Pradesh 454775", "phone": "", "website": "https://www.mahle.com/", "rating": 4.3, "review_count": "", "latitude": 22.617415599999998, "longitude": 75.70191369999999, "maps_url": "https://www.google.com/maps/place/?q=place_id:0x3962561792d09c63:0xa5d9f36ed1078e96"}, {"place_id": "0x39625742e7f09c03:0x1422e205ccbcfc55", "name": "PEB Konstruct Technofab Pvt Ltd", "category": "Manufacturer", "street": "AH47", "city": "Pithampur Industrial Area", "phone": "08718000037", "website": "https://www.konstructpeb.com/", "rating": 5, "review_count": "", "latitude": 22.6193705, "longitude": 75.71231019999999, "maps_url": "https://www.google.com/maps/place/?q=place_id:0x39625742e7f09c03:0x1422e205ccbcfc55"}, {"place_id": "0x39625692ebc32c0d:0x3544b529a6193a49", "name": "Sb It Automation Solutions", "category": "Automation company", "street": "Kesar Complex", "city": "Mhow - Neemuch Rd", "phone": "", "website": "", "rating": "", "review_count": "", "latitude": 22.6135576, "longitude": 75.653949, "maps_url": "https://www.google.com/maps/place/?q=place_id:0x39625692ebc32c0d:0x3544b529a6193a49"}, {"place_id": "0x39625147df62bfdd:0x6d36397e211cb2f9", "name": "Mangalshree Polyplast Pvt Ltd", "category": "Door manufacturer", "street": "Address", "city": "plot 7-8, Sagore Rd", "phone": "", "website": "https://mangalshree.in/", "rating": 4.9, "review_count": "", "latitude": 22.6108004, "longitude": 75.6042796, "maps_url": "https://www.google.com/maps/place/?q=place_id:0x39625147df62bfdd:0x6d36397e211cb2f9"}, {"place_id": "0x39625167e753a401:0xeec717a4d0375f75", "name": "Kingspan Jindal Pvt. Ltd.", "category": "Real Estate Builders & Construction Company", "street": "JH9W+9QP", "city": "Pithampur Industrial Area", "phone": "09516666886", "website": "http://www.kingspanjindal.com/", "rating": 4.2, "review_count": "", "latitude": 22.6184613, "longitude": 75.5969537, "maps_url": "https://www.google.com/maps/place/?q=place_id:0x39625167e753a401:0xeec717a4d0375f75"}, {"place_id": "0x396253de8c7adf6b:0xdb3f21d76c7f446a", "name": "Case New Holland Construction Equipment India Pvt Ltd", "category": "Construction equipment supplier", "street": "Sector C, Plot No 157", "city": "Industrial Area, III", "phone": "18004199770", "website": "https://www.casece.com/", "rating": 4, "review_count": "", "latitude": 22.634287699999998, "longitude": 75.5942148, "maps_url": "https://www.google.com/maps/place/?q=place_id:0x396253de8c7adf6b:0xdb3f21d76c7f446a"}, {"place_id": "0x396256a8432f8aeb:0x95bc2c7ac0e1f5bf", "name": "ACG - Associated Capsules", "category": "Corporate office", "street": "Plot No M29-44, Indore Special Economic Zone Phase II", "city": "Pharma Zone", "phone": "", "website": "", "rating": 4.2, "review_count": "", "latitude": 22.630894899999998, "longitude": 75.630771, "maps_url": "https://www.google.com/maps/place/?q=place_id:0x396256a8432f8aeb:0x95bc2c7ac0e1f5bf"}, {"place_id": "0x39625232dca1c709:0x9be4434972b2d936", "name": "NIRMAL TRADING CORPORATION", "category": "Welding supply store", "street": "PLOT NO 275", "city": "Pithampur Industrial Area, SECTOR 1", "phone": "08109089001", "website": "http://ntcsales.in/", "rating": 4.7, "review_count": "", "latitude": 22.6183326, "longitude": 75.6932484, "maps_url": "https://www.google.com/maps/place/?q=place_id:0x39625232dca1c709:0x9be4434972b2d936"}, {"place_id": "0x3962573e40e05fa1:0xe348ab6cc0aed9ad", "name": "Liugong India plant", "category": "Manufacturer", "street": "Plot no 163", "city": "Pithampur Industrial Area, Sector-3", "phone": "", "website": "http://www.liugong.com/", "rating": 4.1, "review_count": "", "latitude": 22.6403398, "longitude": 75.5938698, "maps_url": "https://www.google.com/maps/place/?q=place_id:0x3962573e40e05fa1:0xe348ab6cc0aed9ad"}, {"place_id": "0x396257001135380d:0x8ad616deb440dd8e", "name": "MMPL INDOR", "category": "Real Estate Builders & Construction Company", "street": "JJ6W+2R", "city": "Pithampur Industrial Area", "phone": "", "website": "", "rating": 5, "review_count": "", "latitude": 22.6100674, "longitude": 75.6470731, "maps_url": "https://www.google.com/maps/place/?q=place_id:0x396257001135380d:0x8ad616deb440dd8e"}, {"place_id": "0x396257003cf3247b:0x9419137db3d540b6", "name": "Oswal Castings Private Limited Unit-III", "category": "Manufacturer", "street": "HJVH+V2", "city": "Pithampur Industrial Area", "phone": "", "website": "https://oswalcastings.com/", "rating": 5, "review_count": "", "latitude": 22.594680999999998, "longitude": 75.627546, "maps_url": "https://www.google.com/maps/place/?q=place_id:0x396257003cf3247b:0x9419137db3d540b6"}, {"place_id": "0x39625766bd716915:0x8585c50d2fe42314", "name": "SEZ-II", "category": "Business park", "street": "JJ9R+CFP", "city": "Pithampur Industrial Area", "phone": "", "website": "", "rating": 3.9, "review_count": "", "latitude": 22.6185874, "longitude": 75.6411997, "maps_url": "https://www.google.com/maps/place/?q=place_id:0x39625766bd716915:0x8585c50d2fe42314"}, {"place_id": "0x3962f8de74603d65:0x146a056fff728057", "name": "Balaji Wafers Private Limited", "category": "Food Processing Company", "street": "SONWAY BHESLAY INDUSTRIAL AREA", "city": "Indore, Madhya Pradesh 453556", "phone": "02812783756", "website": "http://www.balajiwafers.com/", "rating": 4.3, "review_count": "", "latitude": 22.6233178, "longitude": 75.75439399999999, "maps_url": "https://www.google.com/maps/place/?q=place_id:0x3962f8de74603d65:0x146a056fff728057"}, {"place_id": "0x3962fd8dac474d1b:0xf6cd0d5872b26a2c", "name": "Steelint Blasting Equipment Pvt Ltd", "category": "Manufacturer", "street": "Plot 123", "city": "Pithampur Industrial Area, Scheme 103", "phone": "", "website": "http://www.steelexinternational.net/", "rating": 5, "review_count": "", "latitude": 22.6230613, "longitude": 75.58937879999999, "maps_url": "https://www.google.com/maps/place/?q=place_id:0x3962fd8dac474d1b:0xf6cd0d5872b26a2c"}, {"place_id": "0x3962563701769343:0x53c91a3bcf3b5b46", "name": "Mahindra Two Wheelers", "category": "Manufacturer", "street": "Pithampur Industrial Area", "city": "Pithampur, Madhya Pradesh 454775", "phone": "18002338883", "website": "https://www.mahindratwowheelers.com/", "rating": 4.1, "review_count": "", "latitude": 22.6000004, "longitude": 75.69216709999999, "maps_url": "https://www.google.com/maps/place/?q=place_id:0x3962563701769343:0x53c91a3bcf3b5b46"}, {"place_id": "0x3962537647eddf9f:0x8aea74d7247938ac", "name": "Surin Automotive pvt Ltd. Pithampur Dist. Dhar Sector -3 (MP)", "category": "Corporate office", "street": "JHMQ+F4J", "city": "Pithampur Industrial Area", "phone": "", "website": "", "rating": 4.6, "review_count": "", "latitude": 22.6337033, "longitude": 75.5877746, "maps_url": "https://www.google.com/maps/place/?q=place_id:0x3962537647eddf9f:0x8aea74d7247938ac"}, {"place_id": "0x396257a95e3ad5ad:0x6de02e6788750d6d", "name": "Alankaram", "category": "Furniture store", "street": "Bagdoon", "city": "829-A", "phone": "08448088004", "website": "https://www.alankaram.in/", "rating": 4.9, "review_count": "", "latitude": 22.618661, "longitude": 75.56960819999999, "maps_url": "https://www.google.com/maps/place/?q=place_id:0x396257a95e3ad5ad:0x6de02e6788750d6d"}, {"place_id": "0x3962563fc063aaa9:0xa669d4821a291cf6", "name": "Force Motors Limited Gate No. 4", "category": "Corporate office", "street": "62, 63", "city": "Neo Corporation International Limited", "phone": "", "website": "", "rating": 3.8, "review_count": "", "latitude": 22.613913699999998, "longitude": 75.69224849999999, "maps_url": "https://www.google.com/maps/place/?q=place_id:0x3962563fc063aaa9:0xa669d4821a291cf6"}, {"place_id": "0x396257e7f0465a4f:0x1c590682284f55c6", "name": "Medi Caps Business Park", "category": "Shopping mall", "street": "Mhow - Neemuch Rd", "city": "near Chhatra chhaya", "phone": "", "website": "https://mridhainfra.in/medi-caps-business-park", "rating": 4.1, "review_count": "", "latitude": 22.606046499999998, "longitude": 75.68525439999999, "maps_url": "https://www.google.com/maps/place/?q=place_id:0x396257e7f0465a4f:0x1c590682284f55c6"}, {"place_id": "0x3962590004f8bca5:0x710b187ab6fc88f9", "name": "Weekend Vibes", "category": "Villa", "street": "GMMC+45", "city": "Pipal Khut, Madhya Pradesh 453441", "phone": "07415072966", "website": "http://www.weekendvibes.co.in/", "rating": 4.7, "review_count": "", "latitude": 22.532839199999998, "longitude": 75.6704474, "maps_url": "https://www.google.com/maps/place/?q=place_id:0x3962590004f8bca5:0x710b187ab6fc88f9"}, {"place_id": "0x396256a671117e6f:0xf6ebe69b4c92a1b", "name": "Indore Special Economic Zone Phase II", "category": "Government office", "street": "JJJP+649", "city": "Pithampur Industrial Area", "phone": "", "website": "", "rating": 4.1, "review_count": "", "latitude": 22.6305388, "longitude": 75.63535639999999, "maps_url": "https://www.google.com/maps/place/?q=place_id:0x396256a671117e6f:0xf6ebe69b4c92a1b"}, {"place_id": "0x3962515e48574ad7:0x31a381ad5c5ad70a", "name": "Lalit Singh Rajput Kunwarsi.", "category": "Farm", "street": "2", "city": "Kunwarsi, Madhya Pradesh 454774", "phone": "", "website": "", "rating": 5, "review_count": "", "latitude": 22.556171199999998, "longitude": 75.5656887, "maps_url": "https://www.google.com/maps/place/?q=place_id:0x3962515e48574ad7:0x31a381ad5c5ad70a"}, {"place_id": "0x3962563e1bb2c7e1:0xeadf4b08d446401", "name": "Force Motors Housing Complex", "category": "Manufacturer", "street": "JM6V+H8V", "city": "Pithampur Industrial Area", "phone": "", "website": "", "rating": 3.5, "review_count": "", "latitude": 22.611495599999998, "longitude": 75.693303, "maps_url": "https://www.google.com/maps/place/?q=place_id:0x3962563e1bb2c7e1:0xeadf4b08d446401"}, {"place_id": "0x3962f9de52a9bf8f:0x8e798dfeda366daa", "name": "Shree City- Mhowgaon", "category": "Real Estate Builders & Construction Company", "street": "mhow pithampur", "city": "Main Street", "phone": "08889350999", "website": "http://www.sunilagrawalandassociates.com/property/shree-city/", "rating": 4.4, "review_count": "", "latitude": 22.5809176, "longitude": 75.7143914, "maps_url": "https://www.google.com/maps/place/?q=place_id:0x3962f9de52a9bf8f:0x8e798dfeda366daa"}, {"place_id": "0x396253ae6010f2dd:0x1f9974950b666aa6", "name": "RK Trading Company Pithampur", "category": "Electrical equipment supplier", "street": "M/57", "city": "Pithampur Industrial Area, Sector-3, Indorama", "phone": "09301224529", "website": "https://rktrading.net.in/", "rating": 3.5, "review_count": "", "latitude": 22.6410685, "longitude": 75.58129509999999, "maps_url": "https://www.google.com/maps/place/?q=place_id:0x396253ae6010f2dd:0x1f9974950b666aa6"}, {"place_id": "0x396253ae6010f2dd:0x1f9974950b666aa6", "name": "RK Trading Company Pithampur", "category": "Electrical equipment supplier", "street": "M/57", "city": "Pithampur Industrial Area, Sector-3, Indorama", "phone": "09301224529", "website": "https://rktrading.net.in/", "rating": 3.5, "review_count": "", "latitude": 22.6410685, "longitude": 75.58129509999999, "maps_url": "https://www.google.com/maps/place/?q=place_id:0x396253ae6010f2dd:0x1f9974950b666aa6"}, {"place_id": "0x3962565f8fcaf65f:0x8cb4ba63a897986e", "name": "VE Powertrain", "category": "Manufacturer", "street": "Pithampur Industrial Area", "city": "Pithampur, Madhya Pradesh 454775", "phone": "07292419510", "website": "http://www.vecv.in/ve-powertrain", "rating": 4.4, "review_count": "", "latitude": 22.6109981, "longitude": 75.66940819999999, "maps_url": "https://www.google.com/maps/place/?q=place_id:0x3962565f8fcaf65f:0x8cb4ba63a897986e"}, {"place_id": "0x396256bcab19524d:0x9cc8a1c020614bd9", "name": "Pratibha Syntex Ltd. Unit-6 (SEZ Plant)", "category": "Clothing store", "street": "plot No 15", "city": "16, Sector 5, Mhow-Ghatabillod Rd", "phone": "07292404303", "website": "https://pratibhasyntex.com/", "rating": 4.6, "review_count": "", "latitude": 22.6243078, "longitude": 75.6403646, "maps_url": "https://www.google.com/maps/place/?q=place_id:0x396256bcab19524d:0x9cc8a1c020614bd9"}, {"place_id": "0x3962563955555555:0x8825f37e3ff5d473", "name": "Eicher Truck and Buses Ltd", "category": "Truck dealer", "street": "Eicher Truck & Buses Ltd", "city": "Pithampur Industrial Area", "phone": "", "website": "https://www.eichertrucksandbuses.com/", "rating": 4.4, "review_count": "", "latitude": 22.6130079, "longitude": 75.67375059999999, "maps_url": "https://www.google.com/maps/place/?q=place_id:0x3962563955555555:0x8825f37e3ff5d473"}, {"place_id": "0x396256685cc5b9b7:0x6a47db02e3495023", "name": "VEPDC", "category": "Warehouse", "street": "JM8J+J74", "city": "Pithampur Industrial Area", "phone": "", "website": "http://vecv.in/", "rating": 4.4, "review_count": "", "latitude": 22.616504499999998, "longitude": 75.68068819999999, "maps_url": "https://www.google.com/maps/place/?q=place_id:0x396256685cc5b9b7:0x6a47db02e3495023"}, {"place_id": "0x3962566648fd6b0d:0xc4f5562e5931d937", "name": "Supreme Transport Company (Logistics)", "category": "Logistics service", "street": "110-B", "city": "Sector 1", "phone": "", "website": "", "rating": 2.8, "review_count": "", "latitude": 22.6174003, "longitude": 75.6772596, "maps_url": "https://www.google.com/maps/place/?q=place_id:0x3962566648fd6b0d:0xc4f5562e5931d937"}, {"place_id": "0x3962564473b4c16b:0x2040fd8982029c55", "name": "New india . Iffco tokio. Icici Lombard. Tara Aig.Pithampur", "category": "Insurance company", "street": "JM5M+8FQ", "city": "near canara bank", "phone": "", "website": "", "rating": 4.3, "review_count": "", "latitude": 22.6083328, "longitude": 75.68374829999999, "maps_url": "https://www.google.com/maps/place/?q=place_id:0x3962564473b4c16b:0x2040fd8982029c55"}, {"place_id": "0x3962f7258c7e67f5:0x3997f7bd639d8477", "name": "Business Consultant", "category": "Business management consultant", "street": "551,Vishwas Nagar, Banjari", "city": "Post", "phone": "08319803782", "website": "", "rating": "", "review_count": "", "latitude": 22.594945799999998, "longitude": 75.6916344, "maps_url": "https://www.google.com/maps/place/?q=place_id:0x3962f7258c7e67f5:0x3997f7bd639d8477"}, {"place_id": "0x396257fd66caca9b:0x7fd027638d742298", "name": "Moheom Adventures | Travel Company", "category": "Travel agency", "street": "Chhatrachhaya, Main Gate", "city": "Indore, Pithampur, Madhya Pradesh 454775", "phone": "", "website": "", "rating": 4.2, "review_count": "", "latitude": 22.6060665, "longitude": 75.68580659999999, "maps_url": "https://www.google.com/maps/place/?q=place_id:0x396257fd66caca9b:0x7fd027638d742298"}, {"place_id": "0x396251521875a0f1:0x99117f845630d7cd", "name": "BPCL LPG Bottling Plant", "category": "Corporate office", "street": "Pithampur Industrial Area, Sector-3", "city": "Madhya Pradesh 454774", "phone": "09382476151", "website": "", "rating": 4, "review_count": "", "latitude": 22.621454999999997, "longitude": 75.615614, "maps_url": "https://www.google.com/maps/place/?q=place_id:0x396251521875a0f1:0x99117f845630d7cd"}, {"place_id": "0x3962f9b32a3e0917:0x7cff7219af24a112", "name": "Vikas Transport Corporation Mhow", "category": "Transportation service", "street": "HQ33+4V5", "city": "AB Road", "phone": "09644094942", "website": "", "rating": 4.9, "review_count": "", "latitude": 22.552165799999997, "longitude": 75.7541233, "maps_url": "https://www.google.com/maps/place/?q=place_id:0x3962f9b32a3e0917:0x7cff7219af24a112"}, {"place_id": "0x3962533317b60f9b:0x2e19d40a4559fff8", "name": "Jai hanuman transport company", "category": "Corporate office", "street": "police, Patel complex", "city": "JHMR+C8F Mhow Neemuch Road", "phone": "", "website": "", "rating": 3.5, "review_count": "", "latitude": 22.6335625, "longitude": 75.5908125, "maps_url": "https://www.google.com/maps/place/?q=place_id:0x3962533317b60f9b:0x2e19d40a4559fff8"}, {"place_id": "0x396257000245ffcf:0xae7a26c9c413fe0c", "name": "Nutan Nagar", "category": "Housing society", "street": "HMWJ+MRH", "city": "Pithampur Industrial Area", "phone": "", "website": "", "rating": 4.4, "review_count": "", "latitude": 22.596699299999997, "longitude": 75.6821191, "maps_url": "https://www.google.com/maps/place/?q=place_id:0x396257000245ffcf:0xae7a26c9c413fe0c"}, {"place_id": "0x396256433b7bfef9:0x114fbbd1d0000000", "name": "Vaishnav Cyber Cafe", "category": "Software company", "street": "9 Azad Squre", "city": "Indus Town Road", "phone": "07898551002", "website": "", "rating": 3, "review_count": "", "latitude": 22.6104442, "longitude": 75.6800919, "maps_url": "https://www.google.com/maps/place/?q=place_id:0x396256433b7bfef9:0x114fbbd1d0000000"}, {"place_id": "0x396257547e5851c9:0xebd17dedc771aebc", "name": "IndianOil", "category": "Petrol Pump", "street": "Survey No 471", "city": "1/1/2 & 471/2/2", "phone": "09893944450", "website": "https://locator.iocl.com/indianoil-shree-nidhi-filling-station-petrol-pump-pithampur-dhar-227279/Home?utm_source=locator&utm_medium=googleplaces", "rating": 3.9, "review_count": "", "latitude": 22.588477899999997, "longitude": 75.6587998, "maps_url": "https://www.google.com/maps/place/?q=place_id:0x396257547e5851c9:0xebd17dedc771aebc"}, {"place_id": "0x3962577b55c05acd:0xdacaaa78e8e94b1e", "name": "Railway Tunnel Pithampur", "category": "Railroad company", "street": "457", "city": "Pithampur Industrial Area", "phone": "07069242766", "website": "", "rating": 4.1, "review_count": "", "latitude": 22.5990681, "longitude": 75.67629579999999, "maps_url": "https://www.google.com/maps/place/?q=place_id:0x3962577b55c05acd:0xdacaaa78e8e94b1e"}, {"place_id": "0x396257fdac6a0aa3:0xac2cfd2ff536762a", "name": "Paras Poly Fab Pvt.LTD", "category": "Industrial supermarket", "street": "JM8H+323", "city": "Rau - Pithampur Rd", "phone": "09630099710", "website": "http://paraspolyfab.com/", "rating": 4.1, "review_count": "", "latitude": 22.6151467, "longitude": 75.6775329, "maps_url": "https://www.google.com/maps/place/?q=place_id:0x396257fdac6a0aa3:0xac2cfd2ff536762a"}, {"place_id": "0x3962569390f1bfcf:0x7ba2e6f0d7efcec9", "name": "S24 Hotel", "category": "Tour agency", "street": "AU Cinema", "city": "S24", "phone": "09977062222", "website": "", "rating": 3.9, "review_count": "", "latitude": 22.6153145, "longitude": 75.6508604, "maps_url": "https://www.google.com/maps/place/?q=place_id:0x3962569390f1bfcf:0x7ba2e6f0d7efcec9"}, {"place_id": "0x39625643739af8c3:0x59c2043a4d7ea9d3", "name": "Raju Bhai Collection", "category": "Telecommunications service provider", "street": "JM5J+VH7", "city": "Pithampur Industrial Area, Sagour Kuti", "phone": "09826590406", "website": "", "rating": 3.8, "review_count": "", "latitude": 22.609674899999998, "longitude": 75.6814206, "maps_url": "https://www.google.com/maps/place/?q=place_id:0x39625643739af8c3:0x59c2043a4d7ea9d3"}, {"place_id": "0x396256440524fb11:0xb2ee2df23f4e3c1f", "name": "Trackon Courier", "category": "Courier service", "street": "UGF 5", "city": "Sector 1, Sagour Kuti", "phone": "", "website": "http://trackoncourier.com/", "rating": 3.5, "review_count": "", "latitude": 22.6080555, "longitude": 75.6841687, "maps_url": "https://www.google.com/maps/place/?q=place_id:0x396256440524fb11:0xb2ee2df23f4e3c1f"}, {"place_id": "0x396251bf83613ee9:0xe335a1fc5bb4feeb", "name": "Uma Bake's by Toast and tales", "category": "Manufacturer", "street": "32/1/2", "city": "Pithampur Industrial Area, sector no.3", "phone": "09993560515", "website": "", "rating": 5, "review_count": "", "latitude": 22.6193642, "longitude": 75.5923589, "maps_url": "https://www.google.com/maps/place/?q=place_id:0x396251bf83613ee9:0xe335a1fc5bb4feeb"}, {"place_id": "0x396256440524fb11:0xb2ee2df23f4e3c1f", "name": "Trackon Courier", "category": "Courier service", "street": "UGF 5", "city": "Sector 1, Sagour Kuti", "phone": "", "website": "http://trackoncourier.com/", "rating": 3.5, "review_count": "", "latitude": 22.6080555, "longitude": 75.6841687, "maps_url": "https://www.google.com/maps/place/?q=place_id:0x396256440524fb11:0xb2ee2df23f4e3c1f"}, {"place_id": "0x3962561759996b3d:0xbe2879c2fc8e72a5", "name": "AUDI AUTO MOBILES PITHAMPUR", "category": "Bus company", "street": "Plot No. 199 B, Rau - Pithampur Rd", "city": "Sector 1", "phone": "07292426150", "website": "http://bhagirathbrothers.com/", "rating": 3.9, "review_count": "", "latitude": 22.622123, "longitude": 75.7030489, "maps_url": "https://www.google.com/maps/place/?q=place_id:0x3962561759996b3d:0xbe2879c2fc8e72a5"}, {"place_id": "0x396257545cfd36e9:0xd066b49e215a7d81", "name": "MP Industrial Mart Pvt.Ltd || Best Hardware Shop In Pithampur || Best Industrial Spare Parts || Electrical Equipment Supplier", "category": "Industrial Spares & Products Wholesaler", "street": "PRITI NAGAR COLONY", "city": "PLOT NO. 37", "phone": "08989212345", "website": "https://www.instagram.com/mp_industrial_mart?igsh=NmwxYW1xNHZyZmU1", "rating": 5, "review_count": "", "latitude": 22.6104251, "longitude": 75.6713894, "maps_url": "https://www.google.com/maps/place/?q=place_id:0x396257545cfd36e9:0xd066b49e215a7d81"}, {"place_id": "0x39625780a5608fe3:0x34de2edcfc34ee10", "name": "Maham Tour And Travel", "category": "Tour agency", "street": "676", "city": "Viswas Nagar", "phone": "07697935555", "website": "", "rating": 4.9, "review_count": "", "latitude": 22.5937426, "longitude": 75.6904723, "maps_url": "https://www.google.com/maps/place/?q=place_id:0x39625780a5608fe3:0x34de2edcfc34ee10"}, {"place_id": "0x396251541255d393:0xa2fa2b33030e3279", "name": "RITSPIN SYNTHETICS LIMITED", "category": "Corporate office", "street": "Pithampur Industrial Area", "city": "Pithampur, Madhya Pradesh 454774", "phone": "07292400102", "website": "http://www.wearitgroup.com/", "rating": 3.6, "review_count": "", "latitude": 22.6280395, "longitude": 75.6165339, "maps_url": "https://www.google.com/maps/place/?q=place_id:0x396251541255d393:0xa2fa2b33030e3279"}, {"place_id": "0x396256441b1e2e3f:0xc4e56004a96d6e26", "name": "Ganga Gas Service", "category": "Gas Agency", "street": "LGF", "city": "17/18", "phone": "", "website": "", "rating": 3.7, "review_count": "", "latitude": 22.6079378, "longitude": 75.6842963, "maps_url": "https://www.google.com/maps/place/?q=place_id:0x396256441b1e2e3f:0xc4e56004a96d6e26"}, {"place_id": "0x396257004132d7dd:0x64ff99f83e91cf04", "name": "Hindustan Petroleum Corporation Limited Charging Station", "category": "Electric vehicle charging station", "street": "HMRQ+8Q6", "city": "Pithampur Industrial Area", "phone": "", "website": "", "rating": 5, "review_count": "", "latitude": 22.590663, "longitude": 75.6894823, "maps_url": "https://www.google.com/maps/place/?q=place_id:0x396257004132d7dd:0x64ff99f83e91cf04"}, {"place_id": "0x396257cd1f2cb171:0xc24d4282018269f3", "name": "KUSUM KANTI MOTOR AND PUMPS", "category": "Manufacturer", "street": "B/9B CHATRACHHAYA COLONY SEC 1", "city": "Pithampur, Madhya Pradesh 454775", "phone": "08720023456", "website": "https://kusumkantipumps.com/", "rating": 5, "review_count": "", "latitude": 22.6051872, "longitude": 75.68249209999999, "maps_url": "https://www.google.com/maps/place/?q=place_id:0x396257cd1f2cb171:0xc24d4282018269f3"}, {"place_id": "0x3a39433af2cbfd11:0xe83f43095ea4cc65", "name": "VRL Logistics Ltd - Madhuranagar", "category": "Logistics service", "street": "Khasra No.314/1/1/1/25 Karondiya Choupati", "city": "Agra - Mumbai Hwy", "phone": "18005997800", "website": "https://vrlgroup.in/vrl_logistics_service.aspx", "rating": 3.5, "review_count": "", "latitude": 22.596546999999997, "longitude": 75.702198, "maps_url": "https://www.google.com/maps/place/?q=place_id:0x3a39433af2cbfd11:0xe83f43095ea4cc65"}, {"place_id": "0x3962517cb8a9089d:0x1d457f8b2a11d546", "name": "SHREE CERAMIC FIBERS LIMITED", "category": "Manufacturer", "street": "Pithampur Industrial Area", "city": "Madhya Pradesh 454774", "phone": "08046076300", "website": "https://shreeceramic.in/", "rating": 4.7, "review_count": "", "latitude": 22.6244668, "longitude": 75.5848147, "maps_url": "https://www.google.com/maps/place/?q=place_id:0x3962517cb8a9089d:0x1d457f8b2a11d546"}, {"place_id": "0x396257a27bbfa1a9:0x11e5d5d6bf67ae3c", "name": "Airmax & Aira 4matic (Ball Valve|PRV|Butterfly Valve|Pneumatic Cylinder|FRL Unit Manufacturer)", "category": "Manufacturer", "street": "Shop No. 02, Opp Satkar Industries", "city": "nr. Reliance Petrol Pump", "phone": "08889910183", "website": "", "rating": 5, "review_count": "", "latitude": 22.611121, "longitude": 75.6772689, "maps_url": "https://www.google.com/maps/place/?q=place_id:0x396257a27bbfa1a9:0x11e5d5d6bf67ae3c"}, {"place_id": "0x3962566256eefa75:0x1fc74f38e1dbda19", "name": "Indo Borax & Chemical Ltd", "category": "Pharmacy", "street": "Industrial Area, Pithampur, 454775", "city": "Pithampur, Madhya Pradesh 454775", "phone": "02226489142", "website": "http://www.indoborax.com/", "rating": 4.4, "review_count": "", "latitude": 22.6217231, "longitude": 75.6698638, "maps_url": "https://www.google.com/maps/place/?q=place_id:0x3962566256eefa75:0x1fc74f38e1dbda19"}, {"place_id": "0x39625107fb1befe1:0x2a3299082d442621", "name": "SNOW WHITE APPARELS", "category": "Laundry", "street": "Plot No. 514", "city": "near Aavantika Gas Pump", "phone": "09827026304", "website": "", "rating": 4.8, "review_count": "", "latitude": 22.6242429, "longitude": 75.5913643, "maps_url": "https://www.google.com/maps/place/?q=place_id:0x39625107fb1befe1:0x2a3299082d442621"}, {"place_id": "0x396257052b788ef1:0x731036c442131209", "name": "Universal Township", "category": "Housing society", "street": "Sector no. 1", "city": "Sanjay Jalashay Rd", "phone": "09300000013", "website": "", "rating": 3.7, "review_count": "", "latitude": 22.602898699999997, "longitude": 75.6812764, "maps_url": "https://www.google.com/maps/place/?q=place_id:0x396257052b788ef1:0x731036c442131209"}, {"place_id": "0x39625799816956fd:0xd247c1ddd4da9c32", "name": "I Friends online & Aadhar Card Center ( NEW & OLD Laptop )", "category": "Computer service", "street": "B 181", "city": "182", "phone": "08962281914", "website": "", "rating": 3.5, "review_count": "", "latitude": 22.6051872, "longitude": 75.68249209999999, "maps_url": "https://www.google.com/maps/place/?q=place_id:0x39625799816956fd:0xd247c1ddd4da9c32"}, {"place_id": "0x396259d4b26cafe1:0xc114dec413584016", "name": "Thakuro ki haveli", "category": "Housing society", "street": "GMMM+PMF", "city": "Pipal Khut, Madhya Pradesh 453441", "phone": "", "website": "", "rating": 5, "review_count": "", "latitude": 22.534302699999998, "longitude": 75.684161, "maps_url": "https://www.google.com/maps/place/?q=place_id:0x396259d4b26cafe1:0xc114dec413584016"}, {"place_id": "0x396257001ac28d45:0x9b690d5ebcca824", "name": "Pithampur", "category": "Housing complex", "street": "C/44", "city": "Chhatrachhaya, Sagour Kuti", "phone": "", "website": "", "rating": 4.2, "review_count": "", "latitude": 22.6051872, "longitude": 75.68249209999999, "maps_url": "https://www.google.com/maps/place/?q=place_id:0x396257001ac28d45:0x9b690d5ebcca824"}, {"place_id": "0x396257eed7be1457:0xbe0b318e26bdcc78", "name": "Travel Bug Tourism | Travel Agency in Indore | Pithampur", "category": "Travel agency", "street": "Office 283", "city": "Medi capes business park", "phone": "", "website": "https://www.instagram.com/travel_bugtourism?igsh=aXM5NXRpcXRvNTRl", "rating": 5, "review_count": "", "latitude": 22.6060813, "longitude": 75.6851945, "maps_url": "https://www.google.com/maps/place/?q=place_id:0x396257eed7be1457:0xbe0b318e26bdcc78"}, {"place_id": "0x396257d02b32c5ad:0x38845d83fcc78e6c", "name": "Arzoo Institute", "category": "Education center", "street": "Indus Town Road", "city": "near children care and achievers school housing", "phone": "07222998807", "website": "", "rating": 4.7, "review_count": "", "latitude": 22.5975647, "longitude": 75.68467799999999, "maps_url": "https://www.google.com/maps/place/?q=place_id:0x396257d02b32c5ad:0x38845d83fcc78e6c"}, {"place_id": "0x396257976b0b23f1:0xbc0f02fa3505112b", "name": "BALAJI ENTERPRISES", "category": "Hardware store", "street": "vishal mega mart", "city": "Pithampur Industrial Area", "phone": "08928746628", "website": "", "rating": 5, "review_count": "", "latitude": 22.6106344, "longitude": 75.66118399999999, "maps_url": "https://www.google.com/maps/place/?q=place_id:0x396257976b0b23f1:0xbc0f02fa3505112b"}, {"place_id": "0x3962565f0ae566f5:0xaf061f76644b175f", "name": "Hindustan Petroleum Corporation Limited", "category": "Petrol Pump", "street": "Ground Floor", "city": "near Dak", "phone": "08269198302", "website": "https://petrolpump.hpretail.in/hindustan-petroleum-corporation-limited-the-baghel-filling-station-petrol-pump-pithampur-dhar-393778/Home?utm_source=locator&utm_medium=googleplaces", "rating": 4, "review_count": "", "latitude": 22.610151, "longitude": 75.66894099999999, "maps_url": "https://www.google.com/maps/place/?q=place_id:0x3962565f0ae566f5:0xaf061f76644b175f"}, {"place_id": "0x396257574cd3112b:0x4d1702442a603738", "name": "Jio-bp", "category": "Petrol Pump", "street": "Plot No 14/01 Akoliya, Maunimach", "city": "Rd", "phone": "09926561093", "website": "https://mobilitystation.jiobp.com/reliance-petroleum-petrol-pump-akoliya-maunimach-rd-dhar-251822/Home?utm_source=locator&utm_medium=googleplaces", "rating": 4, "review_count": "", "latitude": 22.6121561, "longitude": 75.6585666, "maps_url": "https://www.google.com/maps/place/?q=place_id:0x396257574cd3112b:0x4d1702442a603738"}, {"place_id": "0x39625766192230cf:0x910159486be63ffb", "name": "Vi - Vodafone Idea mini Store", "category": "Telecommunications service provider", "street": "C Block, Mhow - Neemuch Rd", "city": "Pithampur Industrial Area, Sagour Kuti", "phone": "09826898989", "website": "https://stores.myvi.in/vi-vodafone-idea-mini-store-vi-mini-store-geet-enterprises-telecommunications-service-provider-pithampur-dhar-169096/Home?utm_source=locator&utm_medium=googleplaces", "rating": 3.6, "review_count": "", "latitude": 22.607730699999998, "longitude": 75.6848, "maps_url": "https://www.google.com/maps/place/?q=place_id:0x39625766192230cf:0x910159486be63ffb"}, {"place_id": "0x39625358be265f87:0x51776d994c2a44e9", "name": "Earn knowledge", "category": "Marketing agency", "street": "", "city": "", "phone": "", "website": "", "rating": 5, "review_count": "", "latitude": 22.7103534, "longitude": 75.83964209999999, "maps_url": "https://www.google.com/maps/place/?q=place_id:0x39625358be265f87:0x51776d994c2a44e9"}, {"place_id": "0x3962572d9b61dacf:0x1a7354b8849c83c8", "name": "Akshay patel home", "category": "Apartment building", "street": "322 vishwash nagar banjari", "city": "bhatkhedi", "phone": "", "website": "", "rating": 5, "review_count": "", "latitude": 22.5932525, "longitude": 75.69189639999999, "maps_url": "https://www.google.com/maps/place/?q=place_id:0x3962572d9b61dacf:0x1a7354b8849c83c8"}, {"place_id": "0x3962513c14e79217:0x49fd744d6d993ea8", "name": "Punjab National Bank", "category": "Public Sector Bank", "street": "Ground Floor", "city": "Sadar Bazar", "phone": "18001800", "website": "https://locate.pnb.bank.in/punjab-national-bank-sagour-pithampur-banks-pithampur-dhar-505125/Home?utm_source=locator&utm_medium=googleplaces", "rating": 5, "review_count": "", "latitude": 22.6002308, "longitude": 75.6019341, "maps_url": "https://www.google.com/maps/place/?q=place_id:0x3962513c14e79217:0x49fd744d6d993ea8"}, {"place_id": "0x396257cdfdd5a845:0x634d99844475145f", "name": "JMC HOTEL S INN PITHAMPUR", "category": "Hotel", "street": "Saini Sweet", "city": "State bank of india", "phone": "09171285999", "website": "https://www.jmchotels.com/", "rating": 4.9, "review_count": "", "latitude": 22.609358399999998, "longitude": 75.6814141, "maps_url": "https://www.google.com/maps/place/?q=place_id:0x396257cdfdd5a845:0x634d99844475145f"}, {"place_id": "0x396257c1152a36a1:0xb5733b56e42a14ee", "name": "Twinkle Online Services", "category": "Computer store", "street": "Cosmos Colony Bhatkhedi", "city": "Mhow - Indore Hwy", "phone": "09009889472", "website": "", "rating": 5, "review_count": "", "latitude": 22.58823, "longitude": 75.7050879, "maps_url": "https://www.google.com/maps/place/?q=place_id:0x396257c1152a36a1:0xb5733b56e42a14ee"}, {"place_id": "0xa2a951c44370c5e3:0xdcd97f99cf6b67af", "name": "G-Protech Solutions", "category": "Computer service", "street": "", "city": "", "phone": "08149495211", "website": "", "rating": "", "review_count": "", "latitude": 22.6095689, "longitude": 75.6344318, "maps_url": "https://www.google.com/maps/place/?q=place_id:0xa2a951c44370c5e3:0xdcd97f99cf6b67af"}, {"place_id": "0x3962564372fffbb7:0x3dc6aed1005384af", "name": "LEKHISOFT IT SERVICES AND CONSULTANCY", "category": "Software company", "street": "UG-2, Kesar Complex, Pithampur Sec 1, Dist. Dhar MP - 454775", "city": "Pithampur, Madhya Pradesh 454775", "phone": "07292400100", "website": "", "rating": 3.3, "review_count": "", "latitude": 22.620465, "longitude": 75.6848074, "maps_url": "https://www.google.com/maps/place/?q=place_id:0x3962564372fffbb7:0x3dc6aed1005384af"}, {"place_id": "0x396251006040a45f:0x7739d639d126ff52", "name": "Namdev Enterprises", "category": "Waterproofing service", "street": "HHWX+CVJ", "city": "Sagore, Madhya Pradesh 454774", "phone": "", "website": "", "rating": 4.9, "review_count": "", "latitude": 22.596091599999998, "longitude": 75.5996339, "maps_url": "https://www.google.com/maps/place/?q=place_id:0x396251006040a45f:0x7739d639d126ff52"}, {"place_id": "0x396251cc33c4e887:0x4d13c21eb1de52a5", "name": "Mp Digital Center", "category": "Computer support and services", "street": "12", "city": "Madhya Pradesh 454774", "phone": "", "website": "", "rating": "", "review_count": "", "latitude": 22.602459, "longitude": 75.55096019999999, "maps_url": "https://www.google.com/maps/place/?q=place_id:0x396251cc33c4e887:0x4d13c21eb1de52a5"}, {"place_id": "0x396253d66c974f53:0xcf504b0e1b7ae8d1", "name": "Shripaper Product (Indore) Pvt. Ltd.", "category": "Paper mill", "street": "410, Sector 3", "city": "Pithampur Industrial Area", "phone": "07292421283", "website": "", "rating": 3.5, "review_count": "", "latitude": 22.6300743, "longitude": 75.5810472, "maps_url": "https://www.google.com/maps/place/?q=place_id:0x396253d66c974f53:0xcf504b0e1b7ae8d1"}, {"place_id": "0x396256357d7421c5:0x1e0ccafcd787c9ee", "name": "Manan Logistics (All types Of Colour & B&W printouts and Aadhar Cards are also printed)", "category": "Internet cafe", "street": "856", "city": "Viswas Nagar", "phone": "", "website": "", "rating": 4.7, "review_count": "", "latitude": 22.5942217, "longitude": 75.6906832, "maps_url": "https://www.google.com/maps/place/?q=place_id:0x396256357d7421c5:0x1e0ccafcd787c9ee"}]}