[{"place_id": "ChIJWRCnVdLmazkR65vdXbHMnGU", "name": "EduManag IT Solution Private Limited", "street": "Shop No. 14, First Floor, Zee Cinemall, Apna Nagar, Vaishali Nagar, Ajmer, Rajasthan 305001, India", "phone": "+91 92520 89089", "rating": "4.7", "review_count": "", "website": "https://www.edumanag.com/", "latitude": 26.4809529, "longitude": 74.630275, "maps_url": "https://www.google.com/maps/search/?api=1&query=EduManag%20IT%20Solution%20Private%20Limited&query_place_id=ChIJWRCnVdLmazkR65vdXbHMnGU"}, {"place_id": "ChIJaatfCIXnazkR9e4wPhenXOA", "name": "Concentics Private Limited", "street": "near Ram Bhawan, Onkar Nagar, Shastri Nagar, Ajmer, Rajasthan 305001, India", "phone": "+91 91666 38749", "rating": "5", "review_count": "", "website": "http://www.concentics.com/", "latitude": 26.4792493, "longitude": 74.643793, "maps_url": "https://www.google.com/maps/search/?api=1&query=Concentics%20Private%20Limited&query_place_id=ChIJaatfCIXnazkR9e4wPhenXOA"}, {"place_id": "ChIJ1WDmyc_vazkRD0A712EBwdw", "name": "AiFLY TECHNOLOGY SOLUTIONS PVT. LTD.", "street": "First Floor, Gandhi Nagar Chauraha, Gail no1, Makarwali Rd, Shakti Nagar, Panchsheel Nagar, Ajmer, Rajasthan 305001, India", "phone": "+91 98281 14989", "rating": "4.8", "review_count": "", "website": "https://aifly.io/", "latitude": 26.497232, "longitude": 74.6303636, "maps_url": "https://www.google.com/maps/search/?api=1&query=AiFLY%20TECHNOLOGY%20SOLUTIONS%20PVT.%20LTD.&query_place_id=ChIJ1WDmyc_vazkRD0A712EBwdw"}, {"place_id": "ChIJ73_jG07mazkRNnzF3YsYmSY", "name": "Jha InfoTech Pvt Ltd", "street": "Basement, E 350, Shastri Nagar, Ajmer, Rajasthan 305001, India", "phone": "+91 145 297 1818", "rating": "4", "review_count": "", "website": "http://jhainfotech.com/", "latitude": 26.486677, "longitude": 74.6469741, "maps_url": "https://www.google.com/maps/search/?api=1&query=Jha%20InfoTech%20Pvt%20Ltd&query_place_id=ChIJ73_jG07mazkRNnzF3YsYmSY"}, {"place_id": "ChIJdfQzDVTmazkRGwYKwT1KiHI", "name": "iBirds Software Services - Salesforce Consulting Partner", "street": "5th Floor, Shrinath mall, Near, Bajrangarh Cir, Chauraha, Ajmer, Rajasthan 305001, India", "phone": "+91 78500 63497", "rating": "4.7", "review_count": "", "website": "http://www.ibirdsservices.com/", "latitude": 26.4702099, "longitude": 74.6332767, "maps_url": "https://www.google.com/maps/search/?api=1&query=iBirds%20Software%20Services%20-%20Salesforce%20Consulting%20Partner&query_place_id=ChIJdfQzDVTmazkRGwYKwT1KiHI"}, {"place_id": "ChIJ1dzRWALnazkRGuePwG9On2U", "name": "Kirnani Technologies - Website Designing Ajmer", "street": "13/10, HDFC Bank Building, Opp. Suchna Kendra, Deen Dayaal Marg, Ajmer, Rajasthan 305001, India", "phone": "+91 95093 33000", "rating": "4.6", "review_count": "", "website": "http://www.kirnanitechnologies.com/", "latitude": 26.465279499999998, "longitude": 74.6381869, "maps_url": "https://www.google.com/maps/search/?api=1&query=Kirnani%20Technologies%20-%20Website%20Designing%20Ajmer&query_place_id=ChIJ1dzRWALnazkRGuePwG9On2U"}, {"place_id": "ChIJk4-8fGhK2AURhbd93QiyaUc", "name": "The Technology Fiction", "street": "H.no 10, Madhuban vihar colony, near dr karnavat, Anand Nagar, Ajmer, Rajasthan 305001, India", "phone": "", "rating": "", "review_count": "", "website": "https://thetechnologyfiction.com/", "latitude": 26.4794041, "longitude": 74.6345745, "maps_url": "https://www.google.com/maps/search/?api=1&query=The%20Technology%20Fiction&query_place_id=ChIJk4-8fGhK2AURhbd93QiyaUc"}, {"place_id": "ChIJ-dwsODHnazkRs2M-fgV8dDw", "name": "WELL DESIGN TECHNOLOGIES", "street": "Anshul, 389/10, RATAN BUILDING OPPOSITE PATEL STADIUM (PRITHVIRAJ DWAR C/O Gajanand Chaudhary C/O, Ajmer, Rajasthan 305001, India", "phone": "+91 94143 14844", "rating": "4.8", "review_count": "", "website": "https://www.karosearch.com/business/well-design-technologies-004350.html", "latitude": 26.4666693, "longitude": 74.6397878, "maps_url": "https://www.google.com/maps/search/?api=1&query=WELL%20DESIGN%20TECHNOLOGIES&query_place_id=ChIJ-dwsODHnazkRs2M-fgV8dDw"}, {"place_id": "ChIJs7P3-pDnazkRUEzG1jyyYcc", "name": "Uday enterprises", "street": "J.P.Nagar, Sector-1, Madarpura, Ajmer, Rajasthan 305001, India", "phone": "+91 77375 29413", "rating": "5", "review_count": "", "website": "https://udayenterprises.in/", "latitude": 26.467202699999998, "longitude": 74.6826193, "maps_url": "https://www.google.com/maps/search/?api=1&query=Uday%20enterprises&query_place_id=ChIJs7P3-pDnazkRUEzG1jyyYcc"}, {"place_id": "ChIJ2RJ8wy7xazkRGj7YjvPNnYM", "name": "SNJ ELECTRONICS ( CCTV & IT )", "street": "ASHOKA TOWER, Makarwali Rd, Baldev Nagar, Ajmer, Rajasthan 305004, India", "phone": "+91 78520 01391", "rating": "4.9", "review_count": "", "website": "", "latitude": 26.4980847, "longitude": 74.6307147, "maps_url": "https://www.google.com/maps/search/?api=1&query=SNJ%20ELECTRONICS%20%28%20CCTV%20%26%20IT%20%29&query_place_id=ChIJ2RJ8wy7xazkRGj7YjvPNnYM"}, {"place_id": "ChIJuwg2LTrnazkR51_pOKlM5go", "name": "Assemble Security Services", "street": "Gulab bata supplier, Civil Lines, Ajmer, Rajasthan 305001, India", "phone": "", "rating": "4.8", "review_count": "", "website": "https://assembleconsultancy.com/", "latitude": 26.470533399999997, "longitude": 74.6406429, "maps_url": "https://www.google.com/maps/search/?api=1&query=Assemble%20Security%20Services&query_place_id=ChIJuwg2LTrnazkR51_pOKlM5go"}, {"place_id": "ChIJdRGQBeznazkRgSSD3cx1DYE", "name": "Promo Lift", "street": "Office number 10 , 3rd floor, vega mall, Hathi Bhata, Ajmer, Rajasthan 305001, India", "phone": "", "rating": "5", "review_count": "", "website": "", "latitude": 26.4654568, "longitude": 74.6376325, "maps_url": "https://www.google.com/maps/search/?api=1&query=Promo%20Lift&query_place_id=ChIJdRGQBeznazkRgSSD3cx1DYE"}, {"place_id": "ChIJw8XgFADnazkRJx4iVMc7a3M", "name": "Three D Integrated Solutions Ltd.", "street": "Office No. 4, IV Floor, Shreenath Mall, Mali Mohalla, Ajmer, Rajasthan 305001, India", "phone": "", "rating": "5", "review_count": "", "website": "https://threedis.com/", "latitude": 26.4716646, "longitude": 74.6334596, "maps_url": "https://www.google.com/maps/search/?api=1&query=Three%20D%20Integrated%20Solutions%20Ltd.&query_place_id=ChIJw8XgFADnazkRJx4iVMc7a3M"}, {"place_id": "ChIJB1R7fBvnazkRBjTX-INaIDY", "name": "Dua Technology", "street": "16/127 Near Balaji Temple, opposite New Kubera, Ajmer, Rajasthan 305001, India", "phone": "+91 70145 06334", "rating": "4.9", "review_count": "", "website": "", "latitude": 26.4594235, "longitude": 74.6338947, "maps_url": "https://www.google.com/maps/search/?api=1&query=Dua%20Technology&query_place_id=ChIJB1R7fBvnazkRBjTX-INaIDY"}, {"place_id": "ChIJAXQc8rfnazkR-N9LDRrTw2A", "name": "CRM Landing", "street": "1st & 2nd Floor, Shyama Royale, near Ram Bhawan, Onkar Nagar, Shastri Nagar, Ajmer, Rajasthan 305001, India", "phone": "+91 86199 48778", "rating": "4.3", "review_count": "", "website": "http://crmlanding.in/", "latitude": 26.4792015, "longitude": 74.6434802, "maps_url": "https://www.google.com/maps/search/?api=1&query=CRM%20Landing&query_place_id=ChIJAXQc8rfnazkR-N9LDRrTw2A"}, {"place_id": "ChIJgeISNA_nazkRsqVhXn0anTk", "name": "Kothari's & Company", "street": "H.No.6, Nakoda Bhawan Moti Vihar Colony Ramnagar, Pushkar Rd, Ajmer, Rajasthan 305001, India", "phone": "+91 91968 00271", "rating": "5", "review_count": "", "website": "http://poonamkothari.com/", "latitude": 26.4664564, "longitude": 74.6265588, "maps_url": "https://www.google.com/maps/search/?api=1&query=Kothari%27s%20%26%20Company&query_place_id=ChIJgeISNA_nazkRsqVhXn0anTk"}, {"place_id": "ChIJeTmGHzbnazkRVIxr-tG-e2Y", "name": "CR Wave Automation", "street": "K-61, near 90 Degree saloon, Vaishali Nagar, Ajmer, Rajasthan 305001, India", "phone": "+91 97858 39757", "rating": "5", "review_count": "", "website": "https://crwaveautomation.com/", "latitude": 26.4781624, "longitude": 74.6346836, "maps_url": "https://www.google.com/maps/search/?api=1&query=CR%20Wave%20Automation&query_place_id=ChIJeTmGHzbnazkRVIxr-tG-e2Y"}, {"place_id": "ChIJlxs4rRvnazkRIaxys0Anduw", "name": "Software Designing Top Best IT Company - Keshav Technosys", "street": "Gokul Complex, B-3, Purani Mandi, near Dayal Book Depot, Ajmer, Rajasthan 305001, India", "phone": "+91 99831 85141", "rating": "", "review_count": "", "website": "http://www.keshavtechnosys.com/", "latitude": 26.4583485, "longitude": 74.633031, "maps_url": "https://www.google.com/maps/search/?api=1&query=Software%20Designing%20Top%20Best%20IT%20Company%20-%20Keshav%20Technosys&query_place_id=ChIJlxs4rRvnazkRIaxys0Anduw"}, {"place_id": "ChIJF5vHbATnazkRQoJbzPhdmtM", "name": "HAMARA VYAPAR", "street": "OFFICE NO 3, GARG BUILDING, Sundar Vilas, Ajmer, Rajasthan 305001, India", "phone": "+91 97859 85858", "rating": "4.9", "review_count": "", "website": "http://hamaravyapar.com/", "latitude": 26.4658493, "longitude": 74.6334912, "maps_url": "https://www.google.com/maps/search/?api=1&query=HAMARA%20VYAPAR&query_place_id=ChIJF5vHbATnazkRQoJbzPhdmtM"}, {"place_id": "ChIJu_cBunTnazkRJD-Hp4fKLQQ", "name": "Unaire Sync IT Solutions", "street": "Avasiya Yojana, 646, Land Mark - Mangalam Flats, near Mangalam Flats, Kotra, Rajasthan 305001, India", "phone": "+91 86906 93835", "rating": "4.8", "review_count": "", "website": "https://www.unairesync.com/", "latitude": 26.474945299999998, "longitude": 74.59533499999999, "maps_url": "https://www.google.com/maps/search/?api=1&query=Unaire%20Sync%20IT%20Solutions&query_place_id=ChIJu_cBunTnazkRJD-Hp4fKLQQ"}]