[{"place_id": "ChIJnww95zX9YjkR_mLp-wy4vyA", "name": "Ignis IT Solutions", "street": "406, 410, The Mark, 20/A, Anand Bazar Rd, Ashirwad SBI Colony, Old Palasia, Indore, Madhya Pradesh 452018, India", "phone": "+91 99772 55575", "rating": "4.2", "review_count": "", "website": "http://www.ignisitsolutions.com/", "latitude": 22.725711, "longitude": 75.894176, "maps_url": "https://www.google.com/maps/search/?api=1&query=Ignis%20IT%20Solutions&query_place_id=ChIJnww95zX9YjkR_mLp-wy4vyA"}, {"place_id": "ChIJ-4MA6q7jYjkRT7Oz2rmScg8", "name": "Ixora Infotech Private Limited", "street": "2nd Floor, Amma Complex, 97, Kanadia Rd, Sector A, Sanvid Nagar, Indore, Madhya Pradesh 452018, India", "phone": "+91 87701 48013", "rating": "4.3", "review_count": "", "website": "https://ixorainfotech.com/", "latitude": 22.7207307, "longitude": 75.9003184, "maps_url": "https://www.google.com/maps/search/?api=1&query=Ixora%20Infotech%20Private%20Limited&query_place_id=ChIJ-4MA6q7jYjkRT7Oz2rmScg8"}, {"place_id": "ChIJd1ljDUj9YjkR86S6JSgu-HI", "name": "Mango IT Solutions", "street": "15/3, Old Palasia Rd, behind sarda house, Old Palasia, Indore, Madhya Pradesh 452018, India", "phone": "+91 731 404 6693", "rating": "4.3", "review_count": "", "website": "http://www.mangoitsolutions.com/", "latitude": 22.7276298, "longitude": 75.8888766, "maps_url": "https://www.google.com/maps/search/?api=1&query=Mango%20IT%20Solutions&query_place_id=ChIJd1ljDUj9YjkR86S6JSgu-HI"}, {"place_id": "ChIJEZRiXG39YjkRXvhDuP43VR0", "name": "WebCraft IT", "street": "96-FB, Sch.94, Near Pipliyahana Square, Eastern Ring Rd, Indore, Madhya Pradesh 452016, India", "phone": "+91 731 495 9456", "rating": "4.3", "review_count": "", "website": "https://webcraft.co.in/", "latitude": 22.712849199999997, "longitude": 75.9063407, "maps_url": "https://www.google.com/maps/search/?api=1&query=WebCraft%20IT&query_place_id=ChIJEZRiXG39YjkRXvhDuP43VR0"}, {"place_id": "ChIJsQOUlsb9YjkRUMKZIshGBt4", "name": "IT Spark Technology Pvt. Ltd.", "street": "4th Floor 418 Shekhar Central Manoramaganj, New Palasia, Indore, Madhya Pradesh 452001, India", "phone": "+91 91098 45654", "rating": "4.8", "review_count": "", "website": "http://www.itsparktechnology.com/", "latitude": 22.722727, "longitude": 75.88707099999999, "maps_url": "https://www.google.com/maps/search/?api=1&query=IT%20Spark%20Technology%20Pvt.%20Ltd.&query_place_id=ChIJsQOUlsb9YjkRUMKZIshGBt4"}, {"place_id": "ChIJF-ikcwn9YjkR7by_nIvfYOw", "name": "EynoSoft Private Limited", "street": "A-Block, Twin Star Building, 303, above UCO Bank, Near Saket Square, Old Palasia, Indore, Madhya Pradesh 452018, India", "phone": "+91 99771 50581", "rating": "4.3", "review_count": "", "website": "http://eynosoft.com/", "latitude": 22.725768199999997, "longitude": 75.8946594, "maps_url": "https://www.google.com/maps/search/?api=1&query=EynoSoft%20Private%20Limited&query_place_id=ChIJF-ikcwn9YjkR7by_nIvfYOw"}, {"place_id": "ChIJb_RPVKgCYzkRCCxPrrevCXw", "name": "Conative IT Solutions Pvt. Ltd.", "street": "Office No. 608, 6th Floor, Airen Heights, Behind Pakiza Mall, Vijay Nagar, Scheme No 54, Indore, Madhya Pradesh 452010, India", "phone": "+91 82697 88173", "rating": "3.7", "review_count": "", "website": "https://conativeitsolutions.com/", "latitude": 22.745121299999997, "longitude": 75.89222699999999, "maps_url": "https://www.google.com/maps/search/?api=1&query=Conative%20IT%20Solutions%20Pvt.%20Ltd.&query_place_id=ChIJb_RPVKgCYzkRCCxPrrevCXw"}, {"place_id": "ChIJicRe9eL8YjkRJcHGnRGospI", "name": "MINDIII Systems Pvt. Ltd", "street": "501-504, Fifth Floor, Krishna tower, Pipliyahana Rd, above ICICI Bank, opposite Scheme No. 140, Brajeshwari Extension, Greater Brajeshwari, Indore, Madhya Pradesh 452016, India", "phone": "+91 91656 13316", "rating": "4", "review_count": "", "website": "https://www.mindiii.com/", "latitude": 22.7051394, "longitude": 75.9090727, "maps_url": "https://www.google.com/maps/search/?api=1&query=MINDIII%20Systems%20Pvt.%20Ltd&query_place_id=ChIJicRe9eL8YjkRJcHGnRGospI"}, {"place_id": "ChIJ17pPcAD9YjkRuE6X5VhwxmI", "name": "Brain Inventory", "street": "618, Shekhar central, Agra Bombay Road, Palasia Square, Manorama Ganj, Indore, Madhya Pradesh 452001, India", "phone": "+91 81095 61401", "rating": "4.4", "review_count": "", "website": "https://braininventory.in/", "latitude": 22.722678, "longitude": 75.8871721, "maps_url": "https://www.google.com/maps/search/?api=1&query=Brain%20Inventory&query_place_id=ChIJ17pPcAD9YjkRuE6X5VhwxmI"}, {"place_id": "ChIJTWePSxT9YjkRvNqu0ByXjjY", "name": "AM Webtech Pvt Ltd.", "street": "BCC House, 8/5/5, Manorama Ganj, Indore, Madhya Pradesh 452001, India", "phone": "+91 84484 49003", "rating": "4.2", "review_count": "", "website": "https://amwebtech.com/", "latitude": 22.7156013, "longitude": 75.8855232, "maps_url": "https://www.google.com/maps/search/?api=1&query=AM%20Webtech%20Pvt%20Ltd.&query_place_id=ChIJTWePSxT9YjkRvNqu0ByXjjY"}, {"place_id": "ChIJh6-LT3_9YjkRWMU7NvN1j1k", "name": "Aimfortech - Software | SaaS | Web | E-Commerce Gaming App Development Company in India", "street": "103, Greater Kailash Road, above Nafees Restaurant, Old Palasia, Indore, Madhya Pradesh 452018, India", "phone": "+91 731 406 6773", "rating": "5", "review_count": "", "website": "https://www.aimfortech.com/", "latitude": 22.7257765, "longitude": 75.8878778, "maps_url": "https://www.google.com/maps/search/?api=1&query=Aimfortech%20-%20Software%20%7C%20SaaS%20%7C%20Web%20%7C%20E-Commerce%20Gaming%20App%20Development%20Company%20in%20India&query_place_id=ChIJh6-LT3_9YjkRWMU7NvN1j1k"}, {"place_id": "ChIJsaMEREr9YjkRnwNHTkTHcng", "name": "IBR Infotech", "street": "IBR Infotech, Second Floor, A-Square ED-153, Scheme no.94, Sector D, ring road, near Khajrana square, Indore, Madhya Pradesh 452016, India", "phone": "+91 74006 99956", "rating": "4.4", "review_count": "", "website": "https://www.ibrinfotech.com/", "latitude": 22.735993999999998, "longitude": 75.9025678, "maps_url": "https://www.google.com/maps/search/?api=1&query=IBR%20Infotech&query_place_id=ChIJsaMEREr9YjkRnwNHTkTHcng"}, {"place_id": "ChIJRZFHKBXjYjkRb5JpE3v9p-M", "name": "treeinova technologies", "street": "Kanadia Rd, Sector A, Sanvid Nagar, Indore, Madhya Pradesh 452018, India", "phone": "+91 99938 07442", "rating": "5", "review_count": "", "website": "https://treeinova.com/", "latitude": 22.7207178, "longitude": 75.90046269999999, "maps_url": "https://www.google.com/maps/search/?api=1&query=treeinova%20technologies&query_place_id=ChIJRZFHKBXjYjkRb5JpE3v9p-M"}, {"place_id": "ChIJW9wylMniYjkROIE1A7L_Vgg", "name": "Golden Eagle IT Technologies", "street": "4th Floor, Plot No. 8, opposite chai coffee, Vijay Nagar, Scheme 54 PU4, Indore, Madhya Pradesh 452010, India", "phone": "+91 95843 09000", "rating": "4.1", "review_count": "", "website": "https://goldeneagle.ai/", "latitude": 22.747516599999997, "longitude": 75.8972604, "maps_url": "https://www.google.com/maps/search/?api=1&query=Golden%20Eagle%20IT%20Technologies&query_place_id=ChIJW9wylMniYjkROIE1A7L_Vgg"}, {"place_id": "ChIJ75eLuMT8YjkRHHxD9NX_Zk8", "name": "VKAPS IT Solutions Pvt. Ltd", "street": "Swadesh Bhawan, 1-B, AB Rd, behind Dainik Bhaskar Building, near LIG Road, Swadesh Bhavan, Press Complex, Indore, Madhya Pradesh 452011, India", "phone": "+91 731 423 9176", "rating": "4.7", "review_count": "", "website": "http://vkaps.com/", "latitude": 22.738246999999998, "longitude": 75.89278929999999, "maps_url": "https://www.google.com/maps/search/?api=1&query=VKAPS%20IT%20Solutions%20Pvt.%20Ltd&query_place_id=ChIJ75eLuMT8YjkRHHxD9NX_Zk8"}, {"place_id": "ChIJKSp9XrwdYzkRyJjQ4apGhxw", "name": "Logical Soft Tech Private Limited ( Software Development IT Company and Software IT training)", "street": "388, PU4, next to Krozzon Hotel, Scheme No 54, Indore, Madhya Pradesh 452010, India", "phone": "+91 82102 51824", "rating": "4.3", "review_count": "", "website": "http://logicalsofttech.com/", "latitude": 22.747576, "longitude": 75.896326, "maps_url": "https://www.google.com/maps/search/?api=1&query=Logical%20Soft%20Tech%20Private%20Limited%20%28%20Software%20Development%20IT%20Company%20and%20Software%20IT%20training%29&query_place_id=ChIJKSp9XrwdYzkRyJjQ4apGhxw"}, {"place_id": "ChIJwfLJW6_9YjkRtv8VAF5U8GY", "name": "Shri Sai Software Solution", "street": "43, Kanadia Rd, Sector A, Sanvid Nagar, Indore, Madhya Pradesh 452016, India", "phone": "+91 98939 83900", "rating": "", "review_count": "", "website": "https://www.shrisaisoftware.com/", "latitude": 22.7209275, "longitude": 75.899104, "maps_url": "https://www.google.com/maps/search/?api=1&query=Shri%20Sai%20Software%20Solution&query_place_id=ChIJwfLJW6_9YjkRtv8VAF5U8GY"}, {"place_id": "ChIJNe5TxRn9YjkR1mAwULLtTHY", "name": "ThinkDebug Indore", "street": "301,302, Shanti Corporate 116, near Lotus, Snehnagar, Indore, Madhya Pradesh 452001, India", "phone": "+91 90980 02268", "rating": "4.9", "review_count": "", "website": "https://thinkdebug.com/", "latitude": 22.702656299999997, "longitude": 75.87068699999999, "maps_url": "https://www.google.com/maps/search/?api=1&query=ThinkDebug%20Indore&query_place_id=ChIJNe5TxRn9YjkR1mAwULLtTHY"}, {"place_id": "ChIJ_wKWI6AdYzkRevrba2VINKE", "name": "Softsnare Technologies | IT Company | Software Company in Indore", "street": "R-353, Sector R, Mahalaxmi Nagar, Indore, Madhya Pradesh 452010, India", "phone": "+91 62647 41175", "rating": "4.6", "review_count": "", "website": "http://www.softsnare.com/", "latitude": 22.758209299999997, "longitude": 75.9096251, "maps_url": "https://www.google.com/maps/search/?api=1&query=Softsnare%20Technologies%20%7C%20IT%20Company%20%7C%20Software%20Company%20in%20Indore&query_place_id=ChIJ_wKWI6AdYzkRevrba2VINKE"}, {"place_id": "ChIJBa__YUr9YjkRHdGJDSr5j8A", "name": "Top Custom Software Development Company | AI, IoT & IT Solutions – Hiteshi", "street": "8th Floor Crystal IT Park, Madhya Pradesh 452001, India", "phone": "+91 731 297 1133", "rating": "3.6", "review_count": "", "website": "https://www.hiteshi.com/", "latitude": 22.685651999999997, "longitude": 75.872211, "maps_url": "https://www.google.com/maps/search/?api=1&query=Top%20Custom%20Software%20Development%20Company%20%7C%20AI%2C%20IoT%20%26%20IT%20Solutions%20%E2%80%93%20Hiteshi&query_place_id=ChIJBa__YUr9YjkRHdGJDSr5j8A"}, {"place_id": "ChIJhx9ZnZXjYjkRjIsG0hhJMeI", "name": "MAHI TECHNOLOGIES", "street": "Sector A, Sanvid Nagar, Indore, Madhya Pradesh 452018, India", "phone": "+91 98938 60306", "rating": "5", "review_count": "", "website": "http://mahitechnologies.co.in/", "latitude": 22.7207859, "longitude": 75.8989599, "maps_url": "https://www.google.com/maps/search/?api=1&query=MAHI%20TECHNOLOGIES&query_place_id=ChIJhx9ZnZXjYjkRjIsG0hhJMeI"}, {"place_id": "ChIJ6dw5FTr9YjkRZOHhlv5ZUvc", "name": "Syscraft Information System Pvt. Ltd.", "street": "601, Mahasagar Corporate, Near, Gita Bhawan Rd, Manorama Ganj, Indore, Madhya Pradesh 452001, India", "phone": "", "rating": "4.1", "review_count": "", "website": "https://syscraftonline.com/", "latitude": 22.718868399999998, "longitude": 75.8868323, "maps_url": "https://www.google.com/maps/search/?api=1&query=Syscraft%20Information%20System%20Pvt.%20Ltd.&query_place_id=ChIJ6dw5FTr9YjkRZOHhlv5ZUvc"}, {"place_id": "ChIJFziVioEDYzkRcb89171WfPY", "name": "InfiminTus Technologies - Website Design, Application and Software Development IT Company", "street": "2nd Floor, Chetak Chamber, 220, RNT Marg, Madhumilan, M.Y.Hospital, Jaora Compound, Indore, Madhya Pradesh 452001, India", "phone": "+91 97543 16154", "rating": "4.4", "review_count": "", "website": "https://infimintustech.com/", "latitude": 22.7128428, "longitude": 75.8758618, "maps_url": "https://www.google.com/maps/search/?api=1&query=InfiminTus%20Technologies%20-%20Website%20Design%2C%20Application%20and%20Software%20Development%20IT%20Company&query_place_id=ChIJFziVioEDYzkRcb89171WfPY"}, {"place_id": "ChIJkf___yP9YjkRb5wa_RynEk8", "name": "Samyotech Software Solutions Pvt. Ltd.", "street": "1st Floor Pramukh Plaza, near Sajan Prabha Garden, Vijay Nagar, Indore, Madhya Pradesh 452010, India", "phone": "+91 78699 99639", "rating": "4.4", "review_count": "", "website": "http://samyotech.com/", "latitude": 22.7496656, "longitude": 75.89972829999999, "maps_url": "https://www.google.com/maps/search/?api=1&query=Samyotech%20Software%20Solutions%20Pvt.%20Ltd.&query_place_id=ChIJkf___yP9YjkRb5wa_RynEk8"}, {"place_id": "ChIJw_tey1UdYzkRpVzJ0r578fs", "name": "SoftGetix - IT Staff Augmentation Services", "street": "519, Shagun Tower, Vijay Nagar Square, Ratna Lok Colony, Indore, Madhya Pradesh 452010, India", "phone": "+91 731 400 2699", "rating": "4.1", "review_count": "", "website": "https://softgetix.com/", "latitude": 22.7497081, "longitude": 75.89555829999999, "maps_url": "https://www.google.com/maps/search/?api=1&query=SoftGetix%20-%20IT%20Staff%20Augmentation%20Services&query_place_id=ChIJw_tey1UdYzkRpVzJ0r578fs"}, {"place_id": "ChIJU0GDdRf9YjkR74sqopzSjCI", "name": "NCS^", "street": "NCS^ House, 80, Jaora Compound, Indore, Madhya Pradesh 452001, India", "phone": "+91 731 350 5885", "rating": "4.7", "review_count": "", "website": "http://www.nenosystems.com/", "latitude": 22.711851199999998, "longitude": 75.877246, "maps_url": "https://www.google.com/maps/search/?api=1&query=NCS%5E&query_place_id=ChIJU0GDdRf9YjkR74sqopzSjCI"}, {"place_id": "ChIJd0d7YTP9YjkROZ2gScsKXwc", "name": "Ingenious Solution", "street": "4th Floor Office No. 203, Nihal palace, 31, Kanadia Rd, Goyal Nagar, Sanvid Nagar, Indore, Madhya Pradesh 452018, India", "phone": "+91 79746 39114", "rating": "", "review_count": "", "website": "http://ingeniousolution.com/", "latitude": 22.721029599999998, "longitude": 75.89808049999999, "maps_url": "https://www.google.com/maps/search/?api=1&query=Ingenious%20Solution&query_place_id=ChIJd0d7YTP9YjkROZ2gScsKXwc"}, {"place_id": "ChIJI1sP0qLGdjkR9aloBdIpA9c", "name": "Withs Technosolutions", "street": "304, Akansha Trade Center in front of Omni Palace Geeta Bhavan Square, Indore, Madhya Pradesh 452001, India", "phone": "+91 96301 85488", "rating": "4.8", "review_count": "", "website": "http://www.withstechnosolutions.in/", "latitude": 22.7181151, "longitude": 75.8816215, "maps_url": "https://www.google.com/maps/search/?api=1&query=Withs%20Technosolutions&query_place_id=ChIJI1sP0qLGdjkR9aloBdIpA9c"}, {"place_id": "ChIJ0TLXCF_9YjkRzhpswsQ6XBo", "name": "BridgeFix Technology Private Limited", "street": "389-390, Vijay Nagar, Scheme 54 PU4, Indore, Madhya Pradesh 452010, India", "phone": "+91 94259 60946", "rating": "4.3", "review_count": "", "website": "", "latitude": 22.7475119, "longitude": 75.8966706, "maps_url": "https://www.google.com/maps/search/?api=1&query=BridgeFix%20Technology%20Private%20Limited&query_place_id=ChIJ0TLXCF_9YjkRzhpswsQ6XBo"}, {"place_id": "ChIJd53_kpvjYjkRURarliY6ncc", "name": "Mxpertz Infolabs - Transforming By Tech | Web & Mobile Development | UI/UX Design | Cloud Solutions | AI/ML Innovations", "street": "105, Captain C.S Naidu Arcade, Greater Kailash Road, Opposite Grotto, Old Palasia, Indore, Madhya Pradesh 452018, India", "phone": "+91 731 495 7900", "rating": "3.9", "review_count": "", "website": "https://www.mxpertz.com/", "latitude": 22.725223699999997, "longitude": 75.8902705, "maps_url": "https://www.google.com/maps/search/?api=1&query=Mxpertz%20Infolabs%20-%20Transforming%20By%20Tech%20%7C%20Web%20%26%20Mobile%20Development%20%7C%20UI/UX%20Design%20%7C%20Cloud%20Solutions%20%7C%20AI/ML%20Innovations&query_place_id=ChIJd53_kpvjYjkRURarliY6ncc"}, {"place_id": "ChIJn20gnFb9YjkR16_IKfNn3kA", "name": "Canopus Infosystems Private Limited", "street": "Office no. 203, 2nd Floor, Princes Business Skypark, AB Rd, opposite Orbit Mall, Scheme No 54, Indore, Madhya Pradesh 452010, India", "phone": "+91 731 255 1963", "rating": "3.8", "review_count": "", "website": "https://www.canopusinfosystems.com/", "latitude": 22.7458507, "longitude": 75.8930609, "maps_url": "https://www.google.com/maps/search/?api=1&query=Canopus%20Infosystems%20Private%20Limited&query_place_id=ChIJn20gnFb9YjkR16_IKfNn3kA"}, {"place_id": "ChIJqfzS6nn9YjkRB8E-4E4Ij4c", "name": "Indore laptop service provider", "street": "Saket Nagar, Indore, Madhya Pradesh 452010, India", "phone": "", "rating": "", "review_count": "", "website": "", "latitude": 22.7220393, "longitude": 75.8952597, "maps_url": "https://www.google.com/maps/search/?api=1&query=Indore%20laptop%20service%20provider&query_place_id=ChIJqfzS6nn9YjkRB8E-4E4Ij4c"}, {"place_id": "ChIJ3c8EX3L9YjkRgtuvJVd5_iE", "name": "India Websoft - Website Design and Development Company", "street": "106, NRK BizPark, Vijay Nagar Square, Behind C21 Mall, Scheme 54 PU4, Indore, Madhya Pradesh 452010, India", "phone": "+91 97559 07700", "rating": "4.8", "review_count": "", "website": "https://www.indiawebsoft.com/", "latitude": 22.745765499999997, "longitude": 75.89632329999999, "maps_url": "https://www.google.com/maps/search/?api=1&query=India%20Websoft%20-%20Website%20Design%20and%20Development%20Company&query_place_id=ChIJ3c8EX3L9YjkRgtuvJVd5_iE"}, {"place_id": "ChIJy-aykBf9YjkRv0cJ438KJ0c", "name": "TECHFROLIC", "street": "Office No. 509, 165, Fortune Business Center, RNT Marg, Chhoti Gwaltoli, Indore, Madhya Pradesh 452001, India", "phone": "+91 64799 22645", "rating": "5", "review_count": "", "website": "http://techfrolic.com/", "latitude": 22.7143998, "longitude": 75.8745102, "maps_url": "https://www.google.com/maps/search/?api=1&query=TECHFROLIC&query_place_id=ChIJy-aykBf9YjkRv0cJ438KJ0c"}, {"place_id": "ChIJRZrsWID9YjkRxGAcAtkv3dw", "name": "Innosoft Group Pvt. Ltd", "street": "United spaces, 10/C, Mahatma Gandhi Rd, Near Treasure Island, Mall, New Palasia, Indore, Madhya Pradesh 452001, India", "phone": "+91 95896 99997", "rating": "4.8", "review_count": "", "website": "https://innosoft-group.com/", "latitude": 22.7216208, "longitude": 75.8789106, "maps_url": "https://www.google.com/maps/search/?api=1&query=Innosoft%20Group%20Pvt.%20Ltd&query_place_id=ChIJRZrsWID9YjkRxGAcAtkv3dw"}, {"place_id": "ChIJuaedHhj9YjkRNZ3NymOfNK8", "name": "Techsysd IT Solution - Website Design & Mobile App Development Company", "street": "Sterling Tower, 206, Mahatma Gandhi Rd, Near Apollo Tower, Tel, Indore, Madhya Pradesh 452001, India", "phone": "+91 81090 32576", "rating": "4.9", "review_count": "", "website": "https://www.techsysd.com/", "latitude": 22.7229954, "longitude": 75.8840811, "maps_url": "https://www.google.com/maps/search/?api=1&query=Techsysd%20IT%20Solution%20-%20Website%20Design%20%26%20Mobile%20App%20Development%20Company&query_place_id=ChIJuaedHhj9YjkRNZ3NymOfNK8"}, {"place_id": "ChIJB-PxjVX9YjkRTBCtMBjlgcY", "name": "Advantal Technologies Ltd | Custom Software Development Company | Make-in-India OEM | CMMI Level 3 Company", "street": "17-A, Electronic Complex, Pardesipura, Indore, Madhya Pradesh 452010, India", "phone": "+91 731 403 7720", "rating": "4", "review_count": "", "website": "https://advantaltechnologies.com/", "latitude": 22.75162, "longitude": 75.86542949999999, "maps_url": "https://www.google.com/maps/search/?api=1&query=Advantal%20Technologies%20Ltd%20%7C%20Custom%20Software%20Development%20Company%20%7C%20Make-in-India%20OEM%20%7C%20CMMI%20Level%203%20Company&query_place_id=ChIJB-PxjVX9YjkRTBCtMBjlgcY"}, {"place_id": "ChIJ03aPY6n9YjkRprLETNOnavQ", "name": "Blockchain & Mobile App Development Company - Virtual Height IT Services Pvt. Ltd.", "street": "Shekhar central, 719, AB Rd, Manorama Ganj, Indore, Madhya Pradesh 452001, India", "phone": "+91 95109 87700", "rating": "4.5", "review_count": "", "website": "https://www.virtualheight.com/?utm_source=GBP&utm_medium=Organic", "latitude": 22.722727, "longitude": 75.88707099999999, "maps_url": "https://www.google.com/maps/search/?api=1&query=Blockchain%20%26%20Mobile%20App%20Development%20Company%20-%20Virtual%20Height%20IT%20Services%20Pvt.%20Ltd.&query_place_id=ChIJ03aPY6n9YjkRprLETNOnavQ"}, {"place_id": "ChIJAQBQeDf9YjkReqK46k0M2Gs", "name": "A2 Mobi & Lapi Fusion", "street": "117 ,kanadia main road , opposite sabji Mandi, Indore, Madhya Pradesh 452018, India", "phone": "+91 78797 79023", "rating": "4.9", "review_count": "", "website": "", "latitude": 22.721332999999998, "longitude": 75.898209, "maps_url": "https://www.google.com/maps/search/?api=1&query=A2%20Mobi%20%26%20Lapi%20Fusion&query_place_id=ChIJAQBQeDf9YjkReqK46k0M2Gs"}, {"place_id": "ChIJ1VA8mVb9YjkRuYkH6068v_s", "name": "CDN Solutions Group", "street": "Unit No. 304, Princes Business Skypark, AB Rd, LIG Colony, Indore, Madhya Pradesh 452010, India", "phone": "+91 731 403 5928", "rating": "3.8", "review_count": "", "website": "https://www.cdnsol.com/", "latitude": 22.745851, "longitude": 75.893061, "maps_url": "https://www.google.com/maps/search/?api=1&query=CDN%20Solutions%20Group&query_place_id=ChIJ1VA8mVb9YjkRuYkH6068v_s"}, {"place_id": "ChIJH6_WsZwCYzkRvQh6fj7qG88", "name": "Engineer Master Solutions Pvt. Ltd. | Software Company | Website and Mobile app Development", "street": "276, behind Malhar Mega Mall, PU 4, Near Vijay Nagar Square, Scheme 54 PU4, Indore, Madhya Pradesh 452010, India", "phone": "+91 731 498 0455", "rating": "4.4", "review_count": "", "website": "http://www.engineermaster.in/", "latitude": 22.745530499999997, "longitude": 75.89538809999999, "maps_url": "https://www.google.com/maps/search/?api=1&query=Engineer%20Master%20Solutions%20Pvt.%20Ltd.%20%7C%20Software%20Company%20%7C%20Website%20and%20Mobile%20app%20Development&query_place_id=ChIJH6_WsZwCYzkRvQh6fj7qG88"}, {"place_id": "ChIJqV6kBEv9YjkRLtgaqI51Lc0", "name": "Divisha Business Solutions Pvt Ltd", "street": "Amma Business Complex, 303, Kanadia Rd, Sector A, Sanvid Nagar, Indore, Madhya Pradesh 452016, India", "phone": "+91 89822 11017", "rating": "", "review_count": "", "website": "https://dbs-lab.com/", "latitude": 22.720793, "longitude": 75.8996745, "maps_url": "https://www.google.com/maps/search/?api=1&query=Divisha%20Business%20Solutions%20Pvt%20Ltd&query_place_id=ChIJqV6kBEv9YjkRLtgaqI51Lc0"}, {"place_id": "ChIJOcTx_-78YjkRf9R2z4l3-rA", "name": "SSV Technologies", "street": "26, AB Rd, Scheme 54 PU4, Vijay Nagar, Indore, Madhya Pradesh 452010, India", "phone": "+91 90390 63936", "rating": "4", "review_count": "", "website": "https://ssvtechnologies.in/", "latitude": 22.7454435, "longitude": 75.8965633, "maps_url": "https://www.google.com/maps/search/?api=1&query=SSV%20Technologies&query_place_id=ChIJOcTx_-78YjkRf9R2z4l3-rA"}, {"place_id": "ChIJM0qK_1sDYzkR9gye63CIsNE", "name": "CYBEANS", "street": "1/12, Vijay Nagar Square, Vijay Nagar, Scheme No 54, Indore, Madhya Pradesh 452010, India", "phone": "", "rating": "5", "review_count": "", "website": "http://www.cybeans.com/", "latitude": 22.7551253, "longitude": 75.8927916, "maps_url": "https://www.google.com/maps/search/?api=1&query=CYBEANS&query_place_id=ChIJM0qK_1sDYzkR9gye63CIsNE"}, {"place_id": "ChIJ9RFvgSv9YjkRIfASksGQQHw", "name": "TECAI Software & Automation Company in Indore", "street": "3rd Floor, Shubham Corporate, SF-06, Sapna Sangeeta Rd, Sarvoday Nagar, Indore, Madhya Pradesh 452001, India", "phone": "+91 70240 31779", "rating": "5", "review_count": "", "website": "https://tecai.in/", "latitude": 22.699921399999997, "longitude": 75.8674451, "maps_url": "https://www.google.com/maps/search/?api=1&query=TECAI%20Software%20%26%20Automation%20Company%20in%20Indore&query_place_id=ChIJ9RFvgSv9YjkRIfASksGQQHw"}, {"place_id": "ChIJvZmXPDT9YjkRP23hxV_O534", "name": "SEONerds Digital", "street": "34, Patrakar Colony, Near, Saket, Indore, Madhya Pradesh 452018, India", "phone": "+91 98264 88195", "rating": "5", "review_count": "", "website": "https://seonerds.digital/", "latitude": 22.7227389, "longitude": 75.8949599, "maps_url": "https://www.google.com/maps/search/?api=1&query=SEONerds%20Digital&query_place_id=ChIJvZmXPDT9YjkRP23hxV_O534"}, {"place_id": "ChIJy-B2q5b9YjkRQ5N4xZFn9KU", "name": "THE LOGOBOY | Graphic Design Agency Indore | Logo Design Indore | Best Design Company Indore | Packaging Designer Indore", "street": "Third floor, 322, Greater Kailash Road, beside Saket Square, Old Palasia, Indore, Madhya Pradesh 452018, India", "phone": "+91 95897 15801", "rating": "4.9", "review_count": "", "website": "http://www.thelogoboy.com/", "latitude": 22.725041899999997, "longitude": 75.89410459999999, "maps_url": "https://www.google.com/maps/search/?api=1&query=THE%20LOGOBOY%20%7C%20Graphic%20Design%20Agency%20Indore%20%7C%20Logo%20Design%20Indore%20%7C%20Best%20Design%20Company%20Indore%20%7C%20Packaging%20Designer%20Indore&query_place_id=ChIJy-B2q5b9YjkRQ5N4xZFn9KU"}, {"place_id": "ChIJLQOm-a39YjkROzVt6IB-sMY", "name": "Corners", "street": "33, near Shreyas Arts, Vinoba Nagar, Indore, Madhya Pradesh 452018, India", "phone": "+91 98260 61370", "rating": "5", "review_count": "", "website": "", "latitude": 22.721017699999997, "longitude": 75.8943752, "maps_url": "https://www.google.com/maps/search/?api=1&query=Corners&query_place_id=ChIJLQOm-a39YjkROzVt6IB-sMY"}, {"place_id": "ChIJ_3_axhb9YjkRSfQ2vH3aaqE", "name": "Hvantage Tech Solutions Pvt. Ltd.", "street": "509 block B corporate house 5th floor, RNT Marg, Indore, Madhya Pradesh 452001, India", "phone": "+91 731 407 4459", "rating": "3.2", "review_count": "", "website": "https://hvantagetechnologies.com/", "latitude": 22.7172125, "longitude": 75.87177729999999, "maps_url": "https://www.google.com/maps/search/?api=1&query=Hvantage%20Tech%20Solutions%20Pvt.%20Ltd.&query_place_id=ChIJ_3_axhb9YjkRSfQ2vH3aaqE"}, {"place_id": "ChIJmwHR6En9YjkRnIquFXlOP38", "name": "Thesis Solutions", "street": "123, Shree nath palace, nipaniya, Indore, Madhya Pradesh 452018, India", "phone": "+91 91314 64551", "rating": "4.7", "review_count": "", "website": "http://www.thesissolutionsindore.com/", "latitude": 22.724142999999998, "longitude": 75.8972122, "maps_url": "https://www.google.com/maps/search/?api=1&query=Thesis%20Solutions&query_place_id=ChIJmwHR6En9YjkRnIquFXlOP38"}, {"place_id": "ChIJu6BryRjjYjkREouDe6n3tJo", "name": "Schoolink - Encoders Brandtech Solutions Pvt. Ltd.", "street": "", "phone": "", "rating": "5", "review_count": "", "website": "https://schoolink.co.in/", "latitude": 21.0680074, "longitude": 82.7525294, "maps_url": "https://www.google.com/maps/search/?api=1&query=Schoolink%20-%20Encoders%20Brandtech%20Solutions%20Pvt.%20Ltd.&query_place_id=ChIJu6BryRjjYjkREouDe6n3tJo"}, {"place_id": "ChIJR321iGH9YjkRkcJdUdirsCY", "name": "eWebWorld | Website & Mobile App Development Company in Indore", "street": "Office number 504,505, Mahasagar Corporate, Near, Gita Bhawan Rd, Manorama Ganj, Indore, Madhya Pradesh 452001, India", "phone": "+91 90749 76014", "rating": "4.8", "review_count": "", "website": "https://ewebworld.in/", "latitude": 22.718743399999997, "longitude": 75.8867485, "maps_url": "https://www.google.com/maps/search/?api=1&query=eWebWorld%20%7C%20Website%20%26%20Mobile%20App%20Development%20Company%20in%20Indore&query_place_id=ChIJR321iGH9YjkRkcJdUdirsCY"}, {"place_id": "ChIJc7rfuBb9YjkRTdH3Ra8nS6U", "name": "Techvalens Software Systems", "street": "OM Gurudev Plaza, 410, Plot No.26, Vijay Nagar, Scheme No 54, Indore, Madhya Pradesh 452001, India", "phone": "+91 96445 06070", "rating": "3.7", "review_count": "", "website": "https://www.techvalens.com/", "latitude": 22.747921899999998, "longitude": 75.8899612, "maps_url": "https://www.google.com/maps/search/?api=1&query=Techvalens%20Software%20Systems&query_place_id=ChIJc7rfuBb9YjkRTdH3Ra8nS6U"}, {"place_id": "ChIJc6bbsHH9YjkR_sLbIn7vuWk", "name": "It's Unicorntech", "street": "2, Ambedkar Nagar Rd, Mig Colony, New Palasia, Indore, Madhya Pradesh 452001, India", "phone": "+91 95895 72990", "rating": "", "review_count": "", "website": "http://itsunicorntech.com/", "latitude": 22.7309429, "longitude": 75.88466869999999, "maps_url": "https://www.google.com/maps/search/?api=1&query=It%27s%20Unicorntech&query_place_id=ChIJc6bbsHH9YjkR_sLbIn7vuWk"}, {"place_id": "ChIJJY8foYj9YjkRGk67REJ8S7Q", "name": "Waba For You", "street": "Amma Business Complex, 303, Kanadia Rd, Sector A, Sanvid Nagar, Indore, Madhya Pradesh 452016, India", "phone": "", "rating": "", "review_count": "", "website": "https://wabaforyou.com/", "latitude": 22.720793, "longitude": 75.8996745, "maps_url": "https://www.google.com/maps/search/?api=1&query=Waba%20For%20You&query_place_id=ChIJJY8foYj9YjkRGk67REJ8S7Q"}, {"place_id": "ChIJ8929b1VVK4ER9MoZisJRoDc", "name": "TanmayiSoft - Website Design Company in Indore", "street": "Trade House, 415, 14/3, South Tukoganj, Indore, Madhya Pradesh 452016, India", "phone": "", "rating": "5", "review_count": "", "website": "https://tanmayisoft.com/", "latitude": 22.7159305, "longitude": 75.8757761, "maps_url": "https://www.google.com/maps/search/?api=1&query=TanmayiSoft%20-%20Website%20Design%20Company%20in%20Indore&query_place_id=ChIJ8929b1VVK4ER9MoZisJRoDc"}, {"place_id": "ChIJ7_J8fCkDYzkRfKwv2MAAU5Y", "name": "IW Technocrats | IT Company", "street": "Corporate Park, 816, Cliffton Park Rd, Part II, Scheme No 113, Indore, Madhya Pradesh 452010, India", "phone": "", "rating": "", "review_count": "", "website": "https://www.iwtechnocrats.in/", "latitude": 22.763570599999998, "longitude": 75.8794769, "maps_url": "https://www.google.com/maps/search/?api=1&query=IW%20Technocrats%20%7C%20IT%20Company&query_place_id=ChIJ7_J8fCkDYzkRfKwv2MAAU5Y"}, {"place_id": "ChIJJzrbgsfjYjkRskX3Vrn7zsc", "name": "Machinery Point (Machinery point private limited) Corporate Office", "street": "4th Floor Anklikar, Samvid Nagar, Sabji Mandi, Machinery Point, Corporate Office, near Tilak Nagar, Indore, Madhya Pradesh 452016, India", "phone": "+91 95227 11021", "rating": "4.7", "review_count": "", "website": "https://www.machinerypoint.com/", "latitude": 22.720793, "longitude": 75.8996745, "maps_url": "https://www.google.com/maps/search/?api=1&query=Machinery%20Point%20%28Machinery%20point%20private%20limited%29%20Corporate%20Office&query_place_id=ChIJJzrbgsfjYjkRskX3Vrn7zsc"}, {"place_id": "ChIJPRJo1wJEzYsRCkm0kuM4vXI", "name": "Arowiz Technologies", "street": "", "phone": "", "rating": "5", "review_count": "", "website": "https://arowiz.com/", "latitude": 21.0680074, "longitude": 82.7525294, "maps_url": "https://www.google.com/maps/search/?api=1&query=Arowiz%20Technologies&query_place_id=ChIJPRJo1wJEzYsRCkm0kuM4vXI"}, {"place_id": "ChIJT3016Xv9YjkRY4G5A7a7p7k", "name": "Inwizards Software Technology", "street": "603, Airen Heights, AB Rd, Behind Pakiza Mall, Scheme No 54, Indore, Madhya Pradesh 452010, India", "phone": "+91 96675 84436", "rating": "4.7", "review_count": "", "website": "https://www.inwizards.com/", "latitude": 22.745121299999997, "longitude": 75.89222699999999, "maps_url": "https://www.google.com/maps/search/?api=1&query=Inwizards%20Software%20Technology&query_place_id=ChIJT3016Xv9YjkRY4G5A7a7p7k"}, {"place_id": "ChIJDdEop0D9YjkRGf3-CqD5Jos", "name": "Maven Cluster", "street": "173 PU4, Vijay Nagar, Indore, Madhya Pradesh 452010, India", "phone": "+91 97555 55032", "rating": "3.9", "review_count": "", "website": "https://www.mavencluster.com/", "latitude": 22.7450622, "longitude": 75.8958028, "maps_url": "https://www.google.com/maps/search/?api=1&query=Maven%20Cluster&query_place_id=ChIJDdEop0D9YjkRGf3-CqD5Jos"}, {"place_id": "ChIJCeqSoXzD2oURDnZIgv6ClMo", "name": "NAvkar infotech services", "street": "amar darshan building, 203, Old Palasia, Indore, Madhya Pradesh 452001, India", "phone": "", "rating": "4.6", "review_count": "", "website": "https://navkarinfotechservices.com/", "latitude": 22.7259098, "longitude": 75.8963737, "maps_url": "https://www.google.com/maps/search/?api=1&query=NAvkar%20infotech%20services&query_place_id=ChIJCeqSoXzD2oURDnZIgv6ClMo"}, {"place_id": "ChIJOThkABwDYzkRyZcNdjGceY4", "name": "Etcetera Technologies", "street": "Minal Shree Apartment, 19, 202, Yeshwant Niwas Rd, Silver Estate, Indore, Madhya Pradesh 452003, India", "phone": "", "rating": "4.8", "review_count": "", "website": "", "latitude": 22.732077099999998, "longitude": 75.87504489999999, "maps_url": "https://www.google.com/maps/search/?api=1&query=Etcetera%20Technologies&query_place_id=ChIJOThkABwDYzkRyZcNdjGceY4"}, {"place_id": "ChIJ7Rg8ijH9YjkRnZ5aJ3_3ZPU", "name": "Grow and Turn", "street": "301 A - 106, Kanadia Rd, above Bata Showroom, Sanvid Nagar, Indore, Madhya Pradesh 452018, India", "phone": "+91 86886 16358", "rating": "5", "review_count": "", "website": "http://www.growandturn.com/", "latitude": 22.7212493, "longitude": 75.899048, "maps_url": "https://www.google.com/maps/search/?api=1&query=Grow%20and%20Turn&query_place_id=ChIJ7Rg8ijH9YjkRnZ5aJ3_3ZPU"}, {"place_id": "ChIJYfrhUWD9YjkRRZPzRZPEGuo", "name": "Bluetech IT Services", "street": "", "phone": "+91 98935 09996", "rating": "4.6", "review_count": "", "website": "https://www.bluetechitservices.com/", "latitude": 14.157641199999999, "longitude": -16.7424939, "maps_url": "https://www.google.com/maps/search/?api=1&query=Bluetech%20IT%20Services&query_place_id=ChIJYfrhUWD9YjkRRZPzRZPEGuo"}, {"place_id": "ChIJAekA_sxvnkkRtwgRfxTVGSA", "name": "CloudRaft", "street": "", "phone": "+91 62689 18953", "rating": "5", "review_count": "", "website": "https://www.cloudraft.io/", "latitude": 14.157641199999999, "longitude": 0, "maps_url": "https://www.google.com/maps/search/?api=1&query=CloudRaft&query_place_id=ChIJAekA_sxvnkkRtwgRfxTVGSA"}, {"place_id": "ChIJ95gLluLjYjkRffGiHabM7eY", "name": "Inspark Technologies", "street": "101, Shree vinayak residency Bengali Square, Madhya Pradesh 452016, India", "phone": "+91 94071 16798", "rating": "5", "review_count": "", "website": "https://insparktechnologies.com/", "latitude": 22.7249613, "longitude": 75.9085673, "maps_url": "https://www.google.com/maps/search/?api=1&query=Inspark%20Technologies&query_place_id=ChIJ95gLluLjYjkRffGiHabM7eY"}, {"place_id": "ChIJD1mUKCvjYjkRUMxhErw-5wQ", "name": "TheRapidHire Private Limited - Software ,Website & Mobile App Development Company in India, USA", "street": "51, Electronic Complex, Pardesipura, Indore, Madhya Pradesh 452010, India", "phone": "+91 731 358 1354", "rating": "3.5", "review_count": "", "website": "https://www.therapidhire.com/", "latitude": 22.752822, "longitude": 75.867381, "maps_url": "https://www.google.com/maps/search/?api=1&query=TheRapidHire%20Private%20Limited%20-%20Software%20%2CWebsite%20%26%20Mobile%20App%20Development%20Company%20in%20India%2C%20USA&query_place_id=ChIJD1mUKCvjYjkRUMxhErw-5wQ"}, {"place_id": "ChIJ9Q1CK6XjYjkR5wGQa3nl1YM", "name": "Simplex Corporate Advisory", "street": "2nd Floor, 97, Sector A, Sanvid Nagar, Indore, Madhya Pradesh 452018, India", "phone": "+91 82406 81029", "rating": "5", "review_count": "", "website": "http://simplexcorpadv.in/", "latitude": 22.7207382, "longitude": 75.9002077, "maps_url": "https://www.google.com/maps/search/?api=1&query=Simplex%20Corporate%20Advisory&query_place_id=ChIJ9Q1CK6XjYjkR5wGQa3nl1YM"}, {"place_id": "ChIJv4Wr4j79YjkR9hgg-Ro6PTo", "name": "Mantra Events", "street": "G2, 164 Basant vihar, Saket, Indore, Madhya Pradesh 452018, India", "phone": "+91 82260 32777", "rating": "4.8", "review_count": "", "website": "http://www.mantraevents.in/", "latitude": 22.7244767, "longitude": 75.89888289999999, "maps_url": "https://www.google.com/maps/search/?api=1&query=Mantra%20Events&query_place_id=ChIJv4Wr4j79YjkR9hgg-Ro6PTo"}, {"place_id": "ChIJZd1JILsdYzkRxZIbbzDrZ7Y", "name": "IT Company", "street": "Chikitsak Nagar, Indore, Madhya Pradesh 452010, India", "phone": "", "rating": "2", "review_count": "", "website": "", "latitude": 22.7569083, "longitude": 75.9056753, "maps_url": "https://www.google.com/maps/search/?api=1&query=IT%20Company&query_place_id=ChIJZd1JILsdYzkRxZIbbzDrZ7Y"}, {"place_id": "ChIJO7uKFc39YjkR57qFTEAZqOU", "name": "Tilak Constructions", "street": "388, 9, Tilak Nagar Main Rd, Savindnagar, Tilak Nagar, Indore, Madhya Pradesh 452018, India", "phone": "+91 93009 13352", "rating": "4.7", "review_count": "", "website": "", "latitude": 22.720865999999997, "longitude": 75.8954871, "maps_url": "https://www.google.com/maps/search/?api=1&query=Tilak%20Constructions&query_place_id=ChIJO7uKFc39YjkR57qFTEAZqOU"}, {"place_id": "ChIJrRgYFJH9YjkRJjKO4gHjlqQ", "name": "Sion Data matics India Pvt. Ltd| Best IT Company In Madhya Pradesh", "street": "11,5, bano doctor compound, Green Park, South Tukoganj, Indore, Madhya Pradesh 452001, India", "phone": "+91 78801 36882", "rating": "3.9", "review_count": "", "website": "https://www.sdmipl.com/", "latitude": 22.7181933, "longitude": 75.87494319999999, "maps_url": "https://www.google.com/maps/search/?api=1&query=Sion%20Data%20matics%20India%20Pvt.%20Ltd%7C%20Best%20IT%20Company%20In%20Madhya%20Pradesh&query_place_id=ChIJrRgYFJH9YjkRJjKO4gHjlqQ"}, {"place_id": "ChIJ72HJKBX9YjkRbiNIZCZdsmI", "name": "Tejhaksh Technologies Pvt. Ltd. Digital Marketing, Website Design, Website Development, Graphic Design Company in Indore", "street": "5th Floor, Kanchan Sagar, 303, AB Rd, nr. Industry House, above BOI and Bank of Maharastra, Near Industry House, Old Palasia, Indore, Madhya Pradesh 452001, India", "phone": "+91 70490 01117", "rating": "5", "review_count": "", "website": "https://www.tejhaksh.com/", "latitude": 22.728439599999998, "longitude": 75.8878573, "maps_url": "https://www.google.com/maps/search/?api=1&query=Tejhaksh%20Technologies%20Pvt.%20Ltd.%20Digital%20Marketing%2C%20Website%20Design%2C%20Website%20Development%2C%20Graphic%20Design%20Company%20in%20Indore&query_place_id=ChIJ72HJKBX9YjkRbiNIZCZdsmI"}, {"place_id": "ChIJV4fp69T9YjkRxr0Rq6JKSVo", "name": "Intellect Goodwill LLP - Trademark Registration in Indore | Patent Registration in Indore", "street": "69, Patrakar Colony, Indore, Madhya Pradesh 452018, India", "phone": "+91 94253 18625", "rating": "4.9", "review_count": "", "website": "https://intellectgoodwill.com/", "latitude": 22.7222021, "longitude": 75.8955478, "maps_url": "https://www.google.com/maps/search/?api=1&query=Intellect%20Goodwill%20LLP%20-%20Trademark%20Registration%20in%20Indore%20%7C%20Patent%20Registration%20in%20Indore&query_place_id=ChIJV4fp69T9YjkRxr0Rq6JKSVo"}, {"place_id": "ChIJOXwz0-UyNqsRtf4CwJDsTUg", "name": "Gyanet", "street": "", "phone": "+91 99268 52348", "rating": "", "review_count": "", "website": "https://www.gyanet.com/", "latitude": 21.0680074, "longitude": 82.7525294, "maps_url": "https://www.google.com/maps/search/?api=1&query=Gyanet&query_place_id=ChIJOXwz0-UyNqsRtf4CwJDsTUg"}, {"place_id": "ChIJOScOcYn9YjkRY_yjjH0MBkI", "name": "Shaikh Ji infotech - IT Company", "street": "", "phone": "+91 78695 51061", "rating": "5", "review_count": "", "website": "", "latitude": 21.0680074, "longitude": 82.7525294, "maps_url": "https://www.google.com/maps/search/?api=1&query=Shaikh%20Ji%20infotech%20-%20IT%20Company&query_place_id=ChIJOScOcYn9YjkRY_yjjH0MBkI"}, {"place_id": "ChIJEVrrbfA4rWMRT3H2bnaeP6E", "name": "Shining star corporation", "street": "Samvid Nagar, Kanadia Rd, Sector A, Sanvid Nagar, Indore, Madhya Pradesh 452018, India", "phone": "+91 96444 69626", "rating": "4.6", "review_count": "", "website": "https://shining-star-corporation.grexa.site/", "latitude": 22.720793, "longitude": 75.8996745, "maps_url": "https://www.google.com/maps/search/?api=1&query=Shining%20star%20corporation&query_place_id=ChIJEVrrbfA4rWMRT3H2bnaeP6E"}, {"place_id": "ChIJzeNhtsjiYjkRsi5nS3i3Ycc", "name": "Techiasm IT Company", "street": "near Bengali square, Ashish Nagar, Indore, Madhya Pradesh 452016, India", "phone": "", "rating": "", "review_count": "", "website": "", "latitude": 22.7227757, "longitude": 75.9102118, "maps_url": "https://www.google.com/maps/search/?api=1&query=Techiasm%20IT%20Company&query_place_id=ChIJzeNhtsjiYjkRsi5nS3i3Ycc"}, {"place_id": "ChIJmyAJijP9YjkRVjaASf7KoQs", "name": "Avalambh Constructions & Interior Indore", "street": "377, Saket Nagar, Indore, Madhya Pradesh 452018, India", "phone": "+91 79874 15035", "rating": "5", "review_count": "", "website": "https://avalambh.com/", "latitude": 22.723654999999997, "longitude": 75.8965254, "maps_url": "https://www.google.com/maps/search/?api=1&query=Avalambh%20Constructions%20%26%20Interior%20Indore&query_place_id=ChIJmyAJijP9YjkRVjaASf7KoQs"}, {"place_id": "ChIJAQAAwDT9YjkRrCQLZL4oPVY", "name": "PropennyAuction", "street": "Keshar Bagh, 270-B Sc, No. 103, Keshar Bagh Rd, Indore, Madhya Pradesh 452018, India", "phone": "+91 97539 12227", "rating": "5", "review_count": "", "website": "http://propennyauction.com/", "latitude": 22.722804699999998, "longitude": 75.8984133, "maps_url": "https://www.google.com/maps/search/?api=1&query=PropennyAuction&query_place_id=ChIJAQAAwDT9YjkRrCQLZL4oPVY"}, {"place_id": "ChIJBwB8UTT9YjkRr0HsaA2dCWk", "name": "Electrical Tenders", "street": "61 Manglam Building, 5-B Old Palasia, Indore, Madhya Pradesh 452018, India", "phone": "+91 731 251 9279", "rating": "", "review_count": "", "website": "https://www.electricaltenders.com/", "latitude": 22.7236345, "longitude": 75.8964416, "maps_url": "https://www.google.com/maps/search/?api=1&query=Electrical%20Tenders&query_place_id=ChIJBwB8UTT9YjkRr0HsaA2dCWk"}, {"place_id": "ChIJ56p6RfT9YjkR6jPq1yPsIFo", "name": "AC Doctor", "street": "2nd Floor, Patrakar Square, 1, Joy Colony, Indore, Madhya Pradesh 452018, India", "phone": "+91 89598 98989", "rating": "4.8", "review_count": "", "website": "https://www.acdoctor.in/", "latitude": 22.723321199999997, "longitude": 75.8947189, "maps_url": "https://www.google.com/maps/search/?api=1&query=AC%20Doctor&query_place_id=ChIJ56p6RfT9YjkR6jPq1yPsIFo"}, {"place_id": "ChIJD6GApTT9YjkRBr4BVo5u_oA", "name": "Pithampur Audhyogik Sangathan", "street": "328, Saket Nagar, Indore, Madhya Pradesh 452018, India", "phone": "+91 731 256 0492", "rating": "4", "review_count": "", "website": "https://pithampur.org/", "latitude": 22.7234046, "longitude": 75.8976893, "maps_url": "https://www.google.com/maps/search/?api=1&query=Pithampur%20Audhyogik%20Sangathan&query_place_id=ChIJD6GApTT9YjkRBr4BVo5u_oA"}, {"place_id": "ChIJrTZvYwD9YjkRr81FmpKQ_60", "name": "Aspire Library & Co-working", "street": "106, Kanadia Rd, near Hanuman Temple, Sanvid Nagar, Indore, Madhya Pradesh 452018, India", "phone": "+91 90097 17109", "rating": "5", "review_count": "", "website": "", "latitude": 22.7211946, "longitude": 75.8991308, "maps_url": "https://www.google.com/maps/search/?api=1&query=Aspire%20Library%20%26%20Co-working&query_place_id=ChIJrTZvYwD9YjkRr81FmpKQ_60"}, {"place_id": "ChIJKWQDMT75JmYRDTDRhseXSJ8", "name": "APPLSIP Technologies", "street": "", "phone": "", "rating": "", "review_count": "", "website": "https://applsip.com/", "latitude": 40.266869, "longitude": -47.802320699999996, "maps_url": "https://www.google.com/maps/search/?api=1&query=APPLSIP%20Technologies&query_place_id=ChIJKWQDMT75JmYRDTDRhseXSJ8"}]