{"timestamp": 1773730248.7886796, "keyword": "IT company", "location": "delhi", "cell_idx": 209, "results": [{"place_id": "0x390d1c154aba0acd:0xc90313ce54cb43e9", "name": "Midas IT Services India Pvt Ltd", "category": "Software company", "street": "L", "city": "42", "phone": "", "website": "http://www.midaswebtech.com/", "rating": 4.6, "review_count": "", "latitude": 28.545162299999998, "longitude": 77.12531, "maps_url": "https://www.google.com/maps/place/?q=place_id:0x390d1c154aba0acd:0xc90313ce54cb43e9"}, {"place_id": "0x390d1c3fadaf436b:0x7da80df34b6cc628", "name": "Acelema It Solutions Pvt. Ltd", "category": "Software company", "street": "L 357, 1st Floor", "city": "Gurgaon - Delhi Expy", "phone": "09015904466", "website": "https://www.acelema.com/", "rating": 5, "review_count": "", "latitude": 28.5456917, "longitude": 77.1231365, "maps_url": "https://www.google.com/maps/place/?q=place_id:0x390d1c3fadaf436b:0x7da80df34b6cc628"}, {"place_id": "0x390d1de9b75f7bb7:0x1f539fc9a572407", "name": "Genese Solution Pvt Ltd (India)", "category": "Software company", "street": "1st Floor Khasra Number 819, K2/143", "city": "Apex House", "phone": "", "website": "https://www.genesesolution.com/", "rating": 5, "review_count": "", "latitude": 28.541127699999997, "longitude": 77.1270832, "maps_url": "https://www.google.com/maps/place/?q=place_id:0x390d1de9b75f7bb7:0x1f539fc9a572407"}, {"place_id": "0x390d1d925cb370f5:0x9e5f79cffe269b7a", "name": "Techshades IT Consultants \u2013 Digital Marketing Agency", "category": "Software company", "street": "Office No-215, 1st Floor", "city": "Sukhma Tower", "phone": "", "website": "https://techshades.in/", "rating": 5, "review_count": "", "latitude": 28.5432161, "longitude": 77.1238233, "maps_url": "https://www.google.com/maps/place/?q=place_id:0x390d1d925cb370f5:0x9e5f79cffe269b7a"}, {"place_id": "0x390d1d36ad5bb8f1:0x521103d9a7d23f38", "name": "SYRIX TECHNOLOGIES", "category": "Computer store", "street": "K-810 1st Floor", "city": "Vasant Kunj Rd", "phone": "08700934605", "website": "https://syrix-technologies.grexa.site/", "rating": 4.9, "review_count": "", "latitude": 28.5415939, "longitude": 77.12751519999999, "maps_url": "https://www.google.com/maps/place/?q=place_id:0x390d1d36ad5bb8f1:0x521103d9a7d23f38"}, {"place_id": "0x390ce458d0000001:0xf2123bd299ec4501", "name": "IT Company India", "category": "Software company", "street": "D56", "city": "D Block, Sector 10", "phone": "09999244854", "website": "https://www.itcompanyindia.in/", "rating": 4.7, "review_count": "", "latitude": 28.589917699999997, "longitude": 77.3351153, "maps_url": "https://www.google.com/maps/place/?q=place_id:0x390ce458d0000001:0xf2123bd299ec4501"}, {"place_id": "0x390d1be7f1a44f95:0x84524a5425f8930d", "name": "InfraDost Technologies Pvt Ltd.- Microsoft Adobe Corel Draw & Security Solution Provider", "category": "Computer support and services", "street": "Gurgaon - Delhi Expy", "city": "Block B, Mahipalpur Village, Mahipalpur", "phone": "08287792542", "website": "http://www.infradost.com/", "rating": 4.6, "review_count": "", "latitude": 28.5485743, "longitude": 77.1264697, "maps_url": "https://www.google.com/maps/place/?q=place_id:0x390d1be7f1a44f95:0x84524a5425f8930d"}, {"place_id": "0x390d1d960addb6ff:0xbf64cf9143e3bf4", "name": "Career Sprint Labs IT Solutions Private Limited", "category": "Software company", "street": "House No 20, Plot in khasra No 1277", "city": "Extension", "phone": "", "website": "https://www.careersprintlabs.com/", "rating": 5, "review_count": "", "latitude": 28.539265699999998, "longitude": 77.126807, "maps_url": "https://www.google.com/maps/place/?q=place_id:0x390d1d960addb6ff:0xbf64cf9143e3bf4"}, {"place_id": "0x390d1c171e93ffff:0x94d934c9118bf2b1", "name": "Incredible Management Services Pvt Ltd", "category": "Business management consultant", "street": "PLOT NO 29", "city": "New Moti Nagar, Moti Nagar", "phone": "08800101102", "website": "", "rating": 4, "review_count": "", "latitude": 28.5365181, "longitude": 77.1214826, "maps_url": "https://www.google.com/maps/place/?q=place_id:0x390d1c171e93ffff:0x94d934c9118bf2b1"}, {"place_id": "0x390d1f52fe8e4f5b:0x5600e8bbbe942fa8", "name": "Clifford Chance Business Services", "category": "Business management consultant", "street": "Plot No 3, Ambience Island", "city": "Unit No. 3, 1st Floor, Ambience Corporate Tower", "phone": "01244607300", "website": "http://cliffordchance-businessservices.com/", "rating": 4.4, "review_count": "", "latitude": 28.537591199999998, "longitude": 77.1218085, "maps_url": "https://www.google.com/maps/place/?q=place_id:0x390d1f52fe8e4f5b:0x5600e8bbbe942fa8"}, {"place_id": "0x390d1db7ebab356b:0x49cd6796df7f1b08", "name": "Das And Das Infotech", "category": "Software company", "street": "HOUSE NO. 580", "city": "CHAUHAN MOHALLA", "phone": "09102340195", "website": "https://dasandasinfo.tech/", "rating": 5, "review_count": "", "latitude": 28.529041199999998, "longitude": 77.12605719999999, "maps_url": "https://www.google.com/maps/place/?q=place_id:0x390d1db7ebab356b:0x49cd6796df7f1b08"}, {"place_id": "0x390ce3c153b89811:0xe7a279685777e9ca", "name": "IT Company", "category": "Automation company", "street": "A-14", "city": "near iskcon temple", "phone": "", "website": "http://www.opuswiz.com/", "rating": 3, "review_count": "", "latitude": 28.557167, "longitude": 77.25424819999999, "maps_url": "https://www.google.com/maps/place/?q=place_id:0x390ce3c153b89811:0xe7a279685777e9ca"}, {"place_id": "0x390d013ca8ac1387:0x8a0db85b518267d5", "name": "NexGen Innovators", "category": "Website designer", "street": "114B, 3rd floor, Dwarka Mor", "city": "New Delhi, Delhi 110059", "phone": "", "website": "https://www.nexgi.com/", "rating": 4.9, "review_count": "", "latitude": 28.618961, "longitude": 77.0322202, "maps_url": "https://www.google.com/maps/place/?q=place_id:0x390d013ca8ac1387:0x8a0db85b518267d5"}, {"place_id": "0x390d1c154c85ce0f:0xb0963f0e0dec1299", "name": "MASTERTECHARA", "category": "Software company", "street": "L 37/336,UPPER GROUND FLOOR, STREET NO. 19, L BLOCK", "city": "Landmark-V2 Mall wali gali", "phone": "09560311263", "website": "http://www.mastertechara.in/", "rating": 5, "review_count": "", "latitude": 28.5454027, "longitude": 77.1245048, "maps_url": "https://www.google.com/maps/place/?q=place_id:0x390d1c154c85ce0f:0xb0963f0e0dec1299"}, {"place_id": "0x390ce3ad10000061:0xeff7e6017a22cce7", "name": "Alpinesoft IT Solutions Authorized Google Workspace Reseller", "category": "Software company", "street": "162/9 Ist Floor, KIshangarh - Gaushala Marg", "city": "Lakhi Nath Kuti, Mehrauli, Vasant Kunj", "phone": "09999011157", "website": "https://www.alpinesoftit.com/", "rating": 4.3, "review_count": "", "latitude": 28.515394399999998, "longitude": 77.16460359999999, "maps_url": "https://www.google.com/maps/place/?q=place_id:0x390ce3ad10000061:0xeff7e6017a22cce7"}, {"place_id": "0x390d191100000001:0x424476192b3b5b5b", "name": "Binary Semantics Limited", "category": "Software company", "street": "PLot no", "city": "38", "phone": "08929156505", "website": "https://www.binarysemantics.com/", "rating": 3.7, "review_count": "", "latitude": 28.5018823, "longitude": 77.0701466, "maps_url": "https://www.google.com/maps/place/?q=place_id:0x390d191100000001:0x424476192b3b5b5b"}, {"place_id": "0x390d1d9ce0eaada3:0xc5a1a0a2458099e3", "name": "CODENCREATIVE TECH PVT LTD", "category": "Software company", "street": "DDA Flat", "city": "RBI Officers Colony, Vasant Vihar", "phone": "09717047610", "website": "https://codencreative.com/", "rating": 4.9, "review_count": "", "latitude": 28.563302099999998, "longitude": 77.1519732, "maps_url": "https://www.google.com/maps/place/?q=place_id:0x390d1d9ce0eaada3:0xc5a1a0a2458099e3"}, {"place_id": "0x390d19298db2fb35:0xcaa0d46737c4561c", "name": "MLM Software Developer | Sunny citrix", "category": "Software company", "street": "office no 427C, 4th floor, vashisht complex", "city": "Sikanderpur", "phone": "07906059336", "website": "http://sunnycitrix.com/", "rating": 4.8, "review_count": "", "latitude": 28.4816798, "longitude": 77.09770569999999, "maps_url": "https://www.google.com/maps/place/?q=place_id:0x390d19298db2fb35:0xcaa0d46737c4561c"}, {"place_id": "0x390d1923af5d91ed:0xbe103b16161f5631", "name": "Condeco Software Private Limited", "category": "Software company", "street": "Tower C", "city": "4th floor building 10", "phone": "01244760150", "website": "http://www.condecosoftware.com/apac", "rating": 4.3, "review_count": "", "latitude": 28.4940696, "longitude": 77.0885457, "maps_url": "https://www.google.com/maps/place/?q=place_id:0x390d1923af5d91ed:0xbe103b16161f5631"}, {"place_id": "0x390d1c403c9c5a9d:0xefb576c41460d21a", "name": "MND TECH", "category": "Computer support and services", "street": "A-18, Rd Number 2", "city": "Block B, Mahipalpur Extension, Mahipalpur", "phone": "09304454694", "website": "http://mndtechsolutions.com/", "rating": 4.8, "review_count": "", "latitude": 28.547701, "longitude": 77.126262, "maps_url": "https://www.google.com/maps/place/?q=place_id:0x390d1c403c9c5a9d:0xefb576c41460d21a"}, {"place_id": "0x2a72b8b69d7b6493:0x11251466d4d34cac", "name": "WebZonal IT Company", "category": "Website designer", "street": "Wz-258/2-3, D Block Rd", "city": "Khazan Basti, Nangal Raya, Janakpuri", "phone": "09811170903", "website": "http://webzonal.com/", "rating": 5, "review_count": "", "latitude": 28.6122102, "longitude": 77.11159549999999, "maps_url": "https://www.google.com/maps/place/?q=place_id:0x2a72b8b69d7b6493:0x11251466d4d34cac"}, {"place_id": "0x390d1daf5bbb6d71:0xd493e8d457a28388", "name": "DPM IT SOLUTIONS", "category": "Software company", "street": "2nd floor, madangiri", "city": "111, E-2", "phone": "09650413450", "website": "https://dpmitsolutions.com/", "rating": 5, "review_count": "", "latitude": 28.565620799999998, "longitude": 77.16005679999999, "maps_url": "https://www.google.com/maps/place/?q=place_id:0x390d1daf5bbb6d71:0xd493e8d457a28388"}, {"place_id": "0x390d1c3ea6cf40cf:0xb656bfac28e66cea", "name": "EMP Management Pvt.Ltd.", "category": "Corporate office", "street": "K", "city": "836, Vasant Kunj Rd", "phone": "08287115900", "website": "", "rating": 5, "review_count": "", "latitude": 28.5404283, "longitude": 77.1305531, "maps_url": "https://www.google.com/maps/place/?q=place_id:0x390d1c3ea6cf40cf:0xb656bfac28e66cea"}, {"place_id": "0x390d1c151637dc5f:0x45e3d89dad892356", "name": "NKR LOGISTICS PVT LTD", "category": "Logistics service", "street": "Street No.6D", "city": "K-Block, Mahipalpur Village, Mahipalpur", "phone": "09555777111", "website": "http://www.newkeralaroadways.com/", "rating": 4.6, "review_count": "", "latitude": 28.5411893, "longitude": 77.12453479999999, "maps_url": "https://www.google.com/maps/place/?q=place_id:0x390d1c151637dc5f:0x45e3d89dad892356"}, {"place_id": "0x390ce5fdcc79e755:0x309ce99251b84ef6", "name": "Optyminds IT Solutions - Top AI and IT company I Best Digital agency in Noida | Delhi NCR | India", "category": "Software company", "street": "1st Floor", "city": "B-70", "phone": "08929075975", "website": "https://optyminds.com/", "rating": 4.9, "review_count": "", "latitude": 28.584679599999998, "longitude": 77.3135042, "maps_url": "https://www.google.com/maps/place/?q=place_id:0x390ce5fdcc79e755:0x309ce99251b84ef6"}, {"place_id": "0x390d02994de5e515:0xd908bc03409a0d37", "name": "Himalayan IT Solutions | Best Website Designing Company in Delhi | SEO/Digital Marketing Company in Delhi NCR, India", "category": "Website designer", "street": "61/4255, Padam Singh Rd", "city": "Block 29, Block 1, Regar Pura, Karol Bagh", "phone": "09899098509", "website": "http://www.himalayanitsolutions.com/", "rating": 3.9, "review_count": "", "latitude": 28.649673999999997, "longitude": 77.186599, "maps_url": "https://www.google.com/maps/place/?q=place_id:0x390d02994de5e515:0xd908bc03409a0d37"}, {"place_id": "0x41ddcb5488aa4703:0x5290c64921de1a5b", "name": "Bloatware IT Software Development Company | Game Development | Software Company in delhi", "category": "Software company", "street": "SILVER OAK FARMS", "city": "660, Mehrauli-Gurgaon Rd", "phone": "", "website": "https://bloatwareitsolutions.com/", "rating": 5, "review_count": "", "latitude": 28.4911034, "longitude": 77.1432663, "maps_url": "https://www.google.com/maps/place/?q=place_id:0x41ddcb5488aa4703:0x5290c64921de1a5b"}, {"place_id": "0x390d1c3c1f06b031:0x16298a20a465d65", "name": "Venture Supply Chain Pvt Ltd", "category": "Corporate office", "street": "Mahipalpur Village, Mahipalpur", "city": "New Delhi, Delhi 110037", "phone": "09811788769", "website": "", "rating": 4.2, "review_count": "", "latitude": 28.5403225, "longitude": 77.1298204, "maps_url": "https://www.google.com/maps/place/?q=place_id:0x390d1c3c1f06b031:0x16298a20a465d65"}, {"place_id": "0x390d1f5abfb25fe1:0x7d9c4d5e159f2955", "name": "Jaimru Technology Pvt Ltd", "category": "Website designer", "street": "WARD NO. 2", "city": "Plot No. 178 M 33 A/1", "phone": "07838153420", "website": "https://www.jaimru.com/", "rating": 4.9, "review_count": "", "latitude": 28.524347499999998, "longitude": 77.1731889, "maps_url": "https://www.google.com/maps/place/?q=place_id:0x390d1f5abfb25fe1:0x7d9c4d5e159f2955"}, {"place_id": "0x390d191598f48ef3:0x70991b4ff870f05d", "name": "Shree Partners LLC", "category": "Software company", "street": "1, Tower A, Building, Cyber City", "city": "Corporate Edge Level", "phone": "01246728815", "website": "https://www.shreepartners.com/", "rating": 4.3, "review_count": "", "latitude": 28.4936018, "longitude": 77.088325, "maps_url": "https://www.google.com/maps/place/?q=place_id:0x390d191598f48ef3:0x70991b4ff870f05d"}, {"place_id": "0x390d19437cb628b3:0x12e71803eb09ac16", "name": "Clavax Technologies", "category": "Software company", "street": "727", "city": "Udyog Vihar, Phase 5", "phone": "+18444252829", "website": "http://www.clavax.com/", "rating": 4.1, "review_count": "", "latitude": 28.5052123, "longitude": 77.0850025, "maps_url": "https://www.google.com/maps/place/?q=place_id:0x390d19437cb628b3:0x12e71803eb09ac16"}, {"place_id": "0x390d195c26bfa369:0x69bd8efd2e3a31fe", "name": "Radical Minds Technologies Pvt. Ltd.", "category": "BPO Company", "street": "368", "city": "Phase II, Udyog Vihar, Sector 20", "phone": "01244338366", "website": "http://www.radicalminds.in/", "rating": 4.2, "review_count": "", "latitude": 28.506335099999998, "longitude": 77.0877546, "maps_url": "https://www.google.com/maps/place/?q=place_id:0x390d195c26bfa369:0x69bd8efd2e3a31fe"}, {"place_id": "0x390d1dbd6912a827:0xcd7fb6b980d8cfea", "name": "Global Shifting Solutions", "category": "Packaging company", "street": "Plot No. 46-A, Ground Floor, Khasra No. 1128, B Block Bhule Ram Colony, Rangpuri Ext", "city": "near Old Shiv Temple", "phone": "", "website": "", "rating": 3, "review_count": "", "latitude": 28.538164499999997, "longitude": 77.121595, "maps_url": "https://www.google.com/maps/place/?q=place_id:0x390d1dbd6912a827:0xcd7fb6b980d8cfea"}, {"place_id": "0x390d19174792f4db:0xcb5f589caa71b6e7", "name": "Knocial India Limited", "category": "Software company", "street": "60B", "city": "Udyog Vihar, Sector 22", "phone": "09354120847", "website": "https://www.knocialindia.com/", "rating": 4.7, "review_count": "", "latitude": 28.504239499999997, "longitude": 77.0651981, "maps_url": "https://www.google.com/maps/place/?q=place_id:0x390d19174792f4db:0xcb5f589caa71b6e7"}, {"place_id": "0x390d1d1c6b7cdcc1:0x17fd13cc55476787", "name": "Global Tensile Structure | Tensile Car Parking Manufacturer Company in Delhi.", "category": "Manufacturer", "street": "G/F", "city": "CHAUHAN MOHALLA", "phone": "09871301004", "website": "http://www.globaltensiles.com/", "rating": 4.3, "review_count": "", "latitude": 28.5385355, "longitude": 77.1185416, "maps_url": "https://www.google.com/maps/place/?q=place_id:0x390d1d1c6b7cdcc1:0x17fd13cc55476787"}, {"place_id": "0x390d1946a4b0d01f:0xab23cbaa408b3b9c", "name": "Tagbin Services Pvt. Ltd. \u2013 Best AI & Experiential Tech Company in Gurgaon", "category": "Software company", "street": "3rd Floor, Wing A, Enkay Centre", "city": "Vaniya Kunj", "phone": "08178112682", "website": "https://tagbin.in/", "rating": 4.2, "review_count": "", "latitude": 28.4974691, "longitude": 77.08654609999999, "maps_url": "https://www.google.com/maps/place/?q=place_id:0x390d1946a4b0d01f:0xab23cbaa408b3b9c"}, {"place_id": "0x390d193854a9b805:0xeb675c7a6d5768f7", "name": "Cvent India", "category": "Software company", "street": "19th Floor Building", "city": "No.14C", "phone": "0008001008934", "website": "https://careers.cvent.com/", "rating": 4.3, "review_count": "", "latitude": 28.4968638, "longitude": 77.0941567, "maps_url": "https://www.google.com/maps/place/?q=place_id:0x390d193854a9b805:0xeb675c7a6d5768f7"}, {"place_id": "0x390d1d3f8670a53b:0x4a17192db580f4c7", "name": "Orangestar Logistics Pvt. Ltd.", "category": "Courier service", "street": "Building No 530", "city": "Khasra No 802", "phone": "09599306008", "website": "http://www.orangestar.co.in/", "rating": 4.9, "review_count": "", "latitude": 28.542710399999997, "longitude": 77.1285345, "maps_url": "https://www.google.com/maps/place/?q=place_id:0x390d1d3f8670a53b:0x4a17192db580f4c7"}, {"place_id": "0x390d1c414956fc47:0x2fafa9846ecd49aa", "name": "Inckah Infrastructure Technologies Private Limited", "category": "Road Contractor", "street": "A-254, Road No. 6", "city": "Block RZ, Mahipalpur Village, Mahipalpur", "phone": "01126785033", "website": "http://www.inckah.com/", "rating": 4.5, "review_count": "", "latitude": 28.5509004, "longitude": 77.13089149999999, "maps_url": "https://www.google.com/maps/place/?q=place_id:0x390d1c414956fc47:0x2fafa9846ecd49aa"}, {"place_id": "0x390d19361c56cecd:0x50517af3dc928d70", "name": "Mycom", "category": "Software company", "street": "7th Floor", "city": "Building 8b", "phone": "01244508000", "website": "http://www.mycom-osi.com/", "rating": 4.3, "review_count": "", "latitude": 28.4982059, "longitude": 77.0900367, "maps_url": "https://www.google.com/maps/place/?q=place_id:0x390d19361c56cecd:0x50517af3dc928d70"}, {"place_id": "0x390d1d6e61d62cef:0x4c0ba6fb7ea3586f", "name": "TMS Security Systems", "category": "Security system installation service", "street": "Prop-2B Khasra No 810,819", "city": "Middle Portion", "phone": "08882520691", "website": "http://www.tms.security.systems.com/", "rating": 5, "review_count": "", "latitude": 28.540283799999997, "longitude": 77.127682, "maps_url": "https://www.google.com/maps/place/?q=place_id:0x390d1d6e61d62cef:0x4c0ba6fb7ea3586f"}, {"place_id": "0x390d1960c2b8367f:0xd2d30e45ac71acea", "name": "Vorombetech Solutions - Top IT & Digitalization Service Company in Gurugram", "category": "Software company", "street": "249", "city": "Phase IV, Udyog Vihar, Sector 19", "phone": "", "website": "https://vorombetech.com/", "rating": 4.8, "review_count": "", "latitude": 28.4941475, "longitude": 77.0808448, "maps_url": "https://www.google.com/maps/place/?q=place_id:0x390d1960c2b8367f:0xd2d30e45ac71acea"}, {"place_id": "0x390d1c171fc55555:0xd798e6e581b4276", "name": "R-One IT Solutions", "category": "Software company", "street": "Killa No-13,Phase, Hari Om Properties, PLOT NO 27", "city": "Mustatil No-12", "phone": "07827565419", "website": "http://r-one.in/", "rating": "", "review_count": "", "latitude": 28.5367046, "longitude": 77.1213253, "maps_url": "https://www.google.com/maps/place/?q=place_id:0x390d1c171fc55555:0xd798e6e581b4276"}, {"place_id": "0x390d1d3c954a5a5b:0xff9697ee6163096e", "name": "Devkichijoji Company | Best Trademens And Menpowers Services Provider In World", "category": "Business to business service", "street": "G/F, KH. NO. 1251, A-block", "city": "Ground Floor", "phone": "", "website": "https://devkichijoji.com/", "rating": 5, "review_count": "", "latitude": 28.537645299999998, "longitude": 77.12482299999999, "maps_url": "https://www.google.com/maps/place/?q=place_id:0x390d1d3c954a5a5b:0xff9697ee6163096e"}, {"place_id": "0x390d1d0cd02c6e49:0xac45f6b04472d2a1", "name": "Develop's With Priyanshu", "category": "Software company", "street": "Malikpur Kohi", "city": "CN124/AA Block", "phone": "", "website": "", "rating": "", "review_count": "", "latitude": 28.535766, "longitude": 77.1346343, "maps_url": "https://www.google.com/maps/place/?q=place_id:0x390d1d0cd02c6e49:0xac45f6b04472d2a1"}, {"place_id": "0x390d1c3ad621b6c7:0x97d7a933aab8437b", "name": "AMMANYA LOGISTICS PVT LTD", "category": "Logistics service", "street": "Plot No. 63 B/1, Gali No. 7, Rangpuri", "city": "Ext, Mahipalpur", "phone": "08929979925", "website": "", "rating": 4.5, "review_count": "", "latitude": 28.5356141, "longitude": 77.1341822, "maps_url": "https://www.google.com/maps/place/?q=place_id:0x390d1c3ad621b6c7:0x97d7a933aab8437b"}, {"place_id": "0x390d1c145bc99811:0x47b041a296a33cb5", "name": "NP PC Clinic OPC Pvt. Ltd.", "category": "Computer support and services", "street": "34, Bharat Singh Complex", "city": "Mahipalpur - Rangpuri Rd", "phone": "07827225365", "website": "", "rating": 5, "review_count": "", "latitude": 28.542081999999997, "longitude": 77.121702, "maps_url": "https://www.google.com/maps/place/?q=place_id:0x390d1c145bc99811:0x47b041a296a33cb5"}, {"place_id": "0x390d1e748ef61961:0x754ceb660996cfdb", "name": "ACS System Solutions", "category": "Software company", "street": "Kishangarh, Kishangarh Village, Vasant Kunj", "city": "New Delhi, Delhi 110070", "phone": "01149858620", "website": "http://acssystem.in/", "rating": 3.4, "review_count": "", "latitude": 28.522178699999998, "longitude": 77.1692609, "maps_url": "https://www.google.com/maps/place/?q=place_id:0x390d1e748ef61961:0x754ceb660996cfdb"}, {"place_id": "0x390d1b03afd847d1:0x3f8589776214e47b", "name": "Techbizz - IT Solutions", "category": "Software company", "street": "1st floor", "city": "Najafgarh Kapashera Rd", "phone": "08130622472", "website": "", "rating": 5, "review_count": "", "latitude": 28.5325596, "longitude": 77.0540195, "maps_url": "https://www.google.com/maps/place/?q=place_id:0x390d1b03afd847d1:0x3f8589776214e47b"}]}