[{"place_id": "ChIJ8bD3oe-1bTkRhQOwVrfg-vw", "name": "One Aim IT Solutions", "street": "2/41/2 , 1st Floor, Sadar Bazar , Moradabad Pahari ,TO.Delhi Cantt, Distt:, South West, New Delhi, Delhi 110006, India", "phone": "+91 89552 49714", "rating": "5", "review_count": "", "website": "https://theoneaim.in/", "latitude": 28.6580968, "longitude": 77.2124735, "maps_url": "https://www.google.com/maps/search/?api=1&query=One%20Aim%20IT%20Solutions&query_place_id=ChIJ8bD3oe-1bTkRhQOwVrfg-vw"}, {"place_id": "ChIJaZZQKVb9DDkRB1x9k7ATb3U", "name": "KGN Software Solutions", "street": "108, Gali Kandle Kashan, Fatehpuri, Chandni Chowk, New Delhi, Delhi, 110006, India", "phone": "+91 80764 81454", "rating": "4.9", "review_count": "", "website": "https://kgnsoftsolutions.com/", "latitude": 28.655137, "longitude": 77.22308, "maps_url": "https://www.google.com/maps/search/?api=1&query=KGN%20Software%20Solutions&query_place_id=ChIJaZZQKVb9DDkRB1x9k7ATb3U"}, {"place_id": "ChIJO4sr49IDDTkRALZaeWsr-oI", "name": "Iraitech | Software Development Company", "street": "Central Square Complex 3, Unit No-1051, 1st Floor, Near Filmistan, DCM chowk, Bara Hindu Rao, Kishan Ganj, Delhi, 110006, India", "phone": "+91 81301 04108", "rating": "4.1", "review_count": "", "website": "https://www.iraitech.com/", "latitude": 28.6631951, "longitude": 77.20308639999999, "maps_url": "https://www.google.com/maps/search/?api=1&query=Iraitech%20%7C%20Software%20Development%20Company&query_place_id=ChIJO4sr49IDDTkRALZaeWsr-oI"}, {"place_id": "ChIJzV9vXeUCDTkRbml51dcf9C4", "name": "Lanyard Company India", "street": "619, Main Bazaar Road, near Bara Tooti Chowk, Narain Market, Sadar Bazaar, New Delhi, Delhi, 110006, India", "phone": "+91 98119 37519", "rating": "4.9", "review_count": "", "website": "http://www.lanyard.co.in/", "latitude": 28.658199, "longitude": 77.2135385, "maps_url": "https://www.google.com/maps/search/?api=1&query=Lanyard%20Company%20India&query_place_id=ChIJzV9vXeUCDTkRbml51dcf9C4"}, {"place_id": "ChIJFeXlTZkCDTkRNw2aQAO8CNk", "name": "Himalayan IT Solutions | Best Website Designing Company in Delhi | SEO/Digital Marketing Company in Delhi NCR, India", "street": "61/4255, Padam Singh Rd, Block 29, Block 1, Regar Pura, Karol Bagh, Delhi, 110005, India", "phone": "+91 98990 98509", "rating": "3.9", "review_count": "", "website": "http://www.himalayanitsolutions.com/", "latitude": 28.649673999999997, "longitude": 77.186599, "maps_url": "https://www.google.com/maps/search/?api=1&query=Himalayan%20IT%20Solutions%20%7C%20Best%20Website%20Designing%20Company%20in%20Delhi%20%7C%20SEO/Digital%20Marketing%20Company%20in%20Delhi%20NCR%2C%20India&query_place_id=ChIJFeXlTZkCDTkRNw2aQAO8CNk"}, {"place_id": "ChIJZ9iFbGj9DDkRlLk8I7muWsc", "name": "JTH Computers", "street": "BG-21, R.G. Complex, Paharganj, near HDFC Bank, New Delhi, Delhi 110055, India", "phone": "+91 11 4283 8363", "rating": "5", "review_count": "", "website": "", "latitude": 28.646907, "longitude": 77.207065, "maps_url": "https://www.google.com/maps/search/?api=1&query=JTH%20Computers&query_place_id=ChIJZ9iFbGj9DDkRlLk8I7muWsc"}, {"place_id": "ChIJx1ToU-T9DDkRcJ2byevE3CE", "name": "PreeDex Softwares LLP", "street": "Ground Floor, 5993, Nawab Rd, Basti Harphool Singh, Ahata Kidara, Sadar Bazaar, Delhi, 110006, India", "phone": "+91 99105 56876", "rating": "5", "review_count": "", "website": "http://www.preedex.com/", "latitude": 28.6560934, "longitude": 77.2102938, "maps_url": "https://www.google.com/maps/search/?api=1&query=PreeDex%20Softwares%20LLP&query_place_id=ChIJx1ToU-T9DDkRcJ2byevE3CE"}, {"place_id": "ChIJ7-9riHf9DDkRgaNOyZXbLL8", "name": "STICK COMPUTER WORKS", "street": "1121/A, Gali Samosan, Farash Khana, Old Delhi, Delhi, 110006, India", "phone": "+91 78389 59762", "rating": "5", "review_count": "", "website": "", "latitude": 28.6543454, "longitude": 77.2210929, "maps_url": "https://www.google.com/maps/search/?api=1&query=STICK%20COMPUTER%20WORKS&query_place_id=ChIJ7-9riHf9DDkRgaNOyZXbLL8"}, {"place_id": "ChIJAQDAsHL9DDkRNglClOqAkEM", "name": "IBM TRADING COMPANY.... GOODLUCK HOUSEWARES", "street": "New Market, 5396/ A 1, gupta market gali, Rui Mandi, Sadar Bazaar, New Delhi, Delhi, 110006, India", "phone": "", "rating": "5", "review_count": "", "website": "", "latitude": 28.6598631, "longitude": 77.2149721, "maps_url": "https://www.google.com/maps/search/?api=1&query=IBM%20TRADING%20COMPANY....%20GOODLUCK%20HOUSEWARES&query_place_id=ChIJAQDAsHL9DDkRNglClOqAkEM"}, {"place_id": "ChIJWap_Rw39DDkR_DqKO2EA6H0", "name": "Pansari Group", "street": "4110, 1st Floor, Naya Bazar, Delhi, New Delhi, Delhi 110006, India", "phone": "+91 1800 11 4110", "rating": "4.6", "review_count": "", "website": "http://www.pansari.co.in/", "latitude": 28.659290199999997, "longitude": 77.2183943, "maps_url": "https://www.google.com/maps/search/?api=1&query=Pansari%20Group&query_place_id=ChIJWap_Rw39DDkR_DqKO2EA6H0"}, {"place_id": "ChIJe3palOn9DDkRmNe3MxxK0nI", "name": "SURYA MASALA COMPANY (EKTA SPICES)", "street": "6410, Katra Bariyan, Naya Bans, Fatehpuri, Chandni Chowk, Delhi, 110006, India", "phone": "+91 96547 73357", "rating": "4.9", "review_count": "", "website": "", "latitude": 28.6552097, "longitude": 77.2216329, "maps_url": "https://www.google.com/maps/search/?api=1&query=SURYA%20MASALA%20COMPANY%20%28EKTA%20SPICES%29&query_place_id=ChIJe3palOn9DDkRmNe3MxxK0nI"}, {"place_id": "ChIJuaSx6hL9DDkRq9dW_RP_L9g", "name": "Shrejal Impex Private Limited", "street": "Shop No. 526, Lahori Gate, Fasil Rd, Farash Khana, Chandni Chowk, New Delhi, Delhi 110006, India", "phone": "+91 11 2390 8823", "rating": "4.3", "review_count": "", "website": "", "latitude": 28.656444999999998, "longitude": 77.21902639999999, "maps_url": "https://www.google.com/maps/search/?api=1&query=Shrejal%20Impex%20Private%20Limited&query_place_id=ChIJuaSx6hL9DDkRq9dW_RP_L9g"}, {"place_id": "ChIJpf__r88EDTkRLb071jNqL4U", "name": "Kitchen Champion Basmati Rice , By Green India Rice Millers and exporters private limited", "street": "2nd floor, Maruti Bhawan Building, 210-11, 2618-19, Naya Bazar, Delhi, New Delhi, Delhi 110006, India", "phone": "+91 95608 42348", "rating": "4.5", "review_count": "", "website": "https://greenindiarice.com/", "latitude": 28.659029, "longitude": 77.219319, "maps_url": "https://www.google.com/maps/search/?api=1&query=Kitchen%20Champion%20Basmati%20Rice%20%2C%20By%20Green%20India%20Rice%20Millers%20and%20exporters%20private%20limited&query_place_id=ChIJpf__r88EDTkRLb071jNqL4U"}, {"place_id": "ChIJWfj95BL9DDkRGUQo5jkQ9rM", "name": "Tanvi Spices (Pawan Masala Company)", "street": "134-135, gali majid tewar khan, Naya Bans, Delhi, 110006, India", "phone": "+91 98112 56660", "rating": "4.8", "review_count": "", "website": "", "latitude": 28.6556563, "longitude": 77.2194281, "maps_url": "https://www.google.com/maps/search/?api=1&query=Tanvi%20Spices%20%28Pawan%20Masala%20Company%29&query_place_id=ChIJWfj95BL9DDkRGUQo5jkQ9rM"}, {"place_id": "ChIJQ9ayeBL9DDkRwYTi0d6EINU", "name": "UNION GLASS COMPANY", "street": "792 Chowk, Tilak Bazar, Katra Ghel, Khari Baoli, Chandni Chowk, Delhi, 110006, India", "phone": "+91 98115 75263", "rating": "4.5", "review_count": "", "website": "", "latitude": 28.6588967, "longitude": 77.2215078, "maps_url": "https://www.google.com/maps/search/?api=1&query=UNION%20GLASS%20COMPANY&query_place_id=ChIJQ9ayeBL9DDkRwYTi0d6EINU"}, {"place_id": "ChIJAQAAAG_9DDkR0X5Gs4tMyvA", "name": "Arora Plastic Company", "street": "973-a Paan Mandi Sadar Bazaar, Sadar Bazaar, New Delhi, Delhi 110006, India", "phone": "+91 76786 93170", "rating": "4.8", "review_count": "", "website": "", "latitude": 28.656890299999997, "longitude": 77.2148991, "maps_url": "https://www.google.com/maps/search/?api=1&query=Arora%20Plastic%20Company&query_place_id=ChIJAQAAAG_9DDkR0X5Gs4tMyvA"}, {"place_id": "ChIJpTU4Pdr9DDkRkrAixOTFuhg", "name": "Bag Manufacturers Delhi", "street": "Narain Market, Sadar Bazaar, New Delhi, Delhi, 110006, India", "phone": "", "rating": "5", "review_count": "", "website": "", "latitude": 28.6585105, "longitude": 77.21273049999999, "maps_url": "https://www.google.com/maps/search/?api=1&query=Bag%20Manufacturers%20Delhi&query_place_id=ChIJpTU4Pdr9DDkRkrAixOTFuhg"}, {"place_id": "ChIJu1u78279DDkR5Zm9fMlxRAI", "name": "Fly Logistics packers and movers", "street": "H.no.3641, Singhara Chowk, G.P.O, Idgah Rd, Nabi Karim, Sadar Bazaar, Delhi, 110055, India", "phone": "+91 95556 60606", "rating": "4", "review_count": "", "website": "https://flylogisticspackersandmovers.in/", "latitude": 28.653783699999998, "longitude": 77.2147497, "maps_url": "https://www.google.com/maps/search/?api=1&query=Fly%20Logistics%20packers%20and%20movers&query_place_id=ChIJu1u78279DDkR5Zm9fMlxRAI"}, {"place_id": "ChIJh4OOLxL9DDkRBDh1LWdUjXA", "name": "Yash Travels & Cyber Cafe", "street": "6479/22,KATRA BARIYAN,FATEHPURI MASJID GATE NO-2, New Delhi, Delhi 110006, India", "phone": "+91 98998 88404", "rating": "3.5", "review_count": "", "website": "https://www.facebook.com/yashtravels722", "latitude": 28.656091999999997, "longitude": 77.22266599999999, "maps_url": "https://www.google.com/maps/search/?api=1&query=Yash%20Travels%20%26%20Cyber%20Cafe&query_place_id=ChIJh4OOLxL9DDkRBDh1LWdUjXA"}, {"place_id": "ChIJ_V_FvxL9DDkRqr80NFRIVbs", "name": "Sona Cereal Product Private Limited", "street": "Shop No. 539/3, Lahori Gate, Fasil Rd, Farash Khana, Chandni Chowk, Delhi, 110006, India", "phone": "+91 98112 42543", "rating": "4.8", "review_count": "", "website": "http://sonacereal.com/", "latitude": 28.6564253, "longitude": 77.2188726, "maps_url": "https://www.google.com/maps/search/?api=1&query=Sona%20Cereal%20Product%20Private%20Limited&query_place_id=ChIJ_V_FvxL9DDkRqr80NFRIVbs"}, {"place_id": "ChIJLSYpyUn9DDkR6qgeeusxh7s", "name": "SIGMA CORP INDIA", "street": "5554, Sadar Thana Rd, Basti Harphool Singh, Ahata Kidara, Sadar Bazaar, Delhi, 110006, India", "phone": "+91 76785 77494", "rating": "", "review_count": "", "website": "", "latitude": 28.6548746, "longitude": 77.2104634, "maps_url": "https://www.google.com/maps/search/?api=1&query=SIGMA%20CORP%20INDIA&query_place_id=ChIJLSYpyUn9DDkR6qgeeusxh7s"}, {"place_id": "ChIJ8WyuOA39DDkRxAqtXCS8M7g", "name": "ATC", "street": "ATC House, 3981-83, Naya Bazar Rd, Chhota Chamarwara, Khari Baoli, Chandni Chowk, New Delhi, Delhi, 110006, India", "phone": "", "rating": "3.7", "review_count": "", "website": "http://www.atcls.net/", "latitude": 28.6588061, "longitude": 77.2186825, "maps_url": "https://www.google.com/maps/search/?api=1&query=ATC&query_place_id=ChIJ8WyuOA39DDkRxAqtXCS8M7g"}, {"place_id": "ChIJbaIAUT77DDkRqTREkokl8Iw", "name": "Arata Universal Co.", "street": "971/6, Motia Khan, Sadar Bazaar, New Delhi, Delhi, 110006, India", "phone": "+91 99994 80416", "rating": "4.5", "review_count": "", "website": "", "latitude": 28.656750499999998, "longitude": 77.2149841, "maps_url": "https://www.google.com/maps/search/?api=1&query=Arata%20Universal%20Co.&query_place_id=ChIJbaIAUT77DDkRqTREkokl8Iw"}, {"place_id": "ChIJCZriIoUCDTkRjqORazc0j6s", "name": "Chaman Masala Company", "street": "6635, Khari Baoli Main Road, New Delhi, Delhi 110006, India", "phone": "+91 97119 68773", "rating": "4.3", "review_count": "", "website": "http://chamanspices.com/", "latitude": 28.657061199999998, "longitude": 77.2215004, "maps_url": "https://www.google.com/maps/search/?api=1&query=Chaman%20Masala%20Company&query_place_id=ChIJCZriIoUCDTkRjqORazc0j6s"}, {"place_id": "ChIJAQAAAG_9DDkRBx9VmvyhtcU", "name": "Sushil Trading Company", "street": "4671, B MAHAVIR BAZAR, Cloth Market, Katra Ghel, Khari Baoli, Chandni Chowk, New Delhi, Delhi, 110006, India", "phone": "+91 99535 50208", "rating": "4.6", "review_count": "", "website": "", "latitude": 28.659528299999998, "longitude": 77.2230208, "maps_url": "https://www.google.com/maps/search/?api=1&query=Sushil%20Trading%20Company&query_place_id=ChIJAQAAAG_9DDkRBx9VmvyhtcU"}, {"place_id": "ChIJB5o0B3L9DDkRrsWQdWJNUyA", "name": "Pk Lift Elevators", "street": "House Number 575, Ambedkar Dharamshala, Street No 2, Green Market, Pahari Dhiraj, Maidan Garhi, New Delhi, Delhi, 110006, India", "phone": "+91 99110 66870", "rating": "5", "review_count": "", "website": "https://www.pkliftelevators.co.in/", "latitude": 28.657377999999998, "longitude": 77.2121398, "maps_url": "https://www.google.com/maps/search/?api=1&query=Pk%20Lift%20Elevators&query_place_id=ChIJB5o0B3L9DDkRrsWQdWJNUyA"}, {"place_id": "ChIJW-zNhA39DDkRgu-9RV8Mk2c", "name": "Suresh Trading Co.", "street": "139, Tilak Bazar, Khari Baoli, Old Delhi, New Delhi, Delhi, 110006, India", "phone": "+91 11 2391 5678", "rating": "5", "review_count": "", "website": "http://www.sureshtrading.in/", "latitude": 28.6584945, "longitude": 77.2207878, "maps_url": "https://www.google.com/maps/search/?api=1&query=Suresh%20Trading%20Co.&query_place_id=ChIJW-zNhA39DDkRgu-9RV8Mk2c"}, {"place_id": "ChIJRYf1Rw39DDkRodFOf5OpMjI", "name": "Indian Drugs & Botanical Herbs Co", "street": "4127, Naya Bazar Rd, Rui Mandi, Sadar Bazaar, Delhi, 110006, India", "phone": "+91 98101 13744", "rating": "4.9", "review_count": "", "website": "http://www.idbhco.com/", "latitude": 28.659291699999997, "longitude": 77.2183178, "maps_url": "https://www.google.com/maps/search/?api=1&query=Indian%20Drugs%20%26%20Botanical%20Herbs%20Co&query_place_id=ChIJRYf1Rw39DDkRodFOf5OpMjI"}, {"place_id": "ChIJ_z7XofL9DDkRY1Rp0_L7Xf0", "name": "M.A. DOCUMENTATIONS", "street": "7640, MUNSHI ABDUL RAHIM STRRET, Quresh Nagar, Sadar Bazaar, Delhi, 110006, India", "phone": "+91 85870 70565", "rating": "5", "review_count": "", "website": "", "latitude": 28.656781499999997, "longitude": 77.20961249999999, "maps_url": "https://www.google.com/maps/search/?api=1&query=M.A.%20DOCUMENTATIONS&query_place_id=ChIJ_z7XofL9DDkRY1Rp0_L7Xf0"}, {"place_id": "ChIJAQAAAG_9DDkRG1do0yNpLtk", "name": "Packman Industries", "street": "1305, Sadar Bazaar, Pan Mandi, Sadar Bazaar, Delhi, 110006, India", "phone": "+91 99101 10911", "rating": "3", "review_count": "", "website": "http://www.packman.in/", "latitude": 28.6563517, "longitude": 77.2145453, "maps_url": "https://www.google.com/maps/search/?api=1&query=Packman%20Industries&query_place_id=ChIJAQAAAG_9DDkRG1do0yNpLtk"}, {"place_id": "ChIJBeA_mXL9DDkRV8aw44epvLE", "name": "Bedi And Company", "street": "Shop No 2745, Chowk Qutub Road, Near Railway Station,Sadar Bazar, Old Delhi, New Delhi, Delhi 110006, India", "phone": "", "rating": "4.5", "review_count": "", "website": "", "latitude": 28.657822, "longitude": 77.21571949999999, "maps_url": "https://www.google.com/maps/search/?api=1&query=Bedi%20And%20Company&query_place_id=ChIJBeA_mXL9DDkRV8aw44epvLE"}, {"place_id": "ChIJfYQ73iz9DDkRMh9aXrj8f-g", "name": "Prime Rice Company", "street": "2nd Floor, 4070, near Kotak Mahindra Bank, Naya Bazar, Rui Mandi, Sadar Bazaar, New Delhi, Delhi, 110006, India", "phone": "+91 99992 17575", "rating": "5", "review_count": "", "website": "https://www.primericecompany.com/", "latitude": 28.658441699999997, "longitude": 77.2184754, "maps_url": "https://www.google.com/maps/search/?api=1&query=Prime%20Rice%20Company&query_place_id=ChIJfYQ73iz9DDkRMh9aXrj8f-g"}, {"place_id": "ChIJt7QR--b9DDkRFHrGVoPFoqg", "name": "Ram Dev & Company", "street": "135, Khari Baoli Rd, Gadodia Market, Fatehpuri, Chandni Chowk, New Delhi, Delhi, 110006, India", "phone": "+91 98739 30467", "rating": "4.6", "review_count": "", "website": "https://hing.co.in/", "latitude": 28.6568659, "longitude": 77.22164289999999, "maps_url": "https://www.google.com/maps/search/?api=1&query=Ram%20Dev%20%26%20Company&query_place_id=ChIJt7QR--b9DDkRFHrGVoPFoqg"}, {"place_id": "ChIJVVVVQRL9DDkRhdJFD0JWg4g", "name": "Sandeep Optical Company Private Limited", "street": "267/1, Katra Bariyan, katra Baryan, Fatehpuri, Chandni Chowk, New Delhi, Delhi, 110006, India", "phone": "+91 98112 28281", "rating": "4.9", "review_count": "", "website": "", "latitude": 28.656137299999997, "longitude": 77.22312699999999, "maps_url": "https://www.google.com/maps/search/?api=1&query=Sandeep%20Optical%20Company%20Private%20Limited&query_place_id=ChIJVVVVQRL9DDkRhdJFD0JWg4g"}, {"place_id": "ChIJv5TpZRL9DDkRs2CdCVQThX4", "name": "A. Kumar Trading Co (P) Ltd", "street": "6536, Khari Baoli, Chandni Chowk, Khari Baoli Rd, near Fatehpuri Masjid, Fatehpuri, Old Delhi, New Delhi, Delhi, 110006, India", "phone": "+91 11 2393 8801", "rating": "1.7", "review_count": "", "website": "", "latitude": 28.6570118, "longitude": 77.2223503, "maps_url": "https://www.google.com/maps/search/?api=1&query=A.%20Kumar%20Trading%20Co%20%28P%29%20Ltd&query_place_id=ChIJv5TpZRL9DDkRs2CdCVQThX4"}, {"place_id": "ChIJsb3kahL9DDkRL6gg6ZvlHaE", "name": "Rajiv Trading Co", "street": "399, Khari Baoli Rd, Katra Pedan, Khari Baoli, Old Delhi, Delhi, 110006, India", "phone": "+91 98688 18111", "rating": "5", "review_count": "", "website": "", "latitude": 28.6573139, "longitude": 77.22196009999999, "maps_url": "https://www.google.com/maps/search/?api=1&query=Rajiv%20Trading%20Co&query_place_id=ChIJsb3kahL9DDkRL6gg6ZvlHaE"}, {"place_id": "ChIJn4i0bIL9DDkRG67L4r3aHEg", "name": "VAIBHAV INTERNATIONAL", "street": "1ST FLOOR, 2323, Gali Hinga Beg, Tilak Bazar, Khari Baoli, Chandni Chowk, Delhi, 110006, India", "phone": "+91 88519 48479", "rating": "5", "review_count": "", "website": "", "latitude": 28.658844199999997, "longitude": 77.2203354, "maps_url": "https://www.google.com/maps/search/?api=1&query=VAIBHAV%20INTERNATIONAL&query_place_id=ChIJn4i0bIL9DDkRG67L4r3aHEg"}, {"place_id": "ChIJHdqaXm79DDkRnDZmbPdfX-4", "name": "Prayer Bags", "street": "5754, 66, Basti Harphool Singh, Ahata Kidara, Sadar Bazaar, Delhi, 110006, India", "phone": "+91 99901 46814", "rating": "4.9", "review_count": "", "website": "http://www.prayerbag.com/", "latitude": 28.6545234, "longitude": 77.21009939999999, "maps_url": "https://www.google.com/maps/search/?api=1&query=Prayer%20Bags&query_place_id=ChIJHdqaXm79DDkRnDZmbPdfX-4"}, {"place_id": "ChIJY516FST9DDkROI0-CcTmYsw", "name": "SHARMA TRADING COMPANY", "street": "Shop no:354 (ground Floor, Press St, Narain Market, Sadar Bazaar, Delhi, 110006, India", "phone": "+91 11 4244 4922", "rating": "4.8", "review_count": "", "website": "https://www.sharmatradingdelhi.com/", "latitude": 28.6573541, "longitude": 77.21452049999999, "maps_url": "https://www.google.com/maps/search/?api=1&query=SHARMA%20TRADING%20COMPANY&query_place_id=ChIJY516FST9DDkROI0-CcTmYsw"}, {"place_id": "ChIJW-zNhA39DDkR0OzoIKNuhaI", "name": "Pioneer Chemical Company", "street": "313-314, Tilak Bazar, Katra Pedan, Khari Baoli, Old Delhi, Delhi, 110006, India", "phone": "+91 98990 32261", "rating": "4", "review_count": "", "website": "http://www.pioneerchemicals.co.in/", "latitude": 28.657508, "longitude": 77.2207767, "maps_url": "https://www.google.com/maps/search/?api=1&query=Pioneer%20Chemical%20Company&query_place_id=ChIJW-zNhA39DDkR0OzoIKNuhaI"}, {"place_id": "ChIJWXwNLhL9DDkRmq7wv468b3w", "name": "Anantram Radhelal Goods Transport", "street": "188, Katra Bariyan, Naya Bans, Fatehpuri, Chandni Chowk, New Delhi, Delhi, 110006, India", "phone": "+91 79825 17763", "rating": "5", "review_count": "", "website": "", "latitude": 28.655241, "longitude": 77.22170899999999, "maps_url": "https://www.google.com/maps/search/?api=1&query=Anantram%20Radhelal%20Goods%20Transport&query_place_id=ChIJWXwNLhL9DDkRmq7wv468b3w"}, {"place_id": "ChIJAQAAfA39DDkR7Qk7dNrMad8", "name": "Mallika Punjab Fruit Factory", "street": "Shop No. 6676,, Khari Baoli Rd, Fatehpuri, Chandni Chowk, New Delhi, Delhi 110006, India", "phone": "+91 99911 10742", "rating": "4.9", "review_count": "", "website": "http://mallikaindustries.com/", "latitude": 28.6570386, "longitude": 77.2211501, "maps_url": "https://www.google.com/maps/search/?api=1&query=Mallika%20Punjab%20Fruit%20Factory&query_place_id=ChIJAQAAfA39DDkR7Qk7dNrMad8"}, {"place_id": "ChIJlx5-7JT9DDkRhhF-CJlswh4", "name": "SHIVANSH ENTERPRISES", "street": "C-5, Street No.3, near HANSRAJ MARKET, Block T, GAMRI EXTENSION, SUDAMAPURI, Delhi, 110053, India", "phone": "+91 88265 49483", "rating": "5", "review_count": "", "website": "", "latitude": 28.6781546, "longitude": 77.264049, "maps_url": "https://www.google.com/maps/search/?api=1&query=SHIVANSH%20ENTERPRISES&query_place_id=ChIJlx5-7JT9DDkRhhF-CJlswh4"}, {"place_id": "ChIJM9r7u0r9DDkRiUvt7zjjpRM", "name": "IT Executive vivek", "street": "22, Vijay Ghat, Raj Ghat, New Delhi, Delhi, 110006, India", "phone": "", "rating": "", "review_count": "", "website": "https://itexecuitive.com/", "latitude": 28.6584512, "longitude": 77.2449233, "maps_url": "https://www.google.com/maps/search/?api=1&query=IT%20Executive%20vivek&query_place_id=ChIJM9r7u0r9DDkRiUvt7zjjpRM"}, {"place_id": "ChIJAQAAfA39DDkRpCHH1uj0YzU", "name": "Baby Saffron", "street": "Ist Floor, 2105, Khari Baoli Rd, Naya Bazar, Khari Baoli, Chandni Chowk, New Delhi, Delhi, 110006, India", "phone": "+91 11 2393 1155", "rating": "4.1", "review_count": "", "website": "", "latitude": 28.657317, "longitude": 77.220385, "maps_url": "https://www.google.com/maps/search/?api=1&query=Baby%20Saffron&query_place_id=ChIJAQAAfA39DDkRpCHH1uj0YzU"}, {"place_id": "ChIJ9VdsbRL9DDkRgNErKwkBvNo", "name": "Kirti Trading Company", "street": "428, Katra Maidgran, Khari Baoli, Delhi, 110006, India", "phone": "+91 11 2392 6116", "rating": "5", "review_count": "", "website": "http://kirtitradingcompany.com/", "latitude": 28.6574448, "longitude": 77.2217153, "maps_url": "https://www.google.com/maps/search/?api=1&query=Kirti%20Trading%20Company&query_place_id=ChIJ9VdsbRL9DDkRgNErKwkBvNo"}]