[{"place_id": "ChIJxZy1jSn9YjkR-LjfTD2Lpok", "name": "Mohjay Infotech Pvt Ltd", "street": "178, Tilak Nagar Main Rd, near Arihant Dairy, Tilak Nagar, Indore, Madhya Pradesh 452018, India", "phone": "+91 76191 49447", "rating": "5", "review_count": "", "website": "https://mohjayinfotech.com/", "latitude": 22.718504499999998, "longitude": 75.8968519, "maps_url": "https://www.google.com/maps/search/?api=1&query=Mohjay%20Infotech%20Pvt%20Ltd&query_place_id=ChIJxZy1jSn9YjkR-LjfTD2Lpok"}, {"place_id": "ChIJP0D43qz9YjkRduEqKZpzV2c", "name": "MMP IT SOLUTIONS", "street": "Office No 105, 1st Floor, 178, Tilak Nagar, Indore, Madhya Pradesh 452018, India", "phone": "+91 99816 31685", "rating": "4.5", "review_count": "", "website": "https://mmpitsolutions.com/", "latitude": 22.7182103, "longitude": 75.8968953, "maps_url": "https://www.google.com/maps/search/?api=1&query=MMP%20IT%20SOLUTIONS&query_place_id=ChIJP0D43qz9YjkRduEqKZpzV2c"}, {"place_id": "ChIJK9YaXVzjYjkRxq2IyYpNDac", "name": "Techeminent Technologies PVT. LTD.", "street": "201, Shakti Tower, Sector A, Goyal Nagar, Indore, Madhya Pradesh 452018, India", "phone": "+91 90390 91816", "rating": "5", "review_count": "", "website": "https://techeminent.in/", "latitude": 22.7167669, "longitude": 75.9049737, "maps_url": "https://www.google.com/maps/search/?api=1&query=Techeminent%20Technologies%20PVT.%20LTD.&query_place_id=ChIJK9YaXVzjYjkRxq2IyYpNDac"}, {"place_id": "ChIJsQOUlsb9YjkRUMKZIshGBt4", "name": "IT Spark Technology Pvt. Ltd.", "street": "4th Floor 418 Shekhar Central Manoramaganj, New Palasia, Indore, Madhya Pradesh 452001, India", "phone": "+91 91098 45654", "rating": "4.8", "review_count": "", "website": "http://www.itsparktechnology.com/", "latitude": 22.722727, "longitude": 75.88707099999999, "maps_url": "https://www.google.com/maps/search/?api=1&query=IT%20Spark%20Technology%20Pvt.%20Ltd.&query_place_id=ChIJsQOUlsb9YjkRUMKZIshGBt4"}, {"place_id": "ChIJo5HXuPLjYjkRwr_aDvO7-Lc", "name": "Gac Infotech", "street": "102, PWC3+8C7, vinayak apartment, Bicholi Mardana Rd, Swami Vivekanand Nagar, Indore, Madhya Pradesh 452018, India", "phone": "", "rating": "4.9", "review_count": "", "website": "", "latitude": 22.7207136, "longitude": 75.9034932, "maps_url": "https://www.google.com/maps/search/?api=1&query=Gac%20Infotech&query_place_id=ChIJo5HXuPLjYjkRwr_aDvO7-Lc"}, {"place_id": "ChIJ-4MA6q7jYjkRT7Oz2rmScg8", "name": "Ixora Infotech Private Limited", "street": "2nd Floor, Amma Complex, 97, Kanadia Rd, Sector A, Sanvid Nagar, Indore, Madhya Pradesh 452018, India", "phone": "+91 87701 48013", "rating": "4.3", "review_count": "", "website": "https://ixorainfotech.com/", "latitude": 22.7207307, "longitude": 75.9003184, "maps_url": "https://www.google.com/maps/search/?api=1&query=Ixora%20Infotech%20Private%20Limited&query_place_id=ChIJ-4MA6q7jYjkRT7Oz2rmScg8"}, {"place_id": "ChIJRaXFDfvjYjkRw46ucr0LOpA", "name": "Suntech Solution India", "street": "G-2 Aradhna Apartment 98, manbhavan nagar, near PNB Bank, Bicholi Mardana, Indore, Madhya Pradesh 452018, India", "phone": "+91 99935 76001", "rating": "5", "review_count": "", "website": "", "latitude": 22.7215307, "longitude": 75.9055202, "maps_url": "https://www.google.com/maps/search/?api=1&query=Suntech%20Solution%20India&query_place_id=ChIJRaXFDfvjYjkRw46ucr0LOpA"}, {"place_id": "ChIJB9V-VWIdYzkRGpenK3q2wl0", "name": "Royal IT Service - IT Company in Indore", "street": "426 Scheme No. 114 Part 2, Anurag Nagar Ln, B/H, Shalimar Township, Indore, Madhya Pradesh 452010, India", "phone": "+91 92851 92850", "rating": "4.2", "review_count": "", "website": "http://royalitservice.com/", "latitude": 22.7622528, "longitude": 75.9022899, "maps_url": "https://www.google.com/maps/search/?api=1&query=Royal%20IT%20Service%20-%20IT%20Company%20in%20Indore&query_place_id=ChIJB9V-VWIdYzkRGpenK3q2wl0"}, {"place_id": "ChIJYfrhUWD9YjkRRZPzRZPEGuo", "name": "Bluetech IT Services", "street": "", "phone": "+91 98935 09996", "rating": "4.6", "review_count": "", "website": "https://www.bluetechitservices.com/", "latitude": 14.157641199999999, "longitude": -16.7424939, "maps_url": "https://www.google.com/maps/search/?api=1&query=Bluetech%20IT%20Services&query_place_id=ChIJYfrhUWD9YjkRRZPzRZPEGuo"}, {"place_id": "ChIJm5r9nEXjYjkRaG4n1hrlSJM", "name": "Upmarkup SEO Company Indore", "street": "G1, GANESH APARTMENT, Vandana Nagar Extension, Sector A, Vandana Nagar, Indore, Madhya Pradesh 452018, India", "phone": "+91 94242 35596", "rating": "5", "review_count": "", "website": "http://ranking10x.com/", "latitude": 22.7159802, "longitude": 75.8999523, "maps_url": "https://www.google.com/maps/search/?api=1&query=Upmarkup%20SEO%20Company%20Indore&query_place_id=ChIJm5r9nEXjYjkRaG4n1hrlSJM"}, {"place_id": "ChIJU4-Adyz9YjkR2rzASooRtlA", "name": "10XDigitals: Result Driven Digital Marketing Company in Indore", "street": "c5, Sector A, Goyal Nagar, Indore, Madhya Pradesh 452018, India", "phone": "+91 78692 85359", "rating": "5", "review_count": "", "website": "https://www.10xdigitals.com/?utm_source=Organic+&utm_medium=GBL+&utm_campaign=10XDigitals&utm_id=GBL_10XDigitals_Indore", "latitude": 22.7181338, "longitude": 75.9048686, "maps_url": "https://www.google.com/maps/search/?api=1&query=10XDigitals%3A%20Result%20Driven%20Digital%20Marketing%20Company%20in%20Indore&query_place_id=ChIJU4-Adyz9YjkR2rzASooRtlA"}, {"place_id": "ChIJkx4oC7P9YjkRivdcqx3A4Qk", "name": "Aiminent IT Solutions", "street": "2nd floor, 6 Dravid Nagar, Footi Kothi Main Road,, above Andhra Bank, Indore, Madhya Pradesh 452009, India", "phone": "+91 731 400 5778", "rating": "4.3", "review_count": "", "website": "http://aiminent.com/", "latitude": 22.70109, "longitude": 75.8374362, "maps_url": "https://www.google.com/maps/search/?api=1&query=Aiminent%20IT%20Solutions&query_place_id=ChIJkx4oC7P9YjkRivdcqx3A4Qk"}, {"place_id": "ChIJu50gUS39YjkR9bqiNi3fb0o", "name": "Aspire Initiatives Co.", "street": "168, Vaibhav Nagar, Tilak Nagar Extension, Tilak Nagar, Indore, Madhya Pradesh 452018, India", "phone": "+91 92380 21795", "rating": "4.7", "review_count": "", "website": "http://aspireinitiativesco.com/", "latitude": 22.7150926, "longitude": 75.899331, "maps_url": "https://www.google.com/maps/search/?api=1&query=Aspire%20Initiatives%20Co.&query_place_id=ChIJu50gUS39YjkR9bqiNi3fb0o"}, {"place_id": "ChIJh6-LT3_9YjkRWMU7NvN1j1k", "name": "Aimfortech - Software | SaaS | Web | E-Commerce Gaming App Development Company in India", "street": "103, Greater Kailash Road, above Nafees Restaurant, Old Palasia, Indore, Madhya Pradesh 452018, India", "phone": "+91 731 406 6773", "rating": "5", "review_count": "", "website": "https://www.aimfortech.com/", "latitude": 22.7257765, "longitude": 75.8878778, "maps_url": "https://www.google.com/maps/search/?api=1&query=Aimfortech%20-%20Software%20%7C%20SaaS%20%7C%20Web%20%7C%20E-Commerce%20Gaming%20App%20Development%20Company%20in%20India&query_place_id=ChIJh6-LT3_9YjkRWMU7NvN1j1k"}, {"place_id": "ChIJ5bkziuIDYzkRKYXb88dtVd4", "name": "Bloom Media", "street": "D - 48, Bakhtawar Ram Nagar, Tilak Nagar Extension, Tilak Nagar, Indore, Madhya Pradesh 452018, India", "phone": "+91 88714 23162", "rating": "4.8", "review_count": "", "website": "", "latitude": 22.7146103, "longitude": 75.89543929999999, "maps_url": "https://www.google.com/maps/search/?api=1&query=Bloom%20Media&query_place_id=ChIJ5bkziuIDYzkRKYXb88dtVd4"}, {"place_id": "ChIJhx9ZnZXjYjkRjIsG0hhJMeI", "name": "MAHI TECHNOLOGIES", "street": "Sector A, Sanvid Nagar, Indore, Madhya Pradesh 452018, India", "phone": "+91 98938 60306", "rating": "5", "review_count": "", "website": "http://mahitechnologies.co.in/", "latitude": 22.7207859, "longitude": 75.8989599, "maps_url": "https://www.google.com/maps/search/?api=1&query=MAHI%20TECHNOLOGIES&query_place_id=ChIJhx9ZnZXjYjkRjIsG0hhJMeI"}, {"place_id": "ChIJq0SvjVX9YjkROZqhcwy47lg", "name": "Procure Consultancy India Pvt. Ltd.", "street": "S-1 2nd floor.,Suryansh commercial complex, 20, Ashish Nagar Rd, near bengali square, Indore, Madhya Pradesh 452016, India", "phone": "+91 731 424 7911", "rating": "4.9", "review_count": "", "website": "http://procureconsultancy.com/", "latitude": 22.716446899999998, "longitude": 75.9079412, "maps_url": "https://www.google.com/maps/search/?api=1&query=Procure%20Consultancy%20India%20Pvt.%20Ltd.&query_place_id=ChIJq0SvjVX9YjkROZqhcwy47lg"}, {"place_id": "ChIJGYuIY7vjYjkRlXtFkoIoHM8", "name": "EraSoft Infotech", "street": "363, Eastern Ring Rd, Goyal Nagar, Indore, Madhya Pradesh 452016, India", "phone": "", "rating": "4.5", "review_count": "", "website": "http://erasoftinfotech.com/", "latitude": 22.7177468, "longitude": 75.9065908, "maps_url": "https://www.google.com/maps/search/?api=1&query=EraSoft%20Infotech&query_place_id=ChIJGYuIY7vjYjkRlXtFkoIoHM8"}, {"place_id": "ChIJd1ljDUj9YjkR86S6JSgu-HI", "name": "Mango IT Solutions", "street": "15/3, Old Palasia Rd, behind sarda house, Old Palasia, Indore, Madhya Pradesh 452018, India", "phone": "+91 731 404 6693", "rating": "4.3", "review_count": "", "website": "http://www.mangoitsolutions.com/", "latitude": 22.7276298, "longitude": 75.8888766, "maps_url": "https://www.google.com/maps/search/?api=1&query=Mango%20IT%20Solutions&query_place_id=ChIJd1ljDUj9YjkR86S6JSgu-HI"}, {"place_id": "ChIJoZqpaQgdYzkR7tCDoZdUHHg", "name": "Vyanwebs Private Limited", "street": "N- Friends Colony Ring Road Bangali Square Above the SBI Indore 452016, Indore, Madhya Pradesh 452001, India", "phone": "+91 91117 21315", "rating": "4.4", "review_count": "", "website": "http://vyanwebs.com/", "latitude": 22.7208233, "longitude": 75.9065129, "maps_url": "https://www.google.com/maps/search/?api=1&query=Vyanwebs%20Private%20Limited&query_place_id=ChIJoZqpaQgdYzkR7tCDoZdUHHg"}, {"place_id": "ChIJRZFHKBXjYjkRb5JpE3v9p-M", "name": "treeinova technologies", "street": "Kanadia Rd, Sector A, Sanvid Nagar, Indore, Madhya Pradesh 452018, India", "phone": "+91 99938 07442", "rating": "5", "review_count": "", "website": "https://treeinova.com/", "latitude": 22.7207178, "longitude": 75.90046269999999, "maps_url": "https://www.google.com/maps/search/?api=1&query=treeinova%20technologies&query_place_id=ChIJRZFHKBXjYjkRb5JpE3v9p-M"}, {"place_id": "ChIJl4l3GDP9YjkRL8RY7PHxRdw", "name": "nik computers & accessories", "street": "213, Tilak Nagar Main Rd, Savindnagar, Tilak Nagar, Indore, Madhya Pradesh 452018, India", "phone": "+91 88899 94445", "rating": "4.2", "review_count": "", "website": "", "latitude": 22.7190573, "longitude": 75.8984761, "maps_url": "https://www.google.com/maps/search/?api=1&query=nik%20computers%20%26%20accessories&query_place_id=ChIJl4l3GDP9YjkRL8RY7PHxRdw"}, {"place_id": "ChIJ9Q1CK6XjYjkR5wGQa3nl1YM", "name": "Simplex Corporate Advisory", "street": "2nd Floor, 97, Sector A, Sanvid Nagar, Indore, Madhya Pradesh 452018, India", "phone": "+91 82406 81029", "rating": "5", "review_count": "", "website": "http://simplexcorpadv.in/", "latitude": 22.7207382, "longitude": 75.9002077, "maps_url": "https://www.google.com/maps/search/?api=1&query=Simplex%20Corporate%20Advisory&query_place_id=ChIJ9Q1CK6XjYjkR5wGQa3nl1YM"}, {"place_id": "ChIJwfLJW6_9YjkRtv8VAF5U8GY", "name": "Shri Sai Software Solution", "street": "43, Kanadia Rd, Sector A, Sanvid Nagar, Indore, Madhya Pradesh 452016, India", "phone": "+91 98939 83900", "rating": "", "review_count": "", "website": "https://www.shrisaisoftware.com/", "latitude": 22.7209275, "longitude": 75.899104, "maps_url": "https://www.google.com/maps/search/?api=1&query=Shri%20Sai%20Software%20Solution&query_place_id=ChIJwfLJW6_9YjkRtv8VAF5U8GY"}, {"place_id": "ChIJeWCHuRX9YjkRv5T26TFwhRE", "name": "India Infotech", "street": "379-380, Service Rd, Goyal Nagar, Tilak Nagar, Indore, Madhya Pradesh 452016, India", "phone": "+91 731 404 8027", "rating": "3.5", "review_count": "", "website": "https://www.ctechbyai.com/p/indiainfotech.html", "latitude": 22.717432499999997, "longitude": 75.9066162, "maps_url": "https://www.google.com/maps/search/?api=1&query=India%20Infotech&query_place_id=ChIJeWCHuRX9YjkRv5T26TFwhRE"}, {"place_id": "ChIJW9zoE0LQBWwRUGkScoqbG8s", "name": "Mr Digiweb", "street": "78, Bengali Square, Manbhavan Nagar, Indore, Madhya Pradesh 452016, India", "phone": "", "rating": "5", "review_count": "", "website": "https://mrdigiweb.com/", "latitude": 22.719965, "longitude": 75.9067345, "maps_url": "https://www.google.com/maps/search/?api=1&query=Mr%20Digiweb&query_place_id=ChIJW9zoE0LQBWwRUGkScoqbG8s"}, {"place_id": "ChIJOefVkYXjYjkRkW2BydBqT20", "name": "Robonence innovate", "street": "145, Kanadia Rd, extension, Mahavir Nagar, Indore, Madhya Pradesh 452018, India", "phone": "", "rating": "5", "review_count": "", "website": "https://robonence.com/", "latitude": 22.7195641, "longitude": 75.9009543, "maps_url": "https://www.google.com/maps/search/?api=1&query=Robonence%20innovate&query_place_id=ChIJOefVkYXjYjkRkW2BydBqT20"}, {"place_id": "ChIJs3jKSyP9YjkRogLxgfKrWfU", "name": "Sologenx", "street": "Chameli Park, Goyal Nagar, Indore, Madhya Pradesh 452016, India", "phone": "+91 70642 12345", "rating": "", "review_count": "", "website": "https://sologenx.com/", "latitude": 22.7156296, "longitude": 75.9047307, "maps_url": "https://www.google.com/maps/search/?api=1&query=Sologenx&query_place_id=ChIJs3jKSyP9YjkRogLxgfKrWfU"}, {"place_id": "ChIJd0d7YTP9YjkROZ2gScsKXwc", "name": "Ingenious Solution", "street": "4th Floor Office No. 203, Nihal palace, 31, Kanadia Rd, Goyal Nagar, Sanvid Nagar, Indore, Madhya Pradesh 452018, India", "phone": "+91 79746 39114", "rating": "", "review_count": "", "website": "http://ingeniousolution.com/", "latitude": 22.721029599999998, "longitude": 75.89808049999999, "maps_url": "https://www.google.com/maps/search/?api=1&query=Ingenious%20Solution&query_place_id=ChIJd0d7YTP9YjkROZ2gScsKXwc"}, {"place_id": "ChIJAQBQeDf9YjkReqK46k0M2Gs", "name": "A2 Mobi & Lapi Fusion", "street": "117 ,kanadia main road , opposite sabji Mandi, Indore, Madhya Pradesh 452018, India", "phone": "+91 78797 79023", "rating": "4.9", "review_count": "", "website": "", "latitude": 22.721332999999998, "longitude": 75.898209, "maps_url": "https://www.google.com/maps/search/?api=1&query=A2%20Mobi%20%26%20Lapi%20Fusion&query_place_id=ChIJAQBQeDf9YjkReqK46k0M2Gs"}, {"place_id": "ChIJnUCC9979YjkRIB76VGi4RYE", "name": "Optiwise infrastructure", "street": "Samvid Nagar, 111, Kanadia Rd, Sector A, Sanvid Nagar, Indore, Madhya Pradesh 452018, India", "phone": "+91 90393 45023", "rating": "5", "review_count": "", "website": "https://optiwiseinfrastructure.com/contact-us/", "latitude": 22.720429799999998, "longitude": 75.8998364, "maps_url": "https://www.google.com/maps/search/?api=1&query=Optiwise%20infrastructure&query_place_id=ChIJnUCC9979YjkRIB76VGi4RYE"}, {"place_id": "ChIJEVrrbfA4rWMRT3H2bnaeP6E", "name": "Shining star corporation", "street": "Samvid Nagar, Kanadia Rd, Sector A, Sanvid Nagar, Indore, Madhya Pradesh 452018, India", "phone": "+91 96444 69626", "rating": "4.6", "review_count": "", "website": "https://shining-star-corporation.grexa.site/", "latitude": 22.720793, "longitude": 75.8996745, "maps_url": "https://www.google.com/maps/search/?api=1&query=Shining%20star%20corporation&query_place_id=ChIJEVrrbfA4rWMRT3H2bnaeP6E"}, {"place_id": "ChIJc6bbsHH9YjkR_sLbIn7vuWk", "name": "It's Unicorntech", "street": "2, Ambedkar Nagar Rd, Mig Colony, New Palasia, Indore, Madhya Pradesh 452001, India", "phone": "+91 95895 72990", "rating": "", "review_count": "", "website": "http://itsunicorntech.com/", "latitude": 22.7309429, "longitude": 75.88466869999999, "maps_url": "https://www.google.com/maps/search/?api=1&query=It%27s%20Unicorntech&query_place_id=ChIJc6bbsHH9YjkR_sLbIn7vuWk"}, {"place_id": "ChIJ7Rg8ijH9YjkRnZ5aJ3_3ZPU", "name": "Grow and Turn", "street": "301 A - 106, Kanadia Rd, above Bata Showroom, Sanvid Nagar, Indore, Madhya Pradesh 452018, India", "phone": "+91 86886 16358", "rating": "5", "review_count": "", "website": "http://www.growandturn.com/", "latitude": 22.7212493, "longitude": 75.899048, "maps_url": "https://www.google.com/maps/search/?api=1&query=Grow%20and%20Turn&query_place_id=ChIJ7Rg8ijH9YjkRnZ5aJ3_3ZPU"}, {"place_id": "ChIJ0w84ODn9YjkRch591cMz_B0", "name": "BungalowMakers / Architecture , Interior design and House construction Company", "street": "Bengali sqaure, 163 B, Sector A, Goyal Nagar, Indore, Madhya Pradesh 452018, India", "phone": "+91 78800 88716", "rating": "4.7", "review_count": "", "website": "https://www.bungalowmakers.com/", "latitude": 22.7179856, "longitude": 75.9040144, "maps_url": "https://www.google.com/maps/search/?api=1&query=BungalowMakers%20/%20Architecture%20%2C%20Interior%20design%20and%20House%20construction%20Company&query_place_id=ChIJ0w84ODn9YjkRch591cMz_B0"}, {"place_id": "ChIJqV6kBEv9YjkRLtgaqI51Lc0", "name": "Divisha Business Solutions Pvt Ltd", "street": "Amma Business Complex, 303, Kanadia Rd, Sector A, Sanvid Nagar, Indore, Madhya Pradesh 452016, India", "phone": "+91 89822 11017", "rating": "", "review_count": "", "website": "https://dbs-lab.com/", "latitude": 22.720793, "longitude": 75.8996745, "maps_url": "https://www.google.com/maps/search/?api=1&query=Divisha%20Business%20Solutions%20Pvt%20Ltd&query_place_id=ChIJqV6kBEv9YjkRLtgaqI51Lc0"}, {"place_id": "ChIJrTZvYwD9YjkRr81FmpKQ_60", "name": "Aspire Library & Co-working", "street": "106, Kanadia Rd, near Hanuman Temple, Sanvid Nagar, Indore, Madhya Pradesh 452018, India", "phone": "+91 90097 17109", "rating": "5", "review_count": "", "website": "", "latitude": 22.7211946, "longitude": 75.8991308, "maps_url": "https://www.google.com/maps/search/?api=1&query=Aspire%20Library%20%26%20Co-working&query_place_id=ChIJrTZvYwD9YjkRr81FmpKQ_60"}, {"place_id": "ChIJM0lZ09HiYjkRoHf-J1aAYLw", "name": "Ascent Brand Communications Pvt. Ltd.", "street": "40, Ascent House, 2nd Floor, Kanadia Main Rd, Brijeshwari Annexe, Indore, Madhya Pradesh 452016, India", "phone": "+91 62661 45606", "rating": "4.1", "review_count": "", "website": "https://www.ascentgroupindia.com/", "latitude": 22.7163641, "longitude": 75.9084369, "maps_url": "https://www.google.com/maps/search/?api=1&query=Ascent%20Brand%20Communications%20Pvt.%20Ltd.&query_place_id=ChIJM0lZ09HiYjkRoHf-J1aAYLw"}, {"place_id": "ChIJ37XzMaPjYjkRtXL2W7OvVPg", "name": "Deepneural Technologies Private Limited", "street": "31, Kanadia Main Rd, Goyal Nagar, Indore, Madhya Pradesh 452016, India", "phone": "", "rating": "", "review_count": "", "website": "", "latitude": 22.7192316, "longitude": 75.90846599999999, "maps_url": "https://www.google.com/maps/search/?api=1&query=Deepneural%20Technologies%20Private%20Limited&query_place_id=ChIJ37XzMaPjYjkRtXL2W7OvVPg"}, {"place_id": "ChIJG4ON8Sr9YjkR6xelJMSch_M", "name": "Rishabh Solar enterprises indore", "street": "178, Tilak Nagar Main Rd, near arihant doodh dairy, Tilak Nagar, Indore, Madhya Pradesh 452001, India", "phone": "+91 92447 96808", "rating": "5", "review_count": "", "website": "", "latitude": 22.718348499999998, "longitude": 75.8964294, "maps_url": "https://www.google.com/maps/search/?api=1&query=Rishabh%20Solar%20enterprises%20indore&query_place_id=ChIJG4ON8Sr9YjkR6xelJMSch_M"}, {"place_id": "ChIJry7uTs7iYjkR4jPYTamsXvA", "name": "Right Engineering", "street": "19, Brijeshwari Annexe, Indore, Madhya Pradesh 452016, India", "phone": "", "rating": "5", "review_count": "", "website": "http://www.rightengineering.in/", "latitude": 22.717859699999998, "longitude": 75.9083769, "maps_url": "https://www.google.com/maps/search/?api=1&query=Right%20Engineering&query_place_id=ChIJry7uTs7iYjkR4jPYTamsXvA"}, {"place_id": "ChIJ0TlWH1odYzkRDMpCLYNr2JI", "name": "Key Elements Marketing Solutions", "street": "79 Utkarsh Estate, Ashish Nagar. 1st & 2nd Floor Near Arihant Gas Agency., above Scoopy Scrub, Madhya Pradesh 452016, India", "phone": "+91 731 409 8659", "rating": "4.7", "review_count": "", "website": "https://keyelements.in/", "latitude": 22.7164456, "longitude": 75.9068987, "maps_url": "https://www.google.com/maps/search/?api=1&query=Key%20Elements%20Marketing%20Solutions&query_place_id=ChIJ0TlWH1odYzkRDMpCLYNr2JI"}, {"place_id": "ChIJGddX-6vhYjkRwGNseynKy38", "name": "HyperTrack Services Indore- GPS Enabled Fuel Tracking System", "street": "Office No. CS-4, Bengali Square, Plot No. 350, Ring Road, Goyal Nagar, Indore, Madhya Pradesh 452016, India", "phone": "+91 94075 93350", "rating": "4.8", "review_count": "", "website": "https://www.hypertrack.in/", "latitude": 22.7191983, "longitude": 75.9065502, "maps_url": "https://www.google.com/maps/search/?api=1&query=HyperTrack%20Services%20Indore-%20GPS%20Enabled%20Fuel%20Tracking%20System&query_place_id=ChIJGddX-6vhYjkRwGNseynKy38"}, {"place_id": "ChIJQaJWHM7iYjkR7xOQ8RPXgcs", "name": "CMR Infrastructure Private Limited", "street": "2/FR, Sch, No.94, Eastern Ring Rd, near Arihant Gas Agency, Sector F, Brijeshwari Annexe, Indore, Madhya Pradesh 452016, India", "phone": "+91 731 403 5239", "rating": "4.8", "review_count": "", "website": "", "latitude": 22.7163434, "longitude": 75.9066282, "maps_url": "https://www.google.com/maps/search/?api=1&query=CMR%20Infrastructure%20Private%20Limited&query_place_id=ChIJQaJWHM7iYjkR7xOQ8RPXgcs"}, {"place_id": "ChIJr6CjqJz9YjkRUbPbFecDzXY", "name": "Fours Guru- Best Digital Marketing Company in Indore| Website Development | Hosting | SEO | SMO", "street": "103,First Floor, Perk II Apartment, 361, near Bengali Square, Goyal Nagar, Mahadev Totla Nagar, Indore, Madhya Pradesh 452016, India", "phone": "+91 62329 11006", "rating": "4.9", "review_count": "", "website": "https://www.foursguru.com/", "latitude": 22.7182075, "longitude": 75.9066587, "maps_url": "https://www.google.com/maps/search/?api=1&query=Fours%20Guru-%20Best%20Digital%20Marketing%20Company%20in%20Indore%7C%20Website%20Development%20%7C%20Hosting%20%7C%20SEO%20%7C%20SMO&query_place_id=ChIJr6CjqJz9YjkRUbPbFecDzXY"}, {"place_id": "ChIJN9JYhc3iYjkRqUADT4cILns", "name": "PLANSYS - Smart Designs for Modern Living", "street": "56, Swami Vivekananda nagar, Telephone Nagar Main Rd, Swami Vivekanand Nagar, Indore, Madhya Pradesh 452018, India", "phone": "+91 97707 30305", "rating": "4.6", "review_count": "", "website": "", "latitude": 22.7215225, "longitude": 75.9035832, "maps_url": "https://www.google.com/maps/search/?api=1&query=PLANSYS%20-%20Smart%20Designs%20for%20Modern%20Living&query_place_id=ChIJN9JYhc3iYjkRqUADT4cILns"}, {"place_id": "ChIJJY8foYj9YjkRGk67REJ8S7Q", "name": "Waba For You", "street": "Amma Business Complex, 303, Kanadia Rd, Sector A, Sanvid Nagar, Indore, Madhya Pradesh 452016, India", "phone": "", "rating": "", "review_count": "", "website": "https://wabaforyou.com/", "latitude": 22.720793, "longitude": 75.8996745, "maps_url": "https://www.google.com/maps/search/?api=1&query=Waba%20For%20You&query_place_id=ChIJJY8foYj9YjkRGk67REJ8S7Q"}, {"place_id": "ChIJA-_oDkf9YjkRKKYPwjpKSYc", "name": "LassoART Designs | Web Design and Development Services | Shopify Plus Expert | SEO | SMM", "street": "203 Second Floor, S.V. Business Park Telephone Square, Kanadia Rd, above State Bank of India, Swami Vivekanand Nagar, Indore, Madhya Pradesh 452018, India", "phone": "+91 90982 33796", "rating": "4.8", "review_count": "", "website": "https://lassoart.com/", "latitude": 22.7205273, "longitude": 75.90369969999999, "maps_url": "https://www.google.com/maps/search/?api=1&query=LassoART%20Designs%20%7C%20Web%20Design%20and%20Development%20Services%20%7C%20Shopify%20Plus%20Expert%20%7C%20SEO%20%7C%20SMM&query_place_id=ChIJA-_oDkf9YjkRKKYPwjpKSYc"}, {"place_id": "ChIJ6z0H33PB5zsRO7e_n280G6c", "name": "ConnectGuru", "street": "45, Mahavir Nagar Main Rd, Sector A, Mahavir Nagar, Indore, Madhya Pradesh 452018, India", "phone": "+91 93219 07523", "rating": "", "review_count": "", "website": "", "latitude": 22.7197937, "longitude": 75.9016082, "maps_url": "https://www.google.com/maps/search/?api=1&query=ConnectGuru&query_place_id=ChIJ6z0H33PB5zsRO7e_n280G6c"}, {"place_id": "ChIJ1yRaxFH9YjkR1BN1WJXgJx0", "name": "MangalMurty Buildtech Private Limited", "street": "8-9 Vaishnav Trust Hospital Parisar, 205, Tilak Nagar, Indore, Madhya Pradesh 452018, India", "phone": "+91 94250 74043", "rating": "4.9", "review_count": "", "website": "", "latitude": 22.718699599999997, "longitude": 75.8975725, "maps_url": "https://www.google.com/maps/search/?api=1&query=MangalMurty%20Buildtech%20Private%20Limited&query_place_id=ChIJ1yRaxFH9YjkR1BN1WJXgJx0"}, {"place_id": "ChIJXcj-sWn9YjkRNY2LGKQ0Ulw", "name": "Sutradhaar Events And Catering, Best event management company in Indore", "street": "38-B Sainath colony, behind tikal nagar school, Tilak Nagar, Indore, Madhya Pradesh 452018, India", "phone": "+91 93039 92942", "rating": "5", "review_count": "", "website": "https://youtube.com/@sutradhaareventcatering8776", "latitude": 22.717421599999998, "longitude": 75.89821789999999, "maps_url": "https://www.google.com/maps/search/?api=1&query=Sutradhaar%20Events%20And%20Catering%2C%20Best%20event%20management%20company%20in%20Indore&query_place_id=ChIJXcj-sWn9YjkRNY2LGKQ0Ulw"}, {"place_id": "ChIJt7mdECP9YjkRtXSpi51UJjM", "name": "S.K.Traders", "street": "Near, Block-M Friends Row Housing Society, Near SBI ATM, Service Road, Ring Road, Bengali Square, Indore, Madhya Pradesh 452016, India", "phone": "+91 731 408 2106", "rating": "4.5", "review_count": "", "website": "", "latitude": 22.7208632, "longitude": 75.90650459999999, "maps_url": "https://www.google.com/maps/search/?api=1&query=S.K.Traders&query_place_id=ChIJt7mdECP9YjkRtXSpi51UJjM"}, {"place_id": "ChIJ6750cE0uXIgRPpj00kno5DA", "name": "The IT Company", "street": "16 Emory Pl STE 100, Knoxville, TN 37917", "phone": "(865) 392-9200", "rating": "4.8", "review_count": "", "website": "https://theitcompany.com/?utm_source=google&utm_medium=organic&utm_campaign=Google+Business+Profile", "latitude": 35.974151899999995, "longitude": -83.922608, "maps_url": "https://www.google.com/maps/search/?api=1&query=The%20IT%20Company&query_place_id=ChIJ6750cE0uXIgRPpj00kno5DA"}, {"place_id": "ChIJ3w78l0D9YjkRoHwBlSCL8SQ", "name": "Lex Maven LLP (Advocates & Law Firm)", "street": "22-A, near Tilak Nagar, Sector A, Sainath Colony, Indore, Madhya Pradesh 452018, India", "phone": "+91 99268 56559", "rating": "4.9", "review_count": "", "website": "http://www.lexmaven.com/", "latitude": 22.7174318, "longitude": 75.9004738, "maps_url": "https://www.google.com/maps/search/?api=1&query=Lex%20Maven%20LLP%20%28Advocates%20%26%20Law%20Firm%29&query_place_id=ChIJ3w78l0D9YjkRoHwBlSCL8SQ"}, {"place_id": "ChIJ21GGks7iYjkR9ovpZ3DBPa0", "name": "Creative Web designer", "street": "1, Gajraj Nagar Near Madhavrav sindhya Square, Indore, Madhya Pradesh 452016, India", "phone": "+91 731 259 2616", "rating": "4.8", "review_count": "", "website": "http://www.creativewebdesigner.in/", "latitude": 22.719898999999998, "longitude": 75.906959, "maps_url": "https://www.google.com/maps/search/?api=1&query=Creative%20Web%20designer&query_place_id=ChIJ21GGks7iYjkR9ovpZ3DBPa0"}, {"place_id": "ChIJO7uKFc39YjkR57qFTEAZqOU", "name": "Tilak Constructions", "street": "388, 9, Tilak Nagar Main Rd, Savindnagar, Tilak Nagar, Indore, Madhya Pradesh 452018, India", "phone": "+91 93009 13352", "rating": "4.7", "review_count": "", "website": "", "latitude": 22.720865999999997, "longitude": 75.8954871, "maps_url": "https://www.google.com/maps/search/?api=1&query=Tilak%20Constructions&query_place_id=ChIJO7uKFc39YjkR57qFTEAZqOU"}, {"place_id": "ChIJ91Qhg6rjYjkRwIn4xuLed3g", "name": "Creative Column Designs", "street": "327 , 3rd floor, THE ZODIAC, Office No, Indore, Madhya Pradesh 452018, India", "phone": "+91 92013 21217", "rating": "4.7", "review_count": "", "website": "https://www.creativecolumndesigns.com/", "latitude": 22.719537, "longitude": 75.9051606, "maps_url": "https://www.google.com/maps/search/?api=1&query=Creative%20Column%20Designs&query_place_id=ChIJ91Qhg6rjYjkRwIn4xuLed3g"}, {"place_id": "ChIJ42MlSKECYzkRf4NUKux_tjw", "name": "REOFT Technologies Pvt.Ltd", "street": "Office No G-1 222 Vimalshri building, behind Jain Mandir, Savindnagar, Tilak Nagar, Indore, Madhya Pradesh 452018, India", "phone": "+91 98274 49346", "rating": "4.7", "review_count": "", "website": "https://reoft.com/", "latitude": 22.7193, "longitude": 75.8979227, "maps_url": "https://www.google.com/maps/search/?api=1&query=REOFT%20Technologies%20Pvt.Ltd&query_place_id=ChIJ42MlSKECYzkRf4NUKux_tjw"}, {"place_id": "ChIJc9Gf6-v9YjkRin3o_pKY1tY", "name": "Anshika Bag Gallery", "street": "Plot Number 34, Kanadia Rd, opposite Digamber Mandir, Goyal Nagar, Sanvid Nagar, Indore, Madhya Pradesh 452016, India", "phone": "+91 98932 97996", "rating": "4.8", "review_count": "", "website": "https://www.instagram.com/anshikabaggallery_indore/profilecard/?igsh=MTJ6OWlydmo2czFnOA==", "latitude": 22.7210346, "longitude": 75.8983425, "maps_url": "https://www.google.com/maps/search/?api=1&query=Anshika%20Bag%20Gallery&query_place_id=ChIJc9Gf6-v9YjkRin3o_pKY1tY"}, {"place_id": "ChIJX7jNfzT9YjkRx1rhi6RKm-g", "name": "Dilip Watch co.", "street": "51/5 sanvid nagar kanadiya road, Indore, Madhya Pradesh 452018, India", "phone": "", "rating": "3.6", "review_count": "", "website": "", "latitude": 22.721765299999998, "longitude": 75.8949773, "maps_url": "https://www.google.com/maps/search/?api=1&query=Dilip%20Watch%20co.&query_place_id=ChIJX7jNfzT9YjkRx1rhi6RKm-g"}, {"place_id": "ChIJt7ghYQDjYjkRXbdxD8iC7b0", "name": "VJ SOLAR", "street": "Bengali square, Kailashpuri, Indore, Madhya Pradesh 452016, India", "phone": "", "rating": "5", "review_count": "", "website": "", "latitude": 22.7213285, "longitude": 75.9072733, "maps_url": "https://www.google.com/maps/search/?api=1&query=VJ%20SOLAR&query_place_id=ChIJt7ghYQDjYjkRXbdxD8iC7b0"}, {"place_id": "ChIJJzrbgsfjYjkRskX3Vrn7zsc", "name": "Machinery Point (Machinery point private limited) Corporate Office", "street": "4th Floor Anklikar, Samvid Nagar, Sabji Mandi, Machinery Point, Corporate Office, near Tilak Nagar, Indore, Madhya Pradesh 452016, India", "phone": "+91 95227 11021", "rating": "4.7", "review_count": "", "website": "https://www.machinerypoint.com/", "latitude": 22.720793, "longitude": 75.8996745, "maps_url": "https://www.google.com/maps/search/?api=1&query=Machinery%20Point%20%28Machinery%20point%20private%20limited%29%20Corporate%20Office&query_place_id=ChIJJzrbgsfjYjkRskX3Vrn7zsc"}, {"place_id": "ChIJ97OkazL9YjkRRALSiHYFrvE", "name": "Mayank Builders & Developers", "street": "C-30, Tilak Nagar Extension, Bhaktavar Ram Nagar, Indore, Madhya Pradesh 452018, India", "phone": "+91 99266 77003", "rating": "4.8", "review_count": "", "website": "", "latitude": 22.716420499999998, "longitude": 75.89572199999999, "maps_url": "https://www.google.com/maps/search/?api=1&query=Mayank%20Builders%20%26%20Developers&query_place_id=ChIJ97OkazL9YjkRRALSiHYFrvE"}, {"place_id": "ChIJm-6KXMiAj4ARIOUJIrNg2ys", "name": "Intelligent Technical Solutions", "street": "5427 Telegraph Ave unit p, Oakland, CA 94609", "phone": "(415) 213-2285", "rating": "5", "review_count": "", "website": "https://www.itsasap.com/its-oakland", "latitude": 37.839716599999996, "longitude": -122.2623776, "maps_url": "https://www.google.com/maps/search/?api=1&query=Intelligent%20Technical%20Solutions&query_place_id=ChIJm-6KXMiAj4ARIOUJIrNg2ys"}, {"place_id": "ChIJT7dGOSbjYjkR5v1d0kuR9XM", "name": "Appetit Homely Food", "street": "G2 Vimalshri Saubhagy Apartment, 165, Goyal Nagar, Indore, Madhya Pradesh 452018, India", "phone": "+91 98931 26107", "rating": "4.3", "review_count": "", "website": "", "latitude": 22.717958, "longitude": 75.9044016, "maps_url": "https://www.google.com/maps/search/?api=1&query=Appetit%20Homely%20Food&query_place_id=ChIJT7dGOSbjYjkR5v1d0kuR9XM"}, {"place_id": "ChIJl4k0tEUDt6MRFzIYf24udGM", "name": "MMD Graphical", "street": "Gali no. 10 Tilak nagar, kanadiya road, New Palasia, Indore, Madhya Pradesh 452001, India", "phone": "+91 89668 07243", "rating": "5", "review_count": "", "website": "https://www.mmdgraphical.com/", "latitude": 22.7206664, "longitude": 75.8954246, "maps_url": "https://www.google.com/maps/search/?api=1&query=MMD%20Graphical&query_place_id=ChIJl4k0tEUDt6MRFzIYf24udGM"}, {"place_id": "ChIJDzFS9DP9YjkRmpiiXYpUpXs", "name": "KNS IT Solutions", "street": "346, Goyal Nagar Ring Rd, Bicholi Mardana, Indore, Madhya Pradesh 452016, India", "phone": "+91 93000 09438", "rating": "5", "review_count": "", "website": "", "latitude": 22.718955899999997, "longitude": 75.9066651, "maps_url": "https://www.google.com/maps/search/?api=1&query=KNS%20IT%20Solutions&query_place_id=ChIJDzFS9DP9YjkRmpiiXYpUpXs"}, {"place_id": "ChIJD24EFPz9YjkRxd0TKl37YSU", "name": "Nexus Eco Solutions", "street": "203, Swapnil Apartment, 435, near Shakuntaladevi Hospital, Goyal Nagar, Indore, Madhya Pradesh 452018, India", "phone": "", "rating": "4.2", "review_count": "", "website": "", "latitude": 22.7180818, "longitude": 75.9052092, "maps_url": "https://www.google.com/maps/search/?api=1&query=Nexus%20Eco%20Solutions&query_place_id=ChIJD24EFPz9YjkRxd0TKl37YSU"}, {"place_id": "ChIJuQdF-tr9YjkRLUeMD6FAQa0", "name": "charpatte", "street": "107, Tilak Nagar Main Rd, Savindnagar, Tilak Nagar, Indore, Madhya Pradesh 452018, India", "phone": "", "rating": "4.5", "review_count": "", "website": "", "latitude": 22.719262, "longitude": 75.89599869999999, "maps_url": "https://www.google.com/maps/search/?api=1&query=charpatte&query_place_id=ChIJuQdF-tr9YjkRLUeMD6FAQa0"}, {"place_id": "ChIJm6QCgqUCYzkR7rs7HyKer1Q", "name": "Anurush Consulting", "street": "201, Tilak Nagar Main Rd, near Surbhi Jewellers, Savindnagar, Tilak Nagar, Indore, Madhya Pradesh 452018, India", "phone": "", "rating": "5", "review_count": "", "website": "", "latitude": 22.7191351, "longitude": 75.8971789, "maps_url": "https://www.google.com/maps/search/?api=1&query=Anurush%20Consulting&query_place_id=ChIJm6QCgqUCYzkR7rs7HyKer1Q"}, {"place_id": "ChIJ9wA5iDL9YjkRI-_27-ZjpXM", "name": "Digital Switch", "street": "134 C Baktawar Ram Nagar, Tilak Nagar, Indore, Madhya Pradesh 452018, India", "phone": "", "rating": "5", "review_count": "", "website": "", "latitude": 22.7161339, "longitude": 75.8970363, "maps_url": "https://www.google.com/maps/search/?api=1&query=Digital%20Switch&query_place_id=ChIJ9wA5iDL9YjkRI-_27-ZjpXM"}]