[{"place_id": "ChIJWRCnVdLmazkR65vdXbHMnGU", "name": "EduManag IT Solution Private Limited", "street": "Shop No. 14, First Floor, Zee Cinemall, Apna Nagar, Vaishali Nagar, Ajmer, Rajasthan 305001, India", "phone": "+91 92520 89089", "rating": "4.7", "review_count": "", "website": "https://www.edumanag.com/", "latitude": 26.4809529, "longitude": 74.630275, "maps_url": "https://www.google.com/maps/search/?api=1&query=EduManag%20IT%20Solution%20Private%20Limited&query_place_id=ChIJWRCnVdLmazkR65vdXbHMnGU"}, {"place_id": "ChIJdfQzDVTmazkRGwYKwT1KiHI", "name": "iBirds Software Services - Salesforce Consulting Partner", "street": "5th Floor, Shrinath mall, Near, Bajrangarh Cir, Chauraha, Ajmer, Rajasthan 305001, India", "phone": "+91 78500 63497", "rating": "4.7", "review_count": "", "website": "http://www.ibirdsservices.com/", "latitude": 26.4702099, "longitude": 74.6332767, "maps_url": "https://www.google.com/maps/search/?api=1&query=iBirds%20Software%20Services%20-%20Salesforce%20Consulting%20Partner&query_place_id=ChIJdfQzDVTmazkRGwYKwT1KiHI"}, {"place_id": "ChIJaatfCIXnazkR9e4wPhenXOA", "name": "Concentics Private Limited", "street": "near Ram Bhawan, Onkar Nagar, Shastri Nagar, Ajmer, Rajasthan 305001, India", "phone": "+91 91666 38749", "rating": "5", "review_count": "", "website": "http://www.concentics.com/", "latitude": 26.4792493, "longitude": 74.643793, "maps_url": "https://www.google.com/maps/search/?api=1&query=Concentics%20Private%20Limited&query_place_id=ChIJaatfCIXnazkR9e4wPhenXOA"}, {"place_id": "ChIJAXQc8rfnazkR-N9LDRrTw2A", "name": "CRM Landing", "street": "1st & 2nd Floor, Shyama Royale, near Ram Bhawan, Onkar Nagar, Shastri Nagar, Ajmer, Rajasthan 305001, India", "phone": "+91 86199 48778", "rating": "4.3", "review_count": "", "website": "http://crmlanding.in/", "latitude": 26.4792015, "longitude": 74.6434802, "maps_url": "https://www.google.com/maps/search/?api=1&query=CRM%20Landing&query_place_id=ChIJAXQc8rfnazkR-N9LDRrTw2A"}, {"place_id": "ChIJk4-8fGhK2AURhbd93QiyaUc", "name": "The Technology Fiction", "street": "H.no 10, Madhuban vihar colony, near dr karnavat, Anand Nagar, Ajmer, Rajasthan 305001, India", "phone": "", "rating": "", "review_count": "", "website": "https://thetechnologyfiction.com/", "latitude": 26.4794041, "longitude": 74.6345745, "maps_url": "https://www.google.com/maps/search/?api=1&query=The%20Technology%20Fiction&query_place_id=ChIJk4-8fGhK2AURhbd93QiyaUc"}, {"place_id": "ChIJSSCo6D4UNSwRjki-3ijAxAg", "name": "AKASH IT HUB - A Complete IT Solution & Services (Website and Software Designing & Development Company)", "street": "Nasirabad Rd, near Metro Travels, Nagra, Ajmer, Rajasthan 305001, India", "phone": "+91 89492 94478", "rating": "4.6", "review_count": "", "website": "http://akashithub.com/", "latitude": 26.440859699999997, "longitude": 74.64578519999999, "maps_url": "https://www.google.com/maps/search/?api=1&query=AKASH%20IT%20HUB%20-%20A%20Complete%20IT%20Solution%20%26%20Services%20%28Website%20and%20Software%20Designing%20%26%20Development%20Company%29&query_place_id=ChIJSSCo6D4UNSwRjki-3ijAxAg"}, {"place_id": "ChIJ1WDmyc_vazkRD0A712EBwdw", "name": "AiFLY TECHNOLOGY SOLUTIONS PVT. LTD.", "street": "First Floor, Gandhi Nagar Chauraha, Gail no1, Makarwali Rd, Shakti Nagar, Panchsheel Nagar, Ajmer, Rajasthan 305001, India", "phone": "+91 98281 14989", "rating": "4.8", "review_count": "", "website": "https://aifly.io/", "latitude": 26.497232, "longitude": 74.6303636, "maps_url": "https://www.google.com/maps/search/?api=1&query=AiFLY%20TECHNOLOGY%20SOLUTIONS%20PVT.%20LTD.&query_place_id=ChIJ1WDmyc_vazkRD0A712EBwdw"}, {"place_id": "ChIJFcjaCSDnazkRFdnyvBxP3Xc", "name": "Arun Jain, PERFECT SOLUTIONS", "street": "Ashok Marg, near Savitri School Circle, \"Arunodaya, Basant Colony, Ajmer, Rajasthan 305001, India", "phone": "+91 94140 03117", "rating": "4.5", "review_count": "", "website": "", "latitude": 26.472578799999997, "longitude": 74.6345187, "maps_url": "https://www.google.com/maps/search/?api=1&query=Arun%20Jain%2C%20PERFECT%20SOLUTIONS&query_place_id=ChIJFcjaCSDnazkRFdnyvBxP3Xc"}, {"place_id": "ChIJlxs4rRvnazkRIaxys0Anduw", "name": "Software Designing Top Best IT Company - Keshav Technosys", "street": "Gokul Complex, B-3, Purani Mandi, near Dayal Book Depot, Ajmer, Rajasthan 305001, India", "phone": "+91 99831 85141", "rating": "", "review_count": "", "website": "http://www.keshavtechnosys.com/", "latitude": 26.4583485, "longitude": 74.633031, "maps_url": "https://www.google.com/maps/search/?api=1&query=Software%20Designing%20Top%20Best%20IT%20Company%20-%20Keshav%20Technosys&query_place_id=ChIJlxs4rRvnazkRIaxys0Anduw"}, {"place_id": "ChIJnydUqb7nazkRudFr9mPY6Fs", "name": "K K Infosmart", "street": "Shop No 22, Indra Complex Rd, near Jawahar Rang Manch, Civil Lines, Ajmer, Rajasthan 305001, India", "phone": "+91 94140 03180", "rating": "4.9", "review_count": "", "website": "", "latitude": 26.4740814, "longitude": 74.6372067, "maps_url": "https://www.google.com/maps/search/?api=1&query=K%20K%20Infosmart&query_place_id=ChIJnydUqb7nazkRudFr9mPY6Fs"}, {"place_id": "ChIJK3DlbqnnazkRBLKicZ0hKPQ", "name": "Star Infotech College", "street": "k, 101, Gaurav Path, Mali Mohalla, Ajmer, Rajasthan 305001, India", "phone": "+91 70731 25888", "rating": "4.5", "review_count": "", "website": "https://www.starinfotechcollege.com/", "latitude": 26.476502699999998, "longitude": 74.6331293, "maps_url": "https://www.google.com/maps/search/?api=1&query=Star%20Infotech%20College&query_place_id=ChIJK3DlbqnnazkRBLKicZ0hKPQ"}, {"place_id": "ChIJu_cBunTnazkRJD-Hp4fKLQQ", "name": "Unaire Sync IT Solutions", "street": "Avasiya Yojana, 646, Land Mark - Mangalam Flats, near Mangalam Flats, Kotra, Rajasthan 305001, India", "phone": "+91 86906 93835", "rating": "4.8", "review_count": "", "website": "https://www.unairesync.com/", "latitude": 26.474945299999998, "longitude": 74.59533499999999, "maps_url": "https://www.google.com/maps/search/?api=1&query=Unaire%20Sync%20IT%20Solutions&query_place_id=ChIJu_cBunTnazkRJD-Hp4fKLQQ"}, {"place_id": "ChIJ1dzRWALnazkRGuePwG9On2U", "name": "Kirnani Technologies - Website Designing Ajmer", "street": "13/10, HDFC Bank Building, Opp. Suchna Kendra, Deen Dayaal Marg, Ajmer, Rajasthan 305001, India", "phone": "+91 95093 33000", "rating": "4.6", "review_count": "", "website": "http://www.kirnanitechnologies.com/", "latitude": 26.465279499999998, "longitude": 74.6381869, "maps_url": "https://www.google.com/maps/search/?api=1&query=Kirnani%20Technologies%20-%20Website%20Designing%20Ajmer&query_place_id=ChIJ1dzRWALnazkRGuePwG9On2U"}, {"place_id": "ChIJFcjaCSDnazkRwWm7QbXgH0A", "name": "Technocracy Softwares Private Limited", "street": "Plot No, B Block, Somalpur Rd, Mayur Colony, Chandra Vardai Nagar, Ajmer, Rajasthan 305001, India", "phone": "+91 92148 39374", "rating": "4.9", "review_count": "", "website": "https://www.technocracysoftwares.com/", "latitude": 26.4194911, "longitude": 74.6175878, "maps_url": "https://www.google.com/maps/search/?api=1&query=Technocracy%20Softwares%20Private%20Limited&query_place_id=ChIJFcjaCSDnazkRwWm7QbXgH0A"}, {"place_id": "ChIJzX1WWlvnazkRYSg8p4CHPwM", "name": "NSK COMPUTER", "street": "NSK Computer, pili khan, near tempo stand, Loha Khan Colony, Ajmer, Rajasthan 305001, India", "phone": "+91 92516 23306", "rating": "4", "review_count": "", "website": "", "latitude": 26.4841773, "longitude": 74.6511421, "maps_url": "https://www.google.com/maps/search/?api=1&query=NSK%20COMPUTER&query_place_id=ChIJzX1WWlvnazkRYSg8p4CHPwM"}, {"place_id": "ChIJNRFF_a7nazkRzv1U1Cv8pUM", "name": "Reliance Digital", "street": "Lower Ground Floor, Cine Mall, Vaishali Nagar, Ajmer, Rajasthan 305001, India", "phone": "+91 8071 889 580", "rating": "4.8", "review_count": "", "website": "https://www.reliancedigitalstores.in/reliance-digital-cine-mall-ajmer-rj-electronics-retail-and-repair-shop-vaishali-nagar-ajmer-208482/Home?utm_source=locator&utm_medium=googleplaces", "latitude": 26.4808538, "longitude": 74.63130509999999, "maps_url": "https://www.google.com/maps/search/?api=1&query=Reliance%20Digital&query_place_id=ChIJNRFF_a7nazkRzv1U1Cv8pUM"}, {"place_id": "ChIJ1xC5JMPnazkRhFGu82jmOpA", "name": "Converse Placement Services Ajmer", "street": "1-GH-9, Vaishali Rd, opposite RELIANCE FRESH, Sagar Vihar Colony, Vaishali Nagar, Ajmer, Rajasthan 305006, India", "phone": "+91 72300 00026", "rating": "4.5", "review_count": "", "website": "http://www.conversejob.com/", "latitude": 26.4869372, "longitude": 74.6270469, "maps_url": "https://www.google.com/maps/search/?api=1&query=Converse%20Placement%20Services%20Ajmer&query_place_id=ChIJ1xC5JMPnazkRhFGu82jmOpA"}, {"place_id": "ChIJw8XgFADnazkRJx4iVMc7a3M", "name": "Three D Integrated Solutions Ltd.", "street": "Office No. 4, IV Floor, Shreenath Mall, Mali Mohalla, Ajmer, Rajasthan 305001, India", "phone": "", "rating": "5", "review_count": "", "website": "https://threedis.com/", "latitude": 26.4716646, "longitude": 74.6334596, "maps_url": "https://www.google.com/maps/search/?api=1&query=Three%20D%20Integrated%20Solutions%20Ltd.&query_place_id=ChIJw8XgFADnazkRJx4iVMc7a3M"}, {"place_id": "ChIJeTmGHzbnazkRVIxr-tG-e2Y", "name": "CR Wave Automation", "street": "K-61, near 90 Degree saloon, Vaishali Nagar, Ajmer, Rajasthan 305001, India", "phone": "+91 97858 39757", "rating": "5", "review_count": "", "website": "https://crwaveautomation.com/", "latitude": 26.4781624, "longitude": 74.6346836, "maps_url": "https://www.google.com/maps/search/?api=1&query=CR%20Wave%20Automation&query_place_id=ChIJeTmGHzbnazkRVIxr-tG-e2Y"}, {"place_id": "ChIJz_ALiCDnazkR5GpFLRHKgm0", "name": "Raj Computers", "street": "Shantipura, Vaishali Nagar, Ajmer, Rajasthan 305001, India", "phone": "+91 99823 68014", "rating": "4.1", "review_count": "", "website": "", "latitude": 26.483931199999997, "longitude": 74.6313499, "maps_url": "https://www.google.com/maps/search/?api=1&query=Raj%20Computers&query_place_id=ChIJz_ALiCDnazkR5GpFLRHKgm0"}]