{"timestamp": 1773729001.0959506, "keyword": "IT company", "location": "delhi", "cell_idx": 24, "results": [{"place_id": "0x390ce17b94309bbf:0x2a7be4bbd23e8470", "name": "Nexinfotech", "category": "Software company", "street": "Gali No. 5", "city": "Block J 1, Devli, Sangam Vihar", "phone": "09319089231", "website": "https://nexinfotech.com/", "rating": 5, "review_count": "", "latitude": 28.4901479, "longitude": 77.2463212, "maps_url": "https://www.google.com/maps/place/?q=place_id:0x390ce17b94309bbf:0x2a7be4bbd23e8470"}, {"place_id": "0x390ce1597b5509e5:0xfd8209b937b44d3c", "name": "IT Solutions India Private Limited", "category": "Software company", "street": "D-88/5", "city": "Pocket D, Okhla Phase I, Okhla Industrial Estate", "phone": "09810017429", "website": "https://www.itsipl.com/", "rating": 4.2, "review_count": "", "latitude": 28.520146, "longitude": 77.280431, "maps_url": "https://www.google.com/maps/place/?q=place_id:0x390ce1597b5509e5:0xfd8209b937b44d3c"}, {"place_id": "0x8d1367491c694315:0xb6e1626c69d891d2", "name": "WebGridSolution - Software Development Digital Marketing Company", "category": "Software company", "street": "G-12/188", "city": "Talimabad, Sangam Vihar", "phone": "", "website": "https://webgridsolution.com/", "rating": 4.8, "review_count": "", "latitude": 28.506943099999997, "longitude": 77.2507213, "maps_url": "https://www.google.com/maps/place/?q=place_id:0x8d1367491c694315:0xb6e1626c69d891d2"}, {"place_id": "0x390ce458d0000001:0xf2123bd299ec4501", "name": "IT Company India", "category": "Software company", "street": "D56", "city": "D Block, Sector 10", "phone": "09999244854", "website": "https://www.itcompanyindia.in/", "rating": 4.7, "review_count": "", "latitude": 28.589917699999997, "longitude": 77.3351153, "maps_url": "https://www.google.com/maps/place/?q=place_id:0x390ce458d0000001:0xf2123bd299ec4501"}, {"place_id": "0x390ce3c153b89811:0xe7a279685777e9ca", "name": "IT Company", "category": "Automation company", "street": "A-14", "city": "near iskcon temple", "phone": "", "website": "http://www.opuswiz.com/", "rating": 3, "review_count": "", "latitude": 28.557167, "longitude": 77.25424819999999, "maps_url": "https://www.google.com/maps/place/?q=place_id:0x390ce3c153b89811:0xe7a279685777e9ca"}, {"place_id": "0x390ce7d088b49e53:0xbe91d554f6056f4a", "name": "ARVI IT SOLUTIONS", "category": "Software company", "street": "G-454/20, Tajpur Rd", "city": "near standford convent school", "phone": "09971148719", "website": "https://arviitsolutions.com/", "rating": 4.9, "review_count": "", "latitude": 28.4926846, "longitude": 77.3079108, "maps_url": "https://www.google.com/maps/place/?q=place_id:0x390ce7d088b49e53:0xbe91d554f6056f4a"}, {"place_id": "0x390ce1a80c4becd1:0xcb8a503f62161432", "name": "Computer Network Solutions", "category": "Computer service", "street": "K-I D59, Gali Number 18", "city": "near HANUMAN MANDIR", "phone": "09810459177", "website": "https://computernstechnology.blogspot.com/", "rating": 4.9, "review_count": "", "latitude": 28.493691199999997, "longitude": 77.2492716, "maps_url": "https://www.google.com/maps/place/?q=place_id:0x390ce1a80c4becd1:0xcb8a503f62161432"}, {"place_id": "0x390ce1a20e94f69d:0xf6c5af89da672917", "name": "Code IT Solutions", "category": "Software company", "street": "E45", "city": "Krishna Park Colony, Khanpur", "phone": "07992249312", "website": "http://codeitsolutionshub.com/", "rating": 4.9, "review_count": "", "latitude": 28.509770999999997, "longitude": 77.23377169999999, "maps_url": "https://www.google.com/maps/place/?q=place_id:0x390ce1a20e94f69d:0xf6c5af89da672917"}, {"place_id": "0x390ce6ef34283cef:0x52e1084d285eb54f", "name": "M/S. BAGHEL IT SOLUTIONS", "category": "Software company", "street": "E-30A/ 8", "city": "Hari Nagar Part II, Hari Nagar Extn, Hari Nagar, Badarpur", "phone": "09999931256", "website": "http://www.baghelitsolutions.com/", "rating": 4.9, "review_count": "", "latitude": 28.5081524, "longitude": 77.3155013, "maps_url": "https://www.google.com/maps/place/?q=place_id:0x390ce6ef34283cef:0x52e1084d285eb54f"}, {"place_id": "0x390ce1fb44618b65:0x8e06b2a6128352d1", "name": "Acropolis Infotech - Delhi Office", "category": "Software company", "street": "metro station gate", "city": "55, 2nd Floor, Lane 2", "phone": "09999876593", "website": "https://www.acropolisinfotech.com/", "rating": 4.6, "review_count": "", "latitude": 28.518907, "longitude": 77.2015435, "maps_url": "https://www.google.com/maps/place/?q=place_id:0x390ce1fb44618b65:0x8e06b2a6128352d1"}, {"place_id": "0x390ce25767d65705:0x69370431f47bb375", "name": "Utech India Limited", "category": "Software company", "street": "2nd Floor", "city": "A-2", "phone": "01140562728", "website": "http://utechindia.com/", "rating": 4.8, "review_count": "", "latitude": 28.5281512, "longitude": 77.2742353, "maps_url": "https://www.google.com/maps/place/?q=place_id:0x390ce25767d65705:0x69370431f47bb375"}, {"place_id": "0x390cfd309eebed77:0xf47bee595f075e26", "name": "Asfera Technologies Private Limited | Dialer Software Company", "category": "Software company", "street": "59/1", "city": "Saroj Tower, Office No:- 15", "phone": "09066677770", "website": "https://www.asfera.in/", "rating": 4.6, "review_count": "", "latitude": 28.540130599999998, "longitude": 77.2619868, "maps_url": "https://www.google.com/maps/place/?q=place_id:0x390cfd309eebed77:0xf47bee595f075e26"}, {"place_id": "0x390ce58ec08d89b1:0xe0ad635e49a8fca3", "name": "Tech Codexs | Website Development Company | IT Company", "category": "Website designer", "street": "C2", "city": "Block B, Sector 1", "phone": "09450402145", "website": "https://softtechsindia.com/", "rating": 4.6, "review_count": "", "latitude": 28.5900173, "longitude": 77.3116215, "maps_url": "https://www.google.com/maps/place/?q=place_id:0x390ce58ec08d89b1:0xe0ad635e49a8fca3"}, {"place_id": "0x390ce30f4c4ed777:0x3a7c5e032ce51ce5", "name": "Appextech Software Solutions", "category": "Software company", "street": "Second Floor", "city": "Mohan Cooperative Industrial Estate", "phone": "09911432451", "website": "https://www.appextech.com/", "rating": 4.9, "review_count": "", "latitude": 28.502260099999997, "longitude": 77.28519, "maps_url": "https://www.google.com/maps/place/?q=place_id:0x390ce30f4c4ed777:0x3a7c5e032ce51ce5"}, {"place_id": "0x390cefdcd70b1b4b:0xef72aa58bfc41075", "name": "Devkant Infotech Solutions | Software Company in Noida | Top IT Company In Noida", "category": "Software company", "street": "office No. A", "city": "1601 Nx One T3 Gaur Chowk", "phone": "07428685050", "website": "https://dkinfotech.in/", "rating": 4.9, "review_count": "", "latitude": 28.601201399999997, "longitude": 77.4323665, "maps_url": "https://www.google.com/maps/place/?q=place_id:0x390cefdcd70b1b4b:0xef72aa58bfc41075"}, {"place_id": "0x390ce11068dacbdd:0xac4070cb73f9c1b1", "name": "Reedham It solutions pvt ltd", "category": "Software company", "street": "1297B, H 16 Rd", "city": "Block G 1, Talimabad, Sangam Vihar", "phone": "01146012950", "website": "http://reedhamitsolution.com/", "rating": 5, "review_count": "", "latitude": 28.5017906, "longitude": 77.25404069999999, "maps_url": "https://www.google.com/maps/place/?q=place_id:0x390ce11068dacbdd:0xac4070cb73f9c1b1"}, {"place_id": "0x390ce40fadd91f5f:0xa4f54ec4626d7b8b", "name": "Techpertz IT Solutions", "category": "Software company", "street": "2nd Floor", "city": "Aman Apartment", "phone": "09958894786", "website": "https://techpertz.com/", "rating": 5, "review_count": "", "latitude": 28.5527172, "longitude": 77.2979446, "maps_url": "https://www.google.com/maps/place/?q=place_id:0x390ce40fadd91f5f:0xa4f54ec4626d7b8b"}, {"place_id": "0x390ce7b62827897b:0xf9c64750fed6eeef", "name": "Connect Infosoft Technologies Pvt.Ltd-Mobile and Software Application Development Company", "category": "Software company", "street": "Plot No.598", "city": "near Community Center", "phone": "", "website": "https://www.connectinfosoft.com/", "rating": 4.6, "review_count": "", "latitude": 28.451022599999998, "longitude": 77.29805, "maps_url": "https://www.google.com/maps/place/?q=place_id:0x390ce7b62827897b:0xf9c64750fed6eeef"}, {"place_id": "0x390ce161ceec9d85:0x952e8b11295dfe85", "name": "HYBEC IT SOLUTION", "category": "Software company", "street": "National Small Industries Corporation", "city": "Block F, Okhla Phase III, Okhla Industrial Estate", "phone": "01149128591", "website": "http://www.hybecitsolutions.com/", "rating": 4.8, "review_count": "", "latitude": 28.5490569, "longitude": 77.2674236, "maps_url": "https://www.google.com/maps/place/?q=place_id:0x390ce161ceec9d85:0x952e8b11295dfe85"}, {"place_id": "0x390d1fb30dd00ee3:0x77cfd1f858a2b9ee", "name": "Ionic Software Services", "category": "Software company", "street": "B-2/63, Africa Ave", "city": "Block A, Block B 2, Safdarjung Enclave", "phone": "08744941668", "website": "http://www.ionicsoftwares.com/", "rating": 4.7, "review_count": "", "latitude": 28.515873499999998, "longitude": 77.2044335, "maps_url": "https://www.google.com/maps/place/?q=place_id:0x390d1fb30dd00ee3:0x77cfd1f858a2b9ee"}, {"place_id": "0x390ce5fdcc79e755:0x309ce99251b84ef6", "name": "Optyminds IT Solutions - Top AI and IT company I Best Digital agency in Noida | Delhi NCR | India", "category": "Software company", "street": "1st Floor", "city": "B-70", "phone": "08929075975", "website": "https://optyminds.com/", "rating": 4.9, "review_count": "", "latitude": 28.584679599999998, "longitude": 77.3135042, "maps_url": "https://www.google.com/maps/place/?q=place_id:0x390ce5fdcc79e755:0x309ce99251b84ef6"}, {"place_id": "0x390ce3c7b85554e5:0x34e439c15e247631", "name": "HAUT IT Solutions Pvt. Ltd", "category": "Software company", "street": "390", "city": "Sant Nagar, East of Kailash", "phone": "09934753003", "website": "http://www.hautitsolutions.com/", "rating": 4.3, "review_count": "", "latitude": 28.554910099999997, "longitude": 77.25111249999999, "maps_url": "https://www.google.com/maps/place/?q=place_id:0x390ce3c7b85554e5:0x34e439c15e247631"}, {"place_id": "0x390ce76a5afbb667:0xb82005056bfc325e", "name": "Sonic Tech Solutions (Tally Certified Partner)", "category": "Software company", "street": "2nd Floor", "city": "No 11A", "phone": "09953535497", "website": "http://www.sonictechsolutions.com/", "rating": 5, "review_count": "", "latitude": 28.5003758, "longitude": 77.2905988, "maps_url": "https://www.google.com/maps/place/?q=place_id:0x390ce76a5afbb667:0xb82005056bfc325e"}, {"place_id": "0x390ce1ce534cb1e5:0x39fe77c42bc52616", "name": "ITeSolution- Odoo ERP , Mobile/Web Application Development Software Company in Noida, Delhi NCR India.", "category": "Software company", "street": "RZ60/9", "city": "T/F, Tughlakabad Extension, Tughlakabad", "phone": "09889294124", "website": "https://www.itesolution.co.in/", "rating": 4.9, "review_count": "", "latitude": 28.520523899999997, "longitude": 77.2570535, "maps_url": "https://www.google.com/maps/place/?q=place_id:0x390ce1ce534cb1e5:0x39fe77c42bc52616"}, {"place_id": "0x390ce227b000003f:0x68c684a3cbf810b", "name": "IT Solution INDIA", "category": "Computer support and services", "street": "Triveni Commercial Complex", "city": "Sheikh Sarai Phase 1, Sheikh Sarai", "phone": "09312209167", "website": "https://itsolutionindia.in/", "rating": 4.8, "review_count": "", "latitude": 28.5364054, "longitude": 77.22372, "maps_url": "https://www.google.com/maps/place/?q=place_id:0x390ce227b000003f:0x68c684a3cbf810b"}, {"place_id": "0x390ce403ff26faa9:0x5580cdfe53cdfc3f", "name": "ZNSoftech Pvt Ltd", "category": "Software company", "street": "Gate No. 6", "city": "Basement", "phone": "01141060828", "website": "http://www.znsoftech.com/", "rating": 4.3, "review_count": "", "latitude": 28.5408187, "longitude": 77.294422, "maps_url": "https://www.google.com/maps/place/?q=place_id:0x390ce403ff26faa9:0x5580cdfe53cdfc3f"}, {"place_id": "0x390ce3277a9c44e1:0xe02b4d0908f9dc05", "name": "Titan IT Services", "category": "Computer support and services", "street": "3rd floor", "city": "H. No. 339/4", "phone": "09453470502", "website": "https://digitalcarddy.com/Titan-IT-Services", "rating": 4.8, "review_count": "", "latitude": 28.5372524, "longitude": 77.2636504, "maps_url": "https://www.google.com/maps/place/?q=place_id:0x390ce3277a9c44e1:0xe02b4d0908f9dc05"}, {"place_id": "0x390ce18e402306b5:0x9dbfaada227164c4", "name": "Vijprat Tech Private Limited", "category": "Software company", "street": "Sangam Vihar", "city": "Block D, Hamdard Nagar", "phone": "08565013979", "website": "https://www.vijprat.com/", "rating": 4.8, "review_count": "", "latitude": 28.5153091, "longitude": 77.2498549, "maps_url": "https://www.google.com/maps/place/?q=place_id:0x390ce18e402306b5:0x9dbfaada227164c4"}, {"place_id": "0x390ce7d1a34f5fc3:0xad54a304f940d3c4", "name": "Infotonics media", "category": "Software company", "street": "B1/A5", "city": "Block E, Mohan Cooperative Industrial Estate, Badarpur", "phone": "09810959001", "website": "https://www.infotonicsmedia.com/", "rating": 4.9, "review_count": "", "latitude": 28.5092856, "longitude": 77.29728779999999, "maps_url": "https://www.google.com/maps/place/?q=place_id:0x390ce7d1a34f5fc3:0xad54a304f940d3c4"}, {"place_id": "0x390ce2305c00002d:0x9f7efbacdc0d8271", "name": "ICO WebTech Pvt. Ltd. - Website Designing Company in Delhi", "category": "Website designer", "street": "J E 5, Ground Floor, Khirki Extension, Malviya Nagar", "city": "New Delhi, Delhi 110017", "phone": "08447380262", "website": "https://www.icowebsolutions.com/", "rating": 4.6, "review_count": "", "latitude": 28.535594, "longitude": 77.21577099999999, "maps_url": "https://www.google.com/maps/place/?q=place_id:0x390ce2305c00002d:0x9f7efbacdc0d8271"}, {"place_id": "0x390ce6cf6c89da1b:0x65c494efea23f742", "name": "Web Development Company | Danip Technologies", "category": "Software company", "street": "91 Springboard", "city": "B1/H3", "phone": "", "website": "http://www.daniptechnologies.com/", "rating": 3.5, "review_count": "", "latitude": 28.516938399999997, "longitude": 77.2949711, "maps_url": "https://www.google.com/maps/place/?q=place_id:0x390ce6cf6c89da1b:0x65c494efea23f742"}, {"place_id": "0x390ce1656fbb7b65:0x7f0e4b2c21935a5c", "name": "Lynkit Solutions Pvt. Ltd.", "category": "Software company", "street": "246", "city": "Block A, Okhla Phase I, Okhla Industrial Estate", "phone": "01140824028", "website": "http://www.lynkit.in/", "rating": 4.3, "review_count": "", "latitude": 28.5254729, "longitude": 77.2754985, "maps_url": "https://www.google.com/maps/place/?q=place_id:0x390ce1656fbb7b65:0x7f0e4b2c21935a5c"}, {"place_id": "0x390cfcac5aaaaaed:0xa20ab2e7b400180", "name": "\ud835\udc68\ud835\udc76 \ud835\udc7a\ud835\udc90\ud835\udc87\ud835\udc95\ud835\udc98\ud835\udc82\ud835\udc93\ud835\udc86 \ud835\udc7a\ud835\udc90\ud835\udc8d\ud835\udc96\ud835\udc95\ud835\udc8a\ud835\udc90\ud835\udc8f Website Designing company-website development company-product promotion and ERP development company", "category": "Software company", "street": "1B", "city": "S-505", "phone": "01142603444", "website": "https://aosoftwaresolution.com/", "rating": 4.8, "review_count": "", "latitude": 28.6287195, "longitude": 77.2766171, "maps_url": "https://www.google.com/maps/place/?q=place_id:0x390cfcac5aaaaaed:0xa20ab2e7b400180"}, {"place_id": "0x390cddf536e5435d:0x7effb233335fc345", "name": "Minerva Technology Solutions Ltd.", "category": "Software company", "street": "Unit # 5 & 6", "city": "US Complex", "phone": "01140792600", "website": "http://www.minerva.in/", "rating": 4.5, "review_count": "", "latitude": 28.538679, "longitude": 77.2821338, "maps_url": "https://www.google.com/maps/place/?q=place_id:0x390cddf536e5435d:0x7effb233335fc345"}, {"place_id": "0x390ce44609d8fd9b:0x9c680f27679610f6", "name": "Crestech Software", "category": "Software company", "street": "Plot No. D, Vyapar Marg", "city": "D Block, Sector 2", "phone": "08826666755", "website": "https://www.crestechsoftware.com/", "rating": 3.6, "review_count": "", "latitude": 28.5836924, "longitude": 77.3166213, "maps_url": "https://www.google.com/maps/place/?q=place_id:0x390ce44609d8fd9b:0x9c680f27679610f6"}, {"place_id": "0x390ce7146b71d1dd:0xb2d3ca4087acbcab", "name": "Vartulz Technologies Pvt Ltd", "category": "Software company", "street": "2nd Floor", "city": "SSR Corporate Park", "phone": "01294319393", "website": "http://www.vartulz.com/", "rating": 4.3, "review_count": "", "latitude": 28.4588382, "longitude": 77.3061747, "maps_url": "https://www.google.com/maps/place/?q=place_id:0x390ce7146b71d1dd:0xb2d3ca4087acbcab"}, {"place_id": "0x390ce7efbc7aff21:0x5d574e48430142e", "name": "AANYA TECHSOFT LLP", "category": "Software company", "street": "1st & 2nd Floor", "city": "Metro Station Tughlakabad", "phone": "09811393975", "website": "https://aanyatech.co.in/", "rating": 4.9, "review_count": "", "latitude": 28.4950084, "longitude": 77.30347809999999, "maps_url": "https://www.google.com/maps/place/?q=place_id:0x390ce7efbc7aff21:0x5d574e48430142e"}, {"place_id": "0x390ce3de132b4909:0xb23d21cd15c91719", "name": "Indev Consultancy Pvt Ltd", "category": "Software company", "street": "2nd Floor", "city": "E-40/3", "phone": "01135352929", "website": "http://indevconsultancy.com/", "rating": 4.7, "review_count": "", "latitude": 28.536490699999998, "longitude": 77.2709845, "maps_url": "https://www.google.com/maps/place/?q=place_id:0x390ce3de132b4909:0xb23d21cd15c91719"}, {"place_id": "0x390ce73da5555555:0x8bd0d137166f54a5", "name": "Welt Code Web | website design company in faridabad | Application development company in faridabad |", "category": "Software company", "street": "367, 2nd floor Nearest", "city": "Metro Station Sarai", "phone": "", "website": "https://weltcodeweb.in/", "rating": 5, "review_count": "", "latitude": 28.4791347, "longitude": 77.30731329999999, "maps_url": "https://www.google.com/maps/place/?q=place_id:0x390ce73da5555555:0x8bd0d137166f54a5"}, {"place_id": "0x390cdbee7f2ec8eb:0xfd740c0f6d86727f", "name": "Mobilise App Lab Limited", "category": "Software company", "street": "Plot no. 62", "city": "B HSIIDC, Sector 31", "phone": "09599194330", "website": "https://mobilise.co.in/", "rating": 4.8, "review_count": "", "latitude": 28.4431501, "longitude": 77.31191369999999, "maps_url": "https://www.google.com/maps/place/?q=place_id:0x390cdbee7f2ec8eb:0xfd740c0f6d86727f"}, {"place_id": "0x390ce137736852e9:0x7fe34ee47ed93a72", "name": "Pothera ERP Software for Manufacturing Company", "category": "Software company", "street": "Basement A-283, Near TATA Showroom Okhla Phase 1, New Delhi", "city": "Delhi, 110020", "phone": "", "website": "http://pothera.com/", "rating": 5, "review_count": "", "latitude": 28.525357099999997, "longitude": 77.27710809999999, "maps_url": "https://www.google.com/maps/place/?q=place_id:0x390ce137736852e9:0x7fe34ee47ed93a72"}, {"place_id": "0x2a72b8b69d7b6493:0x11251466d4d34cac", "name": "WebZonal IT Company", "category": "Website designer", "street": "Wz-258/2-3, D Block Rd", "city": "Khazan Basti, Nangal Raya, Janakpuri", "phone": "09811170903", "website": "http://webzonal.com/", "rating": 5, "review_count": "", "latitude": 28.6122102, "longitude": 77.11159549999999, "maps_url": "https://www.google.com/maps/place/?q=place_id:0x2a72b8b69d7b6493:0x11251466d4d34cac"}, {"place_id": "0x390ce1d73c888e6f:0x679aac9b7129eb22", "name": "Webgram it Solution", "category": "Website designer", "street": "Block C, Devli, Sangam Vihar", "city": "New Delhi, Delhi 110080", "phone": "07551120242", "website": "https://webgramitsolution.com/", "rating": 4.8, "review_count": "", "latitude": 28.498291299999998, "longitude": 77.23990909999999, "maps_url": "https://www.google.com/maps/place/?q=place_id:0x390ce1d73c888e6f:0x679aac9b7129eb22"}, {"place_id": "0x390cef8867d6550f:0x2905099f75abbbc8", "name": "Prudas Technologies Private Limited | IT Company in Noida", "category": "Website designer", "street": "H1A", "city": "20, Sector 63 Rd", "phone": "08377870707", "website": "http://www.prudas.com/", "rating": 4.6, "review_count": "", "latitude": 28.6275029, "longitude": 77.3757834, "maps_url": "https://www.google.com/maps/place/?q=place_id:0x390cef8867d6550f:0x2905099f75abbbc8"}, {"place_id": "0x390ce3f8f4aa824f:0x11711854f86aeab0", "name": "Mindsmiratus Technologies Pvt Ltd", "category": "Software company", "street": "A-263, 1st Floor", "city": "Mindsmiratus Technologies Pvt Ltd", "phone": "01144786201", "website": "https://www.mindsmiratus.com/?utm_source=google&utm_medium=organic&utm_campaign=gmb", "rating": 4.9, "review_count": "", "latitude": 28.5017362, "longitude": 77.28707539999999, "maps_url": "https://www.google.com/maps/place/?q=place_id:0x390ce3f8f4aa824f:0x11711854f86aeab0"}, {"place_id": "0x390d1e2fed1eed4b:0x101cd24533e257fa", "name": "SOFTLIFE Technologies Pvt. Ltd.", "category": "Software company", "street": "B-2, Block", "city": "Road", "phone": "09045199841", "website": "", "rating": 4.4, "review_count": "", "latitude": 28.4929925, "longitude": 77.18445489999999, "maps_url": "https://www.google.com/maps/place/?q=place_id:0x390d1e2fed1eed4b:0x101cd24533e257fa"}, {"place_id": "0x390ce3003fffffe3:0x1dd892a28603e769", "name": "Corporate Infotech Pvt Ltd.", "category": "Software company", "street": "E-81", "city": "E Block, Sector 6", "phone": "1800116474", "website": "https://cipl.org.in/", "rating": 4.4, "review_count": "", "latitude": 28.5937284, "longitude": 77.3206974, "maps_url": "https://www.google.com/maps/place/?q=place_id:0x390ce3003fffffe3:0x1dd892a28603e769"}, {"place_id": "0x390ce198ef877ab9:0x7a18a39d0d4b426", "name": "PRIYA TECHNOLOGY", "category": "Software company", "street": "45, Devli Rd", "city": "Khanpur Extension, Khanpur", "phone": "09718501851", "website": "", "rating": 4, "review_count": "", "latitude": 28.5133838, "longitude": 77.2337356, "maps_url": "https://www.google.com/maps/place/?q=place_id:0x390ce198ef877ab9:0x7a18a39d0d4b426"}, {"place_id": "0x390d02994de5e515:0xd908bc03409a0d37", "name": "Himalayan IT Solutions | Best Website Designing Company in Delhi | SEO/Digital Marketing Company in Delhi NCR, India", "category": "Software company", "street": "61/4255, Padam Singh Rd", "city": "Block 29, Block 1, Regar Pura, Karol Bagh", "phone": "09899098509", "website": "http://www.himalayanitsolutions.com/", "rating": 3.9, "review_count": "", "latitude": 28.649673999999997, "longitude": 77.186599, "maps_url": "https://www.google.com/maps/place/?q=place_id:0x390d02994de5e515:0xd908bc03409a0d37"}, {"place_id": "0x390ce162d8c2bc93:0x4183fb7a337d61cd", "name": "MAA IT", "category": "Computer support and services", "street": "H", "city": "2, Jalam Mohalla Rd", "phone": "09625457800", "website": "https://maa-it.grexa.site/", "rating": 4.7, "review_count": "", "latitude": 28.5119185, "longitude": 77.2656172, "maps_url": "https://www.google.com/maps/place/?q=place_id:0x390ce162d8c2bc93:0x4183fb7a337d61cd"}, {"place_id": "0x390feda4c4f56aed:0x2277b287e38fc0ec", "name": "Dizivan IT Solutions Pvt Ltd- App Development & Digital Marketing Company", "category": "Software company", "street": "near Metro Station New Ashok Nagar", "city": "Block B, New Ashok Nagar", "phone": "09142092979", "website": "https://dizivan.com/", "rating": 5, "review_count": "", "latitude": 28.5891575, "longitude": 77.3020624, "maps_url": "https://www.google.com/maps/place/?q=place_id:0x390feda4c4f56aed:0x2277b287e38fc0ec"}, {"place_id": "0x390ceff83aedd47f:0x89726b809101c15d", "name": "InfoAxon Technologies", "category": "Software company", "street": "08th Floor Plot No 15", "city": "Tradex Tower", "phone": "01204798900", "website": "http://www.infoaxon.com/", "rating": 3.8, "review_count": "", "latitude": 28.544279699999997, "longitude": 77.3310236, "maps_url": "https://www.google.com/maps/place/?q=place_id:0x390ceff83aedd47f:0x89726b809101c15d"}, {"place_id": "0x390ce226100110ef:0xe529d399458dbf03", "name": "First IT", "category": "Software company", "street": "S/F 776-A", "city": "Chirag Dilli", "phone": "", "website": "https://www.firstit.in/", "rating": 5, "review_count": "", "latitude": 28.5376318, "longitude": 77.2282863, "maps_url": "https://www.google.com/maps/place/?q=place_id:0x390ce226100110ef:0xe529d399458dbf03"}, {"place_id": "0x4215c6da63b4b82f:0x794ba814a6ada964", "name": "Asha Tech | Website Design, App Development & IT Solutions Delhi", "category": "Software company", "street": "no 2", "city": "195, Lane No. 1", "phone": "07531080874", "website": "https://ashatech.co.in/", "rating": 4.7, "review_count": "", "latitude": 28.519994099999998, "longitude": 77.2008791, "maps_url": "https://www.google.com/maps/place/?q=place_id:0x4215c6da63b4b82f:0x794ba814a6ada964"}, {"place_id": "0x390ce3df9a39b6a5:0x2350a5aee5e0bc7d", "name": "Sahaniya Technologies (OPC) Pvt. Ltd", "category": "Software company", "street": "2nd Floor", "city": "973/9", "phone": "09555489021", "website": "http://sahaniyatech.com/", "rating": 1, "review_count": "", "latitude": 28.535953499999998, "longitude": 77.2609849, "maps_url": "https://www.google.com/maps/place/?q=place_id:0x390ce3df9a39b6a5:0x2350a5aee5e0bc7d"}, {"place_id": "0x390ce3c50d455555:0x625e4cf2def0b6ac", "name": "Infonative Solutions Limited", "category": "Computer support and services", "street": "107, 108", "city": "DLF South Court", "phone": "08448141818", "website": "https://infonative.net/", "rating": 4.7, "review_count": "", "latitude": 28.5274255, "longitude": 77.2209031, "maps_url": "https://www.google.com/maps/place/?q=place_id:0x390ce3c50d455555:0x625e4cf2def0b6ac"}, {"place_id": "0x390ce3a2021e9897:0x28bf52d36a7d0c19", "name": "It Softtech - Website Designing and Development Company in Delhi, India", "category": "Internet marketing service", "street": "149, Ring Rd", "city": "opp. Maharani Bagh", "phone": "09810056177", "website": "", "rating": 5, "review_count": "", "latitude": 28.5763395, "longitude": 77.2640869, "maps_url": "https://www.google.com/maps/place/?q=place_id:0x390ce3a2021e9897:0x28bf52d36a7d0c19"}, {"place_id": "0x390ce45c5408040d:0xf772aea3645608d1", "name": "KritiKal Solutions", "category": "Software company", "street": "4th floor", "city": "Smartworks Corporate Park Maple Towers", "phone": "01206926600", "website": "https://kritikalsolutions.com/", "rating": 4.2, "review_count": "", "latitude": 28.548471, "longitude": 77.332223, "maps_url": "https://www.google.com/maps/place/?q=place_id:0x390ce45c5408040d:0xf772aea3645608d1"}, {"place_id": "0x390d1e2895a5a193:0xc8a11377898c5b0f", "name": "GALAXY IT CORPORATION", "category": "Computer service", "street": "B-6, Annexe", "city": "Shivalik Colony, Malviya Nagar", "phone": "09990560588", "website": "http://www.galaxyitcorp.in/", "rating": 5, "review_count": "", "latitude": 28.533527, "longitude": 77.206172, "maps_url": "https://www.google.com/maps/place/?q=place_id:0x390d1e2895a5a193:0xc8a11377898c5b0f"}, {"place_id": "0x390ce158b926ffd3:0x1a98e9ac83e533d3", "name": "InSoftLink Software Technology", "category": "Software company", "street": "E 44/3", "city": "Pocket D, Okhla Phase II, Okhla Industrial Estate", "phone": "09540349392", "website": "http://insoftlinktechnology.com/", "rating": 3.9, "review_count": "", "latitude": 28.5353694, "longitude": 77.2702709, "maps_url": "https://www.google.com/maps/place/?q=place_id:0x390ce158b926ffd3:0x1a98e9ac83e533d3"}, {"place_id": "0x390ce7f2f3828439:0xcac105243099edc3", "name": "Approzo Tech Private Limited", "category": "Website designer", "street": "B-2/11", "city": "Block B, Block E, Mohan Cooperative Industrial Estate, Badarpur", "phone": "", "website": "https://www.approzo.com/", "rating": 5, "review_count": "", "latitude": 28.4928682, "longitude": 77.301136, "maps_url": "https://www.google.com/maps/place/?q=place_id:0x390ce7f2f3828439:0xcac105243099edc3"}, {"place_id": "0x390ce3c5130e43f3:0xce85951ee98d424e", "name": "MODI INFOSOL PVT. LTD.", "category": "Manufacturer", "street": "OFFICE # 168", "city": "D Block, Pocket D, Okhla Phase I, Okhla Industrial Estate", "phone": "01140746900", "website": "http://www.modiithub.com/", "rating": 3.6, "review_count": "", "latitude": 28.5209118, "longitude": 77.2783556, "maps_url": "https://www.google.com/maps/place/?q=place_id:0x390ce3c5130e43f3:0xce85951ee98d424e"}, {"place_id": "0x390ce3932eaaaaab:0xb308d9aae0d93852", "name": "Al Hadaf Technologies\u2013 ERP, CRM, HRM, Hospital, School, Billing Software Development Company in Delhi NCR", "category": "Software company", "street": "96, Gate No-2", "city": "opp. Escort Hospital", "phone": "08586972994", "website": "https://www.alhadaftech.com/", "rating": 4.9, "review_count": "", "latitude": 28.5562397, "longitude": 77.2762099, "maps_url": "https://www.google.com/maps/place/?q=place_id:0x390ce3932eaaaaab:0xb308d9aae0d93852"}, {"place_id": "0x390ce775ccbe4053:0x7bdd9661ba8993d", "name": "Custom Theme Development Company in India Zaid App", "category": "Software company", "street": "E-403/B", "city": "Block E, Jaitpur Extension Part II, Khadda Colony, Badarpur", "phone": "07678131912", "website": "", "rating": 5, "review_count": "", "latitude": 28.513295199999998, "longitude": 77.33561379999999, "maps_url": "https://www.google.com/maps/place/?q=place_id:0x390ce775ccbe4053:0x7bdd9661ba8993d"}, {"place_id": "0x390ce45bcd61048f:0x5f6a5602f4155df7", "name": "JK Technosoft Limited", "category": "Software company", "street": "F", "city": "3", "phone": "01204606300", "website": "https://jktech.com/", "rating": 4.2, "review_count": "", "latitude": 28.5802509, "longitude": 77.31793329999999, "maps_url": "https://www.google.com/maps/place/?q=place_id:0x390ce45bcd61048f:0x5f6a5602f4155df7"}, {"place_id": "0x88baf45c59fc8417:0xb82cdb242dbab0fa", "name": "Marketing Agency Indiaa - best digital marketing agency in delhi", "category": "Website designer", "street": "Number- 393", "city": "J-2/House", "phone": "07678541983", "website": "https://marketingagencyindiaa.com/", "rating": 4.9, "review_count": "", "latitude": 28.4901657, "longitude": 77.244557, "maps_url": "https://www.google.com/maps/place/?q=place_id:0x88baf45c59fc8417:0xb82cdb242dbab0fa"}, {"place_id": "0x390ce1e9a7083cb7:0xe2a6861849a12032", "name": "Manish Gupta", "category": "Computer consultant", "street": "On", "city": "P1A 246 (D-14 Neb Valley", "phone": "09810207228", "website": "", "rating": 4.2, "review_count": "", "latitude": 28.5105653, "longitude": 77.2097086, "maps_url": "https://www.google.com/maps/place/?q=place_id:0x390ce1e9a7083cb7:0xe2a6861849a12032"}, {"place_id": "0x390ce717a54f6be5:0xfa8bf740df0be516", "name": "Hannovit", "category": "Software company", "street": "1351, FF", "city": "Ashoka Enclave Part II, Sector 37", "phone": "06356635655", "website": "http://hannovit.com/", "rating": 4.4, "review_count": "", "latitude": 28.4809862, "longitude": 77.31166329999999, "maps_url": "https://www.google.com/maps/place/?q=place_id:0x390ce717a54f6be5:0xfa8bf740df0be516"}, {"place_id": "0x390ce1b9de54d101:0xc5184256693b27dd", "name": "LCK Technologies - Website designing development company South Delhi", "category": "Website designer", "street": "439 1st floor", "city": "438", "phone": "09891337955", "website": "https://lckdigitalmedia.in/", "rating": 4.9, "review_count": "", "latitude": 28.5089698, "longitude": 77.20114769999999, "maps_url": "https://www.google.com/maps/place/?q=place_id:0x390ce1b9de54d101:0xc5184256693b27dd"}, {"place_id": "0x390d1f5abfb25fe1:0x7d9c4d5e159f2955", "name": "Jaimru Technology Pvt Ltd", "category": "Software company", "street": "WARD NO. 2", "city": "Plot No. 178 M 33 A/1", "phone": "07838153420", "website": "https://www.jaimru.com/", "rating": 4.9, "review_count": "", "latitude": 28.524347499999998, "longitude": 77.1731889, "maps_url": "https://www.google.com/maps/place/?q=place_id:0x390d1f5abfb25fe1:0x7d9c4d5e159f2955"}, {"place_id": "0x390ce7631473b4ed:0x794c260c0c846d35", "name": "Foster Digital Technology Pvt. Ltd.", "category": "Software company", "street": "B-2/11", "city": "Block B, Block E, Mohan Cooperative Industrial Estate, Badarpur", "phone": "07990572177", "website": "http://www.fosterdigitech.com/", "rating": "", "review_count": "", "latitude": 28.492841799999997, "longitude": 77.3010656, "maps_url": "https://www.google.com/maps/place/?q=place_id:0x390ce7631473b4ed:0x794c260c0c846d35"}, {"place_id": "0x390ce1a84c6a05c3:0x8782105baf302a33", "name": "Website Vale", "category": "Website designer", "street": "K-ll 685", "city": "near Raghupath Chowk", "phone": "08750343083", "website": "https://www.websitevale.com/", "rating": 4.9, "review_count": "", "latitude": 28.494864399999997, "longitude": 77.23539339999999, "maps_url": "https://www.google.com/maps/place/?q=place_id:0x390ce1a84c6a05c3:0x8782105baf302a33"}, {"place_id": "0x390ce45c745037b7:0x9c68079317dd287e", "name": "MediaTek India Technology Pvt. Ltd", "category": "Software company", "street": "3rd,3M and 4th Floor", "city": "Bptp Capital City", "phone": "01206151000", "website": "https://www.mediatek.com/", "rating": 4.5, "review_count": "", "latitude": 28.5523186, "longitude": 77.3250406, "maps_url": "https://www.google.com/maps/place/?q=place_id:0x390ce45c745037b7:0x9c68079317dd287e"}, {"place_id": "0x390ce14ee7712b09:0x16f1e425f9106ad", "name": "Royal Datamatics Limited", "category": "Software company", "street": "Shop No", "city": "DSIDC", "phone": "01145751500", "website": "http://www.rdpl.com/", "rating": 4, "review_count": "", "latitude": 28.521658, "longitude": 77.278385, "maps_url": "https://www.google.com/maps/place/?q=place_id:0x390ce14ee7712b09:0x16f1e425f9106ad"}, {"place_id": "0x390ce1e92eec0d49:0x8b4c598e70e40b8", "name": "Kito Infocom Pvt. Ltd", "category": "Internet marketing service", "street": "2nd Floor", "city": "B-38", "phone": "08826845665", "website": "https://kitoinfocom.com/", "rating": 4.6, "review_count": "", "latitude": 28.5302415, "longitude": 77.2719123, "maps_url": "https://www.google.com/maps/place/?q=place_id:0x390ce1e92eec0d49:0x8b4c598e70e40b8"}, {"place_id": "0x390ce3cfe91504eb:0x55346c5c499223d7", "name": "CCS Computers Private Limited", "category": "Computer support and services", "street": "2nd-3rd Floor Skipper House", "city": "Nehru Place", "phone": "01126463959", "website": "http://www.ccscomputers.co.in/", "rating": 4, "review_count": "", "latitude": 28.550090599999997, "longitude": 77.2537834, "maps_url": "https://www.google.com/maps/place/?q=place_id:0x390ce3cfe91504eb:0x55346c5c499223d7"}, {"place_id": "0x390ce3001bfd51c7:0x43ad1c18c320f5e6", "name": "APPSYFY IT SOLUTIONS PVT LTD", "category": "Software company", "street": "211, Okhla Phase 3 Rd", "city": "Okhla Phase III, Okhla Industrial Estate", "phone": "", "website": "https://appsyfy.com/", "rating": 5, "review_count": "", "latitude": 28.5484191, "longitude": 77.27131729999999, "maps_url": "https://www.google.com/maps/place/?q=place_id:0x390ce3001bfd51c7:0x43ad1c18c320f5e6"}, {"place_id": "0x390ce3d606c913ef:0xd246bd5631eb2cad", "name": "Delvetech", "category": "Software company", "street": "87A/1, 3rd Floor, Opp. Block N-115, G.K-1, Near Moolchand Merto", "city": "Block B, Zamrudpur, Greater Kailash", "phone": "09873895154", "website": "http://www.delvetech.co.in/", "rating": 4.1, "review_count": "", "latitude": 28.5570597, "longitude": 77.2356981, "maps_url": "https://www.google.com/maps/place/?q=place_id:0x390ce3d606c913ef:0xd246bd5631eb2cad"}, {"place_id": "0x390ce6db6cf32775:0x65f3101fb04f909c", "name": "Thaver Tech Pvt. Ltd.", "category": "Software company", "street": "A 1524", "city": "Greenfields, Sector 43", "phone": "09289816699", "website": "https://www.thavertech.com/", "rating": 4.4, "review_count": "", "latitude": 28.464767499999997, "longitude": 77.3008876, "maps_url": "https://www.google.com/maps/place/?q=place_id:0x390ce6db6cf32775:0x65f3101fb04f909c"}, {"place_id": "0x390ce17b01e1a187:0x586fa6002747476d", "name": "OneTap AI Solutions", "category": "Software company", "street": "FIRST FLOOR", "city": "HOLI CHOWK", "phone": "07859935902", "website": "https://onetapaisolutions.com/", "rating": 5, "review_count": "", "latitude": 28.5011396, "longitude": 77.2343595, "maps_url": "https://www.google.com/maps/place/?q=place_id:0x390ce17b01e1a187:0x586fa6002747476d"}, {"place_id": "0x390ce6b3be319739:0x6fce0f583eb925f3", "name": "Presto Infosolutions Private Limited", "category": "Software company", "street": "A-32, NH-19", "city": "Block B, Mohan Cooperative Industrial Estate, Badarpur", "phone": "01142336600", "website": "http://www.presto.co.in/", "rating": 4.1, "review_count": "", "latitude": 28.5229243, "longitude": 77.2909009, "maps_url": "https://www.google.com/maps/place/?q=place_id:0x390ce6b3be319739:0x6fce0f583eb925f3"}, {"place_id": "0x390ce3b7c0000001:0x46ddd80ee502d937", "name": "Amtrak Technologies Private Limited", "category": "Computer support and services", "street": "6, Community Centre", "city": "East of Kailash", "phone": "01126448000", "website": "https://amtrak.co.in/", "rating": 4.4, "review_count": "", "latitude": 28.558434899999998, "longitude": 77.2463302, "maps_url": "https://www.google.com/maps/place/?q=place_id:0x390ce3b7c0000001:0x46ddd80ee502d937"}, {"place_id": "0x390ce3e30fa8d08b:0x9f9ebbf7bc9f23fc", "name": "Palas Software Pvt Ltd", "category": "Software company", "street": "S 74", "city": "Sanjay Colony I, Sanjay Colony, Okhla Phase II, Okhla Industrial Estate", "phone": "09811001546", "website": "https://www.palas-india.com/", "rating": 5, "review_count": "", "latitude": 28.540579299999997, "longitude": 77.2725062, "maps_url": "https://www.google.com/maps/place/?q=place_id:0x390ce3e30fa8d08b:0x9f9ebbf7bc9f23fc"}, {"place_id": "0x390ce76e7a9dcdcb:0xc822fe40443dca04", "name": "Biro Infotech", "category": "Software company", "street": "A-15", "city": "Pocket-A Phase 2, Madanpur Khadar", "phone": "09560441610", "website": "http://biroinfotech.com/", "rating": 5, "review_count": "", "latitude": 28.532781099999998, "longitude": 77.3169934, "maps_url": "https://www.google.com/maps/place/?q=place_id:0x390ce76e7a9dcdcb:0xc822fe40443dca04"}, {"place_id": "0x390ce74f02f86777:0xd12c1da50395cf75", "name": "Techinfy Solutions Pvt. Ltd.", "category": "Corporate office", "street": "B-697, Mall Road", "city": "Greenfield Rd", "phone": "", "website": "http://www.techinfy.in/", "rating": 4.4, "review_count": "", "latitude": 28.4622343, "longitude": 77.297635, "maps_url": "https://www.google.com/maps/place/?q=place_id:0x390ce74f02f86777:0xd12c1da50395cf75"}, {"place_id": "0x390d1e186527b451:0x3d552630d3703e21", "name": "Inca Infotech Technologies Pvt Ltd", "category": "Computer support and services", "street": "D-23/405, UGF", "city": "100 Feet Rd", "phone": "18008891907", "website": "https://www.incainfotech.com/", "rating": 3.6, "review_count": "", "latitude": 28.506226899999998, "longitude": 77.1850521, "maps_url": "https://www.google.com/maps/place/?q=place_id:0x390d1e186527b451:0x3d552630d3703e21"}, {"place_id": "0x390ce3cffbd0ef65:0xaa22451d2d18b2b2", "name": "SAI BUSINESS SOFTWARE SOLUTIONS", "category": "Software company", "street": "823 , 808 A 823 , 808 A, 6", "city": "Devika Tower", "phone": "09871271562", "website": "http://www.tallyerpserver.com/", "rating": 4.5, "review_count": "", "latitude": 28.5473195, "longitude": 77.2503488, "maps_url": "https://www.google.com/maps/place/?q=place_id:0x390ce3cffbd0ef65:0xaa22451d2d18b2b2"}, {"place_id": "0x390d1fb9b19cd7d7:0x2febfba590f33428", "name": "Corapana Technologies - Mobile App Development and Web Design Development Company Delhi", "category": "Software company", "street": "Ground floor", "city": "D-23", "phone": "08295242621", "website": "https://corapana.com/", "rating": 4.8, "review_count": "", "latitude": 28.496378999999997, "longitude": 77.17898, "maps_url": "https://www.google.com/maps/place/?q=place_id:0x390d1fb9b19cd7d7:0x2febfba590f33428"}, {"place_id": "0x390ce728291846e3:0x47f7bdb929af8a16", "name": "ABHIPRIYA GROUP (APG)", "category": "Corporate office", "street": "A 6", "city": "A block, Dayal Bagh Rd", "phone": "09015063439", "website": "http://www.abhipriya.in/", "rating": 4.9, "review_count": "", "latitude": 28.4934726, "longitude": 77.2994703, "maps_url": "https://www.google.com/maps/place/?q=place_id:0x390ce728291846e3:0x47f7bdb929af8a16"}, {"place_id": "0x390ce3db460cee5f:0x47a6e8d4aa56a40f", "name": "Injoria Technologies: Website, Custome Software, Mobile Apps Development company", "category": "Computer support and services", "street": "Second Floor", "city": "Pandav Nagar Complex", "phone": "09911177045", "website": "", "rating": 4.5, "review_count": "", "latitude": 28.6215884, "longitude": 77.2842872, "maps_url": "https://www.google.com/maps/place/?q=place_id:0x390ce3db460cee5f:0x47a6e8d4aa56a40f"}, {"place_id": "0x390ce25e35e99b33:0xf443abe69b4e8fcc", "name": "Synapse Valuetech Private Limited", "category": "Software company", "street": "Lower Ground Floor", "city": "221", "phone": "01146628882", "website": "https://www.synapsevaluetech.com/", "rating": 4.3, "review_count": "", "latitude": 28.558165, "longitude": 77.2592385, "maps_url": "https://www.google.com/maps/place/?q=place_id:0x390ce25e35e99b33:0xf443abe69b4e8fcc"}, {"place_id": "0x390ce167a2fe2113:0x680ab5f778d97d4c", "name": "Digital Multi Solutions - Best CCTV Camera installation & Repair Service in Delhi", "category": "Security system installation service", "street": "F2, 873", "city": "A", "phone": "09599327317", "website": "https://digitalmultisolutions.com/", "rating": 5, "review_count": "", "latitude": 28.499465599999997, "longitude": 77.2420319, "maps_url": "https://www.google.com/maps/place/?q=place_id:0x390ce167a2fe2113:0x680ab5f778d97d4c"}, {"place_id": "0x390ce3c572a9ee5f:0xd4ddf520fbbd12dc", "name": "Vectrae Infotech", "category": "Corporate office", "street": "B-1 Extension", "city": "A-16", "phone": "01140590964", "website": "http://www.vectrae.com/", "rating": 4.6, "review_count": "", "latitude": 28.5068442, "longitude": 77.2986782, "maps_url": "https://www.google.com/maps/place/?q=place_id:0x390ce3c572a9ee5f:0xd4ddf520fbbd12dc"}, {"place_id": "0x390ce19d6aaaaaab:0x322f66cd91e8f6cd", "name": "Vikas Gupta Web Developer", "category": "Website designer", "street": "A-454 Dakshinpuri", "city": "New Delhi, Delhi 110062", "phone": "09643269244", "website": "https://itcrafterhub.com/website-developer-delhi/", "rating": 5, "review_count": "", "latitude": 28.522017599999998, "longitude": 77.2366923, "maps_url": "https://www.google.com/maps/place/?q=place_id:0x390ce19d6aaaaaab:0x322f66cd91e8f6cd"}, {"place_id": "0x390ce73a3a50e243:0x3ecf68379e0a6ed", "name": "Plasser India Private Limited", "category": "Manufacturer", "street": "13th Milestone Gurukul Indraprastha Estate Indraprastha Estate Gurukul", "city": "NH-19", "phone": "01294292600", "website": "http://www.plasserindia.com/", "rating": 4.4, "review_count": "", "latitude": 28.4772462, "longitude": 77.30095089999999, "maps_url": "https://www.google.com/maps/place/?q=place_id:0x390ce73a3a50e243:0x3ecf68379e0a6ed"}, {"place_id": "0x390ce456aaaaaaab:0x6e4e087895622564", "name": "Klasiinn", "category": "Software company", "street": "E-506, Inder Mohan Bhardwaj Marg", "city": "Block E, Greater Kailash II, Greater Kailash", "phone": "07827882870", "website": "http://klasiinn.in/", "rating": 5, "review_count": "", "latitude": 28.5358657, "longitude": 77.2384798, "maps_url": "https://www.google.com/maps/place/?q=place_id:0x390ce456aaaaaaab:0x6e4e087895622564"}, {"place_id": "0x390cddb1daa2e71d:0x48751bcfd25c20b0", "name": "Eli India", "category": "Corporate office", "street": "SSR Corporate Park, Faridabad Ground, 1st and 7th Floor Near NHPC Chowk Metro Station - Violet Line Sector - 27B", "city": "NH2", "phone": "01294294700", "website": "http://www.egaccelerator.com/", "rating": 3.9, "review_count": "", "latitude": 28.4587486, "longitude": 77.30607169999999, "maps_url": "https://www.google.com/maps/place/?q=place_id:0x390cddb1daa2e71d:0x48751bcfd25c20b0"}, {"place_id": "0x390ce196e61df7f3:0xedb8f1af808c8874", "name": "Best Digital Marketing Company in Kalkaji - HitupSolutions", "category": "Software company", "street": "1343, Street No. 13", "city": "Govindpuri", "phone": "07983772834", "website": "https://hitupsolutions.com/", "rating": 4.9, "review_count": "", "latitude": 28.5323982, "longitude": 77.2634478, "maps_url": "https://www.google.com/maps/place/?q=place_id:0x390ce196e61df7f3:0xedb8f1af808c8874"}, {"place_id": "0x390ce44efef427e7:0x4d0a10522519f65e", "name": "Omnie Solutions (I) Pvt Ltd", "category": "Software company", "street": "D-108", "city": "Sector 2, D Block, Sector 2", "phone": "09266754671", "website": "https://www.omniesolutions.com/", "rating": 3.4, "review_count": "", "latitude": 28.583485, "longitude": 77.316155, "maps_url": "https://www.google.com/maps/place/?q=place_id:0x390ce44efef427e7:0x4d0a10522519f65e"}, {"place_id": "0x390ce24b3fffffff:0x9f587d89ba46604", "name": "Microchip Infotech Systems Private Limited", "category": "Software company", "street": "A 102", "city": "Amar Colony A Block, Block A, Lajpat Nagar 4, Lajpat Nagar", "phone": "01141324610", "website": "http://www.microchipindia.com/", "rating": 3.4, "review_count": "", "latitude": 28.561472499999997, "longitude": 77.2418012, "maps_url": "https://www.google.com/maps/place/?q=place_id:0x390ce24b3fffffff:0x9f587d89ba46604"}]}