[{"place_id": "ChIJA6KtL5kCDTkR7wFe_OSD2bE", "name": "Omniscient IT Solutions Pvt. Ltd", "street": "4, 28, Saraswati Marg, Block 15A, WEA, Karol Bagh, New Delhi, Delhi, 110005, India", "phone": "+91 98110 27310", "rating": "4.6", "review_count": "", "website": "https://www.omniscientitsolutions.com/", "latitude": 28.646959, "longitude": 77.1882229, "maps_url": "https://www.google.com/maps/search/?api=1&query=Omniscient%20IT%20Solutions%20Pvt.%20Ltd&query_place_id=ChIJA6KtL5kCDTkR7wFe_OSD2bE"}, {"place_id": "ChIJUX61TOUCDTkRPmeqyd2Pcps", "name": "IT Solutions & Services (ITSS)", "street": "T–2425 Street Number 21, Baljeet Nagar, West Patel Nagar, New Delhi, Delhi 110008, India", "phone": "+91 88004 19462", "rating": "4.7", "review_count": "", "website": "https://www.itssin.com/", "latitude": 28.6576111, "longitude": 77.160708, "maps_url": "https://www.google.com/maps/search/?api=1&query=IT%20Solutions%20%26%20Services%20%28ITSS%29&query_place_id=ChIJUX61TOUCDTkRPmeqyd2Pcps"}, {"place_id": "ChIJL4BtX1wdDTkRIiNTpELCuuM", "name": "Nobilitas Infotech Pvt. Ltd. - IT Solutions Company", "street": "Padma Tower II, 210, Rajendra Place, New Delhi, Delhi 110005, India", "phone": "+91 84483 84926", "rating": "5", "review_count": "", "website": "https://www.nobilitasinfotech.com/", "latitude": 28.6451836, "longitude": 77.1780375, "maps_url": "https://www.google.com/maps/search/?api=1&query=Nobilitas%20Infotech%20Pvt.%20Ltd.%20-%20IT%20Solutions%20Company&query_place_id=ChIJL4BtX1wdDTkRIiNTpELCuuM"}, {"place_id": "ChIJFeXlTZkCDTkRNw2aQAO8CNk", "name": "Himalayan IT Solutions | Best Website Designing Company in Delhi | SEO/Digital Marketing Company in Delhi NCR, India", "street": "61/4255, Padam Singh Rd, Block 29, Block 1, Regar Pura, Karol Bagh, Delhi, 110005, India", "phone": "+91 98990 98509", "rating": "3.9", "review_count": "", "website": "http://www.himalayanitsolutions.com/", "latitude": 28.649673999999997, "longitude": 77.186599, "maps_url": "https://www.google.com/maps/search/?api=1&query=Himalayan%20IT%20Solutions%20%7C%20Best%20Website%20Designing%20Company%20in%20Delhi%20%7C%20SEO/Digital%20Marketing%20Company%20in%20Delhi%20NCR%2C%20India&query_place_id=ChIJFeXlTZkCDTkRNw2aQAO8CNk"}, {"place_id": "ChIJmehuOv8DDTkRExCAn5zYVfM", "name": "Esafe Hi-Tech Solutions Pvt. Ltd.", "street": "4/52 , 3rd Floor, Shankar Road, Old Rajinder Nagar, New Delhi, Delhi 110060, India", "phone": "+91 88000 15155", "rating": "5", "review_count": "", "website": "https://esafesolutions.org/", "latitude": 28.6378399, "longitude": 77.1810955, "maps_url": "https://www.google.com/maps/search/?api=1&query=Esafe%20Hi-Tech%20Solutions%20Pvt.%20Ltd.&query_place_id=ChIJmehuOv8DDTkRExCAn5zYVfM"}, {"place_id": "ChIJ__9zXrcCDTkRqWbdTyXbaqA", "name": "Comparic Solution (Opc) Private Limited", "street": "NO-348, H-348, Central, Pocket H, Double Storey II, New Rajinder Nagar, New Delhi, Delhi, 110060, India", "phone": "", "rating": "4.1", "review_count": "", "website": "", "latitude": 28.636433999999998, "longitude": 77.1792846, "maps_url": "https://www.google.com/maps/search/?api=1&query=Comparic%20Solution%20%28Opc%29%20Private%20Limited&query_place_id=ChIJ__9zXrcCDTkRqWbdTyXbaqA"}, {"place_id": "ChIJ63KKlqQCDTkRqPofyw9JaEA", "name": "Shavsi Global Services", "street": "2/59 Basment, Rajinder Nagar, Delhi, 110060, India", "phone": "+91 98738 23236", "rating": "4.7", "review_count": "", "website": "http://www.shavsiglobalservices.com/", "latitude": 28.6364731, "longitude": 77.1846157, "maps_url": "https://www.google.com/maps/search/?api=1&query=Shavsi%20Global%20Services&query_place_id=ChIJ63KKlqQCDTkRqPofyw9JaEA"}, {"place_id": "ChIJ____ewXiDDkRWkRWfPl6bfA", "name": "BNG Infotech Private Limited", "street": "509-511 Gagandeep Building, Rajendra Place, New Delhi, Delhi 110008, India", "phone": "+91 81006 41006", "rating": "4.4", "review_count": "", "website": "https://www.bng.co.in/", "latitude": 28.6439304, "longitude": 77.1772003, "maps_url": "https://www.google.com/maps/search/?api=1&query=BNG%20Infotech%20Private%20Limited&query_place_id=ChIJ____ewXiDDkRWkRWfPl6bfA"}, {"place_id": "ChIJ6fogp5QCDTkRX_8pAuL_gew", "name": "it company", "street": "Block 31/25, Block 31, East Patel Nagar, Patel Nagar, New Delhi, Delhi, 110008, India", "phone": "+91 98189 02645", "rating": "", "review_count": "", "website": "", "latitude": 28.6477211, "longitude": 77.1727298, "maps_url": "https://www.google.com/maps/search/?api=1&query=it%20company&query_place_id=ChIJ6fogp5QCDTkRX_8pAuL_gew"}, {"place_id": "ChIJEZi4U8HjDDkRyul3V2h5ouc", "name": "IT Company", "street": "A-14, near iskcon temple, Block A, APB Garhi, Vasant Vihar, New Delhi, Delhi 110065, India", "phone": "", "rating": "3", "review_count": "", "website": "http://www.opuswiz.com/", "latitude": 28.557167, "longitude": 77.25424819999999, "maps_url": "https://www.google.com/maps/search/?api=1&query=IT%20Company&query_place_id=ChIJEZi4U8HjDDkRyul3V2h5ouc"}, {"place_id": "ChIJ____XIT9DDkRTh0Zai1y3yg", "name": "Holy-Land Marketing", "street": "D, 154, Rajender Nagar, New Rajinder Nagar, New Delhi, Delhi 110060, India", "phone": "+91 11 4125 5444", "rating": "4.8", "review_count": "", "website": "https://www.holylandgroup.org/", "latitude": 28.637186099999997, "longitude": 77.1819719, "maps_url": "https://www.google.com/maps/search/?api=1&query=Holy-Land%20Marketing&query_place_id=ChIJ____XIT9DDkRTh0Zai1y3yg"}, {"place_id": "ChIJDSmBfV0EDTkR_UoO0pAlp5M", "name": "Supertech Equipments Pvt Ltd(CANON Premium Partner)", "street": "E-10 & E-6, LGF,DDA MARKET, New Rajinder Nagar, New Delhi, Delhi 110060, India", "phone": "+91 85959 52131", "rating": "4.8", "review_count": "", "website": "http://www.indiamart.com/supertechequipmentpvtltd/", "latitude": 28.6363362, "longitude": 77.17785289999999, "maps_url": "https://www.google.com/maps/search/?api=1&query=Supertech%20Equipments%20Pvt%20Ltd%28CANON%20Premium%20Partner%29&query_place_id=ChIJDSmBfV0EDTkR_UoO0pAlp5M"}, {"place_id": "ChIJAU4Md7T9DDkR4Lsd8qPE8zU", "name": "TYGATEC", "street": "OLD 2 FLOOR, 34/37, Rajinder Nagar, New Delhi, Delhi 110060, India", "phone": "+91 88102 25793", "rating": "4.3", "review_count": "", "website": "http://tygatec.com/", "latitude": 28.635387899999998, "longitude": 77.18578099999999, "maps_url": "https://www.google.com/maps/search/?api=1&query=TYGATEC&query_place_id=ChIJAU4Md7T9DDkR4Lsd8qPE8zU"}, {"place_id": "ChIJXQ2VyXwBDTkR_52c260Pnsc", "name": "Aska Equipments Private Limited", "street": "R-482, Shankar Rd, Block R ,Rajendra Nagar, Rajender Nagar Part 1, New Rajinder Nagar, New Delhi, Delhi 110060, India", "phone": "+91 1800 123 8611", "rating": "4.6", "review_count": "", "website": "http://askagroup.com/", "latitude": 28.635312199999998, "longitude": 77.1854318, "maps_url": "https://www.google.com/maps/search/?api=1&query=Aska%20Equipments%20Private%20Limited&query_place_id=ChIJXQ2VyXwBDTkR_52c260Pnsc"}, {"place_id": "ChIJB21vxb0DDTkRwpX4J7pZ3DI", "name": "HP World - Shankar Road", "street": "Ground floor, No 4/52, Shankar Road, Old Rajinder Nagar, New Delhi, Delhi 110060, India", "phone": "+91 96194 76457", "rating": "4.6", "review_count": "", "website": "https://www.hpworldstores.in/ground-floor-shankar-road-old-rajinder-nagar-opposite-axis-bank/Home", "latitude": 28.6377322, "longitude": 77.181741, "maps_url": "https://www.google.com/maps/search/?api=1&query=HP%20World%20-%20Shankar%20Road&query_place_id=ChIJB21vxb0DDTkRwpX4J7pZ3DI"}, {"place_id": "ChIJc80Hk_0DDTkRzeDGAgk6Ino", "name": "Web Cloud Technology", "street": "3A/74 W.E.A, Sat Nagar, Karol Bagh, New Delhi, Delhi 110005, India", "phone": "+91 88823 24811", "rating": "4.4", "review_count": "", "website": "https://webcloudtechnology.in/", "latitude": 28.6465632, "longitude": 77.1824149, "maps_url": "https://www.google.com/maps/search/?api=1&query=Web%20Cloud%20Technology&query_place_id=ChIJc80Hk_0DDTkRzeDGAgk6Ino"}, {"place_id": "ChIJl1XknesCDTkRCAvQm0XALHc", "name": "WebzPapa - SEO Company in Delhi I SEO Services Agency in Delhi", "street": "Gate no 6, Building - O, 4th Floor, South Patel Nagar Near Patel Nagar Metro Station, New Delhi, Delhi 110008, India", "phone": "+91 99539 93944", "rating": "4.7", "review_count": "", "website": "https://webzpapa.com/seo-company-delhi.html", "latitude": 28.6450192, "longitude": 77.1688623, "maps_url": "https://www.google.com/maps/search/?api=1&query=WebzPapa%20-%20SEO%20Company%20in%20Delhi%20I%20SEO%20Services%20Agency%20in%20Delhi&query_place_id=ChIJl1XknesCDTkRCAvQm0XALHc"}, {"place_id": "ChIJl3sYCPoCDTkR0sy4l1Cc8fI", "name": "RELEVANT SEARCH MEDIA", "street": "", "phone": "+91 20 2609 6641", "rating": "4.7", "review_count": "", "website": "http://relevantsearchmedia.com/", "latitude": 9.374110199999999, "longitude": -74.9524576, "maps_url": "https://www.google.com/maps/search/?api=1&query=RELEVANT%20SEARCH%20MEDIA&query_place_id=ChIJl3sYCPoCDTkR0sy4l1Cc8fI"}, {"place_id": "ChIJOZd2wWIDDTkRMdyNCdCtCIQ", "name": "Groot Infotech", "street": "Padma Tower II, 502, Rajendra Place, New Delhi, Delhi 110005, India", "phone": "+91 85273 53508", "rating": "", "review_count": "", "website": "https://www.grootinfotech.com/", "latitude": 28.6451836, "longitude": 77.1780375, "maps_url": "https://www.google.com/maps/search/?api=1&query=Groot%20Infotech&query_place_id=ChIJOZd2wWIDDTkRMdyNCdCtCIQ"}, {"place_id": "ChIJIUwMub4CDTkRWAyWbWHOCPg", "name": "Magic Wand Labs", "street": "B-20, Lower Ground Floor, LSC at 2,4,20 MOR Land, New Rajinder Nagar, New Delhi, Delhi 110060, India", "phone": "", "rating": "5", "review_count": "", "website": "http://www.magicwandlabs.com/", "latitude": 28.637118899999997, "longitude": 77.1773303, "maps_url": "https://www.google.com/maps/search/?api=1&query=Magic%20Wand%20Labs&query_place_id=ChIJIUwMub4CDTkRWAyWbWHOCPg"}]