[{"place_id": "ChIJGdxX5iYDDTkRXk9AFryD1S0", "name": "ATS - Restaurant POS Software and Hotel PMS", "street": "61, Inder Puri, New Delhi, Delhi 110012, India", "phone": "+91 98100 78010", "rating": "4.3", "review_count": "", "website": "https://atsonline.in/", "latitude": 28.630642899999998, "longitude": 77.1646483, "maps_url": "https://www.google.com/maps/search/?api=1&query=ATS%20-%20Restaurant%20POS%20Software%20and%20Hotel%20PMS&query_place_id=ChIJGdxX5iYDDTkRXk9AFryD1S0"}, {"place_id": "ChIJfcFJpSgDDTkRL83imZk1njs", "name": "Total IT Software Solutions", "street": "WZ-248, Plot No. 7, IInd Floor, Inder Puri, New Delhi, Delhi 110012, India", "phone": "+91 93505 15096", "rating": "4.4", "review_count": "", "website": "http://tiss.co.in/", "latitude": 28.6319838, "longitude": 77.14855709999999, "maps_url": "https://www.google.com/maps/search/?api=1&query=Total%20IT%20Software%20Solutions&query_place_id=ChIJfcFJpSgDDTkRL83imZk1njs"}, {"place_id": "ChIJA6KtL5kCDTkR7wFe_OSD2bE", "name": "Omniscient IT Solutions Pvt. Ltd", "street": "4, 28, Saraswati Marg, Block 15A, WEA, Karol Bagh, New Delhi, Delhi, 110005, India", "phone": "+91 98110 27310", "rating": "4.6", "review_count": "", "website": "https://www.omniscientitsolutions.com/", "latitude": 28.646959, "longitude": 77.1882229, "maps_url": "https://www.google.com/maps/search/?api=1&query=Omniscient%20IT%20Solutions%20Pvt.%20Ltd&query_place_id=ChIJA6KtL5kCDTkR7wFe_OSD2bE"}, {"place_id": "ChIJUX61TOUCDTkRPmeqyd2Pcps", "name": "IT Solutions & Services (ITSS)", "street": "T–2425 Street Number 21, Baljeet Nagar, West Patel Nagar, New Delhi, Delhi 110008, India", "phone": "+91 88004 19462", "rating": "4.7", "review_count": "", "website": "https://www.itssin.com/", "latitude": 28.6576111, "longitude": 77.160708, "maps_url": "https://www.google.com/maps/search/?api=1&query=IT%20Solutions%20%26%20Services%20%28ITSS%29&query_place_id=ChIJUX61TOUCDTkRPmeqyd2Pcps"}, {"place_id": "ChIJPR796sD9DDkRLo5M9V9l1nA", "name": "Binarysoft Technologies (We bring IT)", "street": "1st Floor, 1626/33, Block 27F, Naiwala, Karol Bagh, Delhi, 110005, India", "phone": "+91 92054 71661", "rating": "5", "review_count": "", "website": "http://www.binarysoft.com/", "latitude": 28.647633, "longitude": 77.19496199999999, "maps_url": "https://www.google.com/maps/search/?api=1&query=Binarysoft%20Technologies%20%28We%20bring%20IT%29&query_place_id=ChIJPR796sD9DDkRLo5M9V9l1nA"}, {"place_id": "ChIJFeXlTZkCDTkRNw2aQAO8CNk", "name": "Himalayan IT Solutions | Best Website Designing Company in Delhi | SEO/Digital Marketing Company in Delhi NCR, India", "street": "61/4255, Padam Singh Rd, Block 29, Block 1, Regar Pura, Karol Bagh, Delhi, 110005, India", "phone": "+91 98990 98509", "rating": "3.9", "review_count": "", "website": "http://www.himalayanitsolutions.com/", "latitude": 28.649673999999997, "longitude": 77.186599, "maps_url": "https://www.google.com/maps/search/?api=1&query=Himalayan%20IT%20Solutions%20%7C%20Best%20Website%20Designing%20Company%20in%20Delhi%20%7C%20SEO/Digital%20Marketing%20Company%20in%20Delhi%20NCR%2C%20India&query_place_id=ChIJFeXlTZkCDTkRNw2aQAO8CNk"}, {"place_id": "ChIJL4BtX1wdDTkRIiNTpELCuuM", "name": "Nobilitas Infotech Pvt. Ltd. - IT Solutions Company", "street": "Padma Tower II, 210, Rajendra Place, New Delhi, Delhi 110005, India", "phone": "+91 84483 84926", "rating": "5", "review_count": "", "website": "https://www.nobilitasinfotech.com/", "latitude": 28.6451836, "longitude": 77.1780375, "maps_url": "https://www.google.com/maps/search/?api=1&query=Nobilitas%20Infotech%20Pvt.%20Ltd.%20-%20IT%20Solutions%20Company&query_place_id=ChIJL4BtX1wdDTkRIiNTpELCuuM"}, {"place_id": "ChIJ____ewXiDDkRWkRWfPl6bfA", "name": "BNG Infotech Private Limited", "street": "509-511 Gagandeep Building, Rajendra Place, New Delhi, Delhi 110008, India", "phone": "+91 81006 41006", "rating": "4.4", "review_count": "", "website": "https://www.bng.co.in/", "latitude": 28.6439304, "longitude": 77.1772003, "maps_url": "https://www.google.com/maps/search/?api=1&query=BNG%20Infotech%20Private%20Limited&query_place_id=ChIJ____ewXiDDkRWkRWfPl6bfA"}, {"place_id": "ChIJ6fogp5QCDTkRX_8pAuL_gew", "name": "it company", "street": "Block 31/25, Block 31, East Patel Nagar, Patel Nagar, New Delhi, Delhi, 110008, India", "phone": "+91 98189 02645", "rating": "", "review_count": "", "website": "", "latitude": 28.6477211, "longitude": 77.1727298, "maps_url": "https://www.google.com/maps/search/?api=1&query=it%20company&query_place_id=ChIJ6fogp5QCDTkRX_8pAuL_gew"}, {"place_id": "ChIJO4sr49IDDTkRALZaeWsr-oI", "name": "Iraitech | Software Development Company", "street": "Central Square Complex 3, Unit No-1051, 1st Floor, Near Filmistan, DCM chowk, Bara Hindu Rao, Kishan Ganj, Delhi, 110006, India", "phone": "+91 81301 04108", "rating": "4.1", "review_count": "", "website": "https://www.iraitech.com/", "latitude": 28.6631951, "longitude": 77.20308639999999, "maps_url": "https://www.google.com/maps/search/?api=1&query=Iraitech%20%7C%20Software%20Development%20Company&query_place_id=ChIJO4sr49IDDTkRALZaeWsr-oI"}, {"place_id": "ChIJL955hJYCDTkREqQASrd_gPQ", "name": "Tick Softwares Ltd.", "street": "1207, Pragati Tower, 26, Prasad Nagar, Rajendra Place, New Delhi, Delhi, 110008, India", "phone": "+91 75330 16990", "rating": "4.5", "review_count": "", "website": "http://ticksoftwares.in/", "latitude": 28.645996, "longitude": 77.1773839, "maps_url": "https://www.google.com/maps/search/?api=1&query=Tick%20Softwares%20Ltd.&query_place_id=ChIJL955hJYCDTkREqQASrd_gPQ"}, {"place_id": "ChIJdSAmRFMDDTkRaFF4UNYhZKs", "name": "Bytecure Enterprises", "street": "H.no 674, FOUR STOREY FLATS, gate no4, opp. VISHAL ENCLAVE, A Block, Vishal Enclave, Rajouri Garden, New Delhi, Delhi, 110027, India", "phone": "", "rating": "4.9", "review_count": "", "website": "https://bytecure-enterprises.grexa.site/", "latitude": 28.6491583, "longitude": 77.1156391, "maps_url": "https://www.google.com/maps/search/?api=1&query=Bytecure%20Enterprises&query_place_id=ChIJdSAmRFMDDTkRaFF4UNYhZKs"}, {"place_id": "ChIJVSDU85wCDTkR3TEe80XmjVY", "name": "AI Micro Mind®Technology", "street": "3rd Floor, 16/448, Block I, Building Number, Military Rd, Karol Bagh, New Delhi, Delhi, 110005, India", "phone": "+91 98183 53030", "rating": "4.8", "review_count": "", "website": "http://micromind.in/", "latitude": 28.656936299999998, "longitude": 77.1817737, "maps_url": "https://www.google.com/maps/search/?api=1&query=AI%20Micro%20Mind%C2%AETechnology&query_place_id=ChIJVSDU85wCDTkR3TEe80XmjVY"}, {"place_id": "ChIJEZi4U8HjDDkRyul3V2h5ouc", "name": "IT Company", "street": "A-14, near iskcon temple, Block A, APB Garhi, Vasant Vihar, New Delhi, Delhi 110065, India", "phone": "", "rating": "3", "review_count": "", "website": "http://www.opuswiz.com/", "latitude": 28.557167, "longitude": 77.25424819999999, "maps_url": "https://www.google.com/maps/search/?api=1&query=IT%20Company&query_place_id=ChIJEZi4U8HjDDkRyul3V2h5ouc"}, {"place_id": "ChIJ_zd6bZ4dDTkRBRy2CDq63bI", "name": "VB Infotech India Pvt.Ltd", "street": "CB-255 1st Floor, Petrol Pump, Naraina Ring Rd, near IndianOil, Block CB, Naraina Village, Naraina, New Delhi, Delhi 110028, India", "phone": "+91 11 2577 6294", "rating": "4", "review_count": "", "website": "http://vbinfotech.in/", "latitude": 28.6213534, "longitude": 77.1350617, "maps_url": "https://www.google.com/maps/search/?api=1&query=VB%20Infotech%20India%20Pvt.Ltd&query_place_id=ChIJ_zd6bZ4dDTkRBRy2CDq63bI"}, {"place_id": "ChIJ8bD3oe-1bTkRhQOwVrfg-vw", "name": "One Aim IT Solutions", "street": "2/41/2 , 1st Floor, Sadar Bazar , Moradabad Pahari ,TO.Delhi Cantt, Distt:, South West, New Delhi, Delhi 110006, India", "phone": "+91 89552 49714", "rating": "5", "review_count": "", "website": "https://theoneaim.in/", "latitude": 28.6580968, "longitude": 77.2124735, "maps_url": "https://www.google.com/maps/search/?api=1&query=One%20Aim%20IT%20Solutions&query_place_id=ChIJ8bD3oe-1bTkRhQOwVrfg-vw"}, {"place_id": "ChIJuWHhgOADDTkRnxxopj0gupQ", "name": "Accuwisetech IT Solution & Digital Marketing Agency", "street": "Metro Station Patel Nagar, 2/15, station, West Patel Nagar, New Delhi, Delhi, 110008, India", "phone": "", "rating": "4.9", "review_count": "", "website": "https://accuwisetech.com/", "latitude": 28.645363, "longitude": 77.1688322, "maps_url": "https://www.google.com/maps/search/?api=1&query=Accuwisetech%20IT%20Solution%20%26%20Digital%20Marketing%20Agency&query_place_id=ChIJuWHhgOADDTkRnxxopj0gupQ"}, {"place_id": "ChIJ3SHjbsADDTkRq6JRTr0whIg", "name": "Hythe Solutions", "street": "106 Guru Ram Das Bhawan, near Satyam Cineplex, Patel Nagar, New Delhi, Delhi 110008, India", "phone": "+91 93199 68597", "rating": "4.8", "review_count": "", "website": "https://www.hythesolutions.com/", "latitude": 28.6497168, "longitude": 77.1575151, "maps_url": "https://www.google.com/maps/search/?api=1&query=Hythe%20Solutions&query_place_id=ChIJ3SHjbsADDTkRq6JRTr0whIg"}, {"place_id": "ChIJZ1pOrqz8DDkRfD__2DiXGpY", "name": "Need Infotech", "street": "110012, E-557, Budh Nagar, Inder Puri, New Delhi, Delhi 110028, India", "phone": "+91 88608 08752", "rating": "4.8", "review_count": "", "website": "https://www.needinfotech.com/", "latitude": 28.631518, "longitude": 77.1436078, "maps_url": "https://www.google.com/maps/search/?api=1&query=Need%20Infotech&query_place_id=ChIJZ1pOrqz8DDkRfD__2DiXGpY"}, {"place_id": "ChIJ____75YCDTkRjLFp7iFxdWw", "name": "Saraswati Accountants Software Pvt. Ltd. |Tally Prime | Tally Cloud | Tally Renewal | Tally Customization & Training|", "street": "Tower-4, Vikrant, 807, 8th, Rajendra Place, New Delhi, Delhi 110008, India", "phone": "+91 11 4766 0000", "rating": "4.9", "review_count": "", "website": "http://www.saraswatiaccountants.com/", "latitude": 28.6458658, "longitude": 77.177678, "maps_url": "https://www.google.com/maps/search/?api=1&query=Saraswati%20Accountants%20Software%20Pvt.%20Ltd.%20%7CTally%20Prime%20%7C%20Tally%20Cloud%20%7C%20Tally%20Renewal%20%7C%20Tally%20Customization%20%26%20Training%7C&query_place_id=ChIJ____75YCDTkRjLFp7iFxdWw"}, {"place_id": "ChIJmehuOv8DDTkRExCAn5zYVfM", "name": "Esafe Hi-Tech Solutions Pvt. Ltd.", "street": "4/52 , 3rd Floor, Shankar Road, Old Rajinder Nagar, New Delhi, Delhi 110060, India", "phone": "+91 88000 15155", "rating": "5", "review_count": "", "website": "https://esafesolutions.org/", "latitude": 28.6378399, "longitude": 77.1810955, "maps_url": "https://www.google.com/maps/search/?api=1&query=Esafe%20Hi-Tech%20Solutions%20Pvt.%20Ltd.&query_place_id=ChIJmehuOv8DDTkRExCAn5zYVfM"}, {"place_id": "ChIJsauU3qgcDTkRWIVfHX9ocMA", "name": "Bita Infotech IT Solutions:: Website Designing & Development Company", "street": "Rz-31 B, Street No. 5, Block M, West Sagarpur, Sagar Pur, New Delhi, Delhi, 110046, India", "phone": "+91 81782 56664", "rating": "4.7", "review_count": "", "website": "https://bitainfotech.com/", "latitude": 28.6056495, "longitude": 77.1012293, "maps_url": "https://www.google.com/maps/search/?api=1&query=Bita%20Infotech%20IT%20Solutions%3A%3A%20Website%20Designing%20%26%20Development%20Company&query_place_id=ChIJsauU3qgcDTkRWIVfHX9ocMA"}, {"place_id": "ChIJlVh_25UCDTkROsUJvW4hYeo", "name": "Miri Infotech Pvt Ltd.", "street": "2/5, Block 2, West Patel Nagar, Patel Nagar, New Delhi, Delhi, 110008, India", "phone": "", "rating": "4.2", "review_count": "", "website": "", "latitude": 28.646421999999998, "longitude": 77.167783, "maps_url": "https://www.google.com/maps/search/?api=1&query=Miri%20Infotech%20Pvt%20Ltd.&query_place_id=ChIJlVh_25UCDTkROsUJvW4hYeo"}, {"place_id": "ChIJC3MN3zb9DDkR-JxtEG9cQg0", "name": "I. T. Solutions", "street": "Gate No. 8, A-6, 1st Floor, Inner Circle, Above Post office, near ICICI Bank, Bon Ton and Metro, Connaught Place, New Delhi, Delhi 110001, India", "phone": "+91 11 4152 3242", "rating": "4.9", "review_count": "", "website": "http://www.itsolutioncp.com/", "latitude": 28.6324367, "longitude": 77.2183441, "maps_url": "https://www.google.com/maps/search/?api=1&query=I.%20T.%20Solutions&query_place_id=ChIJC3MN3zb9DDkR-JxtEG9cQg0"}, {"place_id": "ChIJk2R7nba4cioRrEzT1GYUJRE", "name": "WebZonal IT Company", "street": "Wz-258/2-3, D Block Rd, Khazan Basti, Nangal Raya, Janakpuri, New Delhi, Delhi 110046, India", "phone": "+91 98111 70903", "rating": "5", "review_count": "", "website": "http://webzonal.com/", "latitude": 28.6122102, "longitude": 77.11159549999999, "maps_url": "https://www.google.com/maps/search/?api=1&query=WebZonal%20IT%20Company&query_place_id=ChIJk2R7nba4cioRrEzT1GYUJRE"}, {"place_id": "ChIJC0SDUzwDDTkRZHpHZkal-RQ", "name": "Bytecom", "street": "1st Floor, Commercial Complex, D35, DTC Colony, Ranjeet Nagar, New Delhi, Delhi, 110008, India", "phone": "", "rating": "5", "review_count": "", "website": "", "latitude": 28.650668099999997, "longitude": 77.1572305, "maps_url": "https://www.google.com/maps/search/?api=1&query=Bytecom&query_place_id=ChIJC0SDUzwDDTkRZHpHZkal-RQ"}, {"place_id": "ChIJ8___U_sCDTkRVg-E-wx7Auk", "name": "Fastliq- Branding & Marketing Solution | IT Services | Digital Transformation", "street": "2151, 16, New Patel Nagar, Shadipur, New Delhi, Delhi, 110008, India", "phone": "+91 97181 17747", "rating": "5", "review_count": "", "website": "https://fastliq.com/", "latitude": 28.652120999999998, "longitude": 77.154628, "maps_url": "https://www.google.com/maps/search/?api=1&query=Fastliq-%20Branding%20%26%20Marketing%20Solution%20%7C%20IT%20Services%20%7C%20Digital%20Transformation&query_place_id=ChIJ8___U_sCDTkRVg-E-wx7Auk"}, {"place_id": "ChIJVed5zP3lDDkR9k64UZLpnDA", "name": "Optyminds IT Solutions - Top AI and IT company I Best Digital agency in Noida | Delhi NCR | India", "street": "1st Floor, B-70, B Block, Sector 2, Noida, Uttar Pradesh 201301, India", "phone": "+91 89290 75975", "rating": "4.9", "review_count": "", "website": "https://optyminds.com/", "latitude": 28.584679599999998, "longitude": 77.3135042, "maps_url": "https://www.google.com/maps/search/?api=1&query=Optyminds%20IT%20Solutions%20-%20Top%20AI%20and%20IT%20company%20I%20Best%20Digital%20agency%20in%20Noida%20%7C%20Delhi%20NCR%20%7C%20India&query_place_id=ChIJVed5zP3lDDkR9k64UZLpnDA"}, {"place_id": "ChIJJS2nYJoCDTkR8ZKgzjgdREU", "name": "Payroll Software Companies", "street": "4/28, Ground Floor, Saraswati Marg, W.E.A, Karol Bagh, New Delhi, Delhi 110005, India", "phone": "+91 97111 95490", "rating": "4.3", "review_count": "", "website": "", "latitude": 28.6484551, "longitude": 77.1875826, "maps_url": "https://www.google.com/maps/search/?api=1&query=Payroll%20Software%20Companies&query_place_id=ChIJJS2nYJoCDTkR8ZKgzjgdREU"}, {"place_id": "ChIJ7aqqWqz8DDkRgAFAey6rIAo", "name": "𝑨𝑶 𝑺𝒐𝒇𝒕𝒘𝒂𝒓𝒆 𝑺𝒐𝒍𝒖𝒕𝒊𝒐𝒏 Website Designing company-website development company-product promotion and ERP development company", "street": "1B, S-505, School Block, Laxmi Nagar, II, Shakarpur, New Delhi, Delhi, 110092, India", "phone": "+91 11 4260 3444", "rating": "4.8", "review_count": "", "website": "https://aosoftwaresolution.com/", "latitude": 28.6287195, "longitude": 77.2766171, "maps_url": "https://www.google.com/maps/search/?api=1&query=%F0%9D%91%A8%F0%9D%91%B6%20%F0%9D%91%BA%F0%9D%92%90%F0%9D%92%87%F0%9D%92%95%F0%9D%92%98%F0%9D%92%82%F0%9D%92%93%F0%9D%92%86%20%F0%9D%91%BA%F0%9D%92%90%F0%9D%92%8D%F0%9D%92%96%F0%9D%92%95%F0%9D%92%8A%F0%9D%92%90%F0%9D%92%8F%20Website%20Designing%20company-website%20development%20company-product%20promotion%20and%20ERP%20development%20company&query_place_id=ChIJ7aqqWqz8DDkRgAFAey6rIAo"}, {"place_id": "ChIJmXLzrq0DDTkR567ekzA0iw0", "name": "Ruminate IT Solution | Best software company in Delhi NCR | IT Software company", "street": "C-64, Pocket B, Hari Nagar, Delhi, 110064, India", "phone": "+91 96256 50376", "rating": "5", "review_count": "", "website": "https://www.ruminateitsolution.com/", "latitude": 28.628819, "longitude": 77.10428399999999, "maps_url": "https://www.google.com/maps/search/?api=1&query=Ruminate%20IT%20Solution%20%7C%20Best%20software%20company%20in%20Delhi%20NCR%20%7C%20IT%20Software%20company&query_place_id=ChIJmXLzrq0DDTkR567ekzA0iw0"}, {"place_id": "ChIJ6TTJzu0CGIkR8o8RUVLIsx0", "name": "WebCraftBros", "street": "", "phone": "+91 73034 08500", "rating": "4.9", "review_count": "", "website": "https://webcraftbros.com/", "latitude": 21.0680074, "longitude": 82.7525294, "maps_url": "https://www.google.com/maps/search/?api=1&query=WebCraftBros&query_place_id=ChIJ6TTJzu0CGIkR8o8RUVLIsx0"}, {"place_id": "ChIJ63KKlqQCDTkRqPofyw9JaEA", "name": "Shavsi Global Services", "street": "2/59 Basment, Rajinder Nagar, Delhi, 110060, India", "phone": "+91 98738 23236", "rating": "4.7", "review_count": "", "website": "http://www.shavsiglobalservices.com/", "latitude": 28.6364731, "longitude": 77.1846157, "maps_url": "https://www.google.com/maps/search/?api=1&query=Shavsi%20Global%20Services&query_place_id=ChIJ63KKlqQCDTkRqPofyw9JaEA"}, {"place_id": "ChIJv43wEtICDTkRXhorP54iPsA", "name": "Expert Professional Services", "street": "Traffic Police Headquarters, WZ Block, Todapur, New Delhi, Delhi 110012, India", "phone": "+91 70112 79379", "rating": "5", "review_count": "", "website": "https://sites.google.com/view/expros/eps", "latitude": 28.6230594, "longitude": 77.1579647, "maps_url": "https://www.google.com/maps/search/?api=1&query=Expert%20Professional%20Services&query_place_id=ChIJv43wEtICDTkRXhorP54iPsA"}, {"place_id": "ChIJ__8vhTQCDTkRUWfmHwih9g0", "name": "Wingify", "street": "KLJ TOWER, North, Netaji Subhash Place, Pitampura, Delhi, 110034, India", "phone": "+91 11 4764 0497", "rating": "4.4", "review_count": "", "website": "https://wingify.com/", "latitude": 28.6911475, "longitude": 77.1509423, "maps_url": "https://www.google.com/maps/search/?api=1&query=Wingify&query_place_id=ChIJ__8vhTQCDTkRUWfmHwih9g0"}, {"place_id": "ChIJMaQzCjADDTkRkK3o98Ty9_U", "name": "Chhaya Infosystems", "street": "A 17 Basement Naraina vihar main road, chaudhary girdhari lal marg, New Delhi, Delhi 110028, India", "phone": "+91 98119 59469", "rating": "4.4", "review_count": "", "website": "", "latitude": 28.626713, "longitude": 77.13592799999999, "maps_url": "https://www.google.com/maps/search/?api=1&query=Chhaya%20Infosystems&query_place_id=ChIJMaQzCjADDTkRkK3o98Ty9_U"}, {"place_id": "ChIJiwPCn1cDDTkRZReajY3KiX0", "name": "Appfinz Technologies", "street": "Nr Deep Chand Bandhu Hospital, B590 Ground Floor, Bunkar Colony, Phase 4, Ashok Vihar, New Delhi, Delhi 110052, India", "phone": "+91 83407 25097", "rating": "4.8", "review_count": "", "website": "https://www.appfinz.com/", "latitude": 28.682956299999997, "longitude": 77.17736959999999, "maps_url": "https://www.google.com/maps/search/?api=1&query=Appfinz%20Technologies&query_place_id=ChIJiwPCn1cDDTkRZReajY3KiX0"}, {"place_id": "ChIJ7Wr1xKTtDzkR7MCP44eydyI", "name": "Dizivan IT Solutions Pvt Ltd- App Development & Digital Marketing Company", "street": "near Metro Station New Ashok Nagar, Block B, New Ashok Nagar, New Delhi, Delhi, 110096, India", "phone": "+91 91420 92979", "rating": "5", "review_count": "", "website": "https://dizivan.com/", "latitude": 28.5891575, "longitude": 77.3020624, "maps_url": "https://www.google.com/maps/search/?api=1&query=Dizivan%20IT%20Solutions%20Pvt%20Ltd-%20App%20Development%20%26%20Digital%20Marketing%20Company&query_place_id=ChIJ7Wr1xKTtDzkR7MCP44eydyI"}, {"place_id": "ChIJl5geAqLjDDkRGQx9atNSvyg", "name": "It Softtech - Website Designing and Development Company in Delhi, India", "street": "149, Ring Rd, opp. Maharani Bagh, Kilokri, Phase 1, Hari Nagar Ashram, New Delhi, Delhi 110014, India", "phone": "+91 98100 56177", "rating": "5", "review_count": "", "website": "", "latitude": 28.5763395, "longitude": 77.2640869, "maps_url": "https://www.google.com/maps/search/?api=1&query=It%20Softtech%20-%20Website%20Designing%20and%20Development%20Company%20in%20Delhi%2C%20India&query_place_id=ChIJl5geAqLjDDkRGQx9atNSvyg"}, {"place_id": "ChIJm717Yn8DDTkRv93jLz-bpDE", "name": "Control F Solutions", "street": "3rd Floor, Backside of Shiv Naresh Sportswear Showroom, 1/5, Block 1, Kirti Nagar Industrial Area, Kirti Nagar, New Delhi, Delhi, 110015, India", "phone": "+91 95997 86121", "rating": "4.9", "review_count": "", "website": "https://controlf.co.in/it-rental/", "latitude": 28.654606599999997, "longitude": 77.14817459999999, "maps_url": "https://www.google.com/maps/search/?api=1&query=Control%20F%20Solutions&query_place_id=ChIJm717Yn8DDTkRv93jLz-bpDE"}, {"place_id": "ChIJ7yxdoOsCDTkRQFTUEp0piHI", "name": "Vinsol (Vinayak Solutions Pvt Ltd)", "street": "1/4 (Basement, East Patel Nagar, Patel Nagar, New Delhi, Delhi 110008, India", "phone": "+91 4156 803 362", "rating": "3.4", "review_count": "", "website": "https://vinsol.com/", "latitude": 28.644902599999998, "longitude": 77.17004639999999, "maps_url": "https://www.google.com/maps/search/?api=1&query=Vinsol%20%28Vinayak%20Solutions%20Pvt%20Ltd%29&query_place_id=ChIJ7yxdoOsCDTkRQFTUEp0piHI"}, {"place_id": "ChIJ2UH4FmoDDTkRwPRTFBsxkZs", "name": "Zon Tec Solutions", "street": "3rd Floor, 302 - 302 A, West, Block J, Rajouri Garden Extension, Rajouri Garden, New Delhi, Delhi, 110027, India", "phone": "+91 95999 02185", "rating": "4.1", "review_count": "", "website": "https://zontecsolutions.com/", "latitude": 28.6382303, "longitude": 77.1205162, "maps_url": "https://www.google.com/maps/search/?api=1&query=Zon%20Tec%20Solutions&query_place_id=ChIJ2UH4FmoDDTkRwPRTFBsxkZs"}, {"place_id": "ChIJl1XknesCDTkRCAvQm0XALHc", "name": "WebzPapa - SEO Company in Delhi I SEO Services Agency in Delhi", "street": "Gate no 6, Building - O, 4th Floor, South Patel Nagar Near Patel Nagar Metro Station, New Delhi, Delhi 110008, India", "phone": "+91 99539 93944", "rating": "4.7", "review_count": "", "website": "https://webzpapa.com/seo-company-delhi.html", "latitude": 28.6450192, "longitude": 77.1688623, "maps_url": "https://www.google.com/maps/search/?api=1&query=WebzPapa%20-%20SEO%20Company%20in%20Delhi%20I%20SEO%20Services%20Agency%20in%20Delhi&query_place_id=ChIJl1XknesCDTkRCAvQm0XALHc"}, {"place_id": "ChIJTyqt0JH030URiVyOx9ZARf8", "name": "Web Spark Tech Solutions", "street": "", "phone": "", "rating": "5", "review_count": "", "website": "https://websparktechsolutions.com/", "latitude": 21.0680074, "longitude": 82.7525294, "maps_url": "https://www.google.com/maps/search/?api=1&query=Web%20Spark%20Tech%20Solutions&query_place_id=ChIJTyqt0JH030URiVyOx9ZARf8"}, {"place_id": "ChIJTy1NevICDTkRhO3F83P7-IY", "name": "MACO IT SERVICES PVT. LTD", "street": "Bungalow Plot No. 2, Block 1, West Patel Nagar, Patel Nagar, Delhi, 110008, India", "phone": "+91 93100 39250", "rating": "5", "review_count": "", "website": "https://macoitservices.com/", "latitude": 28.650661399999997, "longitude": 77.16037659999999, "maps_url": "https://www.google.com/maps/search/?api=1&query=MACO%20IT%20SERVICES%20PVT.%20LTD&query_place_id=ChIJTy1NevICDTkRhO3F83P7-IY"}, {"place_id": "ChIJN5D6-DEDDTkRbYnlH8duMb8", "name": "Web Development Company in South West Delhi - MSN Technologies", "street": "Mahatma Gandhi Rd, Block WZ, Naraina, New Delhi, Delhi 110028, India", "phone": "+91 88003 88071", "rating": "5", "review_count": "", "website": "http://www.msntechnologies.org/", "latitude": 28.621692, "longitude": 77.1363598, "maps_url": "https://www.google.com/maps/search/?api=1&query=Web%20Development%20Company%20in%20South%20West%20Delhi%20-%20MSN%20Technologies&query_place_id=ChIJN5D6-DEDDTkRbYnlH8duMb8"}, {"place_id": "ChIJf0PdhvwCDTkR8J_Hbnz2Apg", "name": "Mars IT Solutions", "street": "Office No: 3B, 1st floor, 2161/T-6, Patel Rd, Guru Arjun Nagar, Shadipur, New Delhi, Delhi, 110008, India", "phone": "+91 99683 53570", "rating": "", "review_count": "", "website": "", "latitude": 28.6543323, "longitude": 77.15382249999999, "maps_url": "https://www.google.com/maps/search/?api=1&query=Mars%20IT%20Solutions&query_place_id=ChIJf0PdhvwCDTkR8J_Hbnz2Apg"}, {"place_id": "ChIJRcV2rwIDDTkRzWoIQG2k1pc", "name": "Solarman Technology Project Pvt Ltd - Digital Marketing Company in Delhi, India |Software Development Company | IT Company", "street": "6/14, Block 5, Kirti Nagar Industrial Area, Kirti Nagar, New Delhi, Delhi, 110015, India", "phone": "+91 74280 86779", "rating": "5", "review_count": "", "website": "https://solarmantech.in/", "latitude": 28.6517841, "longitude": 77.14799649999999, "maps_url": "https://www.google.com/maps/search/?api=1&query=Solarman%20Technology%20Project%20Pvt%20Ltd%20-%20Digital%20Marketing%20Company%20in%20Delhi%2C%20India%20%7CSoftware%20Development%20Company%20%7C%20IT%20Company&query_place_id=ChIJRcV2rwIDDTkRzWoIQG2k1pc"}, {"place_id": "ChIJDSmBfV0EDTkR_UoO0pAlp5M", "name": "Supertech Equipments Pvt Ltd(CANON Premium Partner)", "street": "E-10 & E-6, LGF,DDA MARKET, New Rajinder Nagar, New Delhi, Delhi 110060, India", "phone": "+91 85959 52131", "rating": "4.8", "review_count": "", "website": "http://www.indiamart.com/supertechequipmentpvtltd/", "latitude": 28.6363362, "longitude": 77.17785289999999, "maps_url": "https://www.google.com/maps/search/?api=1&query=Supertech%20Equipments%20Pvt%20Ltd%28CANON%20Premium%20Partner%29&query_place_id=ChIJDSmBfV0EDTkR_UoO0pAlp5M"}, {"place_id": "ChIJ____XIT9DDkRTh0Zai1y3yg", "name": "Holy-Land Marketing", "street": "D, 154, Rajender Nagar, New Rajinder Nagar, New Delhi, Delhi 110060, India", "phone": "+91 11 4125 5444", "rating": "4.8", "review_count": "", "website": "https://www.holylandgroup.org/", "latitude": 28.637186099999997, "longitude": 77.1819719, "maps_url": "https://www.google.com/maps/search/?api=1&query=Holy-Land%20Marketing&query_place_id=ChIJ____XIT9DDkRTh0Zai1y3yg"}, {"place_id": "ChIJnSUGhMb9DDkR1RSiSe5bP8s", "name": "Scrrum Labs Private Limited", "street": "We-start co-working space, 2E/25, Jhandewalan Extension, Block E 2, Jhandewalan Extension, Karol Bagh, New Delhi, Delhi 110055, India", "phone": "+91 98999 29886", "rating": "4.7", "review_count": "", "website": "", "latitude": 28.6442767, "longitude": 77.2012045, "maps_url": "https://www.google.com/maps/search/?api=1&query=Scrrum%20Labs%20Private%20Limited&query_place_id=ChIJnSUGhMb9DDkR1RSiSe5bP8s"}, {"place_id": "ChIJc80Hk_0DDTkRzeDGAgk6Ino", "name": "Web Cloud Technology", "street": "3A/74 W.E.A, Sat Nagar, Karol Bagh, New Delhi, Delhi 110005, India", "phone": "+91 88823 24811", "rating": "4.4", "review_count": "", "website": "https://webcloudtechnology.in/", "latitude": 28.6465632, "longitude": 77.1824149, "maps_url": "https://www.google.com/maps/search/?api=1&query=Web%20Cloud%20Technology&query_place_id=ChIJc80Hk_0DDTkRzeDGAgk6Ino"}, {"place_id": "ChIJh8pz_8UCDTkRAAS023cwxMw", "name": "Scientist Apartments , IARI", "street": "Pusa, New Delhi, Delhi 110012, India", "phone": "", "rating": "4.4", "review_count": "", "website": "", "latitude": 28.6301468, "longitude": 77.16538179999999, "maps_url": "https://www.google.com/maps/search/?api=1&query=Scientist%20Apartments%20%2C%20IARI&query_place_id=ChIJh8pz_8UCDTkRAAS023cwxMw"}, {"place_id": "ChIJWwWxD-sCDTkRjTu134yah5c", "name": "infotech Solution", "street": "2, 15, Patel Rd, Block 2, East Patel Nagar, Patel Nagar, New Delhi, Delhi 110008, India", "phone": "+91 83779 66458", "rating": "2.6", "review_count": "", "website": "", "latitude": 28.6455329, "longitude": 77.1685655, "maps_url": "https://www.google.com/maps/search/?api=1&query=infotech%20Solution&query_place_id=ChIJWwWxD-sCDTkRjTu134yah5c"}, {"place_id": "ChIJJxEZLa38DDkRjqnAHiAFyIM", "name": "IT Nucleus", "street": "310, 3rd Floor, S-524, Aggarwal House Opp-Metro Pillar 27, School Block shakarpur, Laxmi Nagar, Delhi, 110092, India", "phone": "+91 11 4300 1828", "rating": "4.9", "review_count": "", "website": "http://www.itnucleus.com/", "latitude": 28.629542599999997, "longitude": 77.2766257, "maps_url": "https://www.google.com/maps/search/?api=1&query=IT%20Nucleus&query_place_id=ChIJJxEZLa38DDkRjqnAHiAFyIM"}, {"place_id": "ChIJOWiTFrwCDTkRZzZamyx0GeM", "name": "Redefine Marcom Pvt Ltd", "street": "584, near Saraswati Park, Pocket H, Rajender Nagar Part 1, New Rajinder Nagar, New Delhi, Delhi 110060, India", "phone": "+91 88000 99587", "rating": "4.3", "review_count": "", "website": "http://www.redefine.in/", "latitude": 28.63505, "longitude": 77.1793185, "maps_url": "https://www.google.com/maps/search/?api=1&query=Redefine%20Marcom%20Pvt%20Ltd&query_place_id=ChIJOWiTFrwCDTkRZzZamyx0GeM"}, {"place_id": "ChIJYbl5r-8CDTkRIFS6z_QHNkE", "name": "Support Star Corporate Services Pvt. Ltd", "street": "Cottage No 19, Lower Ground Floor, West Patel Nagar, Patel Nagar, New Delhi, Delhi 110008, India", "phone": "+91 70426 27575", "rating": "4.2", "review_count": "", "website": "", "latitude": 28.6500426, "longitude": 77.1623192, "maps_url": "https://www.google.com/maps/search/?api=1&query=Support%20Star%20Corporate%20Services%20Pvt.%20Ltd&query_place_id=ChIJYbl5r-8CDTkRIFS6z_QHNkE"}, {"place_id": "ChIJL7i0Y9rGFUIRZKmtphSoS3k", "name": "Asha Tech | Website Designing | App Development | IT Company in Delhi", "street": "no 2, 195, Lane No. 1, Westend Marg, near Saket Metro Gate, Saidulajab, Saket, Delhi 110030, India", "phone": "+91 75310 80874", "rating": "4.7", "review_count": "", "website": "https://ashatech.co.in/", "latitude": 28.519994099999998, "longitude": 77.2008791, "maps_url": "https://www.google.com/maps/search/?api=1&query=Asha%20Tech%20%7C%20Website%20Designing%20%7C%20App%20Development%20%7C%20IT%20Company%20in%20Delhi&query_place_id=ChIJL7i0Y9rGFUIRZKmtphSoS3k"}, {"place_id": "ChIJVVVl-ZUCDTkRFnU1G79sHbA", "name": "Peritus Exim Pvt Ltd", "street": "1206, 12th Floor, Vikram Tower, Rajendra Place, New Delhi, Delhi, 110060, India", "phone": "+91 11 4130 6047", "rating": "4.4", "review_count": "", "website": "http://www.peritusexim.com/", "latitude": 28.6430568, "longitude": 77.1783918, "maps_url": "https://www.google.com/maps/search/?api=1&query=Peritus%20Exim%20Pvt%20Ltd&query_place_id=ChIJVVVl-ZUCDTkRFnU1G79sHbA"}, {"place_id": "ChIJUzCnx8kFDTkRzXhond83eM0", "name": "Bestal HR Pvt Ltd", "street": "Gopala Tower, 9J & 9G, opposite to NABARD Towers, Prasad Nagar, Rajendra Place, Delhi, 110008, India", "phone": "+91 99717 79076", "rating": "4.8", "review_count": "", "website": "https://bestalhr.com/", "latitude": 28.645955299999997, "longitude": 77.1774873, "maps_url": "https://www.google.com/maps/search/?api=1&query=Bestal%20HR%20Pvt%20Ltd&query_place_id=ChIJUzCnx8kFDTkRzXhond83eM0"}, {"place_id": "ChIJcesdOTX9DDkRtlHcx4gT3ds", "name": "Jak Software Pvt Ltd", "street": "52 Janpath, New Delhi, Delhi 110001, India", "phone": "+91 78272 49056", "rating": "4.4", "review_count": "", "website": "http://www.jaksoftware.co.in/", "latitude": 28.627537999999998, "longitude": 77.21878989999999, "maps_url": "https://www.google.com/maps/search/?api=1&query=Jak%20Software%20Pvt%20Ltd&query_place_id=ChIJcesdOTX9DDkRtlHcx4gT3ds"}, {"place_id": "ChIJDyqA4pwCDTkR4LNbv90XL60", "name": "SELECTIVE GLOBAL SEARCH PRIVATE LIMITED", "street": "5TH FLOOR, Padma Tower 1, Unit 501-504, Prasad Nagar, Rajendra Place, New Delhi, Delhi, 110005, India", "phone": "+91 70425 99002", "rating": "4.7", "review_count": "", "website": "http://www.selectiveglobalsearch.com/", "latitude": 28.6458129, "longitude": 77.1782757, "maps_url": "https://www.google.com/maps/search/?api=1&query=SELECTIVE%20GLOBAL%20SEARCH%20PRIVATE%20LIMITED&query_place_id=ChIJDyqA4pwCDTkR4LNbv90XL60"}, {"place_id": "ChIJ2TcLVRYbDTkRrs5CtC-fN0I", "name": "ARV MULTIMEDIA", "street": "Third Floor, BP-13, West Patel Nagar, New Delhi, Delhi, 110008, India", "phone": "+91 93106 01573", "rating": "4.9", "review_count": "", "website": "http://www.arvmultimedia.com/", "latitude": 28.649299, "longitude": 77.1619414, "maps_url": "https://www.google.com/maps/search/?api=1&query=ARV%20MULTIMEDIA&query_place_id=ChIJ2TcLVRYbDTkRrs5CtC-fN0I"}, {"place_id": "ChIJl1XknesCDTkRpvPuM7uyEKw", "name": "INDIA RETAIL COMPANY", "street": "Plot No. 3046 , South Patel Nagar, Delhi, 110008, India", "phone": "+91 95823 60856", "rating": "3", "review_count": "", "website": "", "latitude": 28.6463269, "longitude": 77.1685907, "maps_url": "https://www.google.com/maps/search/?api=1&query=INDIA%20RETAIL%20COMPANY&query_place_id=ChIJl1XknesCDTkRpvPuM7uyEKw"}, {"place_id": "ChIJV4DiGUVrx4gRyLzJzC2p7-4", "name": "Sam Web Studio", "street": "Second Floor, Plot no-68, South Patel Nagar, Block 8, Patel Nagar, New Delhi, Delhi 110008, India", "phone": "+91 99683 53570", "rating": "5", "review_count": "", "website": "https://www.samwebstudio.com/", "latitude": 28.644581799999997, "longitude": 77.168632, "maps_url": "https://www.google.com/maps/search/?api=1&query=Sam%20Web%20Studio&query_place_id=ChIJV4DiGUVrx4gRyLzJzC2p7-4"}, {"place_id": "ChIJAQAwfZYCDTkRrZHXwR51e2k", "name": "HBS SYSTEMS PRIVATE LIMITED", "street": "107-108, PADMA TOWER II 22, Rajendra Place, New Delhi, Delhi 110008, India", "phone": "+91 11 2576 7117", "rating": "3.5", "review_count": "", "website": "http://hbsindia.com/", "latitude": 28.6451836, "longitude": 77.1780375, "maps_url": "https://www.google.com/maps/search/?api=1&query=HBS%20SYSTEMS%20PRIVATE%20LIMITED&query_place_id=ChIJAQAwfZYCDTkRrZHXwR51e2k"}, {"place_id": "ChIJ023WpXIDDTkRp2FsaF8cI3Y", "name": "Ranjula Facilities Management Services", "street": "J 403, Double Storey, New Rajinder Nagar, New Delhi, Delhi 110060, India", "phone": "", "rating": "4.9", "review_count": "", "website": "https://ranjulafacilities.com/", "latitude": 28.6316489, "longitude": 77.17655479999999, "maps_url": "https://www.google.com/maps/search/?api=1&query=Ranjula%20Facilities%20Management%20Services&query_place_id=ChIJ023WpXIDDTkRp2FsaF8cI3Y"}, {"place_id": "ChIJP4zqHSQDDTkR8VZQR_lZ8mc", "name": "Digital Vyapar Bharat - Website Designer in Delhi | Web Development Company | Website & Google Promotion Service", "street": "B block Mansarover Garden, Kirti Nagar Near Punjabi Bagh, Rajouri Garden, Mayapuri, Moti Nagar, Basai Raja Garden, tagore garden, Kirti nagar Lawrence road, Pitampura, NSP, Azadpur, New Delhi, Delhi 110015, India", "phone": "+91 96259 25354", "rating": "5", "review_count": "", "website": "https://digitalvyaparbharat.com/", "latitude": 28.642208099999998, "longitude": 77.135635, "maps_url": "https://www.google.com/maps/search/?api=1&query=Digital%20Vyapar%20Bharat%20-%20Website%20Designer%20in%20Delhi%20%7C%20Web%20Development%20Company%20%7C%20Website%20%26%20Google%20Promotion%20Service&query_place_id=ChIJP4zqHSQDDTkR8VZQR_lZ8mc"}, {"place_id": "ChIJX-4MRtvjDDkRD6RWqtTopkc", "name": "Injoria Technologies: Website, Custome Software, Mobile Apps Development company", "street": "Second Floor, Pandav Nagar Complex, C - 40, Block C, Ganesh Nagar, Delhi, 110092, India", "phone": "+91 99111 77045", "rating": "4.5", "review_count": "", "website": "", "latitude": 28.6215884, "longitude": 77.2842872, "maps_url": "https://www.google.com/maps/search/?api=1&query=Injoria%20Technologies%3A%20Website%2C%20Custome%20Software%2C%20Mobile%20Apps%20Development%20company&query_place_id=ChIJX-4MRtvjDDkRD6RWqtTopkc"}, {"place_id": "ChIJBwAAQDsDDTkRTWtJ7kKpQts", "name": "STORY Experiences", "street": "Ihdp Business Park, Plot No-7, Industrial Area Phase I, Block A, Block 3, Sector 127, Noida, New Delhi, Uttar Pradesh 110028, India", "phone": "+91 98116 65328", "rating": "4.2", "review_count": "", "website": "http://storyexp.com/", "latitude": 28.6344504, "longitude": 77.1394566, "maps_url": "https://www.google.com/maps/search/?api=1&query=STORY%20Experiences&query_place_id=ChIJBwAAQDsDDTkRTWtJ7kKpQts"}, {"place_id": "ChIJ-etWPQADDTkRqXWzPDInNhY", "name": "Minitec systems", "street": "Dev Prakash Shastri Marg, Todapur, New Delhi, Delhi 110012, India", "phone": "+91 98114 19154", "rating": "5", "review_count": "", "website": "", "latitude": 28.6228034, "longitude": 77.1580092, "maps_url": "https://www.google.com/maps/search/?api=1&query=Minitec%20systems&query_place_id=ChIJ-etWPQADDTkRqXWzPDInNhY"}, {"place_id": "ChIJ30pGziMTFgQRpUN9k_pVjjQ", "name": "Tech Variant - website design company in delhi & digital Marketing company in delhi", "street": "Gate Number 2, Mandi Metro Station, A-98, near by model town 3, Commercial Complex, Azadpur, Delhi, 110033, India", "phone": "", "rating": "4.7", "review_count": "", "website": "https://techvariant.in/", "latitude": 28.710400999999997, "longitude": 77.1783337, "maps_url": "https://www.google.com/maps/search/?api=1&query=Tech%20Variant%20-%20website%20design%20company%20in%20delhi%20%26%20digital%20Marketing%20company%20in%20delhi&query_place_id=ChIJ30pGziMTFgQRpUN9k_pVjjQ"}, {"place_id": "ChIJ9R8ChfACDTkRsTe0HrY2aDM", "name": "TILHAN & COMPANY", "street": "T-235, A40, Hill Marg, near Hill Marg, Gurudwara, Baljit Nagar, Patel Nagar, New Delhi, Delhi, 110008, India", "phone": "+91 88268 31110", "rating": "5", "review_count": "", "website": "", "latitude": 28.6557824, "longitude": 77.1606133, "maps_url": "https://www.google.com/maps/search/?api=1&query=TILHAN%20%26%20COMPANY&query_place_id=ChIJ9R8ChfACDTkRsTe0HrY2aDM"}, {"place_id": "ChIJZZ_5ljP9DDkRFc56Bn8Uf9k", "name": "Shilpi Computers Private Limited", "street": "501-502, 7, Tolstoy Rd, New Delhi, Delhi 110001, India", "phone": "+91 11 4350 0600", "rating": "3.9", "review_count": "", "website": "https://shilpisoft.com/", "latitude": 28.627693899999997, "longitude": 77.2244393, "maps_url": "https://www.google.com/maps/search/?api=1&query=Shilpi%20Computers%20Private%20Limited&query_place_id=ChIJZZ_5ljP9DDkRFc56Bn8Uf9k"}, {"place_id": "ChIJ4ShVir0CDTkR1ihrSFHdrsA", "name": "Borar & Company (CA Firm)", "street": "Aman Chamber, 202A, 47/22, New, Old Rajinder Nagar, Rajinder Nagar, New Delhi, Delhi 110060, India", "phone": "+91 11 4704 9931", "rating": "4.5", "review_count": "", "website": "", "latitude": 28.6424484, "longitude": 77.1788979, "maps_url": "https://www.google.com/maps/search/?api=1&query=Borar%20%26%20Company%20%28CA%20Firm%29&query_place_id=ChIJ4ShVir0CDTkR1ihrSFHdrsA"}, {"place_id": "ChIJwUIuKQADDTkRPcJDyK88fRQ", "name": "MULTIVERSE SOLUTION PRIVATE LTD.", "street": "DSM 119-120, DLF Towers, Moti Nagar, House Complex Market, Karampura Industrial Area, Najafgarh Road Industrial Area, New Delhi, Delhi, 110015, India", "phone": "", "rating": "5", "review_count": "", "website": "https://multiversetech.com/", "latitude": 28.662896099999998, "longitude": 77.1531562, "maps_url": "https://www.google.com/maps/search/?api=1&query=MULTIVERSE%20SOLUTION%20PRIVATE%20LTD.&query_place_id=ChIJwUIuKQADDTkRPcJDyK88fRQ"}, {"place_id": "ChIJqf6gXDX9DDkRz71t7_HgKx8", "name": "Vayam Technologies Ltd.", "street": "Thapar House, 124, Janpath Ln, Janpath, Connaught Place, New Delhi, Delhi 110001, India", "phone": "+91 11 4710 1200", "rating": "3.8", "review_count": "", "website": "https://www.vayamtech.com/", "latitude": 28.624508, "longitude": 77.21805499999999, "maps_url": "https://www.google.com/maps/search/?api=1&query=Vayam%20Technologies%20Ltd.&query_place_id=ChIJqf6gXDX9DDkRz71t7_HgKx8"}, {"place_id": "ChIJvXj8ursCDTkRSZ2-BjJrC64", "name": "Vimal Pan Masala Company", "street": "R - 649, Pocket H, Rajender Nagar Part 1, New Rajinder Nagar, New Delhi, Delhi, 110060, India", "phone": "", "rating": "4", "review_count": "", "website": "https://vimalgutkhacompany.com/", "latitude": 28.63505, "longitude": 77.1793185, "maps_url": "https://www.google.com/maps/search/?api=1&query=Vimal%20Pan%20Masala%20Company&query_place_id=ChIJvXj8ursCDTkRSZ2-BjJrC64"}, {"place_id": "ChIJCfQVtf8CDTkR7qwkMgBvkpo", "name": "Eraas International Delhi | PCD Pharma Franchise | WHO GMP Certified PCD Pharma Franchise Company", "street": "I-103, Block I, Kirti Nagar, New Delhi, Delhi, 110015, India", "phone": "+91 98181 29750", "rating": "5", "review_count": "", "website": "https://www.eraasinternational.com/", "latitude": 28.6515496, "longitude": 77.1448142, "maps_url": "https://www.google.com/maps/search/?api=1&query=Eraas%20International%20Delhi%20%7C%20PCD%20Pharma%20Franchise%20%7C%20WHO%20GMP%20Certified%20PCD%20Pharma%20Franchise%20Company&query_place_id=ChIJCfQVtf8CDTkR7qwkMgBvkpo"}, {"place_id": "ChIJiZCtFhkDDTkRWA9QMOCxDwc", "name": "Reliable IT Solutions", "street": "DSIDC Complex, A 28, Block A, Kirti Nagar Industrial Area, Kirti Nagar, New Delhi, Delhi, 110015, India", "phone": "+91 95822 20116", "rating": "", "review_count": "", "website": "http://relitgroup.com/", "latitude": 28.6428877, "longitude": 77.1409807, "maps_url": "https://www.google.com/maps/search/?api=1&query=Reliable%20IT%20Solutions&query_place_id=ChIJiZCtFhkDDTkRWA9QMOCxDwc"}, {"place_id": "ChIJNZIkmgIDDTkRWFMeOkKJmsk", "name": "Labotek", "street": "4/25, Block 4, Kirti Nagar Industrial Area, Kirti Nagar, New Delhi, Delhi, 110015, India", "phone": "+91 11 4142 6169", "rating": "4.1", "review_count": "", "website": "https://www.labotek.in/", "latitude": 28.6528273, "longitude": 77.147831, "maps_url": "https://www.google.com/maps/search/?api=1&query=Labotek&query_place_id=ChIJNZIkmgIDDTkRWFMeOkKJmsk"}, {"place_id": "ChIJ_____y4DDTkRm9E71HXTWhw", "name": "International Electronics & Communication Systems Pvt Ltd.", "street": "Block C, Naraina Vihar, Naraina, New Delhi, Delhi 110028, India", "phone": "+91 11 4322 2333", "rating": "4.4", "review_count": "", "website": "http://iecsindia.com/", "latitude": 28.6256746, "longitude": 77.14347889999999, "maps_url": "https://www.google.com/maps/search/?api=1&query=International%20Electronics%20%26%20Communication%20Systems%20Pvt%20Ltd.&query_place_id=ChIJ_____y4DDTkRm9E71HXTWhw"}, {"place_id": "ChIJV4blL5gCDTkRktgeIDWd3T8", "name": "Manning Consulting", "street": "", "phone": "+91 98112 22637", "rating": "4.8", "review_count": "", "website": "http://www.manningconsulting.in/", "latitude": 21.0680074, "longitude": 82.7525294, "maps_url": "https://www.google.com/maps/search/?api=1&query=Manning%20Consulting&query_place_id=ChIJV4blL5gCDTkRktgeIDWd3T8"}, {"place_id": "ChIJwTYR-ZQCDTkRnKFPrfn20cI", "name": "WOW Events Pvt Ltd", "street": "1/7 3rd Floor, WOW Events Pvt. Ltd, above SBI Bank, Block 1, East Patel Nagar, Patel Nagar, New Delhi, Delhi 110008, India", "phone": "+91 11 4248 8720", "rating": "4.7", "review_count": "", "website": "http://www.wowevents.in/", "latitude": 28.6445176, "longitude": 77.1702317, "maps_url": "https://www.google.com/maps/search/?api=1&query=WOW%20Events%20Pvt%20Ltd&query_place_id=ChIJwTYR-ZQCDTkRnKFPrfn20cI"}, {"place_id": "ChIJH7rpve0CDTkR4QPL4HPAQP8", "name": "AERO PACK", "street": "18/10, Block 18, West Patel Nagar, Patel Nagar, New Delhi, Delhi, 110008, India", "phone": "+91 11 4248 8086", "rating": "4.3", "review_count": "", "website": "http://www.aeropack.net.in/", "latitude": 28.6514648, "longitude": 77.1677315, "maps_url": "https://www.google.com/maps/search/?api=1&query=AERO%20PACK&query_place_id=ChIJH7rpve0CDTkR4QPL4HPAQP8"}, {"place_id": "ChIJ_4BfnR8DDTkRFCoWp3KElfA", "name": "GREEN FUTURE PRIVATE LIMITED", "street": "507, 26, Rajendra Place, Delhi, 110008, India", "phone": "+91 98105 58695", "rating": "4.5", "review_count": "", "website": "http://www.greenfuturemill.com/", "latitude": 28.6458554, "longitude": 77.17758429999999, "maps_url": "https://www.google.com/maps/search/?api=1&query=GREEN%20FUTURE%20PRIVATE%20LIMITED&query_place_id=ChIJ_4BfnR8DDTkRFCoWp3KElfA"}, {"place_id": "ChIJm8xrU_wCDTkRiH4T1bDRGUs", "name": "Brainwork Technologies - Best Digital Marketing Company in Delhi | SEO, PPC & SMM Services in India | Social Media Agency", "street": "Industrial Area, A-70, Plot no- 18, Rama Rd, opposite Metro Station Kirti Nagar, Delhi, 110015, India", "phone": "+91 11 4578 1159", "rating": "4", "review_count": "", "website": "https://www.brainworkindia.net/", "latitude": 28.6557861, "longitude": 77.1498697, "maps_url": "https://www.google.com/maps/search/?api=1&query=Brainwork%20Technologies%20-%20Best%20Digital%20Marketing%20Company%20in%20Delhi%20%7C%20SEO%2C%20PPC%20%26%20SMM%20Services%20in%20India%20%7C%20Social%20Media%20Agency&query_place_id=ChIJm8xrU_wCDTkRiH4T1bDRGUs"}, {"place_id": "ChIJhZZTFZQPDTkRO-IYWevEiH0", "name": "Namah India", "street": "3/9 Basement, Block 6, East Patel Nagar, Patel Nagar, New Delhi, Delhi 110008, India", "phone": "+91 98598 51030", "rating": "4.9", "review_count": "", "website": "http://www.namahindia.com/", "latitude": 28.6451623, "longitude": 77.1703477, "maps_url": "https://www.google.com/maps/search/?api=1&query=Namah%20India&query_place_id=ChIJhZZTFZQPDTkRO-IYWevEiH0"}, {"place_id": "ChIJ____vyUDDTkRv4B_SUJu8Rg", "name": "Seagull Pharmaceuticals Pvt. Ltd.", "street": "305-307, Ansal, C-Block Community Center, Naraina Vihar, New Delhi, Delhi 110028, India", "phone": "+91 11 4565 0276", "rating": "4.7", "review_count": "", "website": "http://seagullpharma.com/", "latitude": 28.6258618, "longitude": 77.1425812, "maps_url": "https://www.google.com/maps/search/?api=1&query=Seagull%20Pharmaceuticals%20Pvt.%20Ltd.&query_place_id=ChIJ____vyUDDTkRv4B_SUJu8Rg"}, {"place_id": "ChIJi-wI6igDDTkRZttmjot7pm4", "name": "GLOBAL NOW PRODUCTIONS", "street": "477, Double Storey, Double Storey II, New Rajinder Nagar, New Delhi, Delhi 110060, India", "phone": "+91 97119 94943", "rating": "5", "review_count": "", "website": "http://www.globalnowproductions.com/", "latitude": 28.6332177, "longitude": 77.1769516, "maps_url": "https://www.google.com/maps/search/?api=1&query=GLOBAL%20NOW%20PRODUCTIONS&query_place_id=ChIJi-wI6igDDTkRZttmjot7pm4"}, {"place_id": "ChIJ0RbfAR-p2kcRl6-kMH5Fj8E", "name": "Facezila Platform Private Limited | Best Software development Company Delhi | School Management Software | NGO WEBSITE", "street": "", "phone": "+91 80849 37696", "rating": "5", "review_count": "", "website": "https://facezila.in/", "latitude": 28.6759852, "longitude": 77.1436286, "maps_url": "https://www.google.com/maps/search/?api=1&query=Facezila%20Platform%20Private%20Limited%20%7C%20Best%20Software%20development%20Company%20Delhi%20%7C%20School%20Management%20Software%20%7C%20NGO%20WEBSITE&query_place_id=ChIJ0RbfAR-p2kcRl6-kMH5Fj8E"}, {"place_id": "ChIJISP8EAAbDTkRB_BcgUwV6RI", "name": "Prashant Dwivedi IT company", "street": "G3P5+GVC, Nayak Pura, Bijwasan, Delhi, 110061, India", "phone": "", "rating": "", "review_count": "", "website": "", "latitude": 28.536316, "longitude": 77.059649, "maps_url": "https://www.google.com/maps/search/?api=1&query=Prashant%20Dwivedi%20IT%20company&query_place_id=ChIJISP8EAAbDTkRB_BcgUwV6RI"}, {"place_id": "ChIJ51AtDZ0DDTkRF6QrEcB_6Ks", "name": "Renovision Automation Services Pvt.Ltd-karol bagh", "street": "16, 8, Arya Samaj Rd, Block 16, WEA, Karol Bagh, New Delhi, Delhi, 110005, India", "phone": "+91 93107 19624", "rating": "3.7", "review_count": "", "website": "http://www.raspl.com/", "latitude": 28.647336499999998, "longitude": 77.1937694, "maps_url": "https://www.google.com/maps/search/?api=1&query=Renovision%20Automation%20Services%20Pvt.Ltd-karol%20bagh&query_place_id=ChIJ51AtDZ0DDTkRF6QrEcB_6Ks"}, {"place_id": "ChIJPZtCyDEDDTkRAatxIJIE2QY", "name": "Go Houze Infra", "street": "WZ-131, Naraina Village, Naraina, New Delhi, Delhi 110028, India", "phone": "+91 98106 57474", "rating": "4.8", "review_count": "", "website": "http://www.gohouze.in/", "latitude": 28.623359299999997, "longitude": 77.1368571, "maps_url": "https://www.google.com/maps/search/?api=1&query=Go%20Houze%20Infra&query_place_id=ChIJPZtCyDEDDTkRAatxIJIE2QY"}, {"place_id": "ChIJywWYGdDjDDkR34aB0XNO22E", "name": "āKüs ITs", "street": "106,B, 148, Sector 63 Rd, B Block, Sector 63, Noida, Uttar Pradesh 201301, India", "phone": "", "rating": "5", "review_count": "", "website": "", "latitude": 28.6153113, "longitude": 77.3769591, "maps_url": "https://www.google.com/maps/search/?api=1&query=%C4%81K%C3%BCs%20ITs&query_place_id=ChIJywWYGdDjDDkR34aB0XNO22E"}, {"place_id": "ChIJOZd2wWIDDTkRMdyNCdCtCIQ", "name": "Groot Infotech", "street": "Padma Tower II, 502, Rajendra Place, New Delhi, Delhi 110005, India", "phone": "+91 85273 53508", "rating": "", "review_count": "", "website": "https://www.grootinfotech.com/", "latitude": 28.6451836, "longitude": 77.1780375, "maps_url": "https://www.google.com/maps/search/?api=1&query=Groot%20Infotech&query_place_id=ChIJOZd2wWIDDTkRMdyNCdCtCIQ"}, {"place_id": "ChIJvcec0CgDDTkRIWIAM_IucoM", "name": "I DEZINE", "street": "I-34, Janak Vihar, New Delhi, Delhi 110012, India", "phone": "+91 98219 85372", "rating": "4.8", "review_count": "", "website": "", "latitude": 28.6314088, "longitude": 77.1705746, "maps_url": "https://www.google.com/maps/search/?api=1&query=I%20DEZINE&query_place_id=ChIJvcec0CgDDTkRIWIAM_IucoM"}, {"place_id": "ChIJEUwFoFYDDTkR42Q8r_BNo3c", "name": "Eagle ace clothing company", "street": "E-16/1176, Tank Rd, near saluja gali gurudwara, Block Number 6, Bapa Nagar, Karol Bagh, New Delhi, Delhi, 110005, India", "phone": "+91 85889 47125", "rating": "5", "review_count": "", "website": "", "latitude": 28.652067199999998, "longitude": 77.182383, "maps_url": "https://www.google.com/maps/search/?api=1&query=Eagle%20ace%20clothing%20company&query_place_id=ChIJEUwFoFYDDTkR42Q8r_BNo3c"}, {"place_id": "ChIJCRaWqmb9DDkRePFGbY_PYII", "name": "DELHI DRESSING AND SURGICALS", "street": "9, Double Storey, market, New Rajinder Nagar, New Delhi, Delhi 110060, India", "phone": "+91 98991 99076", "rating": "4.8", "review_count": "", "website": "", "latitude": 28.6320421, "longitude": 77.1759376, "maps_url": "https://www.google.com/maps/search/?api=1&query=DELHI%20DRESSING%20AND%20SURGICALS&query_place_id=ChIJCRaWqmb9DDkRePFGbY_PYII"}, {"place_id": "ChIJK-a1WmQFDTkR9EVUE97_QNI", "name": "Adjoint Infocom Private Limited", "street": "Second Floor, WZ- 294, G Block, Hari Nagar, Shiv Nagar, Hari Nagar, New Delhi, Delhi, 110058, India", "phone": "", "rating": "4.4", "review_count": "", "website": "https://www.adjointinfocom.com/", "latitude": 28.6274493, "longitude": 77.1002505, "maps_url": "https://www.google.com/maps/search/?api=1&query=Adjoint%20Infocom%20Private%20Limited&query_place_id=ChIJK-a1WmQFDTkR9EVUE97_QNI"}]