[{"place_id": "ChIJ7aqqqhn9DDkRAHrHrySKo2M", "name": "TEAMWORK IT SOLUTION", "street": "4680, Shree Ji Service Ballimaran,, Chandani Chowk Delhi, New Delhi, Delhi 110006, India", "phone": "+91 98911 15747", "rating": "5", "review_count": "", "website": "", "latitude": 28.6505196, "longitude": 77.23188069999999, "maps_url": "https://www.google.com/maps/search/?api=1&query=TEAMWORK%20IT%20SOLUTION&query_place_id=ChIJ7aqqqhn9DDkRAHrHrySKo2M"}, {"place_id": "ChIJQ_oGW9r9DDkRVEcZFZZp-T4", "name": "IT SOLUTION PVT LTD", "street": "Katra Asharfi, Chandni Chowk, Delhi, 110006, India", "phone": "+91 78348 28211", "rating": "4.3", "review_count": "", "website": "", "latitude": 28.6564014, "longitude": 77.2279331, "maps_url": "https://www.google.com/maps/search/?api=1&query=IT%20SOLUTION%20PVT%20LTD&query_place_id=ChIJQ_oGW9r9DDkRVEcZFZZp-T4"}, {"place_id": "ChIJO4sr49IDDTkRALZaeWsr-oI", "name": "Iraitech | Software Development Company", "street": "Central Square Complex 3, Unit No-1051, 1st Floor, Near Filmistan, DCM chowk, Bara Hindu Rao, Kishan Ganj, Delhi, 110006, India", "phone": "+91 81301 04108", "rating": "4.1", "review_count": "", "website": "https://www.iraitech.com/", "latitude": 28.6631951, "longitude": 77.20308639999999, "maps_url": "https://www.google.com/maps/search/?api=1&query=Iraitech%20%7C%20Software%20Development%20Company&query_place_id=ChIJO4sr49IDDTkRALZaeWsr-oI"}, {"place_id": "ChIJ8bD3oe-1bTkRhQOwVrfg-vw", "name": "One Aim IT Solutions", "street": "2/41/2 , 1st Floor, Sadar Bazar , Moradabad Pahari ,TO.Delhi Cantt, Distt:, South West, New Delhi, Delhi 110006, India", "phone": "+91 89552 49714", "rating": "5", "review_count": "", "website": "https://theoneaim.in/", "latitude": 28.6580968, "longitude": 77.2124735, "maps_url": "https://www.google.com/maps/search/?api=1&query=One%20Aim%20IT%20Solutions&query_place_id=ChIJ8bD3oe-1bTkRhQOwVrfg-vw"}, {"place_id": "ChIJiXUDIwz9DDkRvZmUMDLc3ys", "name": "Infycat Com", "street": "4311, Gali Bhairo Wali, Jogiwara, Chandni Chowk, New Delhi, Delhi, 110006, India", "phone": "+91 95823 23923", "rating": "3.7", "review_count": "", "website": "https://www.infycat.com/", "latitude": 28.652357, "longitude": 77.2279069, "maps_url": "https://www.google.com/maps/search/?api=1&query=Infycat%20Com&query_place_id=ChIJiXUDIwz9DDkRvZmUMDLc3ys"}, {"place_id": "ChIJM_6P2vX9DDkR-QIKuvGuCuE", "name": "Rehan Rafi | Freelancing | Digital Marketing | Website Design | Meta Ads | GMB & SEO Specialists in Chandi Chowk", "street": "Captain wale masjid, 2502, Ballimaran Nearest, Bazar Sirkiwalan, Bare, Baradari, Chandni Chowk, Delhi, 110006, India", "phone": "+91 77397 30013", "rating": "4.8", "review_count": "", "website": "https://netkrafts.com/", "latitude": 28.652442599999997, "longitude": 77.22541129999999, "maps_url": "https://www.google.com/maps/search/?api=1&query=Rehan%20Rafi%20%7C%20Freelancing%20%7C%20Digital%20Marketing%20%7C%20Website%20Design%20%7C%20Meta%20Ads%20%7C%20GMB%20%26%20SEO%20Specialists%20in%20Chandi%20Chowk&query_place_id=ChIJM_6P2vX9DDkR-QIKuvGuCuE"}, {"place_id": "ChIJjX8sphH9DDkR04AtOBnFCfQ", "name": "Aijaz Ahmed - Digital Marketer", "street": "4739, Ballimaran Rd, opposite Chhoti Baradari, Jogiwara, Chandni Chowk, Delhi, 110006, India", "phone": "+91 99993 63093", "rating": "4.5", "review_count": "", "website": "http://itdevelopersdelhi.weebly.com/", "latitude": 28.652863699999997, "longitude": 77.2270577, "maps_url": "https://www.google.com/maps/search/?api=1&query=Aijaz%20Ahmed%20-%20Digital%20Marketer&query_place_id=ChIJjX8sphH9DDkR04AtOBnFCfQ"}, {"place_id": "ChIJJzFWhT8FDTkRA4FzYkSem9M", "name": "PSI SAFETY SOLUTIONS PVT LTD", "street": "3335 UNIT, 3, KUCHA KASHGIRI, Chawri Bazar, CENTRAL, Delhi, 110006, India", "phone": "+91 97111 36781", "rating": "5", "review_count": "", "website": "https://psisafety.in/", "latitude": 28.6509194, "longitude": 77.2308884, "maps_url": "https://www.google.com/maps/search/?api=1&query=PSI%20SAFETY%20SOLUTIONS%20PVT%20LTD&query_place_id=ChIJJzFWhT8FDTkRA4FzYkSem9M"}, {"place_id": "ChIJOd0erhf9DDkR9wkxP9o1ObA", "name": "Bittoo Stationery (Bhatia & Company)", "street": "906, Chawri Bazar Rd, Pai Walan, Old Delhi, New Delhi, Delhi, 110006, India", "phone": "+91 93122 11140", "rating": "5", "review_count": "", "website": "http://www.bittoo.in/", "latitude": 28.650727999999997, "longitude": 77.2314609, "maps_url": "https://www.google.com/maps/search/?api=1&query=Bittoo%20Stationery%20%28Bhatia%20%26%20Company%29&query_place_id=ChIJOd0erhf9DDkR9wkxP9o1ObA"}, {"place_id": "ChIJTb-sQ2v9DDkRPNbviwbbbVg", "name": "Atharv Info Solutions", "street": "Police Station, 1285, near Jama Masjid, Vakil Pura, Chah Rahat, Delhi, 110006, India", "phone": "+91 70658 00911", "rating": "5", "review_count": "", "website": "", "latitude": 28.652453899999998, "longitude": 77.2322215, "maps_url": "https://www.google.com/maps/search/?api=1&query=Atharv%20Info%20Solutions&query_place_id=ChIJTb-sQ2v9DDkRPNbviwbbbVg"}, {"place_id": "ChIJyef3yxn9DDkRrspONxbdv00", "name": "Veer File Products-Office Spring file-index file /Practical File/Cobra Clip/myclearbag file manufacturer in Delhi", "street": "2738, Nai Sarak, Roshanpura, Chandni Chowk, Delhi, 110006, India", "phone": "+91 98997 02017", "rating": "4.5", "review_count": "", "website": "", "latitude": 28.6523842, "longitude": 77.22976799999999, "maps_url": "https://www.google.com/maps/search/?api=1&query=Veer%20File%20Products-Office%20Spring%20file-index%20file%20/Practical%20File/Cobra%20Clip/myclearbag%20file%20manufacturer%20in%20Delhi&query_place_id=ChIJyef3yxn9DDkRrspONxbdv00"}, {"place_id": "ChIJXYNCrBD9DDkRIPJc7SPf7vs", "name": "Engineers India Research Institute", "street": "4449, Nai Sarak, near HDFC Bank, Jogiwara, Chandni Chowk, New Delhi, Delhi, 110006, India", "phone": "+91 98114 37895", "rating": "4.3", "review_count": "", "website": "https://www.eiriindia.org/", "latitude": 28.652097299999998, "longitude": 77.22919759999999, "maps_url": "https://www.google.com/maps/search/?api=1&query=Engineers%20India%20Research%20Institute&query_place_id=ChIJXYNCrBD9DDkRIPJc7SPf7vs"}, {"place_id": "ChIJowV3_Fr9DDkR5QkMEBtQP6E", "name": "Gupta Trading Company", "street": "M-4, 21/23, Kucha Chowdhary, Chandni Chowk, Delhi, 110006, India", "phone": "+91 98183 84547", "rating": "4.6", "review_count": "", "website": "", "latitude": 28.6537522, "longitude": 77.2324933, "maps_url": "https://www.google.com/maps/search/?api=1&query=Gupta%20Trading%20Company&query_place_id=ChIJowV3_Fr9DDkR5QkMEBtQP6E"}, {"place_id": "ChIJKXNfQwf9DDkREw35CXMmQxo", "name": "Pankul Papers Private Limited", "street": "3768-79 1st floor, Charkhewalan, above Gujarat Namkeen, Chawri Bazar, Delhi, 110006, India", "phone": "+91 99111 57424", "rating": "3.8", "review_count": "", "website": "https://www.customizedrigidboxes.com/", "latitude": 28.650439799999997, "longitude": 77.2292552, "maps_url": "https://www.google.com/maps/search/?api=1&query=Pankul%20Papers%20Private%20Limited&query_place_id=ChIJKXNfQwf9DDkREw35CXMmQxo"}, {"place_id": "ChIJV0dOYsD9DDkRzd5rdeDGRpI", "name": "Mystical Piyush Kumar Nahta", "street": "4311. Gali Bhairown Wali, Nai Sarak, Jogiwara, Delhi, 110006, India", "phone": "+91 95823 23923", "rating": "4.9", "review_count": "", "website": "http://piyush.win/profile/", "latitude": 28.653116999999998, "longitude": 77.2279518, "maps_url": "https://www.google.com/maps/search/?api=1&query=Mystical%20Piyush%20Kumar%20Nahta&query_place_id=ChIJV0dOYsD9DDkRzd5rdeDGRpI"}, {"place_id": "ChIJI_Qamhn9DDkRvwMShbSpG0Q", "name": "Tayal Trading Company", "street": "2495, Chatta Shahji Rd, Chawri Bazar, Chandni Chowk, Delhi, 110006, India", "phone": "+91 96543 37123", "rating": "3.7", "review_count": "", "website": "http://www.myartme.com/", "latitude": 28.651619999999998, "longitude": 77.23115229999999, "maps_url": "https://www.google.com/maps/search/?api=1&query=Tayal%20Trading%20Company&query_place_id=ChIJI_Qamhn9DDkRvwMShbSpG0Q"}, {"place_id": "ChIJo0lKUKH9DDkRgZ10mr4SvMQ", "name": "Komal Trading Company", "street": "4310, Second Floor, Gali Bhairo Wali, Jogiwara, Chandni Chowk, Delhi, 110006, India", "phone": "+91 11 4942 4122", "rating": "5", "review_count": "", "website": "", "latitude": 28.6531479, "longitude": 77.2279173, "maps_url": "https://www.google.com/maps/search/?api=1&query=Komal%20Trading%20Company&query_place_id=ChIJo0lKUKH9DDkRgZ10mr4SvMQ"}, {"place_id": "ChIJLcLvzF_9DDkRPIZPfnBio-I", "name": "A2Z GST SOLUTIONS", "street": "3rd Floor, BALAJI MARKET, Nai Sarak, Jogiwara, Chandni Chowk, Delhi, 110006, India", "phone": "+91 88607 57454", "rating": "5", "review_count": "", "website": "", "latitude": 28.653342499999997, "longitude": 77.22844649999999, "maps_url": "https://www.google.com/maps/search/?api=1&query=A2Z%20GST%20SOLUTIONS&query_place_id=ChIJLcLvzF_9DDkRPIZPfnBio-I"}, {"place_id": "ChIJP0lRBhn9DDkRlpexMsuZ66Y", "name": "Shreyansh Paper Company", "street": "Shop No - 958, Chotta Chipiwara, 1st Floor, Chawri Bazaar, Delhi, 110006, India", "phone": "+91 98684 96995", "rating": "4", "review_count": "", "website": "https://m.indiamart.com/shreyanshpapercompany/", "latitude": 28.651135, "longitude": 77.2321, "maps_url": "https://www.google.com/maps/search/?api=1&query=Shreyansh%20Paper%20Company&query_place_id=ChIJP0lRBhn9DDkRlpexMsuZ66Y"}, {"place_id": "ChIJOTme5e79DDkRy6MPs5_WCog", "name": "Mahek Jain Graphic Designer", "street": "Dharam Pura, Chandni Chowk, New Delhi, Delhi, 110006, India", "phone": "+91 96502 84795", "rating": "4.8", "review_count": "", "website": "", "latitude": 28.653830499999998, "longitude": 77.2321611, "maps_url": "https://www.google.com/maps/search/?api=1&query=Mahek%20Jain%20Graphic%20Designer&query_place_id=ChIJOTme5e79DDkRy6MPs5_WCog"}, {"place_id": "ChIJo3zeShj9DDkRXLCmXSeY1a4", "name": "Gopal trading company", "street": "First floor barshabulla, 196, Gali batashan, Manohar Market, Chawri Bazar, Chandni Chowk, New Delhi, Delhi, 110006, India", "phone": "+91 92125 13022", "rating": "4.4", "review_count": "", "website": "", "latitude": 28.650351999999998, "longitude": 77.2305611, "maps_url": "https://www.google.com/maps/search/?api=1&query=Gopal%20trading%20company&query_place_id=ChIJo3zeShj9DDkRXLCmXSeY1a4"}, {"place_id": "ChIJUWgUkcf9DDkRGJtSOr12d5s", "name": "SONA INDIA", "street": "2732, roshanpura, Nai Sarak, Chawri Bazar, New Delhi, Delhi 110006, India", "phone": "+91 97112 00307", "rating": "4.9", "review_count": "", "website": "https://sonaindia.com/", "latitude": 28.652421999999998, "longitude": 77.22986, "maps_url": "https://www.google.com/maps/search/?api=1&query=SONA%20INDIA&query_place_id=ChIJUWgUkcf9DDkRGJtSOr12d5s"}, {"place_id": "ChIJ____Gxj9DDkR3lr3O8gKZuA", "name": "Nutan Trading Corporation", "street": "2838, Pipal Mahadev Gali, Bazar Sirkiwalan, Hauz Qazi, Old Delhi, New Delhi, Delhi, 110006, India", "phone": "+91 93500 78235", "rating": "4.5", "review_count": "", "website": "", "latitude": 28.6502147, "longitude": 77.2260896, "maps_url": "https://www.google.com/maps/search/?api=1&query=Nutan%20Trading%20Corporation&query_place_id=ChIJ____Gxj9DDkR3lr3O8gKZuA"}, {"place_id": "ChIJHfMrtl79DDkRyeGPdb3sYSg", "name": "Akshat Jain Graphic Designer in Delhi", "street": "2737 Gali Peepal Wali, Dharampura, Dariba Kalan, Chandni Chowk, Delhi, 110006, India", "phone": "+91 85958 67364", "rating": "5", "review_count": "", "website": "", "latitude": 28.653819199999997, "longitude": 77.2321369, "maps_url": "https://www.google.com/maps/search/?api=1&query=Akshat%20Jain%20Graphic%20Designer%20in%20Delhi&query_place_id=ChIJHfMrtl79DDkRyeGPdb3sYSg"}, {"place_id": "ChIJPbwO4Rn9DDkRYZgI8UrwVJg", "name": "Kingsley Publishers Private Limited", "street": "4053, Nai Sarak, near Gali Satte Wali, near On main road, Dai Wara, Chandni Chowk, New Delhi, Delhi, 110006, India", "phone": "+91 93192 24246", "rating": "5", "review_count": "", "website": "https://www.fontfusionspublication.com/", "latitude": 28.651578299999997, "longitude": 77.2296195, "maps_url": "https://www.google.com/maps/search/?api=1&query=Kingsley%20Publishers%20Private%20Limited&query_place_id=ChIJPbwO4Rn9DDkRYZgI8UrwVJg"}, {"place_id": "ChIJk3l-_SL9DDkRQx_hHJTQ8fQ", "name": "Cleaning Services in Delhi By Nobroker", "street": "2993, Masjid Khajhoor, Dharam Pura Rd, opp. Queen Cloth Shop, Dharam Pura, Chandni Chowk, New Delhi, Delhi 110006, India", "phone": "", "rating": "4.2", "review_count": "", "website": "https://www.nobroker.in/cleaning-services-in-delhi", "latitude": 28.653773299999997, "longitude": 77.2312426, "maps_url": "https://www.google.com/maps/search/?api=1&query=Cleaning%20Services%20in%20Delhi%20By%20Nobroker&query_place_id=ChIJk3l-_SL9DDkRQx_hHJTQ8fQ"}, {"place_id": "ChIJbYJMrBD9DDkRFnNA7z0dcAA", "name": "ATUL PAPER PVT. LTD. Oddy Stationery", "street": "Shri Balaji Market, 2604, Nai Sarak, Roshanpura, Chandni Chowk, New Delhi, Delhi, 110006, India", "phone": "+91 11 2324 5146", "rating": "4.1", "review_count": "", "website": "http://www.oddyindia.com/", "latitude": 28.651554299999997, "longitude": 77.22993989999999, "maps_url": "https://www.google.com/maps/search/?api=1&query=ATUL%20PAPER%20PVT.%20LTD.%20Oddy%20Stationery&query_place_id=ChIJbYJMrBD9DDkRFnNA7z0dcAA"}, {"place_id": "ChIJM9r7u0r9DDkRiUvt7zjjpRM", "name": "IT Executive vivek", "street": "22, Vijay Ghat, Raj Ghat, New Delhi, Delhi, 110006, India", "phone": "", "rating": "", "review_count": "", "website": "https://itexecuitive.com/", "latitude": 28.6584512, "longitude": 77.2449233, "maps_url": "https://www.google.com/maps/search/?api=1&query=IT%20Executive%20vivek&query_place_id=ChIJM9r7u0r9DDkRiUvt7zjjpRM"}, {"place_id": "ChIJlx5-7JT9DDkRhhF-CJlswh4", "name": "SHIVANSH ENTERPRISES", "street": "C-5, Street No.3, near HANSRAJ MARKET, Block T, GAMRI EXTENSION, SUDAMAPURI, Delhi, 110053, India", "phone": "+91 88265 49483", "rating": "5", "review_count": "", "website": "", "latitude": 28.6781546, "longitude": 77.264049, "maps_url": "https://www.google.com/maps/search/?api=1&query=SHIVANSH%20ENTERPRISES&query_place_id=ChIJlx5-7JT9DDkRhhF-CJlswh4"}, {"place_id": "ChIJyef3yxn9DDkR6-lWDVrpDRY", "name": "Dhanpat Rai & Co Private Limited", "street": "1710, Nai Sarak, Dai Wara, Chandni Chowk, New Delhi, Delhi, 110006, India", "phone": "+91 11 2325 0251", "rating": "4", "review_count": "", "website": "", "latitude": 28.6506756, "longitude": 77.2301196, "maps_url": "https://www.google.com/maps/search/?api=1&query=Dhanpat%20Rai%20%26%20Co%20Private%20Limited&query_place_id=ChIJyef3yxn9DDkR6-lWDVrpDRY"}, {"place_id": "ChIJgVfDQ0L9DDkRjtGZnTQuqkQ", "name": "RK Creations", "street": "3939/122, 1st Floor, Gali Satte Wali, New Krishna Cloth Market, Chawri Bazar, Chandni Chowk, New Delhi, Delhi, 110006, India", "phone": "", "rating": "5", "review_count": "", "website": "https://sites.google.com/view/rkcreations3939/home", "latitude": 28.6514834, "longitude": 77.229445, "maps_url": "https://www.google.com/maps/search/?api=1&query=RK%20Creations&query_place_id=ChIJgVfDQ0L9DDkRjtGZnTQuqkQ"}]