{"timestamp": 1773733408.935108, "keyword": "IT company", "location": "Indore", "cell_idx": 25, "results": [{"place_id": "0x3962fb9e7ee26cd1:0x6e8b064681fc929b", "name": "Ozlo IT Services Pvt Ltd", "category": "Software company", "street": "Nakoda Apt", "city": "203", "phone": "07389028888", "website": "https://www.ozloits.com/", "rating": 4.9, "review_count": "", "latitude": 22.646292, "longitude": 75.8283652, "maps_url": "https://www.google.com/maps/place/?q=place_id:0x3962fb9e7ee26cd1:0x6e8b064681fc929b"}, {"place_id": "0x3962fbe2776846d3:0x99a7ea634a997a68", "name": "Pushkal IT Solution (owner Divya Dubey )", "category": "Software company", "street": "Sai Vihar Colony, Rau", "city": "Indore, Madhya Pradesh 453331", "phone": "07314878045", "website": "http://www.pushkalit.com/", "rating": 4.1, "review_count": "", "latitude": 22.633637, "longitude": 75.807174, "maps_url": "https://www.google.com/maps/place/?q=place_id:0x3962fbe2776846d3:0x99a7ea634a997a68"}, {"place_id": "0x3962fd71266aaa83:0x82398caa17930a40", "name": "Octavian InfoTech LLP", "category": "Software company", "street": "A 41 Ayodhya Puri", "city": "Kodriya", "phone": "09977741168", "website": "https://www.octavianinfotech.com/", "rating": 5, "review_count": "", "latitude": 22.537258599999998, "longitude": 75.7726136, "maps_url": "https://www.google.com/maps/place/?q=place_id:0x3962fd71266aaa83:0x82398caa17930a40"}, {"place_id": "0x390ce458d0000001:0xf2123bd299ec4501", "name": "IT Company India", "category": "Software company", "street": "D56", "city": "D Block, Sector 10", "phone": "09999244854", "website": "https://www.itcompanyindia.in/", "rating": 4.7, "review_count": "", "latitude": 28.589917699999997, "longitude": 77.3351153, "maps_url": "https://www.google.com/maps/place/?q=place_id:0x390ce458d0000001:0xf2123bd299ec4501"}, {"place_id": "0x3962fb0e50ec276f:0xef677c5d30e8edda", "name": "Viami Global Services LLP", "category": "Software company", "street": "454, N Block, Silicon City", "city": "Road", "phone": "09075007690", "website": "https://viami.co.in/", "rating": 4.9, "review_count": "", "latitude": 22.649313, "longitude": 75.8281813, "maps_url": "https://www.google.com/maps/place/?q=place_id:0x3962fb0e50ec276f:0xef677c5d30e8edda"}, {"place_id": "0x3962fbe8afbe2b99:0x4e9292db9a3f1152", "name": "Vigility Technologies Pvt Ltd", "category": "Software company", "street": "279, Vrindavan Street, Line no. 8", "city": "Shiv City", "phone": "07314275588", "website": "https://www.vigility.in/", "rating": 5, "review_count": "", "latitude": 22.6505044, "longitude": 75.8325826, "maps_url": "https://www.google.com/maps/place/?q=place_id:0x3962fbe8afbe2b99:0x4e9292db9a3f1152"}, {"place_id": "0x39629b8170fda0bf:0xda674acf28fe98df", "name": "Hardik SoftTech", "category": "Software company", "street": "Infront of Vishal Motors", "city": "Pipalgone Rd", "phone": "09630787397", "website": "https://hardiksofttech.com/", "rating": 5, "review_count": "", "latitude": 22.1028676, "longitude": 75.9485346, "maps_url": "https://www.google.com/maps/place/?q=place_id:0x39629b8170fda0bf:0xda674acf28fe98df"}, {"place_id": "0x3be7c21b5901e181:0x7fe794585addc1f6", "name": "Smartinfologiks - Software Development Company in India | IT Solutions", "category": "Software company", "street": "Hilton Center", "city": "514", "phone": "07400064691", "website": "https://www.smartinfologiks.com/", "rating": 4.6, "review_count": "", "latitude": 19.0139592, "longitude": 73.0382705, "maps_url": "https://www.google.com/maps/place/?q=place_id:0x3be7c21b5901e181:0x7fe794585addc1f6"}, {"place_id": "0x3bc2becdc35b6937:0x515ac559c349eee3", "name": "Thinkitive Technologies Private Limited", "category": "Software company", "street": "4th Floor", "city": "ABIL IMPERIAL COMMERCIAL SPACES", "phone": "08956467327", "website": "https://www.thinkitive.com/", "rating": 3.9, "review_count": "", "latitude": 18.5563888, "longitude": 73.7729748, "maps_url": "https://www.google.com/maps/place/?q=place_id:0x3bc2becdc35b6937:0x515ac559c349eee3"}, {"place_id": "0x9b11f92b7f68547:0x586dbc90a7ad0040", "name": "Devonix Tech", "category": "Software company", "street": "", "city": "", "phone": "07747911593", "website": "https://devonixtech.netlify.app/", "rating": 5, "review_count": "", "latitude": 14.157641199999999, "longitude": 9.2565711, "maps_url": "https://www.google.com/maps/place/?q=place_id:0x9b11f92b7f68547:0x586dbc90a7ad0040"}, {"place_id": "0x3962f9236d105caf:0xbbc3c9013b8d48dc", "name": "Compli-Tech - Startup Consultant | Company Registration | Website Designing | Ecommerce Website Development", "category": "Business management consultant", "street": "Malwa Complex", "city": "88", "phone": "09302151441", "website": "https://compli-tech.odoo.com/", "rating": "", "review_count": "", "latitude": 22.5676845, "longitude": 75.7600538, "maps_url": "https://www.google.com/maps/place/?q=place_id:0x3962f9236d105caf:0xbbc3c9013b8d48dc"}, {"place_id": "0x396297482015701b:0xcf1885d997644a71", "name": "Harioum photocopy And Computer center", "category": "Computer service", "street": "Narmda Marg", "city": "Khandwa Rd", "phone": "", "website": "", "rating": 5, "review_count": "", "latitude": 22.250663499999998, "longitude": 76.0393904, "maps_url": "https://www.google.com/maps/place/?q=place_id:0x396297482015701b:0xcf1885d997644a71"}, {"place_id": "0x3962977dd210c815:0x282bb0ed764d75cf", "name": "ANKIT COMPUTER'S", "category": "Computer store", "street": "Barwaha, Madhya Pradesh 451115", "city": "", "phone": "07999501316", "website": "", "rating": 5, "review_count": "", "latitude": 22.254970099999998, "longitude": 76.0365569, "maps_url": "https://www.google.com/maps/place/?q=place_id:0x3962977dd210c815:0x282bb0ed764d75cf"}, {"place_id": "0x396296560da6ac61:0xdc5a0a6c2bab6498", "name": "Ali Computers", "category": "Computer service", "street": "89, M.G Road", "city": "Barwaha, Madhya Pradesh 451115", "phone": "", "website": "", "rating": 3.6, "review_count": "", "latitude": 22.256282, "longitude": 76.040432, "maps_url": "https://www.google.com/maps/place/?q=place_id:0x396296560da6ac61:0xdc5a0a6c2bab6498"}, {"place_id": "0x3962fb2a008d3de5:0x352eeb43f166a053", "name": "Kehems Technologies Pvt Ltd.", "category": "HVAC contractor", "street": "12th K. M", "city": "Indore - Khandwa Rd", "phone": "07314228306", "website": "http://kehems.com/", "rating": 4.2, "review_count": "", "latitude": 22.6102533, "longitude": 75.8942004, "maps_url": "https://www.google.com/maps/place/?q=place_id:0x3962fb2a008d3de5:0x352eeb43f166a053"}, {"place_id": "0x396296f8fb1aaaab:0x361d270bc43689f1", "name": "Param Technology", "category": "Corporate office", "street": "266, Maulana Azad Marg", "city": "near param public school", "phone": "", "website": "", "rating": 5, "review_count": "", "latitude": 22.257750299999998, "longitude": 76.0372433, "maps_url": "https://www.google.com/maps/place/?q=place_id:0x396296f8fb1aaaab:0x361d270bc43689f1"}, {"place_id": "0x3bd871033ef0cec9:0xc9901dadf9a1841d", "name": "Career Technology", "category": "Computer support and services", "street": "350 Sony Colony", "city": "Bhikangaon, Madhya Pradesh 451331", "phone": "09977970117", "website": "", "rating": 5, "review_count": "", "latitude": 21.8663967, "longitude": 75.96185179999999, "maps_url": "https://www.google.com/maps/place/?q=place_id:0x3bd871033ef0cec9:0xc9901dadf9a1841d"}, {"place_id": "0x396297fa2eee4d63:0xcea23d496d647cf0", "name": "Bijya Innovations", "category": "Computer support and services", "street": "AzureDigitalSoftware", "city": "Dashera Maidan", "phone": "", "website": "", "rating": "", "review_count": "", "latitude": 22.2499483, "longitude": 76.0433279, "maps_url": "https://www.google.com/maps/place/?q=place_id:0x396297fa2eee4d63:0xcea23d496d647cf0"}, {"place_id": "0x396297a5b3aaf8cf:0x91b55aa9290d0db8", "name": "RAMO", "category": "Software company", "street": "Ground Floor", "city": "Crystal IT Park", "phone": "09977696444", "website": "http://ramo.co.in/", "rating": "", "review_count": "", "latitude": 22.236003399999998, "longitude": 76.0469766, "maps_url": "https://www.google.com/maps/place/?q=place_id:0x396297a5b3aaf8cf:0x91b55aa9290d0db8"}, {"place_id": "0x3962972c6f478dd5:0xcb76c9ab509dad8f", "name": "Patel Online Center", "category": "Computer support and services", "street": "Court Road", "city": "Barwaha, Madhya Pradesh 451115", "phone": "09826515353", "website": "", "rating": 5, "review_count": "", "latitude": 22.2563651, "longitude": 76.0411469, "maps_url": "https://www.google.com/maps/place/?q=place_id:0x3962972c6f478dd5:0xcb76c9ab509dad8f"}, {"place_id": "0x3962efcccbce7145:0x784e8cb69818596b", "name": "Indian Institute of Technology Indore", "category": "Technical university", "street": "Khandwa Rd", "city": "Simrol, Madhya Pradesh 453552", "phone": "07324306717", "website": "http://www.iiti.ac.in/", "rating": 4.5, "review_count": "", "latitude": 22.5246385, "longitude": 75.92313709999999, "maps_url": "https://www.google.com/maps/place/?q=place_id:0x3962efcccbce7145:0x784e8cb69818596b"}, {"place_id": "0x3962fbffa2832515:0xd8ffc55262a63159", "name": "YUTIKA NATURAL PVT. LTD.", "category": "Cosmetics industry", "street": "1st to 4th Floor", "city": "Agra - Mumbai Hwy", "phone": "07316631200", "website": "https://www.yutikanatural.com/", "rating": 4.3, "review_count": "", "latitude": 22.632449899999997, "longitude": 75.8091158, "maps_url": "https://www.google.com/maps/place/?q=place_id:0x3962fbffa2832515:0xd8ffc55262a63159"}, {"place_id": "0x3962974dadb08ee1:0x5fa37ea167f4ae2b", "name": "New Meet Computer Center", "category": "Computer support and services", "street": "gurudwara complex", "city": "Police Station", "phone": "08435656135", "website": "", "rating": 5, "review_count": "", "latitude": 22.2557749, "longitude": 76.03397269999999, "maps_url": "https://www.google.com/maps/place/?q=place_id:0x3962974dadb08ee1:0x5fa37ea167f4ae2b"}, {"place_id": "0x3962972832d87aed:0xea0eee278cc7bc3f", "name": "Ranker notebook manufacturer", "category": "Stationery manufacturer", "street": "MP SH 38", "city": "near of kapas mandi", "phone": "09926834198", "website": "https://www.indiamart.com/ranker-notebook-manufacturer/", "rating": 5, "review_count": "", "latitude": 22.252631599999997, "longitude": 76.0366002, "maps_url": "https://www.google.com/maps/place/?q=place_id:0x3962972832d87aed:0xea0eee278cc7bc3f"}, {"place_id": "0x3962965557e6d02d:0x6e0decaaca405c50", "name": "SHREE PANCHRATAN", "category": "Corporate office", "street": "Regd Office 43", "city": "Vinoba Marg", "phone": "08553377006", "website": "http://shreepanchratan.com/", "rating": 4.9, "review_count": "", "latitude": 22.251475799999998, "longitude": 76.0390338, "maps_url": "https://www.google.com/maps/place/?q=place_id:0x3962965557e6d02d:0x6e0decaaca405c50"}, {"place_id": "0x3962e2cf90e67869:0xb7e57674685452df", "name": "Website Designer", "category": "Website designer", "street": "Scheme No. 140", "city": "World Cup Square", "phone": "08889396008", "website": "", "rating": 5, "review_count": "", "latitude": 22.649134, "longitude": 75.8823699, "maps_url": "https://www.google.com/maps/place/?q=place_id:0x3962e2cf90e67869:0xb7e57674685452df"}, {"place_id": "0x3962fb0060354897:0x798c6929e8a9e41c", "name": "Prajapati Solar Solution", "category": "Solar Energy Company", "street": "01", "city": "Rau", "phone": "", "website": "http://prajapatisolarsolution.com/", "rating": 5, "review_count": "", "latitude": 22.6268262, "longitude": 75.80945179999999, "maps_url": "https://www.google.com/maps/place/?q=place_id:0x3962fb0060354897:0x798c6929e8a9e41c"}, {"place_id": "0x39628fd965a77b0f:0xad282c79ca555c9e", "name": "Shri Gurukripa Computer", "category": "Computer support and services", "street": "MP SH 38", "city": "Pipliya Bujurg, Fifriya, Madhya Pradesh 451225", "phone": "09617053231", "website": "", "rating": 5, "review_count": "", "latitude": 22.2335083, "longitude": 75.8590236, "maps_url": "https://www.google.com/maps/place/?q=place_id:0x39628fd965a77b0f:0xad282c79ca555c9e"}, {"place_id": "0x3962fbbf7730ba4f:0xa3cd779eeb345d8c", "name": "Ecorse", "category": "Training center", "street": "546", "city": "near Silicon City", "phone": "07415413434", "website": "http://www.eiit.co.in/", "rating": 5, "review_count": "", "latitude": 22.645156, "longitude": 75.833584, "maps_url": "https://www.google.com/maps/place/?q=place_id:0x3962fbbf7730ba4f:0xa3cd779eeb345d8c"}, {"place_id": "0x3962fb8c7bd5cd97:0x58933810e1eb015b", "name": "KS Survey Solution | Professional Land Surveying Services", "category": "Land surveyor", "street": "B-567 Silicon City", "city": "Rau", "phone": "09165922576", "website": "", "rating": 4.9, "review_count": "", "latitude": 22.6396259, "longitude": 75.83217599999999, "maps_url": "https://www.google.com/maps/place/?q=place_id:0x3962fb8c7bd5cd97:0x58933810e1eb015b"}, {"place_id": "0x3962fba612dd62b1:0x3c44abe601f30aac", "name": "A to Z Properties and Developer", "category": "Real Estate Builders & Construction Company", "street": "silver star city", "city": "6 A SHOPPING SQUARE", "phone": "", "website": "https://atozpropertiesanddeveloper.com/", "rating": 5, "review_count": "", "latitude": 22.6435755, "longitude": 75.8374228, "maps_url": "https://www.google.com/maps/place/?q=place_id:0x3962fba612dd62b1:0x3c44abe601f30aac"}, {"place_id": "0x3962fba80ae8c4f7:0x4d099a4591827455", "name": "Jp real estate", "category": "Corporate office", "street": "214", "city": "sule Empire", "phone": "09713301678", "website": "http://www.jprealestate.com/", "rating": 5, "review_count": "", "latitude": 22.6305862, "longitude": 75.8074182, "maps_url": "https://www.google.com/maps/place/?q=place_id:0x3962fba80ae8c4f7:0x4d099a4591827455"}, {"place_id": "0x3962ed608d64e3d3:0x57cfd118e62a3dd7", "name": "The Hinterland by Travacanza", "category": "Campground", "street": "The Hinterland, Gram Surtipura", "city": "near Choral", "phone": "07067253255", "website": "https://www.travacanza.com/", "rating": 3.9, "review_count": "", "latitude": 22.4348115, "longitude": 75.9919176, "maps_url": "https://www.google.com/maps/place/?q=place_id:0x3962ed608d64e3d3:0x57cfd118e62a3dd7"}, {"place_id": "0x3962fbe2ffd91b71:0x4ba630a05c1c3f8c", "name": "Kumarika Enterprises", "category": "Corporate office", "street": "1st Floor", "city": "Mamaji Complex", "phone": "07942675606", "website": "", "rating": 5, "review_count": "", "latitude": 22.634775599999998, "longitude": 75.8098011, "maps_url": "https://www.google.com/maps/place/?q=place_id:0x3962fbe2ffd91b71:0x4ba630a05c1c3f8c"}, {"place_id": "0x3962fb990f28fa81:0x862fbda3de108a01", "name": "S Kataria Group Builders & Developers | Best Builders in Indore, Quality House Construction - Top Construction Company", "category": "Real Estate Builders & Construction Company", "street": "101", "city": "Mamaji Complex", "phone": "08827030000", "website": "https://www.skatariagroup.com/", "rating": 4.9, "review_count": "", "latitude": 22.6345341, "longitude": 75.8097403, "maps_url": "https://www.google.com/maps/place/?q=place_id:0x3962fb990f28fa81:0x862fbda3de108a01"}, {"place_id": "0x3962fb0034790409:0xedd49a607325dd18", "name": "MICRO ASSOCIATES(Architect & Construction)", "category": "Architect", "street": "Silver Star City", "city": "51", "phone": "09098775020", "website": "https://www.facebook.com/share/1Gau5mVZvf/?mibextid=wwXIfr", "rating": 4.9, "review_count": "", "latitude": 22.643548, "longitude": 75.835503, "maps_url": "https://www.google.com/maps/place/?q=place_id:0x3962fb0034790409:0xedd49a607325dd18"}, {"place_id": "0x39628d374cfca5e1:0x98caafe2b95b15e9", "name": "Punit Grahak Seva Kendra", "category": "Computer support and services", "street": "In Front Bank Of India", "city": "Bagod, Ramthan, Madhya Pradesh 451220", "phone": "06261424634", "website": "", "rating": "", "review_count": "", "latitude": 22.3219007, "longitude": 75.873864, "maps_url": "https://www.google.com/maps/place/?q=place_id:0x39628d374cfca5e1:0x98caafe2b95b15e9"}, {"place_id": "0x396297c780fcc2bf:0x15a4e0c18bdd8101", "name": "Jaiswal Computer", "category": "Computer support and services", "street": "Barwaha, Madhya Pradesh 451115", "city": "", "phone": "08889020002", "website": "", "rating": "", "review_count": "", "latitude": 22.253027799999998, "longitude": 76.0378092, "maps_url": "https://www.google.com/maps/place/?q=place_id:0x396297c780fcc2bf:0x15a4e0c18bdd8101"}, {"place_id": "0x39627b6a6814c92b:0x500d13ade7c13eeb", "name": "Prajapati Computer", "category": "Software company", "street": "Khargone - Indore Hwy", "city": "Kasrawad, Madhya Pradesh 451228", "phone": "08718001489", "website": "", "rating": "", "review_count": "", "latitude": 22.1255302, "longitude": 75.60823839999999, "maps_url": "https://www.google.com/maps/place/?q=place_id:0x39627b6a6814c92b:0x500d13ade7c13eeb"}, {"place_id": "0x3962efc2e83b2147:0x672e0fddf0440339", "name": "Trident Computer & Stationery", "category": "Computer consultant", "street": "Simrol, Madhya Pradesh 453552", "city": "", "phone": "09589850612", "website": "", "rating": 5, "review_count": "", "latitude": 22.542645, "longitude": 75.91129149999999, "maps_url": "https://www.google.com/maps/place/?q=place_id:0x3962efc2e83b2147:0x672e0fddf0440339"}, {"place_id": "0x39628f97d0806de7:0xc24905b7683c7979", "name": "Aadarsh Computers", "category": "Computer support and services", "street": "Main Road", "city": "Pipliya Khurd, Fifriya, Madhya Pradesh 451225", "phone": "09993514292", "website": "", "rating": "", "review_count": "", "latitude": 22.2337128, "longitude": 75.86205919999999, "maps_url": "https://www.google.com/maps/place/?q=place_id:0x39628f97d0806de7:0xc24905b7683c7979"}]}