{"timestamp": 1773734907.5443065, "keyword": "IT company", "location": "Indore", "cell_idx": 111, "results": [{"place_id": "0x3962fd6d5c629411:0xf6c83fcf3257fec1", "name": "Appalto Electronics Pvt Ltd", "category": "Electronics Company", "street": "IT Park", "city": "24-25, Indore - Dhar Rd", "phone": "07314780800", "website": "http://www.appalto.in/", "rating": 4, "review_count": "", "latitude": 22.6925815, "longitude": 75.7888832, "maps_url": "https://www.google.com/maps/place/?q=place_id:0x3962fd6d5c629411:0xf6c83fcf3257fec1"}, {"place_id": "0x3962fdf63c5a16a7:0x36aa8fadb45e2bcf", "name": "Onports Pvt. Ltd. | Software Development Company", "category": "Software company", "street": "Aslam estate", "city": "31", "phone": "09399390985", "website": "https://www.onports.in/", "rating": 5, "review_count": "", "latitude": 22.707174199999997, "longitude": 75.80335769999999, "maps_url": "https://www.google.com/maps/place/?q=place_id:0x3962fdf63c5a16a7:0x36aa8fadb45e2bcf"}, {"place_id": "0x3962fd0def3fffed:0x4e14bfbc084aa59", "name": "Spundan Consultancy & IT Solutions Pvt Ltd", "category": "Software company", "street": "Plot 30", "city": "IT Park, Sinhasa", "phone": "08889998997", "website": "http://www.spundan.com/", "rating": 4.9, "review_count": "", "latitude": 22.692548, "longitude": 75.7889344, "maps_url": "https://www.google.com/maps/place/?q=place_id:0x3962fd0def3fffed:0x4e14bfbc084aa59"}, {"place_id": "0x3962fd77fe66251b:0xf341c0ace0b98f53", "name": "Neyonix Infotech", "category": "Software company", "street": "Scheme No", "city": "Gopur Square", "phone": "08962402789", "website": "https://neyonix.com/", "rating": 4.9, "review_count": "", "latitude": 22.6845331, "longitude": 75.82877479999999, "maps_url": "https://www.google.com/maps/place/?q=place_id:0x3962fd77fe66251b:0xf341c0ace0b98f53"}, {"place_id": "0x3962fdadc95533b3:0x3c9e4e8a432e4e8b", "name": "Diaspark Infotech", "category": "Software company", "street": "60/2 Babulabh Chand Chajlani Marg Naidunia Parishar", "city": "Babu Lalchand Chajlani Rd", "phone": "07314756000", "website": "http://www.diaspark.com/", "rating": 4.2, "review_count": "", "latitude": 22.7036818, "longitude": 75.84430929999999, "maps_url": "https://www.google.com/maps/place/?q=place_id:0x3962fdadc95533b3:0x3c9e4e8a432e4e8b"}, {"place_id": "0x4970d2380562ef27:0xd3d6c67cd76c7087", "name": "The Code Shark - Graphics Design- web & App Development", "category": "Website designer", "street": "546", "city": "Sector-A, Green Park Colony", "phone": "09009904535", "website": "http://www.markagedigital.com/", "rating": 4.7, "review_count": "", "latitude": 22.7074611, "longitude": 75.80775899999999, "maps_url": "https://www.google.com/maps/place/?q=place_id:0x4970d2380562ef27:0xd3d6c67cd76c7087"}, {"place_id": "0x3962fdad8755290d:0xae9be52a6226ab72", "name": "ThoughtWin IT Solutions Pvt. Ltd.", "category": "Software company", "street": "1 Panna estate", "city": "Kesar Bagh Rd", "phone": "09977069348", "website": "https://www.thoughtwin.com/", "rating": 4.1, "review_count": "", "latitude": 22.699189099999998, "longitude": 75.84473919999999, "maps_url": "https://www.google.com/maps/place/?q=place_id:0x3962fdad8755290d:0xae9be52a6226ab72"}, {"place_id": "0x3962fcfabafa14b9:0x8c7a302459aaec0", "name": "Dollop Infotech Pvt. Ltd. | Indore | India", "category": "Software company", "street": "302, Sukhmani Apartment", "city": "Bhawarkua Main Rd", "phone": "09644704844", "website": "https://www.dollopinfotech.com/", "rating": 4.6, "review_count": "", "latitude": 22.6899904, "longitude": 75.8640863, "maps_url": "https://www.google.com/maps/place/?q=place_id:0x3962fcfabafa14b9:0x8c7a302459aaec0"}, {"place_id": "0x3962fd115f9bdb93:0x763ee98f66e77650", "name": "Young Decade IT Software Solution", "category": "Software company", "street": "office No 202, 2nd floor, Gracia Heights", "city": "Devi Ahilya Marg", "phone": "07987611372", "website": "http://www.youngdecade.com/", "rating": 4.7, "review_count": "", "latitude": 22.7279596, "longitude": 75.8631723, "maps_url": "https://www.google.com/maps/place/?q=place_id:0x3962fd115f9bdb93:0x763ee98f66e77650"}, {"place_id": "0x3962fdc6969403b1:0xde0646c82299c250", "name": "IT Spark Technology Pvt. Ltd.", "category": "Software company", "street": "4th Floor 418 Shekhar Central Manoramaganj", "city": "New Palasia", "phone": "09109845654", "website": "http://www.itsparktechnology.com/", "rating": 4.8, "review_count": "", "latitude": 22.722727, "longitude": 75.88707099999999, "maps_url": "https://www.google.com/maps/place/?q=place_id:0x3962fdc6969403b1:0xde0646c82299c250"}, {"place_id": "0x3962fcf129c55555:0xf972ad5c5b881813", "name": "Technorizen Software Solution | Software Development Company | Mobile Apps l AI/ML Solution l Blockchain l Digital Marketing", "category": "Software company", "street": "Sapphire House", "city": "402 A, B, C", "phone": "07828407092", "website": "https://technorizen.com/", "rating": 4.7, "review_count": "", "latitude": 22.702807, "longitude": 75.871596, "maps_url": "https://www.google.com/maps/place/?q=place_id:0x3962fcf129c55555:0xf972ad5c5b881813"}, {"place_id": "0x3962fc41ca24cfd1:0xaf6e0a08362244ec", "name": "Kiaan Technology", "category": "Software company", "street": "2341/e", "city": "Sector E, Sudama Nagar", "phone": "09752100980", "website": "http://kiaantechnology.com/", "rating": 4.6, "review_count": "", "latitude": 22.6886849, "longitude": 75.828512, "maps_url": "https://www.google.com/maps/place/?q=place_id:0x3962fc41ca24cfd1:0xaf6e0a08362244ec"}, {"place_id": "0x3962ffd473a40201:0xa76c73231d4845e7", "name": "Medibest TechServ LLP", "category": "Software company", "street": "303", "city": "IT Park Center IT Park", "phone": "09171341515", "website": "https://medibest.in/", "rating": 4.6, "review_count": "", "latitude": 22.6900619, "longitude": 75.7868108, "maps_url": "https://www.google.com/maps/place/?q=place_id:0x3962ffd473a40201:0xa76c73231d4845e7"}, {"place_id": "0x39631d62557ed507:0x5dc2b67a2ba7971a", "name": "Royal IT Service - IT Company in Indore", "category": "Software company", "street": "426 Scheme No. 114 Part 2", "city": "Anurag Nagar Ln", "phone": "09285192850", "website": "http://royalitservice.com/", "rating": 4.3, "review_count": "", "latitude": 22.7622528, "longitude": 75.9022899, "maps_url": "https://www.google.com/maps/place/?q=place_id:0x39631d62557ed507:0x5dc2b67a2ba7971a"}, {"place_id": "0x3962fd5eacc70f9d:0x572de0aa6bba1b92", "name": "Varlyq Technologies", "category": "Software company", "street": "4/A", "city": "near Gopur Square", "phone": "09340531409", "website": "https://varlyq.com/", "rating": 5, "review_count": "", "latitude": 22.6838333, "longitude": 75.82929589999999, "maps_url": "https://www.google.com/maps/place/?q=place_id:0x3962fd5eacc70f9d:0x572de0aa6bba1b92"}, {"place_id": "0x3962feaa86d43203:0xff2d44d70da2b47e", "name": "Fealty Technologies", "category": "Software company", "street": "211, Jawahar Nagar Rd", "city": "near DMART", "phone": "09755038393", "website": "https://fealtytechnologies.com/", "rating": 4.9, "review_count": "", "latitude": 22.6694501, "longitude": 75.82391009999999, "maps_url": "https://www.google.com/maps/place/?q=place_id:0x3962feaa86d43203:0xff2d44d70da2b47e"}, {"place_id": "0x3962fd1df61c9d07:0xf71a456db0d3920a", "name": "SyStos Technology", "category": "Software company", "street": "2nd Floor", "city": "VAIKUNTA BUSINESS PARK", "phone": "09893530547", "website": "http://www.systostechnology.com/", "rating": 4.7, "review_count": "", "latitude": 22.6788907, "longitude": 75.8341894, "maps_url": "https://www.google.com/maps/place/?q=place_id:0x3962fd1df61c9d07:0xf71a456db0d3920a"}, {"place_id": "0x3962fdfb0d82c841:0x112ab34055682f9e", "name": "OT Solutions Tech Pvt Ltd", "category": "Corporate office", "street": "180", "city": "Slice 4, Scheme 97, Vip Paraspar Nagar", "phone": "09179943453", "website": "https://www.otsolutionstech.com/", "rating": 4.4, "review_count": "", "latitude": 22.6753617, "longitude": 75.8245575, "maps_url": "https://www.google.com/maps/place/?q=place_id:0x3962fdfb0d82c841:0x112ab34055682f9e"}, {"place_id": "0x3963029b14b59d97:0x2910f9065ca3612e", "name": "SynergyTop Inc", "category": "Software company", "street": "114 Ground Floor, IT Park", "city": "New IT Park Building", "phone": "07879123770", "website": "http://synergytop.com/", "rating": 4.6, "review_count": "", "latitude": 22.7522576, "longitude": 75.865411, "maps_url": "https://www.google.com/maps/place/?q=place_id:0x3963029b14b59d97:0x2910f9065ca3612e"}, {"place_id": "0x3962fd4a61ffaf05:0xc08ff92a0d89d11d", "name": "Top Custom Software Development Company | AI, IoT & IT Solutions \u2013 Hiteshi", "category": "Software company", "street": "8th Floor Crystal IT Park", "city": "Madhya Pradesh 452001", "phone": "07312971133", "website": "https://www.hiteshi.com/", "rating": 3.6, "review_count": "", "latitude": 22.685651999999997, "longitude": 75.872211, "maps_url": "https://www.google.com/maps/place/?q=place_id:0x3962fd4a61ffaf05:0xc08ff92a0d89d11d"}, {"place_id": "0x3962fdf54164d23d:0xc82210a6e7c5c954", "name": "Dcode Infocorp Pvt Ltd.", "category": "Software company", "street": "Atulya IT park", "city": "Aditya Nagar, Bhanwar Kuwa", "phone": "", "website": "", "rating": 4.9, "review_count": "", "latitude": 22.6929136, "longitude": 75.8646807, "maps_url": "https://www.google.com/maps/place/?q=place_id:0x3962fdf54164d23d:0xc82210a6e7c5c954"}, {"place_id": "0x3962fd7221978859:0xf7a3ac341920f06f", "name": "Parkhya Solutions Pvt. Ltd.", "category": "Software company", "street": "121, Devi Ahilya Marg", "city": "Sahakar Nagar, Snehlataganj", "phone": "", "website": "http://www.parkhya.com/", "rating": 4.4, "review_count": "", "latitude": 22.729563499999998, "longitude": 75.863581, "maps_url": "https://www.google.com/maps/place/?q=place_id:0x3962fd7221978859:0xf7a3ac341920f06f"}, {"place_id": "0x3962fdc6969403b1:0xde0646c82299c250", "name": "IT Spark Technology Pvt. Ltd.", "category": "Software company", "street": "4th Floor 418 Shekhar Central Manoramaganj", "city": "New Palasia", "phone": "09109845654", "website": "http://www.itsparktechnology.com/", "rating": 4.8, "review_count": "", "latitude": 22.722727, "longitude": 75.88707099999999, "maps_url": "https://www.google.com/maps/place/?q=place_id:0x3962fdc6969403b1:0xde0646c82299c250"}, {"place_id": "0x3962fd558cb68b8f:0xa5df2c7d0568e24", "name": "BestPeers", "category": "Software company", "street": "Bestpeers InfoSystem Pvt. Ltd. 142-A, First Floor, New IT Park Building", "city": "Electronic Complex, Pardesipura", "phone": "07314984840", "website": "https://www.bestpeers.com/", "rating": 4.2, "review_count": "", "latitude": 22.7533355, "longitude": 75.86544339999999, "maps_url": "https://www.google.com/maps/place/?q=place_id:0x3962fd558cb68b8f:0xa5df2c7d0568e24"}, {"place_id": "0x3962fc6e7aaaaaab:0xf359644d0535c53", "name": "Tenco Systems & Switchgears Pvt. Ltd.", "category": "Corporate office", "street": "IT Park", "city": "6A, Indore - Dhar Rd", "phone": "09589855999", "website": "http://www.tencogroup.net/", "rating": 4.5, "review_count": "", "latitude": 22.6930373, "longitude": 75.788367, "maps_url": "https://www.google.com/maps/place/?q=place_id:0x3962fc6e7aaaaaab:0xf359644d0535c53"}, {"place_id": "0x3962fd480d635977:0x72f82e2825baa4f3", "name": "Mango IT Solutions", "category": "Software company", "street": "15/3, Old Palasia Rd", "city": "behind sarda house", "phone": "07314046693", "website": "http://www.mangoitsolutions.com/", "rating": 4.3, "review_count": "", "latitude": 22.7276298, "longitude": 75.8888766, "maps_url": "https://www.google.com/maps/place/?q=place_id:0x3962fd480d635977:0x72f82e2825baa4f3"}, {"place_id": "0x3962fd406f121e19:0x24de4839d9a8539c", "name": "bluCursor Infotech Pvt Ltd", "category": "Software company", "street": "315, 2nd Floor 142 A, Electronic Complex Pardesi Pura", "city": "Sukhliya", "phone": "09165304278", "website": "https://www.blucursor.com/", "rating": 4.6, "review_count": "", "latitude": 22.7524418, "longitude": 75.8654639, "maps_url": "https://www.google.com/maps/place/?q=place_id:0x3962fd406f121e19:0x24de4839d9a8539c"}, {"place_id": "0x3962fc51ba5dcfdf:0xbb33bc70a9e565a4", "name": "HETERIZE INFOTECH PRIVATE LIMITED", "category": "Software company", "street": "infront of SBI Bank", "city": "Heterize Infotech Pvt Ltd", "phone": "07314967340", "website": "http://heterizeinfotech.com/", "rating": 4.2, "review_count": "", "latitude": 22.6816627, "longitude": 75.8409331, "maps_url": "https://www.google.com/maps/place/?q=place_id:0x3962fc51ba5dcfdf:0xbb33bc70a9e565a4"}, {"place_id": "0x3962fd470f1c8cf3:0x7fc7417560117321", "name": "Maverick Console Services Pvt. Ltd.", "category": "Software company", "street": "MG Road 109 , Royal Ratan Building", "city": "Madhya Pradesh 452007", "phone": "08889785888", "website": "http://www.maverickconsole.com/", "rating": 4.8, "review_count": "", "latitude": 22.7195626, "longitude": 75.8577153, "maps_url": "https://www.google.com/maps/place/?q=place_id:0x3962fd470f1c8cf3:0x7fc7417560117321"}, {"place_id": "0x39631d62557ed507:0x5dc2b67a2ba7971a", "name": "Royal IT Service - IT Company in Indore", "category": "Software company", "street": "426 Scheme No. 114 Part 2", "city": "Anurag Nagar Ln", "phone": "09285192850", "website": "http://royalitservice.com/", "rating": 4.3, "review_count": "", "latitude": 22.7622528, "longitude": 75.9022899, "maps_url": "https://www.google.com/maps/place/?q=place_id:0x39631d62557ed507:0x5dc2b67a2ba7971a"}, {"place_id": "0x3962fce49bc36553:0x367dceaf7fdaaf4e", "name": "LMS Solutions (India) Pvt. Ltd.", "category": "Software company", "street": "18, Bhawarkua Main Rd", "city": "Professor Colony", "phone": "07314025567", "website": "http://www.lmsin.com/", "rating": 4.4, "review_count": "", "latitude": 22.694553799999998, "longitude": 75.8668371, "maps_url": "https://www.google.com/maps/place/?q=place_id:0x3962fce49bc36553:0x367dceaf7fdaaf4e"}, {"place_id": "0x3962fce94cfc595d:0x832f7e24cd655458", "name": "IMPETUS TECHNOLOGIES (INDIA) PVT LTD", "category": "Software company", "street": "Unit No 4-A, STP-II, Third Floor, Crystal IT Park, Ring Road", "city": "Indore, Madhya Pradesh 452001", "phone": "07314743000", "website": "http://www.impetus.com/", "rating": 4.6, "review_count": "", "latitude": 22.684779, "longitude": 75.87097299999999, "maps_url": "https://www.google.com/maps/place/?q=place_id:0x3962fce94cfc595d:0x832f7e24cd655458"}, {"place_id": "0x3962fd19c553ee35:0x764cedb2503060d6", "name": "ThinkDebug Indore", "category": "Software company", "street": "301,302", "city": "Shanti Corporate 116", "phone": "09098002268", "website": "https://thinkdebug.com/", "rating": 4.9, "review_count": "", "latitude": 22.702656299999997, "longitude": 75.87068699999999, "maps_url": "https://www.google.com/maps/place/?q=place_id:0x3962fd19c553ee35:0x764cedb2503060d6"}, {"place_id": "0x3962fd16be970387:0xc737f343f0e4f9a7", "name": "Top Software Development Company in USA | AI/ML | AI Agent | Gen AI | UXUI | Product Development", "category": "Software company", "street": "Crystal IT Park STP-1, 4th Floor Right Wing Ring Road", "city": "Madhya Pradesh 452001", "phone": "07312973109", "website": "https://47billion.com/", "rating": 4.8, "review_count": "", "latitude": 22.6858591, "longitude": 75.8723211, "maps_url": "https://www.google.com/maps/place/?q=place_id:0x3962fd16be970387:0xc737f343f0e4f9a7"}, {"place_id": "0x3962fd56ce61414d:0xd295f56d54709f92", "name": "GraspCorn Software Solution Pvt. Ltd.", "category": "Software company", "street": "203, Jawahar Nagar Rd", "city": "near DMart Square", "phone": "09770338649", "website": "https://graspcorn.com/", "rating": 4.7, "review_count": "", "latitude": 22.6690532, "longitude": 75.82387729999999, "maps_url": "https://www.google.com/maps/place/?q=place_id:0x3962fd56ce61414d:0xd295f56d54709f92"}, {"place_id": "0x39631dbc5e7d2a29:0x1c8746aae1d098c8", "name": "Logical Soft Tech Private Limited ( Software Development IT Company and Software IT training)", "category": "Software company", "street": "388, PU4", "city": "next to Krozzon Hotel", "phone": "08210251824", "website": "http://logicalsofttech.com/", "rating": 4.3, "review_count": "", "latitude": 22.747576, "longitude": 75.896326, "maps_url": "https://www.google.com/maps/place/?q=place_id:0x39631dbc5e7d2a29:0x1c8746aae1d098c8"}, {"place_id": "0x3962fd3f05cc1257:0xb06e4a1e439317c8", "name": "Ment Tech Labs | Blockchain & AI Development Company", "category": "Software company", "street": "Annapurna Rd", "city": "Saraswati Nagar", "phone": "07479866444", "website": "https://ment.tech/", "rating": 4.2, "review_count": "", "latitude": 22.6792105, "longitude": 75.8346826, "maps_url": "https://www.google.com/maps/place/?q=place_id:0x3962fd3f05cc1257:0xb06e4a1e439317c8"}, {"place_id": "0x39631da0239602ff:0xa13448656bdbfa7a", "name": "Softsnare Technologies | IT Company | Software Company in Indore", "category": "Software company", "street": "R-353", "city": "Sector R, Mahalaxmi Nagar", "phone": "06264741175", "website": "http://www.softsnare.com/", "rating": 4.6, "review_count": "", "latitude": 22.758209299999997, "longitude": 75.9096251, "maps_url": "https://www.google.com/maps/place/?q=place_id:0x39631da0239602ff:0xa13448656bdbfa7a"}, {"place_id": "0x3962fc3b6d616681:0x8e398fd9971c46b8", "name": "ControlF5 Website Design, Mobile App & Shopify Ecommerce Solutions", "category": "Software company", "street": "1184 B, CAT ROAD", "city": "Near Hawa Bungalow, Vidur Nagar", "phone": "09755524635", "website": "https://www.controlf5.in/", "rating": 4.8, "review_count": "", "latitude": 22.6805287, "longitude": 75.8206881, "maps_url": "https://www.google.com/maps/place/?q=place_id:0x3962fc3b6d616681:0x8e398fd9971c46b8"}, {"place_id": "0x3962fce358d788b1:0x356c2496ecf853f5", "name": "qualwebs", "category": "Software company", "street": "203, 9930 Spaces 4, Mangal Nagar, Near Rajeev Gandhi Square", "city": "AB Rd", "phone": "08827796669", "website": "http://www.qualwebs.com/", "rating": 4.5, "review_count": "", "latitude": 22.6862592, "longitude": 75.8598803, "maps_url": "https://www.google.com/maps/place/?q=place_id:0x3962fce358d788b1:0x356c2496ecf853f5"}, {"place_id": "0x396303dfb81c6d7d:0x952e1c33faf7cb89", "name": "InstaIT Technologies", "category": "Software company", "street": "50-Third Floor", "city": "Veer Sanwarkar Nagar", "phone": "07999587754", "website": "http://www.siteadda.com/", "rating": 4.8, "review_count": "", "latitude": 22.7323539, "longitude": 75.8514591, "maps_url": "https://www.google.com/maps/place/?q=place_id:0x396303dfb81c6d7d:0x952e1c33faf7cb89"}, {"place_id": "0x3962fdb345555539:0x17d75f395f3f18ca", "name": "Kudoss IT Solutions", "category": "Software company", "street": "560", "city": "Usha Nagar, Ext", "phone": "07984065677", "website": "https://kudossweb.com/", "rating": 4.5, "review_count": "", "latitude": 22.6971091, "longitude": 75.8373182, "maps_url": "https://www.google.com/maps/place/?q=place_id:0x3962fdb345555539:0x17d75f395f3f18ca"}, {"place_id": "0x3962fcf129b6ad6b:0x2f740b60bcda116d", "name": "Gems Essence Infotech Pvt. Ltd.", "category": "Software company", "street": "First Floor", "city": "2570", "phone": "07314969817", "website": "https://www.gemsessence.com/", "rating": 4.6, "review_count": "", "latitude": 22.6883806, "longitude": 75.82845669999999, "maps_url": "https://www.google.com/maps/place/?q=place_id:0x3962fcf129b6ad6b:0x2f740b60bcda116d"}, {"place_id": "0x396301dfdd265089:0x8d426dc410b817f2", "name": "Aucwini Technologies", "category": "Software company", "street": "Satpuda Parishar", "city": "B-02", "phone": "", "website": "https://www.aucwinitechnologies.com/", "rating": 4.8, "review_count": "", "latitude": 22.7436178, "longitude": 75.793398, "maps_url": "https://www.google.com/maps/place/?q=place_id:0x396301dfdd265089:0x8d426dc410b817f2"}, {"place_id": "0x7a201eaff9d4723:0x40b0fc55a184e033", "name": "Krishnaithub & Solutions Pvt. Ltd.", "category": "Software company", "street": "194", "city": "Greater Vaishali Nagar", "phone": "09202997587", "website": "https://www.krishnaithub.in/", "rating": 4.8, "review_count": "", "latitude": 22.682643199999998, "longitude": 75.8283581, "maps_url": "https://www.google.com/maps/place/?q=place_id:0x7a201eaff9d4723:0x40b0fc55a184e033"}, {"place_id": "0x3962fdcfaec353bf:0x13e4932429e3bbb3", "name": "Impexive Technologies", "category": "Software company", "street": "5, Aerodrum Rd", "city": "opp. BSF", "phone": "08085898585", "website": "", "rating": 5, "review_count": "", "latitude": 22.7266943, "longitude": 75.8179576, "maps_url": "https://www.google.com/maps/place/?q=place_id:0x3962fdcfaec353bf:0x13e4932429e3bbb3"}, {"place_id": "0x3962fdb30b281e93:0x9e1c01dab5cf78a", "name": "Aiminent IT Solutions", "category": "Software company", "street": "2nd floor, 6 Dravid Nagar, Footi Kothi Main Road,", "city": "above Andhra Bank", "phone": "07314005778", "website": "http://aiminent.com/", "rating": 4.3, "review_count": "", "latitude": 22.70109, "longitude": 75.8374362, "maps_url": "https://www.google.com/maps/place/?q=place_id:0x3962fdb30b281e93:0x9e1c01dab5cf78a"}, {"place_id": "0x3962fbe2776846d3:0x99a7ea634a997a68", "name": "Pushkal IT Solution (owner Divya Dubey )", "category": "Software company", "street": "Sai Vihar Colony, Rau", "city": "Indore, Madhya Pradesh 453331", "phone": "07314878045", "website": "http://www.pushkalit.com/", "rating": 4.1, "review_count": "", "latitude": 22.633637, "longitude": 75.807174, "maps_url": "https://www.google.com/maps/place/?q=place_id:0x3962fbe2776846d3:0x99a7ea634a997a68"}, {"place_id": "0x3962fd9a08cbfebf:0x3291a626ce9c55fa", "name": "RISHUS INFOTECH", "category": "Software company", "street": "office No. 104", "city": "Samiksha Landmark", "phone": "06264601696", "website": "", "rating": 4.3, "review_count": "", "latitude": 22.6785246, "longitude": 75.8514893, "maps_url": "https://www.google.com/maps/place/?q=place_id:0x3962fd9a08cbfebf:0x3291a626ce9c55fa"}, {"place_id": "0x39630290e555553f:0x3e3f56427ca41603", "name": "Software Company Indore Msorasys", "category": "Software company", "street": "6 radhika society , Scheme No 54", "city": "DDU Nagar, Sukhliya", "phone": "09630186161", "website": "", "rating": 5, "review_count": "", "latitude": 22.7615931, "longitude": 75.8692351, "maps_url": "https://www.google.com/maps/place/?q=place_id:0x39630290e555553f:0x3e3f56427ca41603"}, {"place_id": "0x3962fc41af45f37f:0xc0ce0f727adb409e", "name": "Workholics InfoCorp", "category": "Software company", "street": "278, 2nd Floor", "city": "near Gopur Square", "phone": "08989495923", "website": "", "rating": 4.3, "review_count": "", "latitude": 22.6848141, "longitude": 75.82941699999999, "maps_url": "https://www.google.com/maps/place/?q=place_id:0x3962fc41af45f37f:0xc0ce0f727adb409e"}, {"place_id": "0x3962fd151b8dcc79:0xd376b2f6593409aa", "name": "Pursuit Software", "category": "Software company", "street": "IT Park", "city": "Room No: 101, 1st Floor, MPSEDC Building", "phone": "03323575777", "website": "https://www.pursuitsoftware.biz/contact-us/", "rating": 5, "review_count": "", "latitude": 22.6906055, "longitude": 75.788032, "maps_url": "https://www.google.com/maps/place/?q=place_id:0x3962fd151b8dcc79:0xd376b2f6593409aa"}, {"place_id": "0x3962fd164000000b:0x2e61ee9fc96847d0", "name": "Serosoft", "category": "Software company", "street": "5th Floor, Milinda\u2019s Manor, 2 RNT Marg", "city": "Central", "phone": "07314010724", "website": "https://www.serosoft.com/", "rating": 4.3, "review_count": "", "latitude": 22.718497499999998, "longitude": 75.8724651, "maps_url": "https://www.google.com/maps/place/?q=place_id:0x3962fd164000000b:0x2e61ee9fc96847d0"}, {"place_id": "0x3962fda884647b9d:0xbab5f7ae3cc412d2", "name": "Hokrix Technologies | Blockchain & AI Development Company", "category": "Software company", "street": "Crystal It Park", "city": "Rajiv Gandhi Circle", "phone": "09993438344", "website": "https://hokrix.com/", "rating": 5, "review_count": "", "latitude": 22.685824, "longitude": 75.87226629999999, "maps_url": "https://www.google.com/maps/place/?q=place_id:0x3962fda884647b9d:0xbab5f7ae3cc412d2"}, {"place_id": "0x3962fdb4c9f1bd5b:0x4b4dcdd123d7c2e3", "name": "P&P Infotech Applying Solutions", "category": "Software company", "street": "137, Gopur Square", "city": "Ahilya Nagar", "phone": "07049037000", "website": "http://www.pnpuniverse.com/", "rating": 4.1, "review_count": "", "latitude": 22.6833803, "longitude": 75.83069379999999, "maps_url": "https://www.google.com/maps/place/?q=place_id:0x3962fdb4c9f1bd5b:0x4b4dcdd123d7c2e3"}, {"place_id": "0x3962fd063cd6ab91:0x8add04ae8d4b7185", "name": "NREWIND Technologies - Best Website Development Company in Indore", "category": "Website designer", "street": "1712-B", "city": "behind Ranjeet Hanuman Mandir", "phone": "09009000549", "website": "https://nrewind.com/", "rating": 4.9, "review_count": "", "latitude": 22.699798899999998, "longitude": 75.8358946, "maps_url": "https://www.google.com/maps/place/?q=place_id:0x3962fd063cd6ab91:0x8add04ae8d4b7185"}, {"place_id": "0x3962fce37de1d219:0xf07af931ebceaafd", "name": "Jinpushp Infotech Indore || IT Company Indore || Website", "category": "Software company", "street": "Plot No 408,Saklecha Building", "city": "Amitesh Nagar, Krishi Mandi", "phone": "07566043133", "website": "https://jinpushpinfotech.com/", "rating": 4.9, "review_count": "", "latitude": 22.680349099999997, "longitude": 75.8519244, "maps_url": "https://www.google.com/maps/place/?q=place_id:0x3962fce37de1d219:0xf07af931ebceaafd"}, {"place_id": "0x3962fce2079461c5:0xc4b4322623b79034", "name": "GlobalStack IT Solutions", "category": "Software company", "street": "Vikram Tower", "city": "408,", "phone": "", "website": "", "rating": 4.9, "review_count": "", "latitude": 22.7011969, "longitude": 75.8702004, "maps_url": "https://www.google.com/maps/place/?q=place_id:0x3962fce2079461c5:0xc4b4322623b79034"}, {"place_id": "0x3963021c0be40a73:0x551def50b4297bcf", "name": "Infosys Indore", "category": "Software company", "street": "Near Super Corridor, Scheme No. 151 and 169B", "city": "Super Corridor Rd", "phone": "07314747200", "website": "https://www.infosys.com/", "rating": 4.4, "review_count": "", "latitude": 22.761215, "longitude": 75.8130511, "maps_url": "https://www.google.com/maps/place/?q=place_id:0x3963021c0be40a73:0x551def50b4297bcf"}, {"place_id": "0x3962fce00db324a7:0xe0bfa4e3457de59c", "name": "Yuvasoft Solutions Private Limited", "category": "Software company", "street": "Pukhraj Corporate", "city": "715&801", "phone": "07314089013", "website": "http://www.yuvasoftech.com/", "rating": 4.1, "review_count": "", "latitude": 22.7007954, "longitude": 75.87572469999999, "maps_url": "https://www.google.com/maps/place/?q=place_id:0x3962fce00db324a7:0xe0bfa4e3457de59c"}, {"place_id": "0x396303818a953817:0xf67c56bdd73dbf71", "name": "InfiminTus Technologies - Website Design, Application and Software Development IT Company", "category": "Website designer", "street": "2nd Floor", "city": "Chetak Chamber", "phone": "09754316154", "website": "https://infimintustech.com/", "rating": 4.4, "review_count": "", "latitude": 22.7128428, "longitude": 75.8758618, "maps_url": "https://www.google.com/maps/place/?q=place_id:0x396303818a953817:0xf67c56bdd73dbf71"}, {"place_id": "0x3962fd9b07e5774d:0x2d57d4ac2d7d0645", "name": "Developer Bazaar Technologies LLP", "category": "Software company", "street": "401, Infront of", "city": "Sukhmani Apartment, I - Bus Stop", "phone": "07415887200", "website": "https://www.developerbazaar.com/", "rating": 4.8, "review_count": "", "latitude": 22.689997599999998, "longitude": 75.8640736, "maps_url": "https://www.google.com/maps/place/?q=place_id:0x3962fd9b07e5774d:0x2d57d4ac2d7d0645"}, {"place_id": "0x3962fd2b816f11f5:0x7c4090c19212f021", "name": "TECAI Software & Automation Company in Indore", "category": "Software company", "street": "3rd Floor", "city": "Shubham Corporate", "phone": "07024031779", "website": "https://tecai.in/", "rating": 5, "review_count": "", "latitude": 22.699921399999997, "longitude": 75.8674451, "maps_url": "https://www.google.com/maps/place/?q=place_id:0x3962fd2b816f11f5:0x7c4090c19212f021"}, {"place_id": "0x3962fd558df1e307:0xc681e51830ad104c", "name": "Advantal Technologies Ltd | Product Engineering Firm | Global OEM Solutions Provider", "category": "Software company", "street": "17-A", "city": "Electronic Complex, Pardesipura", "phone": "07314037720", "website": "https://advantaltechnologies.com/", "rating": 4, "review_count": "", "latitude": 22.75162, "longitude": 75.86542949999999, "maps_url": "https://www.google.com/maps/place/?q=place_id:0x3962fd558df1e307:0xc681e51830ad104c"}, {"place_id": "0x3962fda8e326af83:0xc72287baed43471a", "name": "Beta IT Solution | Best Mailing Solution In Indore", "category": "Computer support and services", "street": "Plot No, 2, Second Floor", "city": "Annapurna Rd", "phone": "07241126081", "website": "https://www.betaitsolution.com/", "rating": 2.9, "review_count": "", "latitude": 22.7003924, "longitude": 75.8412941, "maps_url": "https://www.google.com/maps/place/?q=place_id:0x3962fda8e326af83:0xc72287baed43471a"}, {"place_id": "0x3962fd457f5260fd:0xcd2c51a579c7db5", "name": "Codiant Software Technologies", "category": "Software company", "street": "101", "city": "Bansi Trade Centre", "phone": "07314032967", "website": "https://codiant.com/", "rating": 4.5, "review_count": "", "latitude": 22.7236461, "longitude": 75.8816631, "maps_url": "https://www.google.com/maps/place/?q=place_id:0x3962fd457f5260fd:0xcd2c51a579c7db5"}, {"place_id": "0x3962fde93018d013:0x90b7de5a12427e20", "name": "Think it Loud - Digital Marketing Company", "category": "Website designer", "street": "9, Airport Rd", "city": "Venkatesh Nagar", "phone": "", "website": "", "rating": 4, "review_count": "", "latitude": 22.7255985, "longitude": 75.8222274, "maps_url": "https://www.google.com/maps/place/?q=place_id:0x3962fde93018d013:0x90b7de5a12427e20"}, {"place_id": "0x3962fde5789259bb:0x73fdffffc268cb33", "name": "A3 Foods", "category": "Packaging company", "street": "268", "city": "near Gondwale Dham", "phone": "09039099079", "website": "https://www.a3foodsindia.com/", "rating": 4.9, "review_count": "", "latitude": 22.692553, "longitude": 75.8144791, "maps_url": "https://www.google.com/maps/place/?q=place_id:0x3962fde5789259bb:0x73fdffffc268cb33"}, {"place_id": "0x3962fcf12e5fd331:0x3d10f773a83db31e", "name": "InfoGrains", "category": "Software company", "street": "407, Atulya IT Park", "city": "Bhawarkua Main Rd", "phone": "", "website": "https://infograins.com/", "rating": 4.4, "review_count": "", "latitude": 22.6866949, "longitude": 75.87149699999999, "maps_url": "https://www.google.com/maps/place/?q=place_id:0x3962fcf12e5fd331:0x3d10f773a83db31e"}, {"place_id": "0x3962e2d6a52db2d7:0x4c94bdd22b5d6da1", "name": "Ignatiuz", "category": "Software company", "street": "Atulya IT Park IT Park Square", "city": "501", "phone": "09993018836", "website": "https://ignatiuz.com/", "rating": 4.2, "review_count": "", "latitude": 22.686808199999998, "longitude": 75.871459, "maps_url": "https://www.google.com/maps/place/?q=place_id:0x3962e2d6a52db2d7:0x4c94bdd22b5d6da1"}, {"place_id": "0x3962fcde3d3ffaff:0x253b0cb7c6f4c785", "name": "Codezilla Technology & Consultancy Pvt. Ltd.", "category": "Software company", "street": "Plot no 92, Above of iWish showroom", "city": "Sapna Sangeeta Rd", "phone": "07314945411", "website": "https://codezilla.io/", "rating": 4.6, "review_count": "", "latitude": 22.7005084, "longitude": 75.86893839999999, "maps_url": "https://www.google.com/maps/place/?q=place_id:0x3962fcde3d3ffaff:0x253b0cb7c6f4c785"}, {"place_id": "0x3962fd380ebca3b3:0x9ccc6ea708a0fa2c", "name": "GraffersID - IT Staff Augmentation Company", "category": "Software company", "street": "816 Shekhar Central Palasia", "city": "Square", "phone": "07314915234", "website": "https://graffersid.com/?utm_source=Google+Organic&utm_medium=gmb&utm_campaign=home", "rating": 4.3, "review_count": "", "latitude": 22.7227168, "longitude": 75.8871544, "maps_url": "https://www.google.com/maps/place/?q=place_id:0x3962fd380ebca3b3:0x9ccc6ea708a0fa2c"}, {"place_id": "0x3963029b81c0ed53:0x5879b13e0ef427bd", "name": "EMPOWER INTEGRATED SOLUTIONS (P) LTD.", "category": "Software company", "street": "IT Park, New IT Park Building", "city": "Office No. 110, Ground Floor Right Wing", "phone": "09826027230", "website": "http://www.empower-solutions.com/", "rating": 4.3, "review_count": "", "latitude": 22.7526512, "longitude": 75.8653411, "maps_url": "https://www.google.com/maps/place/?q=place_id:0x3963029b81c0ed53:0x5879b13e0ef427bd"}, {"place_id": "0x8949ac2162e4c657:0xc480b5d13df550f9", "name": "India Soft Labs", "category": "Software company", "street": "3rd floor", "city": "5, Mahu Naka Rd", "phone": "", "website": "http://indiasoftlabs.com/", "rating": 5, "review_count": "", "latitude": 22.709615499999998, "longitude": 75.8464236, "maps_url": "https://www.google.com/maps/place/?q=place_id:0x8949ac2162e4c657:0xc480b5d13df550f9"}, {"place_id": "0x3962e2cbd98f0bf7:0xbafbbde339deec8a", "name": "i-SOFTZONE - Software Development Company", "category": "Software company", "street": "Shagun Arcade", "city": "Vijay Nagar Square", "phone": "07415664456", "website": "http://www.isoftzone.com/", "rating": 4, "review_count": "", "latitude": 22.749023299999998, "longitude": 75.8953915, "maps_url": "https://www.google.com/maps/place/?q=place_id:0x3962e2cbd98f0bf7:0xbafbbde339deec8a"}, {"place_id": "0x3962fdb6dc82ad1f:0xdbdad6482834b226", "name": "DigiGyor Tech Pvt Ltd.", "category": "Software company", "street": "5, Annapurna Rd", "city": "above Indian Bank", "phone": "07024169619", "website": "http://digigyor.com/", "rating": 4.3, "review_count": "", "latitude": 22.6776093, "longitude": 75.8338873, "maps_url": "https://www.google.com/maps/place/?q=place_id:0x3962fdb6dc82ad1f:0xdbdad6482834b226"}, {"place_id": "0x396303ca0b26ad1b:0x42ef155b446fd473", "name": "Yash Technologies IT Park, Super Corridor, Indore", "category": "Corporate office", "street": "Indore, Madhya Pradesh 453112", "city": "", "phone": "07316754444", "website": "https://www.yash.com/", "rating": 4.4, "review_count": "", "latitude": 22.7563125, "longitude": 75.82543749999999, "maps_url": "https://www.google.com/maps/place/?q=place_id:0x396303ca0b26ad1b:0x42ef155b446fd473"}, {"place_id": "0x3962fd1640000001:0xc84268147247332c", "name": "Cyber Infrastructure (P) Ltd", "category": "Software company", "street": "142 A", "city": "Electronic Complex, Pardesipura", "phone": "07313564000", "website": "https://www.cisin.com/", "rating": 4, "review_count": "", "latitude": 22.7533372, "longitude": 75.86522389999999, "maps_url": "https://www.google.com/maps/place/?q=place_id:0x3962fd1640000001:0xc84268147247332c"}, {"place_id": "0x3962fce34ee1f71d:0x401ca3370585d85f", "name": "H Concepts Educorp Pvt ltd", "category": "Software company", "street": "Over Bridge", "city": "4, Annapurna Rd", "phone": "09977003311", "website": "", "rating": 5, "review_count": "", "latitude": 22.6796214, "longitude": 75.8348243, "maps_url": "https://www.google.com/maps/place/?q=place_id:0x3962fce34ee1f71d:0x401ca3370585d85f"}, {"place_id": "0x3962fcfac1eaaaab:0x4e225b6d7fe920b7", "name": "Reinforce Software Solutions Pvt. Ltd.", "category": "Software company", "street": "Sai Ram Plaza", "city": "AB Rd", "phone": "07314263617", "website": "http://reinforcewebsol.in/", "rating": 4.5, "review_count": "", "latitude": 22.685712, "longitude": 75.85970499999999, "maps_url": "https://www.google.com/maps/place/?q=place_id:0x3962fcfac1eaaaab:0x4e225b6d7fe920b7"}, {"place_id": "0x3962fce3233cac31:0x92f826f70c7c5a66", "name": "SB Infotech", "category": "Software company", "street": "604, Narendra Tiwari Marg", "city": "near SUDAMA DWAR -A", "phone": "07314932442", "website": "http://www.sbinfotech.org/", "rating": 3.9, "review_count": "", "latitude": 22.6955173, "longitude": 75.8354308, "maps_url": "https://www.google.com/maps/place/?q=place_id:0x3962fce3233cac31:0x92f826f70c7c5a66"}, {"place_id": "0x3962fd1775834153:0x228cd29ca22a8bef", "name": "NCS^", "category": "Software company", "street": "NCS^ House, 80", "city": "Jaora Compound", "phone": "07313505885", "website": "http://www.nenosystems.com/", "rating": 4.7, "review_count": "", "latitude": 22.711851199999998, "longitude": 75.877246, "maps_url": "https://www.google.com/maps/place/?q=place_id:0x3962fd1775834153:0x228cd29ca22a8bef"}, {"place_id": "0x3962fd76fcd4fde7:0x94ae8da5dd58cbbf", "name": "Gugli", "category": "Software company", "street": "3rd Floor", "city": "Atulya IT Park", "phone": "09479788257", "website": "https://www.gugli.in/", "rating": 5, "review_count": "", "latitude": 22.6866925, "longitude": 75.8713288, "maps_url": "https://www.google.com/maps/place/?q=place_id:0x3962fd76fcd4fde7:0x94ae8da5dd58cbbf"}, {"place_id": "0x3962fcce471be92d:0xd56d849f777985e6", "name": "Systango", "category": "Software company", "street": "Crystal IT Park, Building 1, 3rd Floor", "city": "Ring Rd", "phone": "07312971030", "website": "https://www.systango.com/", "rating": 4.4, "review_count": "", "latitude": 22.685488199999998, "longitude": 75.872337, "maps_url": "https://www.google.com/maps/place/?q=place_id:0x3962fcce471be92d:0xd56d849f777985e6"}, {"place_id": "0x3962fd16c6da7fff:0xa16ada7dbc36f449", "name": "Hvantage Tech Solutions Pvt. Ltd.", "category": "Software company", "street": "509 block B corporate house 5th floor, RNT Marg", "city": "Indore, Madhya Pradesh 452001", "phone": "07314074459", "website": "https://hvantagetechnologies.com/", "rating": 3.2, "review_count": "", "latitude": 22.7172125, "longitude": 75.87177729999999, "maps_url": "https://www.google.com/maps/place/?q=place_id:0x3962fd16c6da7fff:0xa16ada7dbc36f449"}, {"place_id": "0x3962fd1aa123c2e7:0xf945341b74ea4ae5", "name": "Codeverse IT Private Limited", "category": "Software company", "street": "Samiksh Landmark", "city": "309, AB Rd", "phone": "08962822602", "website": "https://www.codeverseit.in/", "rating": 4, "review_count": "", "latitude": 22.6785338, "longitude": 75.8514817, "maps_url": "https://www.google.com/maps/place/?q=place_id:0x3962fd1aa123c2e7:0xf945341b74ea4ae5"}, {"place_id": "0x3962fd7f4f8baf87:0x598f75f3363bc558", "name": "Aimfortech - Software | SaaS | Web | E-Commerce Gaming App Development Company in India", "category": "Software company", "street": "103, Greater Kailash Road", "city": "above Nafees Restaurant", "phone": "07314066773", "website": "https://www.aimfortech.com/", "rating": 5, "review_count": "", "latitude": 22.7257765, "longitude": 75.8878778, "maps_url": "https://www.google.com/maps/place/?q=place_id:0x3962fd7f4f8baf87:0x598f75f3363bc558"}, {"place_id": "0x3962fd16f9e66369:0x2f7da749193be981", "name": "Ideavate Solutions", "category": "Software company", "street": "306, Silver Sanchora Castle", "city": "RNT Marg", "phone": "07314025351", "website": "http://www.ideavate.com/", "rating": 4.4, "review_count": "", "latitude": 22.716825, "longitude": 75.873437, "maps_url": "https://www.google.com/maps/place/?q=place_id:0x3962fd16f9e66369:0x2f7da749193be981"}, {"place_id": "0x3963029cb1d6af1f:0xcf1bea3e7e7a08bd", "name": "Engineer Master Solutions Pvt. Ltd. | Software Company | Website and Mobile app Development", "category": "Software company", "street": "276", "city": "behind Malhar Mega Mall", "phone": "07314980455", "website": "http://www.engineermaster.in/", "rating": 4.4, "review_count": "", "latitude": 22.745530499999997, "longitude": 75.89538809999999, "maps_url": "https://www.google.com/maps/place/?q=place_id:0x3963029cb1d6af1f:0xcf1bea3e7e7a08bd"}, {"place_id": "0x3962fd1ddad985b3:0x45be486a443156ea", "name": "WelkinGetter Global IT Solutions", "category": "Software company", "street": "Building No. 5", "city": "opposite Tilokchand jain H.S. SchoolMhownaka", "phone": "06232209202", "website": "https://welkingetter.com/", "rating": 5, "review_count": "", "latitude": 22.709618, "longitude": 75.8464834, "maps_url": "https://www.google.com/maps/place/?q=place_id:0x3962fd1ddad985b3:0x45be486a443156ea"}, {"place_id": "0x3962fce207f10061:0xe8234aa87cb88aad", "name": "Winlancer Technologies", "category": "Software company", "street": "619", "city": "Shekhar central", "phone": "09926372815", "website": "http://www.winlancers.com/", "rating": 4.6, "review_count": "", "latitude": 22.722727, "longitude": 75.88707099999999, "maps_url": "https://www.google.com/maps/place/?q=place_id:0x3962fce207f10061:0xe8234aa87cb88aad"}, {"place_id": "0x3962fceefff1c439:0xb0fa7789cf76d47f", "name": "SSV Technologies", "category": "Software company", "street": "26, AB Rd, Scheme 54 PU4", "city": "Vijay Nagar", "phone": "09039063936", "website": "https://ssvtechnologies.in/", "rating": 4, "review_count": "", "latitude": 22.7454435, "longitude": 75.8965633, "maps_url": "https://www.google.com/maps/place/?q=place_id:0x3962fceefff1c439:0xb0fa7789cf76d47f"}, {"place_id": "0x3962fd3bdc0199e3:0x52fd0fd05de49ecd", "name": "Throughout Technologies Pvt. Ltd.", "category": "Software company", "street": "103", "city": "Sanghi Manor", "phone": "09630303150", "website": "https://throughouttechnologies.com/", "rating": 4.3, "review_count": "", "latitude": 22.729320299999998, "longitude": 75.8743205, "maps_url": "https://www.google.com/maps/place/?q=place_id:0x3962fd3bdc0199e3:0x52fd0fd05de49ecd"}, {"place_id": "0x3963029c8772bdbd:0xf5117d10890d47d1", "name": "Oswal Computers & Consultants Pvt. Ltd.", "category": "Software company", "street": "60", "city": "Electronic Complex, Pardesipura", "phone": "07312551745", "website": "https://www.oswaldata.com/", "rating": 3.8, "review_count": "", "latitude": 22.753197999999998, "longitude": 75.867932, "maps_url": "https://www.google.com/maps/place/?q=place_id:0x3963029c8772bdbd:0xf5117d10890d47d1"}, {"place_id": "0x3962fe11db5924ff:0x924b1fdad4f30506", "name": "Panjon Limited", "category": "Confectionery store", "street": "01 Panjon Farm House, near Hinkargiri Jain Tirth, Airport Bijasan Road", "city": "Madhya Pradesh 452005", "phone": "09300008787", "website": "http://www.panjon.in/", "rating": 4.1, "review_count": "", "latitude": 22.7254354, "longitude": 75.79466149999999, "maps_url": "https://www.google.com/maps/place/?q=place_id:0x3962fe11db5924ff:0x924b1fdad4f30506"}, {"place_id": "0x3962fd181e9da7b9:0xaf349f63cacd9d35", "name": "Techsysd IT Solution - Website Design & Mobile App Development Company", "category": "Software company", "street": "Sterling Tower", "city": "206, Mahatma Gandhi Rd", "phone": "08109032576", "website": "https://www.techsysd.com/", "rating": 4.9, "review_count": "", "latitude": 22.7229954, "longitude": 75.8840811, "maps_url": "https://www.google.com/maps/place/?q=place_id:0x3962fd181e9da7b9:0xaf349f63cacd9d35"}, {"place_id": "0x3962fdd051b53b7f:0xd4e64081e586ffd0", "name": "Design Corporation Indore", "category": "Industrial design company", "street": "Sector E, Sudama Nagar", "city": "Indore, Madhya Pradesh 452009", "phone": "08602551125", "website": "http://www.designcorporation.co.in/", "rating": 5, "review_count": "", "latitude": 22.689915199999998, "longitude": 75.8284398, "maps_url": "https://www.google.com/maps/place/?q=place_id:0x3962fdd051b53b7f:0xd4e64081e586ffd0"}, {"place_id": "0x3962fb1f69e49235:0x5bfd5cacd6ce612a", "name": "Digital Fly-High Solution", "category": "Computer support and services", "street": "2nd Floor", "city": "4", "phone": "07389654447", "website": "https://digitalflyhigh.in/", "rating": 4.4, "review_count": "", "latitude": 22.677742799999997, "longitude": 75.8339373, "maps_url": "https://www.google.com/maps/place/?q=place_id:0x3962fb1f69e49235:0x5bfd5cacd6ce612a"}, {"place_id": "0x3962fd3764aa9329:0x1b4b33c2f1557b93", "name": "Indore Technology Solutions", "category": "Software company", "street": "PVFQ+39X", "city": "Old Palasia Rd", "phone": "09407087049", "website": "http://indoretechnology.com/", "rating": 5, "review_count": "", "latitude": 22.7227252, "longitude": 75.8884757, "maps_url": "https://www.google.com/maps/place/?q=place_id:0x3962fd3764aa9329:0x1b4b33c2f1557b93"}, {"place_id": "0x3962ff5f1bddd549:0xdd2e5f0a898af62b", "name": "E Waste Samadhan", "category": "Waste management service", "street": "Plot No. 15", "city": "IT Park", "phone": "18003092971", "website": "https://ewastesamadhan.com/", "rating": 4.6, "review_count": "", "latitude": 22.695303799999998, "longitude": 75.7902934, "maps_url": "https://www.google.com/maps/place/?q=place_id:0x3962ff5f1bddd549:0xdd2e5f0a898af62b"}, {"place_id": "0x3962fce49f79b7b3:0x853dda0c769e5137", "name": "Axiom Cloud Solutions", "category": "Software company", "street": "94, Indrapuri Colony, Near Bhawarkua Square", "city": "Indore, Madhya Pradesh 452001", "phone": "07314278572", "website": "http://axiomcloudtech.com/", "rating": 4.8, "review_count": "", "latitude": 22.688788199999998, "longitude": 75.8665621, "maps_url": "https://www.google.com/maps/place/?q=place_id:0x3962fce49f79b7b3:0x853dda0c769e5137"}, {"place_id": "0x3962e32b2894590f:0x4e73ebc1261cc50", "name": "TheRapidHire Private Limited - Software ,Website & Mobile App Development Company in India, USA", "category": "Software company", "street": "51", "city": "Electronic Complex, Pardesipura", "phone": "07313581354", "website": "https://www.therapidhire.com/", "rating": 3.5, "review_count": "", "latitude": 22.752822, "longitude": 75.867381, "maps_url": "https://www.google.com/maps/place/?q=place_id:0x3962e32b2894590f:0x4e73ebc1261cc50"}, {"place_id": "0x67c417f355b74351:0xbc1a79e3cf3ac459", "name": "Opticode Solutions", "category": "Software company", "street": "", "city": "", "phone": "", "website": "https://opticode.co.in/", "rating": 4.9, "review_count": "", "latitude": 9.374110199999999, "longitude": -74.9524576, "maps_url": "https://www.google.com/maps/place/?q=place_id:0x67c417f355b74351:0xbc1a79e3cf3ac459"}, {"place_id": "0x3962fd146cfcd09f:0x67a4e90ed3f3e3f9", "name": "Walking Dreamz Technologies | Web & Mobile App Development Indore", "category": "Software company", "street": "2, Annapurna Rd", "city": "near Luv kush bakery", "phone": "07000961866", "website": "http://walkingdreamz.com/", "rating": 4.6, "review_count": "", "latitude": 22.6789485, "longitude": 75.8346431, "maps_url": "https://www.google.com/maps/place/?q=place_id:0x3962fd146cfcd09f:0x67a4e90ed3f3e3f9"}, {"place_id": "0x3962fdb8a2722093:0x14d572137bda84a7", "name": "NXG Infosystem", "category": "Software company", "street": "9 New Bijalpur", "city": "AB Rd", "phone": "07314020261", "website": "https://nxginfosystem.com/", "rating": 3.8, "review_count": "", "latitude": 22.666330799999997, "longitude": 75.8291557, "maps_url": "https://www.google.com/maps/place/?q=place_id:0x3962fdb8a2722093:0x14d572137bda84a7"}, {"place_id": "0x3962fd5a6d8958bd:0x16c643e91c85a839", "name": "PixelMarketo", "category": "Software company", "street": "Office No.1, 1st Floor", "city": "New IT Park building", "phone": "08109575543", "website": "https://pixelmarketo.com/", "rating": 4.8, "review_count": "", "latitude": 22.7533899, "longitude": 75.8654219, "maps_url": "https://www.google.com/maps/place/?q=place_id:0x3962fd5a6d8958bd:0x16c643e91c85a839"}, {"place_id": "0x3962fd1790b2e6cb:0x47270a7fe30947bf", "name": "TECHFROLIC", "category": "Software company", "street": "Office No. 509, 165", "city": "Fortune Business Center", "phone": "06479922645", "website": "http://techfrolic.com/", "rating": 5, "review_count": "", "latitude": 22.7143998, "longitude": 75.8745102, "maps_url": "https://www.google.com/maps/place/?q=place_id:0x3962fd1790b2e6cb:0x47270a7fe30947bf"}, {"place_id": "0x3962fd2481cc14eb:0xbdd5711cb15e58d3", "name": "Digital Braino - Best Digital Marketing Agency in Indore", "category": "Internet marketing service", "street": "71", "city": "Shri Krishna Nagar, Kanyakubj Nagar", "phone": "09399739909", "website": "https://digitalbraino.com/", "rating": 4.9, "review_count": "", "latitude": 22.728576, "longitude": 75.81757259999999, "maps_url": "https://www.google.com/maps/place/?q=place_id:0x3962fd2481cc14eb:0xbdd5711cb15e58d3"}, {"place_id": "0x3962fcfaba24881f:0xafefb3c52fb810af", "name": "Random Soft Solution", "category": "Software company", "street": "M-2 Sukhmani Plaza, Scheme No.59, Amitesh Nagar, AB Road Chithram Square", "city": "Plot No 419, Agra-Bombay Road", "phone": "09993111131", "website": "http://www.randomsoftsolution.com/", "rating": 3.9, "review_count": "", "latitude": 22.681072999999998, "longitude": 75.853402, "maps_url": "https://www.google.com/maps/place/?q=place_id:0x3962fcfaba24881f:0xafefb3c52fb810af"}, {"place_id": "0x396303297c7cf2ef:0x965300c0d82fac7c", "name": "IW Technocrats | IT Company", "category": "Software company", "street": "Corporate Park", "city": "816, Cliffton Park Rd", "phone": "", "website": "https://www.iwtechnocrats.in/", "rating": "", "review_count": "", "latitude": 22.763570599999998, "longitude": 75.8794769, "maps_url": "https://www.google.com/maps/place/?q=place_id:0x396303297c7cf2ef:0x965300c0d82fac7c"}, {"place_id": "0xd026f491d5e5c6f:0x534dc638f12e804b", "name": "Default Props", "category": "Software company", "street": "87-D", "city": "Vasundhara, Scheme No 51", "phone": "09406655515", "website": "https://www.defaultprops.com/", "rating": 5, "review_count": "", "latitude": 22.736049299999998, "longitude": 75.834668, "maps_url": "https://www.google.com/maps/place/?q=place_id:0xd026f491d5e5c6f:0x534dc638f12e804b"}, {"place_id": "0x3962fd26aaaaaaa9:0x22098c716ab2ba6", "name": "Emaar Indore greens", "category": "Real Estate Builders & Construction Company", "street": "Super Corridor -Emaar Indore greens", "city": "opp. Hinkargiri Temple", "phone": "", "website": "", "rating": 4.4, "review_count": "", "latitude": 22.7259887, "longitude": 75.7837509, "maps_url": "https://www.google.com/maps/place/?q=place_id:0x3962fd26aaaaaaa9:0x22098c716ab2ba6"}, {"place_id": "0x3962fda9638f76d3:0xf46aa7d34cc4b2a6", "name": "Blockchain & Mobile App Development Company - Virtual Height IT Services Pvt. Ltd.", "category": "Software company", "street": "Shekhar central", "city": "719, AB Rd", "phone": "09510987700", "website": "https://www.virtualheight.com/?utm_source=GBP&utm_medium=Organic", "rating": 4.5, "review_count": "", "latitude": 22.722727, "longitude": 75.88707099999999, "maps_url": "https://www.google.com/maps/place/?q=place_id:0x3962fda9638f76d3:0xf46aa7d34cc4b2a6"}, {"place_id": "0x3962fd792d506c75:0xd30ad489e63f246f", "name": "SERP Monsters - Digital Marketing & SEO Company in Indore", "category": "Website designer", "street": "Sanwariya Market", "city": "7, Parasram Marg", "phone": "09926432010", "website": "https://serpmonsters.com/?utm_source=organic&utm_medium=google&utm_campaign=gmb&utm_id=seo", "rating": 5, "review_count": "", "latitude": 22.7390995, "longitude": 75.79612329999999, "maps_url": "https://www.google.com/maps/place/?q=place_id:0x3962fd792d506c75:0xd30ad489e63f246f"}, {"place_id": "0x3962fd5684f3ffff:0x70794951e809d186", "name": "Eminence Infotech", "category": "Software company", "street": "3rd Floor", "city": "AICTSL Campus", "phone": "07566514634", "website": "http://eminenceinfotech.com/", "rating": 4.2, "review_count": "", "latitude": 22.7143431, "longitude": 75.8842609, "maps_url": "https://www.google.com/maps/place/?q=place_id:0x3962fd5684f3ffff:0x70794951e809d186"}, {"place_id": "0x3962fd83eafebe0b:0xb7f51ba9c78299d8", "name": "Satya Kabir E-solutions Private Limited - Indore", "category": "Software company", "street": "3rd Floor", "city": "Mishika Tower", "phone": "08959977624", "website": "https://satyakabir.com/", "rating": 5, "review_count": "", "latitude": 22.7014148, "longitude": 75.8703522, "maps_url": "https://www.google.com/maps/place/?q=place_id:0x3962fd83eafebe0b:0xb7f51ba9c78299d8"}, {"place_id": "0x3962ffda8deda0e5:0x3c511e85c8ffe7ea", "name": "Pinnovatech LLP | FLY ASH BRICKS MAKING MACHINE IN INDORE | Second Hand Fly Ash Bricks Making Machine In Indore", "category": "Manufacturer", "street": "Indore - Dhar Rd", "city": "near Mayur Nursry", "phone": "", "website": "https://www.pinnovatech.in/", "rating": 5, "review_count": "", "latitude": 22.7051642, "longitude": 75.798239, "maps_url": "https://www.google.com/maps/place/?q=place_id:0x3962ffda8deda0e5:0x3c511e85c8ffe7ea"}, {"place_id": "0x3962fd16b8dfba73:0xa54b27af45f7d14d", "name": "Techvalens Software Systems", "category": "Software company", "street": "OM Gurudev Plaza", "city": "410", "phone": "09644506070", "website": "https://www.techvalens.com/", "rating": 3.7, "review_count": "", "latitude": 22.747921899999998, "longitude": 75.8899612, "maps_url": "https://www.google.com/maps/place/?q=place_id:0x3962fd16b8dfba73:0xa54b27af45f7d14d"}, {"place_id": "0x3962fd152488324d:0x5354ade856cfd44c", "name": "Siteadda Labs Technologies LLP", "category": "Website designer", "street": "163, Babu Lalchand Chajlani Rd", "city": "Model Town Colony, Revenue Colony, Sachidanand Nagar", "phone": "07310000012", "website": "https://siteadda.com/", "rating": 4.1, "review_count": "", "latitude": 22.7012434, "longitude": 75.84476219999999, "maps_url": "https://www.google.com/maps/place/?q=place_id:0x3962fd152488324d:0x5354ade856cfd44c"}, {"place_id": "0x3962fd525a317af3:0x4b1d8159d7647440", "name": "DigiWay - Best Digital Marketing Company", "category": "Internet marketing service", "street": "440", "city": "Ammar Nagar", "phone": "08819825085", "website": "", "rating": 5, "review_count": "", "latitude": 22.7066618, "longitude": 75.8166219, "maps_url": "https://www.google.com/maps/place/?q=place_id:0x3962fd525a317af3:0x4b1d8159d7647440"}, {"place_id": "0x3962fd16b8dfba73:0xa54b27af45f7d14d", "name": "Techvalens Software Systems", "category": "Software company", "street": "OM Gurudev Plaza", "city": "410", "phone": "09644506070", "website": "https://www.techvalens.com/", "rating": 3.7, "review_count": "", "latitude": 22.747921899999998, "longitude": 75.8899612, "maps_url": "https://www.google.com/maps/place/?q=place_id:0x3962fd16b8dfba73:0xa54b27af45f7d14d"}, {"place_id": "0x3962fd152488324d:0x5354ade856cfd44c", "name": "Siteadda Labs Technologies LLP", "category": "Website designer", "street": "163, Babu Lalchand Chajlani Rd", "city": "Model Town Colony, Revenue Colony, Sachidanand Nagar", "phone": "07310000012", "website": "https://siteadda.com/", "rating": 4.1, "review_count": "", "latitude": 22.7012434, "longitude": 75.84476219999999, "maps_url": "https://www.google.com/maps/place/?q=place_id:0x3962fd152488324d:0x5354ade856cfd44c"}, {"place_id": "0x3962fd525a317af3:0x4b1d8159d7647440", "name": "DigiWay - Best Digital Marketing Company", "category": "Internet marketing service", "street": "440", "city": "Ammar Nagar", "phone": "08819825085", "website": "", "rating": 5, "review_count": "", "latitude": 22.7066618, "longitude": 75.8166219, "maps_url": "https://www.google.com/maps/place/?q=place_id:0x3962fd525a317af3:0x4b1d8159d7647440"}, {"place_id": "0x812b55556fbdddf3:0x37a051c28a19caf4", "name": "TanmayiSoft - Website Design Company in Indore", "category": "Software company", "street": "Trade House", "city": "415", "phone": "", "website": "https://tanmayisoft.com/", "rating": 5, "review_count": "", "latitude": 22.7159305, "longitude": 75.8757761, "maps_url": "https://www.google.com/maps/place/?q=place_id:0x812b55556fbdddf3:0x37a051c28a19caf4"}, {"place_id": "0x3962fe0e8bddee1f:0x424c03c93dc50e50", "name": "Sanjay Lunawat Warehouse", "category": "Storage facility", "street": "PQGX+2CJ", "city": "Bada Bangarda", "phone": "", "website": "http://sanjaylunawatgroup.com/", "rating": 4, "review_count": "", "latitude": 22.7250782, "longitude": 75.7985157, "maps_url": "https://www.google.com/maps/place/?q=place_id:0x3962fe0e8bddee1f:0x424c03c93dc50e50"}, {"place_id": "0x3962fd6d5c629411:0xf8fcb56dc42f035a", "name": "Vaishnavi Construction (Builders & Engineers)", "category": "Real Estate Builders & Construction Company", "street": "14 E kanyakubj nagar", "city": "Aerodrum Rd", "phone": "09302124623", "website": "", "rating": 4.9, "review_count": "", "latitude": 22.726136399999998, "longitude": 75.81941929999999, "maps_url": "https://www.google.com/maps/place/?q=place_id:0x3962fd6d5c629411:0xf8fcb56dc42f035a"}, {"place_id": "0x3962fda7e1818cb5:0xbf2d11d2829e12f2", "name": "Smashing Infolabs Pvt Ltd -Drupal Website Design, Mobile App & Software-Shopify Ecommerce Development Company Indore India", "category": "Software company", "street": "302, Atulya IT Park", "city": "Madhya Pradesh 452001", "phone": "07489434407", "website": "https://smashinginfolabs.com/", "rating": 5, "review_count": "", "latitude": 22.686809999999998, "longitude": 75.87146489999999, "maps_url": "https://www.google.com/maps/place/?q=place_id:0x3962fda7e1818cb5:0xbf2d11d2829e12f2"}, {"place_id": "0x3962fdbbfcf10b6d:0xe49edf57fedf6e67", "name": "Tech FusionEra", "category": "Software company", "street": "246", "city": "avantika nagar, Scheme No 51", "phone": "09302204834", "website": "https://www.techfusionera.com/", "rating": 5, "review_count": "", "latitude": 22.7406279, "longitude": 75.83846489999999, "maps_url": "https://www.google.com/maps/place/?q=place_id:0x3962fdbbfcf10b6d:0xe49edf57fedf6e67"}, {"place_id": "0x3962fd6051e1fa61:0xea1ac49345f39345", "name": "Bluetech IT Services", "category": "Software company", "street": "", "city": "", "phone": "09893509996", "website": "https://www.bluetechitservices.com/", "rating": 4.6, "review_count": "", "latitude": 14.157641199999999, "longitude": -16.7424939, "maps_url": "https://www.google.com/maps/place/?q=place_id:0x3962fd6051e1fa61:0xea1ac49345f39345"}, {"place_id": "0x3962fddc6fcb9745:0x135861c48067e00b", "name": "DigiHolic Infotech Pvt.Ltd", "category": "Software company", "street": "Office No.201", "city": "AB Rd", "phone": "09522345672", "website": "", "rating": 4.5, "review_count": "", "latitude": 22.6886546, "longitude": 75.8628136, "maps_url": "https://www.google.com/maps/place/?q=place_id:0x3962fddc6fcb9745:0x135861c48067e00b"}, {"place_id": "0x3962fce9643647dd:0xc1ffcef90e9b429d", "name": "Crystal IT Park", "category": "Corporate office", "street": "MVPC+8WC", "city": "Indrapuri Colony, Davv Takshila Parisar", "phone": "", "website": "", "rating": 4.4, "review_count": "", "latitude": 22.685824, "longitude": 75.87226629999999, "maps_url": "https://www.google.com/maps/place/?q=place_id:0x3962fce9643647dd:0xc1ffcef90e9b429d"}, {"place_id": "0x3963021802088657:0x7eb80dcd9a9640e6", "name": "Tata Consultancy Services (TCS) Indore Campus", "category": "Software company", "street": "Super Corridor Rd", "city": "Tigaria Badshah", "phone": "", "website": "http://tcs.com/", "rating": 4.5, "review_count": "", "latitude": 22.7658606, "longitude": 75.8155889, "maps_url": "https://www.google.com/maps/place/?q=place_id:0x3963021802088657:0x7eb80dcd9a9640e6"}, {"place_id": "0x3962fce4fee84e1f:0x9cb5925343f3b59f", "name": "FODUU", "category": "Software company", "street": "102 Flat no, Raj Palace,", "city": "Indrapuri Colony,", "phone": "08817304988", "website": "https://www.foduu.com/?utm_source=google-maps&utm_medium=gmb-listing&utm_campaign=google-business-listing", "rating": 4.1, "review_count": "", "latitude": 22.6885203, "longitude": 75.86672449999999, "maps_url": "https://www.google.com/maps/place/?q=place_id:0x3962fce4fee84e1f:0x9cb5925343f3b59f"}, {"place_id": "0x3962fd7227bc4463:0x107b9a2062dfe2e7", "name": "OPTIMISTIC CONSULTANT", "category": "Architects association", "street": "228, Dhar Rd", "city": "Noorani Nagar", "phone": "", "website": "", "rating": 5, "review_count": "", "latitude": 22.706247299999998, "longitude": 75.8111012, "maps_url": "https://www.google.com/maps/place/?q=place_id:0x3962fd7227bc4463:0x107b9a2062dfe2e7"}, {"place_id": "0x3962fd11cbaf30c5:0xeddd100ed6a7f182", "name": "IT park indore", "category": "Technology park", "street": "Khandwa Rd", "city": "Indrapuri Colony, Bhanwar Kuwa", "phone": "", "website": "", "rating": 4.3, "review_count": "", "latitude": 22.6854129, "longitude": 75.8722016, "maps_url": "https://www.google.com/maps/place/?q=place_id:0x3962fd11cbaf30c5:0xeddd100ed6a7f182"}, {"place_id": "0x3962fd146c529801:0xc4c603568388ca95", "name": "Technlogi IT Acumen Private Limited", "category": "Software company", "street": "12, Annapurna Rd", "city": "Model Town Colony, Revenue Colony, Sachidanand Nagar", "phone": "09425327566", "website": "http://www.technlogi.com/", "rating": 5, "review_count": "", "latitude": 22.7008358, "longitude": 75.8415311, "maps_url": "https://www.google.com/maps/place/?q=place_id:0x3962fd146c529801:0xc4c603568388ca95"}, {"place_id": "0x3962fdbd30b56e2f:0x6e2142278b0505b8", "name": "Cybernet Services-Digital Marketing, Website Designing & Development, Mobile App Development, Company in Indore | CNS", "category": "Software company", "street": "66, Manik Bagh Rd", "city": "Phadnis Colony, Ashoka Colony, Nandanvan Colony", "phone": "07314248982", "website": "https://cybernetservices.net/", "rating": 5, "review_count": "", "latitude": 22.6927481, "longitude": 75.8550762, "maps_url": "https://www.google.com/maps/place/?q=place_id:0x3962fdbd30b56e2f:0x6e2142278b0505b8"}, {"place_id": "0x3962fd6188b57d47:0x26b0abd8515dc291", "name": "eWebWorld | Website & Mobile App Development Company in Indore", "category": "Website designer", "street": "Office number 504,505", "city": "Mahasagar Corporate", "phone": "09074976014", "website": "https://ewebworld.in/", "rating": 4.8, "review_count": "", "latitude": 22.718743399999997, "longitude": 75.8867485, "maps_url": "https://www.google.com/maps/place/?q=place_id:0x3962fd6188b57d47:0x26b0abd8515dc291"}, {"place_id": "0x390ce458d0000001:0xf2123bd299ec4501", "name": "IT Company India", "category": "Software company", "street": "D56", "city": "D Block, Sector 10", "phone": "09999244854", "website": "https://www.itcompanyindia.in/", "rating": 4.7, "review_count": "", "latitude": 28.589917699999997, "longitude": 77.3351153, "maps_url": "https://www.google.com/maps/place/?q=place_id:0x390ce458d0000001:0xf2123bd299ec4501"}, {"place_id": "0x3962fdc3917dc839:0x770ab0ae980ea8b9", "name": "Web And Apps Villa Technology", "category": "Software company", "street": "1140, N\" Sector", "city": "Nandan Nagar, Chandan Nagar", "phone": "07869091140", "website": "", "rating": 5, "review_count": "", "latitude": 22.7116385, "longitude": 75.8220044, "maps_url": "https://www.google.com/maps/place/?q=place_id:0x3962fdc3917dc839:0x770ab0ae980ea8b9"}, {"place_id": "0x3962fd7be9357d4f:0xb9a7bbb603b98163", "name": "Inwizards Software Technology", "category": "Software company", "street": "603", "city": "Airen Heights", "phone": "09667584436", "website": "https://www.inwizards.com/", "rating": 4.7, "review_count": "", "latitude": 22.745121299999997, "longitude": 75.89222699999999, "maps_url": "https://www.google.com/maps/place/?q=place_id:0x3962fd7be9357d4f:0xb9a7bbb603b98163"}, {"place_id": "0x3962fd91141818ad:0xa496e301e28e3226", "name": "Sion Data matics India Pvt. Ltd| Best IT Company In Madhya Pradesh", "category": "Software company", "street": "11,5", "city": "bano doctor compound", "phone": "07880136882", "website": "https://www.sdmipl.com/", "rating": 3.9, "review_count": "", "latitude": 22.7181933, "longitude": 75.87494319999999, "maps_url": "https://www.google.com/maps/place/?q=place_id:0x3962fd91141818ad:0xa496e301e28e3226"}, {"place_id": "0x3962fd447b4de707:0x24093ad8d03871ae", "name": "EngineerBabu", "category": "Software company", "street": "Infront of Prestige College", "city": "Plot no 156", "phone": "07771890007", "website": "https://www.engineerbabu.com/", "rating": 4.1, "review_count": "", "latitude": 22.764306599999998, "longitude": 75.8871281, "maps_url": "https://www.google.com/maps/place/?q=place_id:0x3962fd447b4de707:0x24093ad8d03871ae"}, {"place_id": "0x3962fd1b42597265:0xf9975fc63db59c70", "name": "Rewa Refrigeration And Kitchen Equipment | Commercial Kitchen Equipment. Bakery Equipment.Cafe kitchen equipment", "category": "Appliance store", "street": "Dhar Rd", "city": "Chandan Nagar", "phone": "08048030363", "website": "https://www.rewarefrigeration.com/", "rating": 4.6, "review_count": "", "latitude": 22.6985088, "longitude": 75.79818879999999, "maps_url": "https://www.google.com/maps/place/?q=place_id:0x3962fd1b42597265:0xf9975fc63db59c70"}, {"place_id": "0x3962ff8b94821063:0x1ce44931fad77997", "name": "Business Profile JoyVoy", "category": "Event venue", "street": "IT Park", "city": "28, Indore - Dhar Rd", "phone": "", "website": "", "rating": "", "review_count": "", "latitude": 22.692548, "longitude": 75.7889344, "maps_url": "https://www.google.com/maps/place/?q=place_id:0x3962ff8b94821063:0x1ce44931fad77997"}, {"place_id": "0x461cb2df2d0ef3d5:0x3b8b46af45360b08", "name": "Cloudnet Solutions", "category": "Software company", "street": "", "city": "", "phone": "06264917744", "website": "https://cloudnetsolutions.in/", "rating": 5, "review_count": "", "latitude": 21.0680074, "longitude": 82.7525294, "maps_url": "https://www.google.com/maps/place/?q=place_id:0x461cb2df2d0ef3d5:0x3b8b46af45360b08"}, {"place_id": "0x3962fdcc6f2d6f87:0x9645b5e3f6ea6f04", "name": "ExpressTech Software Solutions Pvt Ltd", "category": "Software company", "street": "Office 311", "city": "Sai Ram Plaza", "phone": "07314992666", "website": "https://expresstechsoftwares.com/", "rating": 4, "review_count": "", "latitude": 22.685712, "longitude": 75.85970449999999, "maps_url": "https://www.google.com/maps/place/?q=place_id:0x3962fdcc6f2d6f87:0x9645b5e3f6ea6f04"}, {"place_id": "0x3962e39b92ff9d77:0xc79d3a2696ab1651", "name": "Mxpertz Infolabs - Transforming By Tech | Web & Mobile Development | UI/UX Design | Cloud Solutions | AI/ML Innovations", "category": "Software company", "street": "105", "city": "Captain C.S Naidu Arcade", "phone": "07314957900", "website": "https://www.mxpertz.com/", "rating": 3.9, "review_count": "", "latitude": 22.725223699999997, "longitude": 75.8902705, "maps_url": "https://www.google.com/maps/place/?q=place_id:0x3962e39b92ff9d77:0xc79d3a2696ab1651"}, {"place_id": "0x3962fd2e89d331d3:0xda6640e6ad5205cb", "name": "SMFG India Credit Co. Ltd. - Janshakti Nagar (Branch)", "category": "Financial institution", "street": "Ground Floor", "city": "Police Station", "phone": "18001036001", "website": "https://branches.smfgindiacredit.com/Janshakti-Nagar-Indore-branch-435565/Home?utm_source=locator&utm_medium=googleplaces", "rating": 4, "review_count": "", "latitude": 22.7281946, "longitude": 75.8169711, "maps_url": "https://www.google.com/maps/place/?q=place_id:0x3962fd2e89d331d3:0xda6640e6ad5205cb"}, {"place_id": "0x3962fc3a10c7f88b:0x73134d72dcaa2091", "name": "Kayra Animation I Animation company and Animation Institute", "category": "Animation Studio", "street": "Laxmi Tower", "city": "Indore- 2nd Floor, VIJAY", "phone": "09179831131", "website": "http://kayraanimation.com/", "rating": 4.8, "review_count": "", "latitude": 22.684638, "longitude": 75.828756, "maps_url": "https://www.google.com/maps/place/?q=place_id:0x3962fc3a10c7f88b:0x73134d72dcaa2091"}, {"place_id": "0x396303a0b00a9073:0x14504de356ba36a3", "name": "Supersourcing", "category": "Software company", "street": "Plot no 156, Scheme no 78", "city": "behind Vrindawan Restaurant", "phone": "08225007007", "website": "https://supersourcing.com/", "rating": 4.4, "review_count": "", "latitude": 22.7643359, "longitude": 75.88706479999999, "maps_url": "https://www.google.com/maps/place/?q=place_id:0x396303a0b00a9073:0x14504de356ba36a3"}, {"place_id": "0x3962fdf80bee3ccb:0x687eaae2d2acdc7a", "name": "UltraModern Technologies Pvt. Ltd.", "category": "Software company", "street": "565, Sapna Sangeeta Rd", "city": "nearby axis bank", "phone": "08640089400", "website": "http://www.ultramoderntechnologies.com/", "rating": 5, "review_count": "", "latitude": 22.702948, "longitude": 75.8688236, "maps_url": "https://www.google.com/maps/place/?q=place_id:0x3962fdf80bee3ccb:0x687eaae2d2acdc7a"}, {"place_id": "0x39631dbb2049dd65:0xb667eb306f1b92c5", "name": "IT Company", "category": "Information services", "street": "Chikitsak Nagar", "city": "Indore, Madhya Pradesh 452010", "phone": "", "website": "", "rating": 2, "review_count": "", "latitude": 22.7569083, "longitude": 75.9056753, "maps_url": "https://www.google.com/maps/place/?q=place_id:0x39631dbb2049dd65:0xb667eb306f1b92c5"}, {"place_id": "0x3962fc489aaaaaab:0xda1321155b19e1ae", "name": "Porwal Tea Company- India\u2019s Largest Tea Supplier since 1980", "category": "Tea Exporter", "street": "56/b, 60 Feet Rd", "city": "Pre Conco Nagar, Annapurna Nagar", "phone": "09839838283", "website": "http://www.porwalteacompany.com/", "rating": 4.7, "review_count": "", "latitude": 22.686119599999998, "longitude": 75.832944, "maps_url": "https://www.google.com/maps/place/?q=place_id:0x3962fc489aaaaaab:0xda1321155b19e1ae"}, {"place_id": "0x3962fd2e084e51e5:0x57f13364602a37a3", "name": "Solar By Jain | Best Solar Company in Indore | Solar Installation in Indore", "category": "Solar Energy Company", "street": "2327 sector E, Sudama Nagar", "city": "Western Ring Rd", "phone": "09111716164", "website": "https://jainengineersllp.com/", "rating": 4.9, "review_count": "", "latitude": 22.6919962, "longitude": 75.8281911, "maps_url": "https://www.google.com/maps/place/?q=place_id:0x3962fd2e084e51e5:0x57f13364602a37a3"}, {"place_id": "0x3962fdb30b76917d:0xafe120a7d19399c5", "name": "Naresh Services company", "category": "Appliance repair service", "street": "193/B, Prajapat Nagar", "city": "Futi Kothi Square, Sudama Nagar", "phone": "09575077772", "website": "http://nareshservices.com/", "rating": 3.9, "review_count": "", "latitude": 22.6937788, "longitude": 75.8243782, "maps_url": "https://www.google.com/maps/place/?q=place_id:0x3962fdb30b76917d:0xafe120a7d19399c5"}, {"place_id": "0x3962fd8c0d9e2ed9:0xb3e13c8b2f680b46", "name": "Shriram trading company Indore", "category": "Mattress store", "street": "Indore - Dhar Rd", "city": "Ahmad Nagar, Chandan Nagar", "phone": "09425056224", "website": "http://www.shriramfoammattress.com/", "rating": 5, "review_count": "", "latitude": 22.7018815, "longitude": 75.7986675, "maps_url": "https://www.google.com/maps/place/?q=place_id:0x3962fd8c0d9e2ed9:0xb3e13c8b2f680b46"}, {"place_id": "0x39631d6ae4f42a97:0x83bc825e66f9983", "name": "Techwave IT Solutions Pvt Ltd | Software Development Company in Indore | Top IT Company in Indore | India", "category": "Software company", "street": "Bhopal Motors JCB", "city": "near Panchvati", "phone": "09009155444", "website": "http://techwaveitsolutions.com/", "rating": "", "review_count": "", "latitude": 22.792078399999998, "longitude": 75.90735409999999, "maps_url": "https://www.google.com/maps/place/?q=place_id:0x39631d6ae4f42a97:0x83bc825e66f9983"}, {"place_id": "0x3962ff2cd5117f1f:0x26634edcdca4c397", "name": "Road Runners Cabs Indore Airport Office", "category": "Taxi service", "street": "Arrivals", "city": "Indore - Pithampur Rd", "phone": "09238353537", "website": "https://roadrunnercabs.in/", "rating": 4.9, "review_count": "", "latitude": 22.7279265, "longitude": 75.80458349999999, "maps_url": "https://www.google.com/maps/place/?q=place_id:0x3962ff2cd5117f1f:0x26634edcdca4c397"}, {"place_id": "0x3be7c21b5901e181:0x7fe794585addc1f6", "name": "Smartinfologiks - Software Development Company in India | IT Solutions", "category": "Software company", "street": "Hilton Center", "city": "514", "phone": "07400064691", "website": "https://www.smartinfologiks.com/", "rating": 4.6, "review_count": "", "latitude": 19.0139592, "longitude": 73.0382705, "maps_url": "https://www.google.com/maps/place/?q=place_id:0x3be7c21b5901e181:0x7fe794585addc1f6"}, {"place_id": "0x3bc2becdc35b6937:0x515ac559c349eee3", "name": "Thinkitive Technologies Private Limited", "category": "Software company", "street": "4th Floor", "city": "ABIL IMPERIAL COMMERCIAL SPACES", "phone": "08956467327", "website": "https://www.thinkitive.com/", "rating": 3.9, "review_count": "", "latitude": 18.5563888, "longitude": 73.7729748, "maps_url": "https://www.google.com/maps/place/?q=place_id:0x3bc2becdc35b6937:0x515ac559c349eee3"}, {"place_id": "0x3962ffaf3d6730e7:0x39b8424c26e5e4f3", "name": "Home First Finance Company", "category": "Loan agency", "street": "2nd Floor on", "city": "Plot no. 6 of, Airport Rd", "phone": "08770206294", "website": "https://www.homefirstindia.com/", "rating": 4.8, "review_count": "", "latitude": 22.724919099999997, "longitude": 75.8248349, "maps_url": "https://www.google.com/maps/place/?q=place_id:0x3962ffaf3d6730e7:0x39b8424c26e5e4f3"}, {"place_id": "0x3963031c00643839:0x8e799c31760d97c9", "name": "Etcetera Technologies", "category": "Software company", "street": "Minal Shree Apartment", "city": "19", "phone": "", "website": "", "rating": 4.8, "review_count": "", "latitude": 22.732077099999998, "longitude": 75.87504489999999, "maps_url": "https://www.google.com/maps/place/?q=place_id:0x3963031c00643839:0x8e799c31760d97c9"}, {"place_id": "0x3962ff0756ceeed9:0x29850d9c6e266f3b", "name": "Noor batteries and Electricals", "category": "Electrical supply store", "street": "171/3, Indore - Dhar Rd", "city": "Jawahar Tekri, Sinhasa", "phone": "07723036721", "website": "", "rating": 4.9, "review_count": "", "latitude": 22.6964929, "longitude": 75.7856089, "maps_url": "https://www.google.com/maps/place/?q=place_id:0x3962ff0756ceeed9:0x29850d9c6e266f3b"}, {"place_id": "0x3962fdadceaa9dd3:0xa9e1d4c6718d545", "name": "Webdunia", "category": "Corporate office", "street": "22, Normal School Rd", "city": "11 Bungalow Colony, Nai Duniya, Revenue Colony, Normal School Colony", "phone": "07314273310", "website": "", "rating": 4.2, "review_count": "", "latitude": 22.704304099999998, "longitude": 75.8436634, "maps_url": "https://www.google.com/maps/place/?q=place_id:0x3962fdadceaa9dd3:0xa9e1d4c6718d545"}, {"place_id": "0x3962e55f9afb01a5:0xa908d4803d9c573c", "name": "Grow Tech website Designing and Developement Company Indore", "category": "Website designer", "street": "BUSINESS PARK", "city": "AB, Indore Bypass Rd", "phone": "07746006410", "website": "https://growtechservices.com/", "rating": 5, "review_count": "", "latitude": 22.6577672, "longitude": 75.9091621, "maps_url": "https://www.google.com/maps/place/?q=place_id:0x3962e55f9afb01a5:0xa908d4803d9c573c"}, {"place_id": "0x29810cc1a37f5577:0x9e744ba91d32766c", "name": "Zero Trust Bastion", "category": "Software company", "street": "", "city": "", "phone": "", "website": "http://zerotrustbastion.com/", "rating": "", "review_count": "", "latitude": 20.8076978, "longitude": 142.1078416, "maps_url": "https://www.google.com/maps/place/?q=place_id:0x29810cc1a37f5577:0x9e744ba91d32766c"}, {"place_id": "0x3962fdd6c47ea7b7:0x40398fb9ac79ef3f", "name": "Burhani IT Services", "category": "Software company", "street": "102", "city": "Sakina Appartment", "phone": "06264828215", "website": "http://burhaniitservices.com/", "rating": 3.7, "review_count": "", "latitude": 22.7037706, "longitude": 75.8108993, "maps_url": "https://www.google.com/maps/place/?q=place_id:0x3962fdd6c47ea7b7:0x40398fb9ac79ef3f"}, {"place_id": "0x3962fdc9447c2cad:0x4e40277a086704f3", "name": "Techie Online", "category": "Internet marketing service", "street": "53 C-1 Sector D , Scheme No 71 Indore", "city": "Indore, Madhya Pradesh 452009", "phone": "09516598292", "website": "", "rating": 4.7, "review_count": "", "latitude": 22.703989, "longitude": 75.82536549999999, "maps_url": "https://www.google.com/maps/place/?q=place_id:0x3962fdc9447c2cad:0x4e40277a086704f3"}, {"place_id": "0x3962fde3676d82f5:0xfe8a90417bb0bd68", "name": "Feleno Business Consulting Co.", "category": "Business management consultant", "street": "390, Airport Rd", "city": "Smriti Nagar", "phone": "08962295813", "website": "https://feleno.in/", "rating": 3.8, "review_count": "", "latitude": 22.7344998, "longitude": 75.82435579999999, "maps_url": "https://www.google.com/maps/place/?q=place_id:0x3962fde3676d82f5:0xfe8a90417bb0bd68"}, {"place_id": "0x3962e2c8b661e3cd:0xc761b7784b672eb2", "name": "Techiasm IT Company", "category": "Software company", "street": "near Bengali square", "city": "Ashish Nagar", "phone": "", "website": "", "rating": "", "review_count": "", "latitude": 22.7227757, "longitude": 75.9102118, "maps_url": "https://www.google.com/maps/place/?q=place_id:0x3962e2c8b661e3cd:0xc761b7784b672eb2"}]}