[{"place_id": "ChIJM-ZDIOXiDDkRHNlL6nlN1D4", "name": "Wirecto", "street": "Triloki Colony, C-49, South Extension I, Mahaveer Nagar, Kotla Mubarakpur, New Delhi, Delhi 110003, India", "phone": "+91 97166 70074", "rating": "5", "review_count": "", "website": "https://wirecto.app/", "latitude": 28.575404799999998, "longitude": 77.2250054, "maps_url": "https://www.google.com/maps/search/?api=1&query=Wirecto&query_place_id=ChIJM-ZDIOXiDDkRHNlL6nlN1D4"}, {"place_id": "ChIJEZi4U8HjDDkRyul3V2h5ouc", "name": "IT Company", "street": "A-14, near iskcon temple, Block A, APB Garhi, Vasant Vihar, New Delhi, Delhi 110065, India", "phone": "", "rating": "3", "review_count": "", "website": "http://www.opuswiz.com/", "latitude": 28.557167, "longitude": 77.25424819999999, "maps_url": "https://www.google.com/maps/search/?api=1&query=IT%20Company&query_place_id=ChIJEZi4U8HjDDkRyul3V2h5ouc"}, {"place_id": "ChIJXSmB5VniDDkRXgG_CYFQtzE", "name": "Extrieve Technologies", "street": "Arjun Nagar, 805, Bhishma Pitamah Marg, South Extension I, Arjun Nagar, Kotla Mubarakpur, New Delhi, Delhi 110003, India", "phone": "+91 11 4012 2131", "rating": "4", "review_count": "", "website": "http://www.extrieve.com/", "latitude": 28.5737635, "longitude": 77.22831359999999, "maps_url": "https://www.google.com/maps/search/?api=1&query=Extrieve%20Technologies&query_place_id=ChIJXSmB5VniDDkRXgG_CYFQtzE"}, {"place_id": "ChIJY6UnjrTjDDkRazYkxeOK7AQ", "name": "iSOFT INDIA TECHNOLOGIES", "street": "E-168|169, Amar Colony, Lajpat Nagar, New Delhi, Delhi 110024, India", "phone": "+91 97179 78320", "rating": "4.9", "review_count": "", "website": "", "latitude": 28.5657368, "longitude": 77.23946029999999, "maps_url": "https://www.google.com/maps/search/?api=1&query=iSOFT%20INDIA%20TECHNOLOGIES&query_place_id=ChIJY6UnjrTjDDkRazYkxeOK7AQ"}, {"place_id": "ChIJVed5zP3lDDkR9k64UZLpnDA", "name": "Optyminds IT Solutions - Top AI and IT company I Best Digital agency in Noida | Delhi NCR | India", "street": "1st Floor, B-70, B Block, Sector 2, Noida, Uttar Pradesh 201301, India", "phone": "+91 89290 75975", "rating": "4.9", "review_count": "", "website": "https://optyminds.com/", "latitude": 28.584679599999998, "longitude": 77.3135042, "maps_url": "https://www.google.com/maps/search/?api=1&query=Optyminds%20IT%20Solutions%20-%20Top%20AI%20and%20IT%20company%20I%20Best%20Digital%20agency%20in%20Noida%20%7C%20Delhi%20NCR%20%7C%20India&query_place_id=ChIJVed5zP3lDDkR9k64UZLpnDA"}, {"place_id": "ChIJSxsL19zvDDkRdRDEv1iqcu8", "name": "Devkant Infotech Solutions | Software Company in Noida | Top IT Company In Noida", "street": "office No. A, 1601 Nx One T3 Gaur Chowk, Plot No. 17, Tech Zone IV, Amrapali Dream Valley, Greater Noida, Uttar Pradesh 201318, India", "phone": "+91 74286 85050", "rating": "4.9", "review_count": "", "website": "https://dkinfotech.in/", "latitude": 28.601201399999997, "longitude": 77.4323665, "maps_url": "https://www.google.com/maps/search/?api=1&query=Devkant%20Infotech%20Solutions%20%7C%20Software%20Company%20in%20Noida%20%7C%20Top%20IT%20Company%20In%20Noida&query_place_id=ChIJSxsL19zvDDkRdRDEv1iqcu8"}, {"place_id": "ChIJI8eBDIbjDDkRPmqowEMO9cU", "name": "Nextr Technology", "street": "2nd Floor, 1483/A-1, South Extension I, Wazir Nagar, New Delhi, Delhi 110003, India", "phone": "+91 99117 51575", "rating": "4.9", "review_count": "", "website": "http://www.nextr.in/", "latitude": 28.574374, "longitude": 77.224284, "maps_url": "https://www.google.com/maps/search/?api=1&query=Nextr%20Technology&query_place_id=ChIJI8eBDIbjDDkRPmqowEMO9cU"}, {"place_id": "ChIJcyHxpIYdDTkRYIJLb-pCazo", "name": "Softvanz Technologies Private Limited", "street": "Somdutt Chamber 1, BT-22/9, Bhikaji Cama Place, Rama Krishna Puram, New Delhi, Delhi 110066, India", "phone": "", "rating": "5", "review_count": "", "website": "https://softvanz.com/", "latitude": 28.567948899999998, "longitude": 77.1889269, "maps_url": "https://www.google.com/maps/search/?api=1&query=Softvanz%20Technologies%20Private%20Limited&query_place_id=ChIJcyHxpIYdDTkRYIJLb-pCazo"}, {"place_id": "ChIJAQAAwLfjDDkRN9kC5Q7Y3UY", "name": "Amtrak Technologies Private Limited", "street": "6, Community Centre, East of Kailash, New Delhi, Delhi 110065, India", "phone": "+91 11 2644 8000", "rating": "4.4", "review_count": "", "website": "https://amtrak.co.in/", "latitude": 28.558434899999998, "longitude": 77.2463302, "maps_url": "https://www.google.com/maps/search/?api=1&query=Amtrak%20Technologies%20Private%20Limited&query_place_id=ChIJAQAAwLfjDDkRN9kC5Q7Y3UY"}, {"place_id": "ChIJ7Wr1xKTtDzkR7MCP44eydyI", "name": "Dizivan IT Solutions Pvt Ltd- App Development & Digital Marketing Company", "street": "near Metro Station New Ashok Nagar, Block B, New Ashok Nagar, New Delhi, Delhi, 110096, India", "phone": "+91 91420 92979", "rating": "5", "review_count": "", "website": "https://dizivan.com/", "latitude": 28.5891575, "longitude": 77.3020624, "maps_url": "https://www.google.com/maps/search/?api=1&query=Dizivan%20IT%20Solutions%20Pvt%20Ltd-%20App%20Development%20%26%20Digital%20Marketing%20Company&query_place_id=ChIJ7Wr1xKTtDzkR7MCP44eydyI"}, {"place_id": "ChIJ7xPJBtbjDDkRrSzrMVa9RtI", "name": "Delvetech", "street": "87A/1, 3rd Floor, Opp. Block N-115, G.K-1, Near Moolchand Merto, Block B, Zamrudpur, Greater Kailash, New Delhi, Delhi 110048, India", "phone": "+91 98738 95154", "rating": "4.1", "review_count": "", "website": "http://www.delvetech.co.in/", "latitude": 28.5570597, "longitude": 77.2356981, "maps_url": "https://www.google.com/maps/search/?api=1&query=Delvetech&query_place_id=ChIJ7xPJBtbjDDkRrSzrMVa9RtI"}, {"place_id": "ChIJq6qqLpPjDDkRUjjZ4KrZCLM", "name": "Al Hadaf Technologies– ERP, CRM, HRM, Hospital, School, Billing Software Development Company in Delhi NCR", "street": "96, Gate No-2, opp. Escort Hospital, Sarai Jullena, Okhla, New Delhi, Delhi 110025, India", "phone": "+91 85869 72994", "rating": "4.9", "review_count": "", "website": "https://www.alhadaftech.com/", "latitude": 28.5562397, "longitude": 77.2762099, "maps_url": "https://www.google.com/maps/search/?api=1&query=Al%20Hadaf%20Technologies%E2%80%93%20ERP%2C%20CRM%2C%20HRM%2C%20Hospital%2C%20School%2C%20Billing%20Software%20Development%20Company%20in%20Delhi%20NCR&query_place_id=ChIJq6qqLpPjDDkRUjjZ4KrZCLM"}, {"place_id": "ChIJ69SWRjfjDDkRrHZo7KujeZU", "name": "AlgoTest", "street": "Block C, Defence Colony, New Delhi, Delhi 110024, India", "phone": "", "rating": "4.6", "review_count": "", "website": "https://algotest.in/", "latitude": 28.573353599999997, "longitude": 77.2326497, "maps_url": "https://www.google.com/maps/search/?api=1&query=AlgoTest&query_place_id=ChIJ69SWRjfjDDkRrHZo7KujeZU"}, {"place_id": "ChIJm_3YCUbkDDkR9hCWZycPaJw", "name": "Crestech Software", "street": "Plot No. D, Vyapar Marg, D Block, Sector 2, Noida, Uttar Pradesh 201301, India", "phone": "+91 88266 66755", "rating": "3.6", "review_count": "", "website": "https://www.crestechsoftware.com/", "latitude": 28.5836924, "longitude": 77.3166213, "maps_url": "https://www.google.com/maps/search/?api=1&query=Crestech%20Software&query_place_id=ChIJm_3YCUbkDDkR9hCWZycPaJw"}, {"place_id": "ChIJzVaDAwHjDDkR82nhED2SuPU", "name": "Gizmeek", "street": "1777, 3rd Floor, Pocket-4, Complex, Lodhi Rd, Delhi 110003, India", "phone": "+91 90226 90226", "rating": "4.8", "review_count": "", "website": "https://gizmeek.com/", "latitude": 28.5821439, "longitude": 77.2279788, "maps_url": "https://www.google.com/maps/search/?api=1&query=Gizmeek&query_place_id=ChIJzVaDAwHjDDkR82nhED2SuPU"}, {"place_id": "ChIJFeXlTZkCDTkRNw2aQAO8CNk", "name": "Himalayan IT Solutions | Best Website Designing Company in Delhi | SEO/Digital Marketing Company in Delhi NCR, India", "street": "61/4255, Padam Singh Rd, Block 29, Block 1, Regar Pura, Karol Bagh, Delhi, 110005, India", "phone": "+91 98990 98509", "rating": "3.9", "review_count": "", "website": "http://www.himalayanitsolutions.com/", "latitude": 28.649673999999997, "longitude": 77.186599, "maps_url": "https://www.google.com/maps/search/?api=1&query=Himalayan%20IT%20Solutions%20%7C%20Best%20Website%20Designing%20Company%20in%20Delhi%20%7C%20SEO/Digital%20Marketing%20Company%20in%20Delhi%20NCR%2C%20India&query_place_id=ChIJFeXlTZkCDTkRNw2aQAO8CNk"}, {"place_id": "ChIJM5vpNV7iDDkRzI9Om-arQ_Q", "name": "Synapse Valuetech Private Limited", "street": "Lower Ground Floor, 221, Kailash Hills, East of Kailash, New Delhi, Delhi 110065, India", "phone": "+91 11 4662 8882", "rating": "4.3", "review_count": "", "website": "https://www.synapsevaluetech.com/", "latitude": 28.558165, "longitude": 77.2592385, "maps_url": "https://www.google.com/maps/search/?api=1&query=Synapse%20Valuetech%20Private%20Limited&query_place_id=ChIJM5vpNV7iDDkRzI9Om-arQ_Q"}, {"place_id": "ChIJJxEZLa38DDkRjqnAHiAFyIM", "name": "IT Nucleus", "street": "310, 3rd Floor, S-524, Aggarwal House Opp-Metro Pillar 27, School Block shakarpur, Laxmi Nagar, Delhi, 110092, India", "phone": "+91 11 4300 1828", "rating": "4.9", "review_count": "", "website": "http://www.itnucleus.com/", "latitude": 28.629542599999997, "longitude": 77.2766257, "maps_url": "https://www.google.com/maps/search/?api=1&query=IT%20Nucleus&query_place_id=ChIJJxEZLa38DDkRjqnAHiAFyIM"}, {"place_id": "ChIJjwRhzVvkDDkR910V9AJWal8", "name": "JK Technosoft Limited", "street": "F, 3, Block F, Noida Sector 3, Noida, Uttar Pradesh 201301, India", "phone": "+91 120 460 6300", "rating": "4.2", "review_count": "", "website": "https://jktech.com/", "latitude": 28.5802509, "longitude": 77.31793329999999, "maps_url": "https://www.google.com/maps/search/?api=1&query=JK%20Technosoft%20Limited&query_place_id=ChIJjwRhzVvkDDkR910V9AJWal8"}, {"place_id": "ChIJL7i0Y9rGFUIRZKmtphSoS3k", "name": "Asha Tech | Website Designing | App Development | IT Company in Delhi", "street": "no 2, 195, Lane No. 1, Westend Marg, near Saket Metro Gate, Saidulajab, Saket, Delhi 110030, India", "phone": "+91 75310 80874", "rating": "4.7", "review_count": "", "website": "https://ashatech.co.in/", "latitude": 28.519994099999998, "longitude": 77.2008791, "maps_url": "https://www.google.com/maps/search/?api=1&query=Asha%20Tech%20%7C%20Website%20Designing%20%7C%20App%20Development%20%7C%20IT%20Company%20in%20Delhi&query_place_id=ChIJL7i0Y9rGFUIRZKmtphSoS3k"}, {"place_id": "ChIJ4___PwDjDDkRaecDhqKS2B0", "name": "Corporate Infotech Pvt Ltd.", "street": "E-81, E Block, Sector 6, Noida, Uttar Pradesh 201301, India", "phone": "+91 1800 11 6474", "rating": "4.4", "review_count": "", "website": "https://cipl.org.in/", "latitude": 28.5937284, "longitude": 77.3206974, "maps_url": "https://www.google.com/maps/search/?api=1&query=Corporate%20Infotech%20Pvt%20Ltd.&query_place_id=ChIJ4___PwDjDDkRaecDhqKS2B0"}, {"place_id": "ChIJI2NmZaz8DDkRKum-I8wCXaA", "name": "Rexcel IT Services Pvt Ltd", "street": "D-15 1st Floor, D Block, Sector 6, Noida, Uttar Pradesh 201301, India", "phone": "+91 120 451 2529", "rating": "3.2", "review_count": "", "website": "http://www.rexcelitservices.com/", "latitude": 28.5938749, "longitude": 77.3188215, "maps_url": "https://www.google.com/maps/search/?api=1&query=Rexcel%20IT%20Services%20Pvt%20Ltd&query_place_id=ChIJI2NmZaz8DDkRKum-I8wCXaA"}, {"place_id": "ChIJ6wQV6c_jDDkR1yOSSVxsNFU", "name": "CCS Computers Private Limited", "street": "2nd-3rd Floor Skipper House, Nehru Place, New Delhi, Delhi 110019, India", "phone": "+91 11 2646 3959", "rating": "4", "review_count": "", "website": "http://www.ccscomputers.co.in/", "latitude": 28.550090599999997, "longitude": 77.2537834, "maps_url": "https://www.google.com/maps/search/?api=1&query=CCS%20Computers%20Private%20Limited&query_place_id=ChIJ6wQV6c_jDDkR1yOSSVxsNFU"}, {"place_id": "ChIJtfISSl7iDDkRS9HBq7UxCXo", "name": "PCS Technology Limited", "street": "75-76, Amrit Nagar, NDSE Part-1, New Delhi, Delhi 110003, India", "phone": "+91 11 2465 7828", "rating": "4.2", "review_count": "", "website": "http://www.pcstech.com/", "latitude": 28.574493, "longitude": 77.21901, "maps_url": "https://www.google.com/maps/search/?api=1&query=PCS%20Technology%20Limited&query_place_id=ChIJtfISSl7iDDkRS9HBq7UxCXo"}, {"place_id": "ChIJtz5d-FbiDDkR0dXO23rDDek", "name": "Legitquest - AI Legal Tech", "street": "A-149, Block A, Defence Colony, New Delhi, Delhi 110024, India", "phone": "+91 11 4171 7030", "rating": "3.6", "review_count": "", "website": "https://www.legitquest.com/", "latitude": 28.5759173, "longitude": 77.2323894, "maps_url": "https://www.google.com/maps/search/?api=1&query=Legitquest%20-%20AI%20Legal%20Tech&query_place_id=ChIJtz5d-FbiDDkR0dXO23rDDek"}, {"place_id": "ChIJnUZD77TjDDkR7BFVX8Ye2tM", "name": "Pointer Soft | Website Designing Company Delhi", "street": "321, harinagar, ashram, NH-19, Zakir Nagar, New Friends Colony, New Delhi, Delhi 110025, India", "phone": "+91 99587 68130", "rating": "4.6", "review_count": "", "website": "http://www.pointersoft.in/", "latitude": 28.571133999999997, "longitude": 77.2796537, "maps_url": "https://www.google.com/maps/search/?api=1&query=Pointer%20Soft%20%7C%20Website%20Designing%20Company%20Delhi&query_place_id=ChIJnUZD77TjDDkR7BFVX8Ye2tM"}, {"place_id": "ChIJDQQIVFzkDDkR0QhWZKOucvc", "name": "KritiKal Solutions", "street": "4th floor, Smartworks Corporate Park Maple Towers, Plot no 1&2, Sector 125, Noida, Uttar Pradesh 201313, India", "phone": "+91 120 692 6600", "rating": "4.2", "review_count": "", "website": "https://kritikalsolutions.com/", "latitude": 28.548471, "longitude": 77.332223, "maps_url": "https://www.google.com/maps/search/?api=1&query=KritiKal%20Solutions&query_place_id=ChIJDQQIVFzkDDkR0QhWZKOucvc"}, {"place_id": "ChIJeRB0FyrnDDkR8pxqBW4AT9A", "name": "Fasto Solution", "street": "43 Floor, Block B, Lajpat Nagar II, Lajpat Nagar, New Delhi, Delhi 110024, India", "phone": "+91 98733 78275", "rating": "5", "review_count": "", "website": "https://www.fastosolution.com/", "latitude": 28.573219199999997, "longitude": 77.23787229999999, "maps_url": "https://www.google.com/maps/search/?api=1&query=Fasto%20Solution&query_place_id=ChIJeRB0FyrnDDkR8pxqBW4AT9A"}, {"place_id": "ChIJ643_FIXjDDkRwfrEaAsn7PE", "name": "JSD Solutions", "street": "Arjun Nagar, 133, Bhishma Pitamah Marg, South Extension I, Jawaharlal Nehru Stadium, Pragati Vihar, New Delhi, Delhi 110003, India", "phone": "+91 88000 91803", "rating": "", "review_count": "", "website": "http://www.jsdsolutions.in/", "latitude": 28.579337, "longitude": 77.2293986, "maps_url": "https://www.google.com/maps/search/?api=1&query=JSD%20Solutions&query_place_id=ChIJ643_FIXjDDkRwfrEaAsn7PE"}, {"place_id": "ChIJ34XxPQjjDDkRyo_prAe88M8", "name": "Dwitty & Company", "street": "B-109, Block D, Jangpura B, New Delhi, Delhi 110014, India", "phone": "+91 70112 73521", "rating": "5", "review_count": "", "website": "", "latitude": 28.581945599999997, "longitude": 77.2534653, "maps_url": "https://www.google.com/maps/search/?api=1&query=Dwitty%20%26%20Company&query_place_id=ChIJ34XxPQjjDDkRyo_prAe88M8"}, {"place_id": "ChIJq6qqmq3jDDkRmEOhwyhvHc0", "name": "Team Building Pro - Corporate Team Building Company in Delhi NCR", "street": "1st-Floor, B-94, Block B, Lajpat Nagar I, Lajpat Nagar, New Delhi, Delhi 110024, India", "phone": "+91 98710 30465", "rating": "4.9", "review_count": "", "website": "https://teambuildingpro.in/", "latitude": 28.5744208, "longitude": 77.23969579999999, "maps_url": "https://www.google.com/maps/search/?api=1&query=Team%20Building%20Pro%20-%20Corporate%20Team%20Building%20Company%20in%20Delhi%20NCR&query_place_id=ChIJq6qqmq3jDDkRmEOhwyhvHc0"}, {"place_id": "ChIJEbS1uZXjDDkRk2MVB7rDV5A", "name": "IntelliSmart Infrastructure Pvt. Ltd.", "street": "First Floor, Lodhi Rd, Pragati Vihar, New Delhi, Delhi 110003, India", "phone": "+91 124 471 0330", "rating": "4.2", "review_count": "", "website": "https://intellismartinfra.in/", "latitude": 28.586567, "longitude": 77.2307502, "maps_url": "https://www.google.com/maps/search/?api=1&query=IntelliSmart%20Infrastructure%20Pvt.%20Ltd.&query_place_id=ChIJEbS1uZXjDDkRk2MVB7rDV5A"}, {"place_id": "ChIJleobg1vkDDkRyWUNRfvc9qQ", "name": "RMSI Private Limited", "street": "A-7/8, A Block, Sector 16, Noida, Uttar Pradesh 201301, India", "phone": "+91 120 251 1102", "rating": "4", "review_count": "", "website": "https://www.rmsi.com/", "latitude": 28.5784906, "longitude": 77.3159013, "maps_url": "https://www.google.com/maps/search/?api=1&query=RMSI%20Private%20Limited&query_place_id=ChIJleobg1vkDDkRyWUNRfvc9qQ"}, {"place_id": "ChIJL6Sj4lnkDDkRciwMCULgot0", "name": "InfiCare Technologies Pvt. Ltd", "street": "D-92 Second/Third floor, Sector 2, Noida, Uttar Pradesh 201301, India", "phone": "+91 97112 65591", "rating": "3.8", "review_count": "", "website": "http://www.inficaretech.com/", "latitude": 28.582936099999998, "longitude": 77.3175146, "maps_url": "https://www.google.com/maps/search/?api=1&query=InfiCare%20Technologies%20Pvt.%20Ltd&query_place_id=ChIJL6Sj4lnkDDkRciwMCULgot0"}, {"place_id": "ChIJi_vHEvDkDDkRjZ2InK9Enfo", "name": "ITDOSE INFOSYSTEMS", "street": "G-19, G Block, Sector 6, Noida, Uttar Pradesh 201301, India", "phone": "+91 99999 16974", "rating": "4", "review_count": "", "website": "https://www.itdoseinfo.com/", "latitude": 28.595574, "longitude": 77.32037009999999, "maps_url": "https://www.google.com/maps/search/?api=1&query=ITDOSE%20INFOSYSTEMS&query_place_id=ChIJi_vHEvDkDDkRjZ2InK9Enfo"}, {"place_id": "ChIJe69FX63jDDkRNIxV8bibYQ8", "name": "RAG Scores", "street": "A-193, Block A, Defence Colony, New Delhi, Delhi 110003, India", "phone": "+91 98733 83242", "rating": "5", "review_count": "", "website": "https://ragscores.com/", "latitude": 28.5777158, "longitude": 77.23077339999999, "maps_url": "https://www.google.com/maps/search/?api=1&query=RAG%20Scores&query_place_id=ChIJe69FX63jDDkRNIxV8bibYQ8"}, {"place_id": "ChIJcesdOTX9DDkRtlHcx4gT3ds", "name": "Jak Software Pvt Ltd", "street": "52 Janpath, New Delhi, Delhi 110001, India", "phone": "+91 78272 49056", "rating": "4.4", "review_count": "", "website": "http://www.jaksoftware.co.in/", "latitude": 28.627537999999998, "longitude": 77.21878989999999, "maps_url": "https://www.google.com/maps/search/?api=1&query=Jak%20Software%20Pvt%20Ltd&query_place_id=ChIJcesdOTX9DDkRtlHcx4gT3ds"}, {"place_id": "ChIJ76qqOprjDDkRsAnu5xyCV8o", "name": "Smart IT Technologies", "street": "Saroj Sadan, 100, Block C, New Friends Colony, New Delhi, Delhi 110025, India", "phone": "+91 88402 74824", "rating": "5", "review_count": "", "website": "https://smartittechnologies.com/", "latitude": 28.5697218, "longitude": 77.2680354, "maps_url": "https://www.google.com/maps/search/?api=1&query=Smart%20IT%20Technologies&query_place_id=ChIJ76qqOprjDDkRsAnu5xyCV8o"}, {"place_id": "ChIJnSs9bl_iDDkRm_Ull_yg81c", "name": "YATRA POINT TOURISM COMPANY INDIA", "street": "OFFICE NO-7, BULDING NO N-1, LGF, 4, near BANSALI JEWLLERS L, South Extension I, New Delhi, Delhi 110003, India", "phone": "+91 88600 16982", "rating": "4.9", "review_count": "", "website": "", "latitude": 28.574078, "longitude": 77.219089, "maps_url": "https://www.google.com/maps/search/?api=1&query=YATRA%20POINT%20TOURISM%20COMPANY%20INDIA&query_place_id=ChIJnSs9bl_iDDkRm_Ull_yg81c"}, {"place_id": "ChIJGVzLMPrjDDkRVN2xjf7DucI", "name": "KIREN SMART SERVICES", "street": "D-196, New, G/F, Lajpat Nagar I, Lajpat Nagar, New Delhi, Delhi 110024, India", "phone": "+91 98739 07360", "rating": "4.1", "review_count": "", "website": "https://kirensmartservices.com/", "latitude": 28.5785903, "longitude": 77.2423422, "maps_url": "https://www.google.com/maps/search/?api=1&query=KIREN%20SMART%20SERVICES&query_place_id=ChIJGVzLMPrjDDkRVN2xjf7DucI"}, {"place_id": "ChIJaeB_XpgEDTkRH6flgedI1U4", "name": "Dignitas Digital", "street": "C 323, Block C, Defence Colony, New Delhi, Delhi 110024, India", "phone": "+91 11 4550 1210", "rating": "3.9", "review_count": "", "website": "https://www.dignitasdigital.com/", "latitude": 28.5700126, "longitude": 77.2328721, "maps_url": "https://www.google.com/maps/search/?api=1&query=Dignitas%20Digital&query_place_id=ChIJaeB_XpgEDTkRH6flgedI1U4"}, {"place_id": "ChIJZRaY6bXjDDkRPL7VkG-R024", "name": "Netsoft Consulting Services", "street": "24, IInd Floor, Community Center, East Of Kailash, behind Sapna Cinema, New Delhi, Delhi 110065, India", "phone": "+91 11 4533 0000", "rating": "3.5", "review_count": "", "website": "https://netsoftit.com/contact-us/", "latitude": 28.5583678, "longitude": 77.24568579999999, "maps_url": "https://www.google.com/maps/search/?api=1&query=Netsoft%20Consulting%20Services&query_place_id=ChIJZRaY6bXjDDkRPL7VkG-R024"}, {"place_id": "ChIJpWa_fFviDDkRq3qmI_sKcf4", "name": "Jetking South Ext. Learning Center", "street": "F-38 , Second Floor, Infront of McDonald Part 1, South Extension I, Block F, New Delhi, Delhi 110049, India", "phone": "+91 11 4106 8989", "rating": "4.7", "review_count": "", "website": "https://www.jetking.com/centres/south-extension", "latitude": 28.569656, "longitude": 77.2196429, "maps_url": "https://www.google.com/maps/search/?api=1&query=Jetking%20South%20Ext.%20Learning%20Center&query_place_id=ChIJpWa_fFviDDkRq3qmI_sKcf4"}, {"place_id": "ChIJ5yf0_k7kDDkRXvYZJVIQCk0", "name": "Omnie Solutions (I) Pvt Ltd", "street": "D-108, Sector 2, D Block, Sector 2, Noida, Uttar Pradesh 201301, India", "phone": "+91 92667 54671", "rating": "3.4", "review_count": "", "website": "https://www.omniesolutions.com/", "latitude": 28.583485, "longitude": 77.316155, "maps_url": "https://www.google.com/maps/search/?api=1&query=Omnie%20Solutions%20%28I%29%20Pvt%20Ltd&query_place_id=ChIJ5yf0_k7kDDkRXvYZJVIQCk0"}, {"place_id": "ChIJfbHda17iDDkRdAlcUp0DqeM", "name": "Techno Constructions", "street": "B-19, South Extension I, New Delhi, Delhi 110049, India", "phone": "+91 98112 80191", "rating": "5", "review_count": "", "website": "http://technohomez.com/", "latitude": 28.5731203, "longitude": 77.2192857, "maps_url": "https://www.google.com/maps/search/?api=1&query=Techno%20Constructions&query_place_id=ChIJfbHda17iDDkRdAlcUp0DqeM"}, {"place_id": "ChIJA-OJQs_7DDkR8uTuXHr_Puk", "name": "Cloudprisma", "street": "A-44,1st Floor, Sector 10, Noida, Uttar Pradesh 201301, India", "phone": "+91 88269 14880", "rating": "4.7", "review_count": "", "website": "http://www.cloudprisma.io/#/", "latitude": 28.5875788, "longitude": 77.330338, "maps_url": "https://www.google.com/maps/search/?api=1&query=Cloudprisma&query_place_id=ChIJA-OJQs_7DDkR8uTuXHr_Puk"}, {"place_id": "ChIJVVVVJVrkDDkRpzSlu5B0ooM", "name": "Parangat Technologies", "street": "", "phone": "+91 87002 13345", "rating": "4.1", "review_count": "", "website": "https://www.parangat.com/", "latitude": 9.374110199999999, "longitude": -74.9524576, "maps_url": "https://www.google.com/maps/search/?api=1&query=Parangat%20Technologies&query_place_id=ChIJVVVVJVrkDDkRpzSlu5B0ooM"}, {"place_id": "ChIJ5yEznVziDDkRzyJWFWqH7eg", "name": "Corporate Professionals", "street": "D, 28, South Extension I, Block D, New Delhi, Delhi 110049, India", "phone": "+91 11 4062 2200", "rating": "4.4", "review_count": "", "website": "http://www.corporateprofessionals.com/", "latitude": 28.572223299999997, "longitude": 77.2203427, "maps_url": "https://www.google.com/maps/search/?api=1&query=Corporate%20Professionals&query_place_id=ChIJ5yEznVziDDkRzyJWFWqH7eg"}, {"place_id": "ChIJEyVQAlnkDDkRBG1GryF7pkM", "name": "RV Solutions Private Limited", "street": "D-72, D Block, Sector 2, Noida, Uttar Pradesh 201301, India", "phone": "+91 120 474 4000", "rating": "3.9", "review_count": "", "website": "https://www.rvsolutions.in/", "latitude": 28.5837109, "longitude": 77.3177917, "maps_url": "https://www.google.com/maps/search/?api=1&query=RV%20Solutions%20Private%20Limited&query_place_id=ChIJEyVQAlnkDDkRBG1GryF7pkM"}, {"place_id": "ChIJcz5rk53jDDkR0_8EcWpWInM", "name": "Utsao - Corporate & Business Gifts", "street": "S/F1, Bhaskar Bhavan, 1882/A, South Extension I, Block H, South Delhi, New Delhi, Delhi 110003, India", "phone": "+91 92897 38874", "rating": "4.7", "review_count": "", "website": "https://utsao.com/", "latitude": 28.570666, "longitude": 77.2222604, "maps_url": "https://www.google.com/maps/search/?api=1&query=Utsao%20-%20Corporate%20%26%20Business%20Gifts&query_place_id=ChIJcz5rk53jDDkR0_8EcWpWInM"}, {"place_id": "ChIJa7qbUsnjDDkRPwDDUOauMM0", "name": "SmartValue Limited New Delhi", "street": "M-17, Second Floor, Lajpat Nagar II, New Delhi, Delhi 110024, India", "phone": "+91 11 4101 5963", "rating": "4.9", "review_count": "", "website": "https://smartvalue.biz/", "latitude": 28.5685988, "longitude": 77.2476595, "maps_url": "https://www.google.com/maps/search/?api=1&query=SmartValue%20Limited%20New%20Delhi&query_place_id=ChIJa7qbUsnjDDkRPwDDUOauMM0"}, {"place_id": "ChIJIZW4JJrjDDkRqQX9KF5siG4", "name": "Cloude Data Delhi | Best Cloud Service Provider company in India", "street": "First Floor, A 212, Okhla Phase 3 Rd, near by hdfc bank, Okhla Phase III, Okhla Industrial Estate, New Delhi, Delhi 110020, India", "phone": "+91 88823 53612", "rating": "4.7", "review_count": "", "website": "https://cloudedata.com/", "latitude": 28.548515, "longitude": 77.2712834, "maps_url": "https://www.google.com/maps/search/?api=1&query=Cloude%20Data%20Delhi%20%7C%20Best%20Cloud%20Service%20Provider%20company%20in%20India&query_place_id=ChIJIZW4JJrjDDkRqQX9KF5siG4"}, {"place_id": "ChIJDVCoD_fiDDkR8AI4A4UDYv4", "name": "Doaba Luxury Travels (i) Pvt Ltd", "street": "#151, 152, Meharchand Market, Lodi Colony, New Delhi, Delhi 110003, India", "phone": "+91 98719 69696", "rating": "4.7", "review_count": "", "website": "http://www.doabaluxury.com/", "latitude": 28.581727299999997, "longitude": 77.227068, "maps_url": "https://www.google.com/maps/search/?api=1&query=Doaba%20Luxury%20Travels%20%28i%29%20Pvt%20Ltd&query_place_id=ChIJDVCoD_fiDDkR8AI4A4UDYv4"}, {"place_id": "ChIJWTpbbFbiDDkRwd3A3o0fkOE", "name": "Access Legal Group: Top Law Firm in Delhi/NCR", "street": "A-22, Block A, Defence Colony, New Delhi, Delhi 110024, India", "phone": "+91 98680 18764", "rating": "4.8", "review_count": "", "website": "http://www.accesslegalgroup.in/", "latitude": 28.577393299999997, "longitude": 77.2338096, "maps_url": "https://www.google.com/maps/search/?api=1&query=Access%20Legal%20Group%3A%20Top%20Law%20Firm%20in%20Delhi/NCR&query_place_id=ChIJWTpbbFbiDDkRwd3A3o0fkOE"}, {"place_id": "ChIJwWei-E3jDDkRyIj0RMkF7Qo", "name": "Ostello India", "street": "Jangpura Extension, Block A, Jungpura Extension, Jal Vihar, New Delhi, Delhi 110024, India", "phone": "+91 85952 62946", "rating": "4.5", "review_count": "", "website": "https://www.ostello.co.in/", "latitude": 28.5766097, "longitude": 77.24786809999999, "maps_url": "https://www.google.com/maps/search/?api=1&query=Ostello%20India&query_place_id=ChIJwWei-E3jDDkRyIj0RMkF7Qo"}, {"place_id": "ChIJux__hs3jDDkRxoobTG-_uyU", "name": "National Company Law Appellate Tribunal", "street": "2nd & 3rd Floor of Mahanagar Doorsanchar Sadan (M.T.N.L. Building), 9, Lodhi Rd, CGO Complex, Pragati Vihar, New Delhi, Delhi 110003, India", "phone": "+91 11 2430 6834", "rating": "4.4", "review_count": "", "website": "http://www.nclat.nic.in/", "latitude": 28.5845354, "longitude": 77.23733519999999, "maps_url": "https://www.google.com/maps/search/?api=1&query=National%20Company%20Law%20Appellate%20Tribunal&query_place_id=ChIJux__hs3jDDkRxoobTG-_uyU"}, {"place_id": "ChIJ____vwDjDDkR6Y6AiW5vNeE", "name": "Skylark Elevator Company", "street": "208, Defence Colony Flyover, Block M, Jungpura Extension, Market, New Delhi, Delhi 110024, India", "phone": "+91 11 2435 1869", "rating": "2.6", "review_count": "", "website": "https://www.skylarkelevator.com/", "latitude": 28.5801894, "longitude": 77.238514, "maps_url": "https://www.google.com/maps/search/?api=1&query=Skylark%20Elevator%20Company&query_place_id=ChIJ____vwDjDDkR6Y6AiW5vNeE"}, {"place_id": "ChIJh_C0fJTjDDkReHc8xEVtsA4", "name": "INTELIA LAW OFFICES (Advocates & Legal Advisors)", "street": "LGF, A-105, Block A, Defence Colony, New Delhi, Delhi 110024, India", "phone": "+91 11 4167 1010", "rating": "4.7", "review_count": "", "website": "http://www.intelialawoffices.com/home/", "latitude": 28.5771084, "longitude": 77.232889, "maps_url": "https://www.google.com/maps/search/?api=1&query=INTELIA%20LAW%20OFFICES%20%28Advocates%20%26%20Legal%20Advisors%29&query_place_id=ChIJh_C0fJTjDDkReHc8xEVtsA4"}, {"place_id": "ChIJ3zZ6k6DdDDkRkgv01RaHCjU", "name": "VS Square Info Solutions", "street": "Govardhan Building, Nehru Place, New Delhi, Delhi 110019, India", "phone": "+91 93191 73336", "rating": "4.9", "review_count": "", "website": "http://www.vssquareinfo.com/", "latitude": 28.5490526, "longitude": 77.251606, "maps_url": "https://www.google.com/maps/search/?api=1&query=VS%20Square%20Info%20Solutions&query_place_id=ChIJ3zZ6k6DdDDkRkgv01RaHCjU"}, {"place_id": "ChIJqf6gXDX9DDkRz71t7_HgKx8", "name": "Vayam Technologies Ltd.", "street": "Thapar House, 124, Janpath Ln, Janpath, Connaught Place, New Delhi, Delhi 110001, India", "phone": "+91 11 4710 1200", "rating": "3.8", "review_count": "", "website": "https://www.vayamtech.com/", "latitude": 28.624508, "longitude": 77.21805499999999, "maps_url": "https://www.google.com/maps/search/?api=1&query=Vayam%20Technologies%20Ltd.&query_place_id=ChIJqf6gXDX9DDkRz71t7_HgKx8"}, {"place_id": "ChIJgTxk5lniDDkRgPxTbL81wIg", "name": "Fast Track courier service.", "street": "Lower G.F, Sukhdev Market, A-180, Bhishma Pitamah Marg, South Extension I, Arjun Nagar, Kotla Mubarakpur, New Delhi, Delhi 110003, India", "phone": "+91 97185 10918", "rating": "4.8", "review_count": "", "website": "http://www.overnitenet.com/", "latitude": 28.574381199999998, "longitude": 77.2287746, "maps_url": "https://www.google.com/maps/search/?api=1&query=Fast%20Track%20courier%20service.&query_place_id=ChIJgTxk5lniDDkRgPxTbL81wIg"}, {"place_id": "ChIJISP8EAAbDTkRB_BcgUwV6RI", "name": "Prashant Dwivedi IT company", "street": "G3P5+GVC, Nayak Pura, Bijwasan, Delhi, 110061, India", "phone": "", "rating": "", "review_count": "", "website": "", "latitude": 28.536316, "longitude": 77.059649, "maps_url": "https://www.google.com/maps/search/?api=1&query=Prashant%20Dwivedi%20IT%20company&query_place_id=ChIJISP8EAAbDTkRB_BcgUwV6RI"}, {"place_id": "ChIJq6qqavziDDkRuk0JV1rplPI", "name": "Castrol India Limited", "street": "5th Floor, East Tower Nbcc Place, Pragati Vihar, B P Marg, Kotla Mubarakpur, Kotla Mubarakpur, New Delhi, Delhi 110003, India", "phone": "+91 11 2436 5025", "rating": "4.3", "review_count": "", "website": "http://www.castrol.com/", "latitude": 28.586782799999998, "longitude": 77.2311509, "maps_url": "https://www.google.com/maps/search/?api=1&query=Castrol%20India%20Limited&query_place_id=ChIJq6qqavziDDkRuk0JV1rplPI"}, {"place_id": "ChIJk7iRfy_jDDkRAvUpt36-wvc", "name": "Digital marketing Company, website Designing Company ( Logo Designing Company ) ( Online Marketplace )", "street": "120-G, Hari Nagar Ashram, New Delhi, Delhi 110065, India", "phone": "+91 89201 38925", "rating": "5", "review_count": "", "website": "https://royalcruiselimos.com/", "latitude": 28.5718902, "longitude": 77.2559809, "maps_url": "https://www.google.com/maps/search/?api=1&query=Digital%20marketing%20Company%2C%20website%20Designing%20Company%20%28%20Logo%20Designing%20Company%20%29%20%28%20Online%20Marketplace%20%29&query_place_id=ChIJk7iRfy_jDDkRAvUpt36-wvc"}, {"place_id": "ChIJp49ihIXjDDkRzmwE8r6TA-Y", "name": "EMKAY TRADING CO.", "street": "A-46, South Extension I, Bapu Park, Kotla Mubarakpur, New Delhi, Delhi 110003, India", "phone": "", "rating": "4.3", "review_count": "", "website": "", "latitude": 28.5750176, "longitude": 77.2209108, "maps_url": "https://www.google.com/maps/search/?api=1&query=EMKAY%20TRADING%20CO.&query_place_id=ChIJp49ihIXjDDkRzmwE8r6TA-Y"}, {"place_id": "ChIJIYasYFfiDDkR_lmSgmenxNc", "name": "Leges Juris Associates (Law Firm)", "street": "62, Block A, Defence Colony, New Delhi, Delhi 110024, India", "phone": "+91 11 4051 3913", "rating": "4.7", "review_count": "", "website": "http://www.legesjurisassociates.com/", "latitude": 28.576895, "longitude": 77.234059, "maps_url": "https://www.google.com/maps/search/?api=1&query=Leges%20Juris%20Associates%20%28Law%20Firm%29&query_place_id=ChIJIYasYFfiDDkR_lmSgmenxNc"}, {"place_id": "ChIJbQ1r2vDiDDkRQ0s0HsacuSE", "name": "Atelier Clout Media", "street": "", "phone": "+91 88269 25527", "rating": "5", "review_count": "", "website": "https://www.atelierclout.com/", "latitude": 21.0680074, "longitude": 82.7525294, "maps_url": "https://www.google.com/maps/search/?api=1&query=Atelier%20Clout%20Media&query_place_id=ChIJbQ1r2vDiDDkRQ0s0HsacuSE"}, {"place_id": "ChIJPWRiSlDiDDkRGpWLvSLXag8", "name": "PTIC Corporate Services Pvt. Ltd", "street": "C-345, Block C, Defence Colony, Delhi, New Delhi, Delhi 110024, India", "phone": "+91 97091 07555", "rating": "4.9", "review_count": "", "website": "http://pticindia.com/", "latitude": 28.5688626, "longitude": 77.23170979999999, "maps_url": "https://www.google.com/maps/search/?api=1&query=PTIC%20Corporate%20Services%20Pvt.%20Ltd&query_place_id=ChIJPWRiSlDiDDkRGpWLvSLXag8"}, {"place_id": "ChIJz2GuYFfiDDkRt7BVRtm1KjE", "name": "SPN Legal", "street": "177, A Block, Block A, Defence Colony, New Delhi, Delhi 110003, India", "phone": "+91 11 4980 0000", "rating": "4.5", "review_count": "", "website": "https://www.spnlegal.com/", "latitude": 28.577032799999998, "longitude": 77.2315587, "maps_url": "https://www.google.com/maps/search/?api=1&query=SPN%20Legal&query_place_id=ChIJz2GuYFfiDDkRt7BVRtm1KjE"}, {"place_id": "ChIJMyFUMtHjDDkRBgNvi-bqzMs", "name": "Silicofeller Quantum", "street": "Infinity Loops, Block B, Lajpat Nagar II, Lajpat Nagar, New Delhi, Delhi 110024, India", "phone": "", "rating": "4.5", "review_count": "", "website": "https://www.silicofeller.com/", "latitude": 28.5737165, "longitude": 77.23888749999999, "maps_url": "https://www.google.com/maps/search/?api=1&query=Silicofeller%20Quantum&query_place_id=ChIJMyFUMtHjDDkRBgNvi-bqzMs"}, {"place_id": "ChIJVVVVlVfhDDkRc3UN0AGouJs", "name": "DreamSoft Infotech - Website Development Company in India", "street": "A-75 Third Floor, A Block, Sector 5, Noida, Uttar Pradesh 201301, India", "phone": "+91 120 438 0622", "rating": "3.2", "review_count": "", "website": "https://dreamsoftinfotech.com/", "latitude": 28.591018899999998, "longitude": 77.32201529999999, "maps_url": "https://www.google.com/maps/search/?api=1&query=DreamSoft%20Infotech%20-%20Website%20Development%20Company%20in%20India&query_place_id=ChIJVVVVlVfhDDkRc3UN0AGouJs"}, {"place_id": "ChIJFwNbM5PjDDkR5yogrIdo8tY", "name": "DRM and COMPANY", "street": "O-30, ODS, Lajpat Nagar 4, Lajpat Nagar, New Delhi, Delhi 110024, India", "phone": "+91 88512 67277", "rating": "4.6", "review_count": "", "website": "http://www.drmcompany.co.in/", "latitude": 28.5644229, "longitude": 77.2485993, "maps_url": "https://www.google.com/maps/search/?api=1&query=DRM%20and%20COMPANY&query_place_id=ChIJFwNbM5PjDDkR5yogrIdo8tY"}, {"place_id": "ChIJh6VxGFX7DDkRfmvdv54mLPI", "name": "V.K.SINGH & CO.LAW FIRM", "street": "A-62, Block A, Defence Colony, New Delhi, Delhi 110024, India", "phone": "+91 98116 45002", "rating": "4.5", "review_count": "23", "website": "http://www.vksnco.com/", "latitude": 28.576895, "longitude": 77.234059, "maps_url": "https://www.google.com/maps/search/?api=1&query=V.K.SINGH%20%26%20CO.LAW%20FIRM&query_place_id=ChIJh6VxGFX7DDkRfmvdv54mLPI"}, {"place_id": "ChIJq11ZZh3jDDkRTFUwFLr5930", "name": "Balmer Lawrie & Co Ltd", "street": "Core 8, Ground Floor, SCOPE Complex, 7, Lodhi Rd, CGO Complex, Pragati Vihar, New Delhi, Delhi 110003, India", "phone": "+91 11 2436 0535", "rating": "3.6", "review_count": "", "website": "http://www.balmerlawrie.com/", "latitude": 28.586250999999997, "longitude": 77.237292, "maps_url": "https://www.google.com/maps/search/?api=1&query=Balmer%20Lawrie%20%26%20Co%20Ltd&query_place_id=ChIJq11ZZh3jDDkRTFUwFLr5930"}, {"place_id": "ChIJq11ZZh3jDDkRJvAgAIs2XRI", "name": "Modern Stage Service est. 1956", "street": "35, Lodhi Road, New Municipal Market, New Delhi, Delhi 110003, India", "phone": "+91 11 2461 9743", "rating": "4.3", "review_count": "", "website": "", "latitude": 28.581231, "longitude": 77.227266, "maps_url": "https://www.google.com/maps/search/?api=1&query=Modern%20Stage%20Service%20est.%201956&query_place_id=ChIJq11ZZh3jDDkRJvAgAIs2XRI"}, {"place_id": "ChIJq6qqqosdDTkR8NAH8kEo4IE", "name": "S SONY & COMPANY PVT. LTD", "street": "G-4, ANUPAMA BUILDING II FLOOR, Hauz Khas, New Delhi, Delhi 110016, India", "phone": "+91 11 3500 2651", "rating": "4.9", "review_count": "", "website": "http://ssony.in/", "latitude": 28.5510508, "longitude": 77.2048471, "maps_url": "https://www.google.com/maps/search/?api=1&query=S%20SONY%20%26%20COMPANY%20PVT.%20LTD&query_place_id=ChIJq6qqqosdDTkR8NAH8kEo4IE"}, {"place_id": "ChIJRwiDIVviDDkRvETGyB1rG_g", "name": "Sanjay Grover & Associates(Company Secretaries)", "street": "B-88, 1st Floor, Defence Colony, New Delhi, Delhi 110024, India", "phone": "+91 11 4679 0000", "rating": "4.8", "review_count": "", "website": "http://www.cssanjaygrover.in/resource/home.aspx", "latitude": 28.5681074, "longitude": 77.2258255, "maps_url": "https://www.google.com/maps/search/?api=1&query=Sanjay%20Grover%20%26%20Associates%28Company%20Secretaries%29&query_place_id=ChIJRwiDIVviDDkRvETGyB1rG_g"}, {"place_id": "ChIJeTnmxGviDDkRSxQ4iKAXRxo", "name": "Ikigai Law", "street": "D-295, Lower Ground Floor, Shiniwas Puri, Block D, Defence Colony, New Delhi, Delhi 110024, India", "phone": "+91 11 4283 1840", "rating": "4.5", "review_count": "", "website": "http://www.ikigailaw.com/", "latitude": 28.5726116, "longitude": 77.2349026, "maps_url": "https://www.google.com/maps/search/?api=1&query=Ikigai%20Law&query_place_id=ChIJeTnmxGviDDkRSxQ4iKAXRxo"}, {"place_id": "ChIJ94iqcVDjDDkRKKxM3g9cHGs", "name": "CAAQ Consultancy - Company Registration & Compliance Consultant Delhi", "street": "S/F, Bhaskar Bhavan, 1882/A, South Extension I, Kotla Mubarakpur, New Delhi, Delhi 110003, India", "phone": "", "rating": "4.1", "review_count": "", "website": "https://caaq.in/", "latitude": 28.570666, "longitude": 77.2222604, "maps_url": "https://www.google.com/maps/search/?api=1&query=CAAQ%20Consultancy%20-%20Company%20Registration%20%26%20Compliance%20Consultant%20Delhi&query_place_id=ChIJ94iqcVDjDDkRKKxM3g9cHGs"}, {"place_id": "ChIJX4RYyAfjDDkRheojUcJIKFA", "name": "Al Hassan Group | Global Leaders in Exports and Imports", "street": "14/746, 14/746, NH-19, Opposite-Rajdoot Hotel, Bhogal, New Delhi, Delhi 110014, India", "phone": "+91 95555 10115", "rating": "4.7", "review_count": "", "website": "http://www.alhassangroup.in/", "latitude": 28.582683099999997, "longitude": 77.2510777, "maps_url": "https://www.google.com/maps/search/?api=1&query=Al%20Hassan%20Group%20%7C%20Global%20Leaders%20in%20Exports%20and%20Imports&query_place_id=ChIJX4RYyAfjDDkRheojUcJIKFA"}, {"place_id": "ChIJ_R_A8FniDDkRIEPThXof3uo", "name": "JBA Concrete Solution P.Ltd.", "street": "135, Bhishma Pitamah Marg, South Extension I, Arjun Nagar, Kotla Mubarakpur, New Delhi, Delhi 110003, India", "phone": "+91 11 4155 3830", "rating": "4", "review_count": "", "website": "http://www.jbaindia.com/", "latitude": 28.573305899999998, "longitude": 77.2281299, "maps_url": "https://www.google.com/maps/search/?api=1&query=JBA%20Concrete%20Solution%20P.Ltd.&query_place_id=ChIJ_R_A8FniDDkRIEPThXof3uo"}, {"place_id": "ChIJWyZXv1TiDDkRdTHgfIgOXlA", "name": "Brand Visage Communications Pvt. Ltd.", "street": "2nd & 3rd floor, A-120, Block A, Lajpat Nagar I, Lajpat Nagar, New Delhi, Delhi 110024, India", "phone": "+91 97175 80410", "rating": "4.5", "review_count": "", "website": "https://brandvisage.com/", "latitude": 28.5742624, "longitude": 77.23923049999999, "maps_url": "https://www.google.com/maps/search/?api=1&query=Brand%20Visage%20Communications%20Pvt.%20Ltd.&query_place_id=ChIJWyZXv1TiDDkRdTHgfIgOXlA"}, {"place_id": "ChIJoYfpBFPiDDkR0IxobFyQg5g", "name": "Mayank Chopra & Company, Chartered Accountants", "street": "ground floor, B-23, Lajpat Nagar I, New Delhi, Delhi 110024, India", "phone": "+91 97111 87962", "rating": "5", "review_count": "", "website": "https://youtube.com/channel/UCQQSRyllGpD3_ikSvGjfwRw", "latitude": 28.5744381, "longitude": 77.2399812, "maps_url": "https://www.google.com/maps/search/?api=1&query=Mayank%20Chopra%20%26%20Company%2C%20Chartered%20Accountants&query_place_id=ChIJoYfpBFPiDDkR0IxobFyQg5g"}, {"place_id": "ChIJ575uiLLjDDkRQKhltzdLJMw", "name": "Techs To Suit, Inc.", "street": "H6FR+5F8, Block A, Lajpat Nagar I, Lajpat Nagar, New Delhi, Delhi 110024, India", "phone": "+91 11 4652 6520", "rating": "3.7", "review_count": "", "website": "", "latitude": 28.5729202, "longitude": 77.24121509999999, "maps_url": "https://www.google.com/maps/search/?api=1&query=Techs%20To%20Suit%2C%20Inc.&query_place_id=ChIJ575uiLLjDDkRQKhltzdLJMw"}, {"place_id": "ChIJ-YTmy4PjDDkRbFo5Bs0i820", "name": "Level Up The Photo Video Company | Corporate & Healthcare Video Production | Photography & Live Streaming Services", "street": "C - 546, Block C, Defence Colony, New Delhi, Delhi 110024, India", "phone": "+91 97189 79770", "rating": "5", "review_count": "", "website": "http://www.leveluppvc.com/", "latitude": 28.5670589, "longitude": 77.23005069999999, "maps_url": "https://www.google.com/maps/search/?api=1&query=Level%20Up%20The%20Photo%20Video%20Company%20%7C%20Corporate%20%26%20Healthcare%20Video%20Production%20%7C%20Photography%20%26%20Live%20Streaming%20Services&query_place_id=ChIJ-YTmy4PjDDkRbFo5Bs0i820"}, {"place_id": "ChIJr3TRZMHjDDkRfMKGsD763pg", "name": "Caba Innovatives - Multimedia Institute in Delhi Since 1993", "street": "E 79, Second Floor, South Extension I, Block E, New Delhi, Delhi 110049, India", "phone": "+91 98117 46259", "rating": "4.7", "review_count": "", "website": "https://www.caba.in/", "latitude": 28.570321, "longitude": 77.2209182, "maps_url": "https://www.google.com/maps/search/?api=1&query=Caba%20Innovatives%20-%20Multimedia%20Institute%20in%20Delhi%20Since%201993&query_place_id=ChIJr3TRZMHjDDkRfMKGsD763pg"}, {"place_id": "ChIJrSjwJtc_OmcRBkvgvL9CB-A", "name": "VMI Collective Private Limited", "street": "", "phone": "+91 95997 88455", "rating": "5", "review_count": "", "website": "https://www.vmi-collective.in/", "latitude": 28.468058, "longitude": 77.1157851, "maps_url": "https://www.google.com/maps/search/?api=1&query=VMI%20Collective%20Private%20Limited&query_place_id=ChIJrSjwJtc_OmcRBkvgvL9CB-A"}, {"place_id": "ChIJbT9k81viDDkRPZlxS_ycafE", "name": "Fireball Securitas | Security Guards Service | Top security services | Delhi India", "street": "1899, Uday Chand Marg, South Extension I, Kotla Mubarakpur, New Delhi, Delhi 110049, India", "phone": "+91 85869 77224", "rating": "4.6", "review_count": "", "website": "http://www.fireballindia.com/", "latitude": 28.5719329, "longitude": 77.221848, "maps_url": "https://www.google.com/maps/search/?api=1&query=Fireball%20Securitas%20%7C%20Security%20Guards%20Service%20%7C%20Top%20security%20services%20%7C%20Delhi%20India&query_place_id=ChIJbT9k81viDDkRPZlxS_ycafE"}, {"place_id": "ChIJV5b4yDX9DDkRdJwaZgRwvK0", "name": "Sterco Digitex Pvt Limited", "street": "2nd Floor, 72, Janpath Rd, Atul Grove Road, Janpath, Connaught Place, New Delhi, Delhi 110001, India", "phone": "+91 120 485 7333", "rating": "4.1", "review_count": "", "website": "https://www.stercodigitex.com/", "latitude": 28.628133, "longitude": 77.21985099999999, "maps_url": "https://www.google.com/maps/search/?api=1&query=Sterco%20Digitex%20Pvt%20Limited&query_place_id=ChIJV5b4yDX9DDkRdJwaZgRwvK0"}, {"place_id": "ChIJlfxVP1HiDDkRoIde0nL1TYo", "name": "India Estates", "street": "169, Block C, Defence Colony, New Delhi, Delhi 110024, India", "phone": "+91 98991 78902", "rating": "4.8", "review_count": "", "website": "https://india-estates.com/best_estate_agent_defence_colony.php", "latitude": 28.572155199999997, "longitude": 77.23331999999999, "maps_url": "https://www.google.com/maps/search/?api=1&query=India%20Estates&query_place_id=ChIJlfxVP1HiDDkRoIde0nL1TYo"}, {"place_id": "ChIJuSlg7T3jDDkR8VLPI0WUIZA", "name": "Weatherseal by Asian Paints", "street": "A 268 First Floor, Block A, Defence Colony, New Delhi, Delhi 110003, India", "phone": "+91 76765 19999", "rating": "4.8", "review_count": "", "website": "https://weatherseal.com/upvc-windows-delhi/", "latitude": 28.576696899999998, "longitude": 77.231175, "maps_url": "https://www.google.com/maps/search/?api=1&query=Weatherseal%20by%20Asian%20Paints&query_place_id=ChIJuSlg7T3jDDkR8VLPI0WUIZA"}, {"place_id": "ChIJM7bCPlfiDDkRVMxhg4JdaYE", "name": "AKU’S - The Burger Co. | Defence Colony", "street": "Shop No 35, Main Market, Block A, Defence Colony, New Delhi, Delhi 110024, India", "phone": "+91 88266 69279", "rating": "4.6", "review_count": "", "website": "http://www.akus.in/", "latitude": 28.573777, "longitude": 77.2305765, "maps_url": "https://www.google.com/maps/search/?api=1&query=AKU%E2%80%99S%20-%20The%20Burger%20Co.%20%7C%20Defence%20Colony&query_place_id=ChIJM7bCPlfiDDkRVMxhg4JdaYE"}, {"place_id": "ChIJVVWlf2f9DDkRHDmtLKmw-dE", "name": "Aegis Legal LLP, Advocates", "street": "A-420, LGF, Block A, Defence Colony, New Delhi, Delhi 110024, India", "phone": "+91 98105 15155", "rating": "4.8", "review_count": "", "website": "http://www.aegislegalllp.com/", "latitude": 28.57546, "longitude": 77.23241399999999, "maps_url": "https://www.google.com/maps/search/?api=1&query=Aegis%20Legal%20LLP%2C%20Advocates&query_place_id=ChIJVVWlf2f9DDkRHDmtLKmw-dE"}, {"place_id": "ChIJuU0cho7jDDkRQSC_i1MTshg", "name": "Corporate Gift by What A Shop - Corporate Gift Company in Delhi | Pharma & Events gift | Employee Joining Kit | Diwali Gifts", "street": "826, South Extension I, Arjun Nagar, Kotla Mubarakpur, New Delhi, Delhi 110003, India", "phone": "+91 99904 06003", "rating": "5", "review_count": "", "website": "https://www.whatashop.in/", "latitude": 28.5730045, "longitude": 77.2274676, "maps_url": "https://www.google.com/maps/search/?api=1&query=Corporate%20Gift%20by%20What%20A%20Shop%20-%20Corporate%20Gift%20Company%20in%20Delhi%20%7C%20Pharma%20%26%20Events%20gift%20%7C%20Employee%20Joining%20Kit%20%7C%20Diwali%20Gifts&query_place_id=ChIJuU0cho7jDDkRQSC_i1MTshg"}, {"place_id": "ChIJp8bFql3iDDkRxH_07xofJWI", "name": "Nitin Mittal & Co.", "street": "C 21b, South Extension I, Block C, New Delhi, Delhi 110049, India", "phone": "+91 98101 47514", "rating": "4.7", "review_count": "", "website": "http://nmcindia.net/", "latitude": 28.572980899999997, "longitude": 77.2193036, "maps_url": "https://www.google.com/maps/search/?api=1&query=Nitin%20Mittal%20%26%20Co.&query_place_id=ChIJp8bFql3iDDkRxH_07xofJWI"}, {"place_id": "ChIJ1WnUxFniDDkRHtrBAPG3ijo", "name": "VIBGYOR STUDIOS", "street": "752B, Flat No-G, 2nd Floor, Sukhdev Nagar Kotla Mubarakpur, Near:, Defence Colony, New Delhi, Delhi 110003, India", "phone": "+91 98991 89159", "rating": "4.8", "review_count": "", "website": "https://www.vibgyorstudios.com/", "latitude": 28.5747432, "longitude": 77.2277697, "maps_url": "https://www.google.com/maps/search/?api=1&query=VIBGYOR%20STUDIOS&query_place_id=ChIJ1WnUxFniDDkRHtrBAPG3ijo"}, {"place_id": "ChIJD78JU6rjDDkRMdNJt9ZgHfY", "name": "Jupiter Administrative & Security Services", "street": "B-112, Block B, Lajpat Nagar I, Lajpat Nagar, New Delhi, Delhi 110024, India", "phone": "+91 99535 91638", "rating": "3.5", "review_count": "", "website": "https://www.jupitersecurity.in/", "latitude": 28.578349799999998, "longitude": 77.2406191, "maps_url": "https://www.google.com/maps/search/?api=1&query=Jupiter%20Administrative%20%26%20Security%20Services&query_place_id=ChIJD78JU6rjDDkRMdNJt9ZgHfY"}, {"place_id": "ChIJsQ9n0bHjDDkRRTP63-_szw8", "name": "JKGA Law Chambers", "street": "A 200, Block A, Defence Colony, New Delhi, Delhi 110003, India", "phone": "", "rating": "4.7", "review_count": "", "website": "", "latitude": 28.5772065, "longitude": 77.2304083, "maps_url": "https://www.google.com/maps/search/?api=1&query=JKGA%20Law%20Chambers&query_place_id=ChIJsQ9n0bHjDDkRRTP63-_szw8"}, {"place_id": "ChIJd4hgbPvhDDkRPaHT00ZPSyU", "name": "adivaha® -Travel Technology Company", "street": "E 252 1st Floor Sant Nagar, East Of Kailsh, New Delhi, Delhi 110065, India", "phone": "", "rating": "3", "review_count": "", "website": "https://www.adivaha.com/", "latitude": 28.555513899999998, "longitude": 77.2502335, "maps_url": "https://www.google.com/maps/search/?api=1&query=adivaha%C2%AE%20-Travel%20Technology%20Company&query_place_id=ChIJd4hgbPvhDDkRPaHT00ZPSyU"}, {"place_id": "ChIJvcnY4x3jDDkRABmKmvLxsp8", "name": "Mint Relocation Packers And Movers", "street": "18, Market No.3, Chitranjan Park, Shop No, New Delhi, Delhi 110019, India", "phone": "+91 98217 79823", "rating": "4.8", "review_count": "", "website": "https://mintrelocationpackers.com/packers-and-movers-Chitranjan-Park-New-Delhi/", "latitude": 28.5754423, "longitude": 77.2413986, "maps_url": "https://www.google.com/maps/search/?api=1&query=Mint%20Relocation%20Packers%20And%20Movers&query_place_id=ChIJvcnY4x3jDDkRABmKmvLxsp8"}]