[{"place_id": "ChIJO4sr49IDDTkRALZaeWsr-oI", "name": "Iraitech | Software Development Company", "street": "Central Square Complex 3, Unit No-1051, 1st Floor, Near Filmistan, DCM chowk, Bara Hindu Rao, Kishan Ganj, Delhi, 110006, India", "phone": "+91 81301 04108", "rating": "4.1", "review_count": "", "website": "https://www.iraitech.com/", "latitude": 28.6631951, "longitude": 77.20308639999999, "maps_url": "https://www.google.com/maps/search/?api=1&query=Iraitech%20%7C%20Software%20Development%20Company&query_place_id=ChIJO4sr49IDDTkRALZaeWsr-oI"}, {"place_id": "ChIJ8bD3oe-1bTkRhQOwVrfg-vw", "name": "One Aim IT Solutions", "street": "2/41/2 , 1st Floor, Sadar Bazar , Moradabad Pahari ,TO.Delhi Cantt, Distt:, South West, New Delhi, Delhi 110006, India", "phone": "+91 89552 49714", "rating": "5", "review_count": "", "website": "https://theoneaim.in/", "latitude": 28.6580968, "longitude": 77.2124735, "maps_url": "https://www.google.com/maps/search/?api=1&query=One%20Aim%20IT%20Solutions&query_place_id=ChIJ8bD3oe-1bTkRhQOwVrfg-vw"}, {"place_id": "ChIJwQxhyFb9DDkRYwi9lZALngM", "name": "Gupta Computer Care", "street": "GF, H, 7939, Arakashan Rd, near GURUDWARA, Prem Nagar, Arya Nagar, Paharganj, New Delhi, Delhi, 110055, India", "phone": "+91 88003 78108", "rating": "4.9", "review_count": "", "website": "https://guptacomputercare.com/", "latitude": 28.645704799999997, "longitude": 77.2176284, "maps_url": "https://www.google.com/maps/search/?api=1&query=Gupta%20Computer%20Care&query_place_id=ChIJwQxhyFb9DDkRYwi9lZALngM"}, {"place_id": "ChIJC3MN3zb9DDkR-JxtEG9cQg0", "name": "I. T. Solutions", "street": "Gate No. 8, A-6, 1st Floor, Inner Circle, Above Post office, near ICICI Bank, Bon Ton and Metro, Connaught Place, New Delhi, Delhi 110001, India", "phone": "+91 11 4152 3242", "rating": "4.9", "review_count": "", "website": "http://www.itsolutioncp.com/", "latitude": 28.6324367, "longitude": 77.2183441, "maps_url": "https://www.google.com/maps/search/?api=1&query=I.%20T.%20Solutions&query_place_id=ChIJC3MN3zb9DDkR-JxtEG9cQg0"}, {"place_id": "ChIJTYIfiH79DDkRyQl1iNCxQp0", "name": "NXTGN (Next Generation)", "street": "Laxman Puri, L-312, Tel Mil Gali, near White House Hotel, Ram Nagar, Paharganj, New Delhi, Delhi 110055, India", "phone": "+91 70117 22361", "rating": "5", "review_count": "", "website": "https://nxtgn.co.in/", "latitude": 28.6471698, "longitude": 77.21432779999999, "maps_url": "https://www.google.com/maps/search/?api=1&query=NXTGN%20%28Next%20Generation%29&query_place_id=ChIJTYIfiH79DDkRyQl1iNCxQp0"}, {"place_id": "ChIJ1YfTA1j9DDkRtFLCIrG6hN4", "name": "COMPUTER SERVICE WALA", "street": "7939, Arakashan Rd, Prem Nagar, Arya Nagar, Paharganj, New Delhi, Delhi, 110055, India", "phone": "+91 82872 91074", "rating": "5", "review_count": "", "website": "https://www.computerservicewala.com/?utm_source=google&utm_medium=wix_google_business_profile&utm_campaign=17238155820390660443", "latitude": 28.645704799999997, "longitude": 77.2176284, "maps_url": "https://www.google.com/maps/search/?api=1&query=COMPUTER%20SERVICE%20WALA&query_place_id=ChIJ1YfTA1j9DDkRtFLCIrG6hN4"}, {"place_id": "ChIJ1zgo5mr9DDkRrLYV2Xkrsg0", "name": "Laptop & School bags Manufacture", "street": "L 288, Tel Mill Gali, Laxmipuri, Paharganj, New Delhi, Delhi 110055, India", "phone": "+91 93544 29890", "rating": "4.7", "review_count": "", "website": "https://flytopbag.com/", "latitude": 28.6483246, "longitude": 77.2158663, "maps_url": "https://www.google.com/maps/search/?api=1&query=Laptop%20%26%20School%20bags%20Manufacture&query_place_id=ChIJ1zgo5mr9DDkRrLYV2Xkrsg0"}, {"place_id": "ChIJK-WxmpH9DDkRwaC5frsh24c", "name": "BANLEX", "street": "L-306, 1st Floor and 2nd floor,TEL MILL Gali Bhairo Wali, near Mehta Paints, Paharganj, New Delhi, Delhi 110055, India", "phone": "+91 78386 14783", "rating": "4.9", "review_count": "", "website": "", "latitude": 28.6472999, "longitude": 77.2141065, "maps_url": "https://www.google.com/maps/search/?api=1&query=BANLEX&query_place_id=ChIJK-WxmpH9DDkRwaC5frsh24c"}, {"place_id": "ChIJ1x6Qkx_jDDkRYG2SRqlSaSI", "name": "Graposs Edutech Private Limited", "street": "1/22, 2nd Floor, Asaf Ali Rd, New Delhi, Delhi 110006, India", "phone": "+91 84485 53963", "rating": "4.7", "review_count": "", "website": "https://grapossconnect.com/", "latitude": 28.6443537, "longitude": 77.2267774, "maps_url": "https://www.google.com/maps/search/?api=1&query=Graposs%20Edutech%20Private%20Limited&query_place_id=ChIJ1x6Qkx_jDDkRYG2SRqlSaSI"}, {"place_id": "ChIJD34Ip2r9DDkR9Zkf1VkwVCo", "name": "Quality Label Company", "street": "opposte hotel, Arya Tourist Lodge, 7802, Arakashan Rd, Prem Nagar, Ram Nagar, Paharganj, New Delhi, Delhi, 110055, India", "phone": "+91 99710 89892", "rating": "4.9", "review_count": "", "website": "http://www.qualitylabel.co.in/", "latitude": 28.645817899999997, "longitude": 77.2170545, "maps_url": "https://www.google.com/maps/search/?api=1&query=Quality%20Label%20Company&query_place_id=ChIJD34Ip2r9DDkR9Zkf1VkwVCo"}, {"place_id": "ChIJCef7XhT9DDkR3yHHC4Lofpg", "name": "Kalpurja Company", "street": "72, GB Road, Shradhanand Marg, Delhi 6, Chandni Chowk, Delhi, 110006, India", "phone": "", "rating": "4.5", "review_count": "", "website": "http://www.kalpurjacompany.com/", "latitude": 28.650322499999998, "longitude": 77.2209807, "maps_url": "https://www.google.com/maps/search/?api=1&query=Kalpurja%20Company&query_place_id=ChIJCef7XhT9DDkR3yHHC4Lofpg"}, {"place_id": "ChIJd-3rnjD9DDkRC1ouB5NrtvU", "name": "ITI Tools Co (INDIAN TECHNOLOGY CO.)", "street": "3675, Shradhanand Marg, Chabdi Bazar, Ajmeri Gate, New Delhi, Delhi, 110006, India", "phone": "+91 98714 08551", "rating": "3.2", "review_count": "", "website": "", "latitude": 28.648723399999998, "longitude": 77.2218827, "maps_url": "https://www.google.com/maps/search/?api=1&query=ITI%20Tools%20Co%20%28INDIAN%20TECHNOLOGY%20CO.%29&query_place_id=ChIJd-3rnjD9DDkRC1ouB5NrtvU"}, {"place_id": "ChIJZykFo679DDkRfLfUJvrZRPQ", "name": "Aizmo Wallet", "street": "C-227, Chinyot Basti, Nabi Karim, Paharganj, New Delhi, Delhi 110055, India", "phone": "", "rating": "4.5", "review_count": "", "website": "", "latitude": 28.648297699999997, "longitude": 77.2132917, "maps_url": "https://www.google.com/maps/search/?api=1&query=Aizmo%20Wallet&query_place_id=ChIJZykFo679DDkRfLfUJvrZRPQ"}, {"place_id": "ChIJAQAAAG_9DDkRFyl46Foh0ns", "name": "Shree Krishna Engineering Company (Lovely Fasteners & Tools)", "street": "Gate No.1, Metro Station, 73/74, Deen Dayal Upadhaya Market, opp. Tanga Stand, next to Chawri Bazar, Hauz Qazi, New Delhi, Delhi 110006, India", "phone": "+91 11 4100 3034", "rating": "4.9", "review_count": "", "website": "http://www.lovelyfasteners.com/", "latitude": 28.6483748, "longitude": 77.2263569, "maps_url": "https://www.google.com/maps/search/?api=1&query=Shree%20Krishna%20Engineering%20Company%20%28Lovely%20Fasteners%20%26%20Tools%29&query_place_id=ChIJAQAAAG_9DDkRFyl46Foh0ns"}, {"place_id": "ChIJoZk8Znn9DDkRmEeBSuU-CDg", "name": "Taroz", "street": "AB 327, Amar Puri, Nabi Karim, Paharganj, New Delhi, Delhi 110055, India", "phone": "", "rating": "5", "review_count": "", "website": "http://taroz.in/", "latitude": 28.648650999999997, "longitude": 77.2147229, "maps_url": "https://www.google.com/maps/search/?api=1&query=Taroz&query_place_id=ChIJoZk8Znn9DDkRmEeBSuU-CDg"}, {"place_id": "ChIJuS06_6T9DDkRGVwzoWf9FQc", "name": "Kamonk", "street": "Kamonk Projects Private Limited, 3645, IInd Floor, Chawri Bazar, Hauz Qazi, New Delhi, Delhi 110006, India", "phone": "", "rating": "4.5", "review_count": "", "website": "http://www.kamonk.in/", "latitude": 28.649371799999997, "longitude": 77.2274109, "maps_url": "https://www.google.com/maps/search/?api=1&query=Kamonk&query_place_id=ChIJuS06_6T9DDkRGVwzoWf9FQc"}, {"place_id": "ChIJO2tzUa2wTAARwJcWEKyw7FY", "name": "DNG WEB DEVELOPER - Website Development and Designing Company Delhi | App Development | Digital Marketing Company in Delhi", "street": "J6W7+475, Arya Nagar, Paharganj, New Delhi, Delhi 110055, India", "phone": "", "rating": "", "review_count": "", "website": "https://www.dngwebdeveloper.com/", "latitude": 28.6452545, "longitude": 77.2132341, "maps_url": "https://www.google.com/maps/search/?api=1&query=DNG%20WEB%20DEVELOPER%20-%20Website%20Development%20and%20Designing%20Company%20Delhi%20%7C%20App%20Development%20%7C%20Digital%20Marketing%20Company%20in%20Delhi&query_place_id=ChIJO2tzUa2wTAARwJcWEKyw7FY"}, {"place_id": "ChIJf2RLJxb9DDkRq5nIuDsDeLk", "name": "N.C. BOLT CO.", "street": "141, Ajmere Gate Rd, Kucha Tiku Shah, Ajmeri Gate, New Delhi, Delhi, 110006, India", "phone": "+91 88003 88343", "rating": "5", "review_count": "", "website": "", "latitude": 28.647105, "longitude": 77.22507499999999, "maps_url": "https://www.google.com/maps/search/?api=1&query=N.C.%20BOLT%20CO.&query_place_id=ChIJf2RLJxb9DDkRq5nIuDsDeLk"}, {"place_id": "ChIJVVsDmpn9DDkR8_akqpvqKbI", "name": "Fasteners King Private Limited - Hilti Fischer Milwaukee Wurth Distributor", "street": "1st Floor, Hauz Qazi, 3438, Chawri Bazar, METRO, New Delhi, Delhi 110006, India", "phone": "+91 85058 50569", "rating": "4.9", "review_count": "", "website": "http://www.fastenersking.com/", "latitude": 28.6493932, "longitude": 77.2266758, "maps_url": "https://www.google.com/maps/search/?api=1&query=Fasteners%20King%20Private%20Limited%20-%20Hilti%20Fischer%20Milwaukee%20Wurth%20Distributor&query_place_id=ChIJVVsDmpn9DDkR8_akqpvqKbI"}, {"place_id": "ChIJ____Gxj9DDkRwg55bIqX4zg", "name": "AAUZAAR | Batra Business Centre", "street": "3477-3478, Hauz Qazi Chowk, Bazar Sirkiwalan, Khush Dil, Chandni Chowk, New Delhi, Delhi, 110006, India", "phone": "+91 87503 38000", "rating": "4.4", "review_count": "", "website": "https://aauzaar.mini.store/", "latitude": 28.6494666, "longitude": 77.2266965, "maps_url": "https://www.google.com/maps/search/?api=1&query=AAUZAAR%20%7C%20Batra%20Business%20Centre&query_place_id=ChIJ____Gxj9DDkRwg55bIqX4zg"}, {"place_id": "ChIJ94m9_p79DDkRvm7QiwcnZQ0", "name": "Abdullah Khan", "street": "shop no 1, Ratan Lal Market, Kaseru Walan, Paharganj, New Delhi, Delhi 110055, India", "phone": "+91 80761 21114", "rating": "5", "review_count": "", "website": "", "latitude": 28.6446407, "longitude": 77.2141139, "maps_url": "https://www.google.com/maps/search/?api=1&query=Abdullah%20Khan&query_place_id=ChIJ94m9_p79DDkRvm7QiwcnZQ0"}, {"place_id": "ChIJqZV06mb9DDkRAS_7VMEm--k", "name": "IndiaLocalShop", "street": "HN 4289, 3rd Floor, Gali Shahtar, behind Shardhanand Marg, Delhi, 110006, India", "phone": "", "rating": "4", "review_count": "", "website": "http://indialocalshop.com/", "latitude": 28.6482872, "longitude": 77.2229732, "maps_url": "https://www.google.com/maps/search/?api=1&query=IndiaLocalShop&query_place_id=ChIJqZV06mb9DDkRAS_7VMEm--k"}, {"place_id": "ChIJl0O_Kun9DDkRRG0USQH2Kuk", "name": "AHLAN TRADER COMPANY", "street": "AHLAN TRADER,BB-115,First Floor Bagrian Basti, Nabi Karim, Paharganj, New Delhi, Delhi 110055, India", "phone": "+91 70422 50150", "rating": "5", "review_count": "", "website": "", "latitude": 28.650358699999998, "longitude": 77.2149998, "maps_url": "https://www.google.com/maps/search/?api=1&query=AHLAN%20TRADER%20COMPANY&query_place_id=ChIJl0O_Kun9DDkRRG0USQH2Kuk"}, {"place_id": "ChIJkQj4w3H9DDkRi2xtXV3_fdE", "name": "Omrook Industries Pvt. Ltd.", "street": "4289, Gali Shahtara, shardanad marg, Gali Shahtara, near Rabia market, Delhi, 110006, India", "phone": "+91 77038 69803", "rating": "4.2", "review_count": "", "website": "https://omrook.com/", "latitude": 28.647834999999997, "longitude": 77.2249157, "maps_url": "https://www.google.com/maps/search/?api=1&query=Omrook%20Industries%20Pvt.%20Ltd.&query_place_id=ChIJkQj4w3H9DDkRi2xtXV3_fdE"}, {"place_id": "ChIJMduAwxX9DDkR7JELXl_79co", "name": "NEW INDIA MANUFACTURING COMPANY", "street": "G. B. Road, Behind Shardhanand Marg, Chowk Niarian 2851, Fasil Road, Shah Ganj, Chandni Chowk New Delhi New Delhi, Delhi, 110006, India", "phone": "+91 99991 01667", "rating": "4", "review_count": "", "website": "", "latitude": 28.6484396, "longitude": 77.2225158, "maps_url": "https://www.google.com/maps/search/?api=1&query=NEW%20INDIA%20MANUFACTURING%20COMPANY&query_place_id=ChIJMduAwxX9DDkR7JELXl_79co"}, {"place_id": "ChIJM3Cts6YBDTkRURzktpFYX2A", "name": "Mittal Merchandisers Co.", "street": "4879, Phatak Namak St, Bazar Sirkiwalan, Kaccha Pandit Main Bazar, Chawri Bazar, Old Delhi, New Delhi, Delhi, 110006, India", "phone": "+91 80 4896 1646", "rating": "4.4", "review_count": "", "website": "http://www.mmcfixings.com/", "latitude": 28.6492293, "longitude": 77.2257315, "maps_url": "https://www.google.com/maps/search/?api=1&query=Mittal%20Merchandisers%20Co.&query_place_id=ChIJM3Cts6YBDTkRURzktpFYX2A"}, {"place_id": "ChIJyyQSWNf9DDkR70bZrKswgP8", "name": "SIYA INDUSTRIES", "street": "Laxmi Insurance Building, Ground Floor, Back Side, Asaf Ali Rd, New Delhi, Delhi 110002, India", "phone": "+91 98712 75162", "rating": "4.7", "review_count": "", "website": "https://www.siyaindustries.com/", "latitude": 28.644556599999998, "longitude": 77.2264873, "maps_url": "https://www.google.com/maps/search/?api=1&query=SIYA%20INDUSTRIES&query_place_id=ChIJyyQSWNf9DDkR70bZrKswgP8"}, {"place_id": "ChIJr1H22eP9DDkR9qc-MF2LyQE", "name": "Donear and Oddessey Power Tools", "street": "542, Kucha Pati Ram Rd, Bazar Sita Ram, Kucha Pati Ram, Chandni Chowk, Delhi, 110006, India", "phone": "", "rating": "4.9", "review_count": "", "website": "", "latitude": 28.6475208, "longitude": 77.22694229999999, "maps_url": "https://www.google.com/maps/search/?api=1&query=Donear%20and%20Oddessey%20Power%20Tools&query_place_id=ChIJr1H22eP9DDkR9qc-MF2LyQE"}, {"place_id": "ChIJk8GQlhf9DDkRmLI01UvUXDc", "name": "Vijay engineering corporation", "street": "4762, first floor,, Hauz Qazi, Behind Tanga Stand, Delhi, 110006, India", "phone": "+91 95993 82992", "rating": "5", "review_count": "", "website": "http://www.vechoses.com/", "latitude": 28.649147, "longitude": 77.226131, "maps_url": "https://www.google.com/maps/search/?api=1&query=Vijay%20engineering%20corporation&query_place_id=ChIJk8GQlhf9DDkRmLI01UvUXDc"}, {"place_id": "ChIJZUlYZ3f9DDkRMbKBGVVvAzc", "name": "Anmol Traders", "street": "Third Floor 5224, Nigam Market, Shradhanand Marg, Ajmeri Gate, Delhi, 110006, India", "phone": "+91 78383 60676", "rating": "4.9", "review_count": "", "website": "", "latitude": 28.646753399999998, "longitude": 77.223201, "maps_url": "https://www.google.com/maps/search/?api=1&query=Anmol%20Traders&query_place_id=ChIJZUlYZ3f9DDkRMbKBGVVvAzc"}, {"place_id": "ChIJdc5JAj39DDkRCI09frDpEVU", "name": "22 Workspace 01", "street": "1, 22, Asaf Ali Rd, Kucha Pati Ram, Ajmeri Gate, New Delhi, Delhi, 110006, India", "phone": "+91 87005 13200", "rating": "3.9", "review_count": "", "website": "https://www.22workspace.com/", "latitude": 28.6445179, "longitude": 77.2265391, "maps_url": "https://www.google.com/maps/search/?api=1&query=22%20Workspace%2001&query_place_id=ChIJdc5JAj39DDkRCI09frDpEVU"}, {"place_id": "ChIJAQAAQN_8DDkRc75-dGe2Zek", "name": "Shiva Industries", "street": "No. 1, Shop No. 4646, opp. Chawri Bazar Road, inside Ajmeri Gate, New Delhi, Delhi 110006, India", "phone": "+91 93126 37176", "rating": "4", "review_count": "", "website": "https://shivaindustries.net/", "latitude": 28.6483153, "longitude": 77.2258744, "maps_url": "https://www.google.com/maps/search/?api=1&query=Shiva%20Industries&query_place_id=ChIJAQAAQN_8DDkRc75-dGe2Zek"}, {"place_id": "ChIJUxxeUxX9DDkRuuBQshLqJ6A", "name": "CCTV Delhi Wala (Dhun Solutions)", "street": "7832, Qutab Rd, near kotak bank ATM, Prem Nagar, Ram Nagar, Paharganj, New Delhi, Delhi, 110055, India", "phone": "", "rating": "4.7", "review_count": "", "website": "http://www.cctvdelhiwala.com/", "latitude": 28.6457916, "longitude": 77.217581, "maps_url": "https://www.google.com/maps/search/?api=1&query=CCTV%20Delhi%20Wala%20%28Dhun%20Solutions%29&query_place_id=ChIJUxxeUxX9DDkRuuBQshLqJ6A"}, {"place_id": "ChIJOZg1wIPnDDkRPhSCTVkZ0Rg", "name": "International Business Startup & Entrepreneurs Association", "street": "1/22, Asaf Ali Rd, Kucha Pati Ram, Ajmeri Gate, New Delhi, Delhi, 110006, India", "phone": "", "rating": "5", "review_count": "", "website": "https://www.ibsea.in/", "latitude": 28.6446309, "longitude": 77.22598909999999, "maps_url": "https://www.google.com/maps/search/?api=1&query=International%20Business%20Startup%20%26%20Entrepreneurs%20Association&query_place_id=ChIJOZg1wIPnDDkRPhSCTVkZ0Rg"}, {"place_id": "ChIJZRpajZL9DDkRsRooVyOtp5Q", "name": "Cyberianhunter", "street": "Ram Nagar, Paharganj, New Delhi, Delhi 110055, India", "phone": "+91 77070 74742", "rating": "", "review_count": "", "website": "https://cyberianhunter.ueniweb.com/?utm_campaign=gmb", "latitude": 28.646826599999997, "longitude": 77.2153664, "maps_url": "https://www.google.com/maps/search/?api=1&query=Cyberianhunter&query_place_id=ChIJZRpajZL9DDkRsRooVyOtp5Q"}, {"place_id": "ChIJVQDfcCT7DDkRsDb3ylWPT9A", "name": "Writers4you | Website and SEO Content Writing Services Agency DELHI GURGAON MUMBAI INDIA", "street": "2nd floor, 1/22, Asaf Ali Rd, Kucha Pati Ram, Chandni Chowk, New Delhi, Delhi, 110002, India", "phone": "+91 87503 24898", "rating": "4.7", "review_count": "", "website": "https://www.writers4you.co.in/", "latitude": 28.6445322, "longitude": 77.2265479, "maps_url": "https://www.google.com/maps/search/?api=1&query=Writers4you%20%7C%20Website%20and%20SEO%20Content%20Writing%20Services%20Agency%20DELHI%20GURGAON%20MUMBAI%20INDIA&query_place_id=ChIJVQDfcCT7DDkRsDb3ylWPT9A"}, {"place_id": "ChIJj7lfm9j9DDkRbvyjBGrCXEY", "name": "RMH INFRA PROJECT PRIVATE LIMITED", "street": "Office 59, RaghuShree Market, Kucha Tiku Shah, Ajmeri Gate, Delhi, 110006, India", "phone": "", "rating": "4.9", "review_count": "", "website": "https://rmhprojects.com/", "latitude": 28.646280299999997, "longitude": 77.2246802, "maps_url": "https://www.google.com/maps/search/?api=1&query=RMH%20INFRA%20PROJECT%20PRIVATE%20LIMITED&query_place_id=ChIJj7lfm9j9DDkRbvyjBGrCXEY"}, {"place_id": "ChIJTwbQB0L9DDkReXXIWTtuNpk", "name": "RC TRADING COMPANY", "street": "Amar Puri, Aram Nagar, Paharganj, New Delhi, Delhi 110055, India", "phone": "+91 99902 38080", "rating": "4.3", "review_count": "", "website": "", "latitude": 28.6499015, "longitude": 77.21546239999999, "maps_url": "https://www.google.com/maps/search/?api=1&query=RC%20TRADING%20COMPANY&query_place_id=ChIJTwbQB0L9DDkReXXIWTtuNpk"}, {"place_id": "ChIJKR67l4f9DDkRKzePbVPjX-M", "name": "Print It 4 U", "street": "2nd Floor, Sangatrashan, 3198/15, Gali Number 1, Paharganj, New Delhi, Delhi 110055, India", "phone": "+91 99711 17035", "rating": "5", "review_count": "", "website": "https://www.printit4u.in/", "latitude": 28.644758, "longitude": 77.213082, "maps_url": "https://www.google.com/maps/search/?api=1&query=Print%20It%204%20U&query_place_id=ChIJKR67l4f9DDkRKzePbVPjX-M"}, {"place_id": "ChIJ1aHbfzH9DDkRMcD1idRbjzE", "name": "Thetechrahul", "street": "233, Bhavbhuti Marg, Kamla Market, Ajmeri Gate, Delhi, 110002, India", "phone": "+91 93103 28185", "rating": "4.4", "review_count": "", "website": "https://www.thetechrahul.com/", "latitude": 28.6445428, "longitude": 77.2258196, "maps_url": "https://www.google.com/maps/search/?api=1&query=Thetechrahul&query_place_id=ChIJ1aHbfzH9DDkRMcD1idRbjzE"}, {"place_id": "ChIJ____Gxj9DDkRUGO_HFuKf5Q", "name": "Royal Tube Company", "street": "3354, Bazar Sirkiwalan, Hauz Qazi, Old Delhi, Delhi, 110006, India", "phone": "+91 93122 10807", "rating": "4.8", "review_count": "", "website": "", "latitude": 28.6500941, "longitude": 77.2260733, "maps_url": "https://www.google.com/maps/search/?api=1&query=Royal%20Tube%20Company&query_place_id=ChIJ____Gxj9DDkRUGO_HFuKf5Q"}, {"place_id": "ChIJ0QKEuz39DDkRDKuPJNAoSEo", "name": "Surendra Subhash and Company", "street": "2nd Floor, Bansi House, 1/24, Asaf Ali Road, New Delhi, Delhi 110006, India", "phone": "+91 98110 59638", "rating": "4.5", "review_count": "", "website": "", "latitude": 28.6444384, "longitude": 77.22670169999999, "maps_url": "https://www.google.com/maps/search/?api=1&query=Surendra%20Subhash%20and%20Company&query_place_id=ChIJ0QKEuz39DDkRDKuPJNAoSEo"}, {"place_id": "ChIJa-kUhWr9DDkRKiAPhVPMx5M", "name": "Shrimad India Pvt. Ltd.", "street": "8591, Market, Ram Nagar, Paharganj, Murti, New Delhi, Delhi 110055, India", "phone": "+91 99103 12574", "rating": "4.9", "review_count": "", "website": "", "latitude": 28.6455234, "longitude": 77.217827, "maps_url": "https://www.google.com/maps/search/?api=1&query=Shrimad%20India%20Pvt.%20Ltd.&query_place_id=ChIJa-kUhWr9DDkRKiAPhVPMx5M"}, {"place_id": "ChIJcejjCz39DDkReaTBd9pTDoc", "name": "Sia Fluid Controls Private Limited", "street": "1311/1, Shankar Market, Fasil Road, Ajmeri Gate, behind Asaf Ali Road, New Delhi, Delhi 110006, India", "phone": "+91 99106 48598", "rating": "4.9", "review_count": "", "website": "http://www.sfcpl.in/", "latitude": 28.6450993, "longitude": 77.2262721, "maps_url": "https://www.google.com/maps/search/?api=1&query=Sia%20Fluid%20Controls%20Private%20Limited&query_place_id=ChIJcejjCz39DDkReaTBd9pTDoc"}, {"place_id": "ChIJEaRq6xb9DDkRokQeUIC21gI", "name": "THE MMASALA BOX CO", "street": "Jaisav Place, 5006-5008, Hamdard Marg, Bazar Sirkiwalan, Kaccha Pandit Main Bazar, Hauz Qazi, Chandni Chowk, New Delhi, Delhi, 110006, India", "phone": "+91 98710 92916", "rating": "5", "review_count": "", "website": "http://masalaboxco.com/", "latitude": 28.6510227, "longitude": 77.2247762, "maps_url": "https://www.google.com/maps/search/?api=1&query=THE%20MMASALA%20BOX%20CO&query_place_id=ChIJEaRq6xb9DDkRokQeUIC21gI"}, {"place_id": "ChIJAQAAAG_9DDkRPuP7Mp-LxA0", "name": "BHARAT RUBBER COMPANY", "street": "4096, Central, inside Ajmere Gate Road, Ajmeri Gate, New Delhi, Delhi, 110006, India", "phone": "+91 11 4150 9515", "rating": "4.3", "review_count": "", "website": "", "latitude": 28.6471467, "longitude": 77.22483439999999, "maps_url": "https://www.google.com/maps/search/?api=1&query=BHARAT%20RUBBER%20COMPANY&query_place_id=ChIJAQAAAG_9DDkRPuP7Mp-LxA0"}, {"place_id": "ChIJx2YIa2r9DDkRdqdpIyw9Gcg", "name": "Dezire Crafts", "street": "7531/3, Second Floor, TEL MILL MARG, near Gurudwara, Prem Nagar, Ram Nagar, Paharganj, New Delhi, Delhi 110055, India", "phone": "+91 85274 08074", "rating": "5", "review_count": "", "website": "https://www.facebook.com/Dezire2Crafts/", "latitude": 28.6472415, "longitude": 77.2163063, "maps_url": "https://www.google.com/maps/search/?api=1&query=Dezire%20Crafts&query_place_id=ChIJx2YIa2r9DDkRdqdpIyw9Gcg"}, {"place_id": "ChIJe2jN_j39DDkRTZNn_yJ2Ovk", "name": "Brij Mohan Aggarwal & Company", "street": "5266-67, Shradhanand Marg, Ajmeri Gate, New Delhi, Delhi, 110006, India", "phone": "+91 99999 98821", "rating": "4.1", "review_count": "", "website": "", "latitude": 28.6469301, "longitude": 77.22337519999999, "maps_url": "https://www.google.com/maps/search/?api=1&query=Brij%20Mohan%20Aggarwal%20%26%20Company&query_place_id=ChIJe2jN_j39DDkRTZNn_yJ2Ovk"}, {"place_id": "ChIJLfiYDCT9DDkRSGrOzxd6Nyk", "name": "Eagle Road Lines Private Limited", "street": "243, Asaf Ali Rd, Kamla Market, Ajmeri Gate, New Delhi, Delhi, 110002, India", "phone": "+91 97111 54349", "rating": "4.1", "review_count": "", "website": "http://www.eagleroadlines.com/", "latitude": 28.6448118, "longitude": 77.2252938, "maps_url": "https://www.google.com/maps/search/?api=1&query=Eagle%20Road%20Lines%20Private%20Limited&query_place_id=ChIJLfiYDCT9DDkRSGrOzxd6Nyk"}, {"place_id": "ChIJUWJcVBX9DDkRFlsTCXnWUi0", "name": "Geeta Marble Company", "street": "7550, J6W9+M4F, Pearey Lal Bhawan, Qutab Rd, Prem Nagar, Ram Nagar, Paharganj, New Delhi, Delhi, 110055, India", "phone": "+91 98100 15799", "rating": "4.8", "review_count": "", "website": "", "latitude": 28.6467945, "longitude": 77.2177787, "maps_url": "https://www.google.com/maps/search/?api=1&query=Geeta%20Marble%20Company&query_place_id=ChIJUWJcVBX9DDkRFlsTCXnWUi0"}, {"place_id": "ChIJ____Gxj9DDkRMeG3kiKjafg", "name": "Safety Solutions", "street": "4787/133 Phatak Namaki, Sumi Market, Hauz Qazi, New Delhi, Delhi 110006, India", "phone": "+91 80 4860 2188", "rating": "4.5", "review_count": "", "website": "http://www.safetysolutions.info/", "latitude": 28.6492792, "longitude": 77.225949, "maps_url": "https://www.google.com/maps/search/?api=1&query=Safety%20Solutions&query_place_id=ChIJ____Gxj9DDkRMeG3kiKjafg"}, {"place_id": "ChIJOd0erhf9DDkRcro2uNUW_5U", "name": "Sohan Lal Gupta & Co", "street": "Showroom- 3660, 61, Chandni Chowk Rd, near Union Bank, Bazar Sirkiwalan, Chawri Bazar, Chandni Chowk, Delhi, 110006, India", "phone": "+91 98103 33361", "rating": "4.8", "review_count": "", "website": "https://www.slgc.in/", "latitude": 28.6494282, "longitude": 77.2275226, "maps_url": "https://www.google.com/maps/search/?api=1&query=Sohan%20Lal%20Gupta%20%26%20Co&query_place_id=ChIJOd0erhf9DDkRcro2uNUW_5U"}, {"place_id": "ChIJt7qRlHL9DDkRNpYwUkr5IvE", "name": "New Mahaveer Transport Co. All India", "street": "7207 , Nabi Karim, Qutab Rd, near Yatrika Hotel, Delhi, 110055, India", "phone": "", "rating": "1.8", "review_count": "", "website": "http://www.nmtcindia.com/", "latitude": 28.6510811, "longitude": 77.2170988, "maps_url": "https://www.google.com/maps/search/?api=1&query=New%20Mahaveer%20Transport%20Co.%20All%20India&query_place_id=ChIJt7qRlHL9DDkRNpYwUkr5IvE"}, {"place_id": "ChIJDRtsABb9DDkRi3cuTe5JMHU", "name": "Office Complex", "street": "J6WF+Q8W, Shradhanand Marg, Ajmeri Gate, New Delhi, Delhi, 110006, India", "phone": "", "rating": "3.9", "review_count": "", "website": "", "latitude": 28.6469806, "longitude": 77.2233348, "maps_url": "https://www.google.com/maps/search/?api=1&query=Office%20Complex&query_place_id=ChIJDRtsABb9DDkRi3cuTe5JMHU"}, {"place_id": "ChIJ-djjJBb9DDkRNFTbsVpozMc", "name": "Grow Enterprises", "street": "North, 4145, Gali Shahtara, Ajmeri Gate, New Delhi, Delhi 110006, India", "phone": "+91 79 4253 1890", "rating": "5", "review_count": "", "website": "http://growenterprises.co.in/", "latitude": 28.6476346, "longitude": 77.2252288, "maps_url": "https://www.google.com/maps/search/?api=1&query=Grow%20Enterprises&query_place_id=ChIJ-djjJBb9DDkRNFTbsVpozMc"}, {"place_id": "ChIJE6bkpif9DDkRJSH_2v43ILk", "name": "Jpure Solutions (RO Sales, Service & repair)", "street": "8365, Arya Nagar, Paharganj, New Delhi, Delhi 110055, India", "phone": "", "rating": "5", "review_count": "", "website": "", "latitude": 28.646001499999997, "longitude": 77.2133138, "maps_url": "https://www.google.com/maps/search/?api=1&query=Jpure%20Solutions%20%28RO%20Sales%2C%20Service%20%26%20repair%29&query_place_id=ChIJE6bkpif9DDkRJSH_2v43ILk"}, {"place_id": "ChIJAQAAAG_9DDkRWDTKa3dQWKk", "name": "Ganpati Trading Co.", "street": "10625, Jhandewalan Road, Jhandewalen Extn., Nabi Karim Rd, near Hanuman Mandir, Nabi Karim, Sadar Bazaar, New Delhi, Delhi, 110055, India", "phone": "+91 11 2325 0317", "rating": "1.8", "review_count": "", "website": "", "latitude": 28.6509979, "longitude": 77.2156584, "maps_url": "https://www.google.com/maps/search/?api=1&query=Ganpati%20Trading%20Co.&query_place_id=ChIJAQAAAG_9DDkRWDTKa3dQWKk"}, {"place_id": "ChIJoVFW-0H9DDkRPGKKHw546io", "name": "Delhi Pest Control", "street": "Shop 114, Shetty Building, Desh Bandhu Gupta Rd, Arya Nagar, Paharganj, New Delhi, Delhi 110055, India", "phone": "+91 96543 92701", "rating": "4.8", "review_count": "", "website": "http://www.pestcontrolindelhi.net/", "latitude": 28.6449529, "longitude": 77.2161952, "maps_url": "https://www.google.com/maps/search/?api=1&query=Delhi%20Pest%20Control&query_place_id=ChIJoVFW-0H9DDkRPGKKHw546io"}, {"place_id": "ChIJ3yY_64X9DDkRoQnXJHzWKtw", "name": "Sky Packers and Movers India Pvt. Ltd.", "street": "8410, Gali No 1, Arya Nagar, Paharganj, New Delhi, Delhi 110055, India", "phone": "+91 94394 34242", "rating": "4.8", "review_count": "", "website": "https://skypackers.in/", "latitude": 28.645349, "longitude": 77.21306299999999, "maps_url": "https://www.google.com/maps/search/?api=1&query=Sky%20Packers%20and%20Movers%20India%20Pvt.%20Ltd.&query_place_id=ChIJ3yY_64X9DDkRoQnXJHzWKtw"}, {"place_id": "ChIJJ9aZlxf9DDkRfnOkgAjlkL4", "name": "Industrial Engineering Syndicate", "street": "3489, Gail Bajrang Bali, near Union Bank, Bazar Sirkiwalan, Chawri Bazar, Chandni Chowk, Delhi, 110006, India", "phone": "+91 88829 94988", "rating": "4.7", "review_count": "", "website": "https://www.industrialengineeringsyndicate.com/", "latitude": 28.648799999999998, "longitude": 77.2263, "maps_url": "https://www.google.com/maps/search/?api=1&query=Industrial%20Engineering%20Syndicate&query_place_id=ChIJJ9aZlxf9DDkRfnOkgAjlkL4"}, {"place_id": "ChIJ____yBf9DDkRPdgS_4no630", "name": "Best Quality Fasteners", "street": "3632, Gali Piao Wali, opposite Metro, Bazar Sirkiwalan, Chawri Bazar, Chandni Chowk, New Delhi, Delhi, 110006, India", "phone": "+91 98103 30141", "rating": "3.7", "review_count": "", "website": "http://www.bqf.co.in/", "latitude": 28.648472899999998, "longitude": 77.2267002, "maps_url": "https://www.google.com/maps/search/?api=1&query=Best%20Quality%20Fasteners&query_place_id=ChIJ____yBf9DDkRPdgS_4no630"}, {"place_id": "ChIJlx5-7JT9DDkRhhF-CJlswh4", "name": "SHIVANSH ENTERPRISES", "street": "C-5, Street No.3, near HANSRAJ MARKET, Block T, GAMRI EXTENSION, SUDAMAPURI, Delhi, 110053, India", "phone": "+91 88265 49483", "rating": "5", "review_count": "", "website": "", "latitude": 28.6781546, "longitude": 77.264049, "maps_url": "https://www.google.com/maps/search/?api=1&query=SHIVANSH%20ENTERPRISES&query_place_id=ChIJlx5-7JT9DDkRhhF-CJlswh4"}, {"place_id": "ChIJM9r7u0r9DDkRiUvt7zjjpRM", "name": "IT Executive vivek", "street": "22, Vijay Ghat, Raj Ghat, New Delhi, Delhi, 110006, India", "phone": "", "rating": "", "review_count": "", "website": "https://itexecuitive.com/", "latitude": 28.6584512, "longitude": 77.2449233, "maps_url": "https://www.google.com/maps/search/?api=1&query=IT%20Executive%20vivek&query_place_id=ChIJM9r7u0r9DDkRiUvt7zjjpRM"}, {"place_id": "ChIJc_0tF6r9DDkRadPfA7j1z6c", "name": "Shivam Saroj", "street": "Shop No 24, Phatak Namak St, Bazar Sirkiwalan, Kaccha Pandit Main Bazar, Hauz Qazi, Chandni Chowk, New Delhi, Delhi, 110006, India", "phone": "+91 81155 66694", "rating": "", "review_count": "", "website": "", "latitude": 28.649113999999997, "longitude": 77.22581389999999, "maps_url": "https://www.google.com/maps/search/?api=1&query=Shivam%20Saroj&query_place_id=ChIJc_0tF6r9DDkRadPfA7j1z6c"}, {"place_id": "ChIJVVVVlY_9DDkRyymF2IpuK3E", "name": "National Insurance", "street": "DAB, Jeevan Vikas Bldg, 2nd floor,30-31A, Assaf Ali Road, Delhi, 110006, India", "phone": "+91 11 2323 6213", "rating": "4", "review_count": "", "website": "", "latitude": 28.6440093, "longitude": 77.2275765, "maps_url": "https://www.google.com/maps/search/?api=1&query=National%20Insurance&query_place_id=ChIJVVVVlY_9DDkRyymF2IpuK3E"}]