{"timestamp": 1773730062.3313565, "keyword": "IT company", "location": "delhi", "cell_idx": 179, "results": [{"place_id": "0x390d1be0178a9bc9:0x859831577d94c68e", "name": "VBE SERVICES", "category": "Computer support and services", "street": "II, III, PLOT IN KHASRA NO 135", "city": "RAO MATADIN BUILDING", "phone": "01143381919", "website": "http://www.vbeservices.com/", "rating": 4.7, "review_count": "", "latitude": 28.5287723, "longitude": 77.08648769999999, "maps_url": "https://www.google.com/maps/place/?q=place_id:0x390d1be0178a9bc9:0x859831577d94c68e"}, {"place_id": "0x390d1be60abe867b:0x7ed860172e2156fe", "name": "F13 Technologies", "category": "Corporate office", "street": "Rao Harnath Marg", "city": "Kapas Hera Extension, Kapas Hera Estate", "phone": "01147528795", "website": "https://www.f13.tech/", "rating": 3.8, "review_count": "", "latitude": 28.5291031, "longitude": 77.0857391, "maps_url": "https://www.google.com/maps/place/?q=place_id:0x390d1be60abe867b:0x7ed860172e2156fe"}, {"place_id": "0x390d1c154aba0acd:0xc90313ce54cb43e9", "name": "Midas IT Services India Pvt Ltd", "category": "Software company", "street": "L", "city": "42", "phone": "", "website": "http://www.midaswebtech.com/", "rating": 4.6, "review_count": "", "latitude": 28.545162299999998, "longitude": 77.12531, "maps_url": "https://www.google.com/maps/place/?q=place_id:0x390d1c154aba0acd:0xc90313ce54cb43e9"}, {"place_id": "0x390d1be5eaab3a13:0x5c28aa0f213f854f", "name": "K-Tech Computers", "category": "Computer service", "street": "Shop no -216,Groud Floor", "city": "near HDFC Bank", "phone": "09811417706", "website": "", "rating": 4.7, "review_count": "", "latitude": 28.5294241, "longitude": 77.0868574, "maps_url": "https://www.google.com/maps/place/?q=place_id:0x390d1be5eaab3a13:0x5c28aa0f213f854f"}, {"place_id": "0x390d1bd12ce5e4b9:0xf82a55d461dd1214", "name": "Nestor IT Services", "category": "Corporate office", "street": "LG 20", "city": "Westend Plaza", "phone": "", "website": "", "rating": 5, "review_count": "", "latitude": 28.528422199999998, "longitude": 77.0861925, "maps_url": "https://www.google.com/maps/place/?q=place_id:0x390d1bd12ce5e4b9:0xf82a55d461dd1214"}, {"place_id": "0x390d1ba9e4d9c8b5:0x7185b4f217d4fa89", "name": "SNIG Technologies Pvt. Ltd.", "category": "Software company", "street": "285, Gali Number 2", "city": "Kapas Hera Extension, Kapas Hera", "phone": "08010022240", "website": "", "rating": 5, "review_count": "", "latitude": 28.5288975, "longitude": 77.0801706, "maps_url": "https://www.google.com/maps/place/?q=place_id:0x390d1ba9e4d9c8b5:0x7185b4f217d4fa89"}, {"place_id": "0x390d191100000001:0x424476192b3b5b5b", "name": "Binary Semantics Limited", "category": "Software company", "street": "PLot no", "city": "38", "phone": "08929156505", "website": "https://www.binarysemantics.com/", "rating": 3.7, "review_count": "", "latitude": 28.5018823, "longitude": 77.0701466, "maps_url": "https://www.google.com/maps/place/?q=place_id:0x390d191100000001:0x424476192b3b5b5b"}, {"place_id": "0x390d195e4483ae05:0xec67b2579bb38803", "name": "eXtendCode - Software Development Company", "category": "Software company", "street": "Plot 63, Second Floor, Udyog Vihar Phase -1,", "city": "Gurugram, Haryana 122016", "phone": "01244261219", "website": "http://www.extendcode.com/", "rating": 4.1, "review_count": "", "latitude": 28.514535199999997, "longitude": 77.0815075, "maps_url": "https://www.google.com/maps/place/?q=place_id:0x390d195e4483ae05:0xec67b2579bb38803"}, {"place_id": "0x390ce458d0000001:0xf2123bd299ec4501", "name": "IT Company India", "category": "Software company", "street": "D56", "city": "D Block, Sector 10", "phone": "09999244854", "website": "https://www.itcompanyindia.in/", "rating": 4.7, "review_count": "", "latitude": 28.589917699999997, "longitude": 77.3351153, "maps_url": "https://www.google.com/maps/place/?q=place_id:0x390ce458d0000001:0xf2123bd299ec4501"}, {"place_id": "0x390d1bb0ed2b78c9:0xb962a26eb951c969", "name": "New India Structures pvt. ltd", "category": "Civil engineering company", "street": "Main Rd", "city": "Kapas Hera Extension, Samalka", "phone": "01140686630", "website": "", "rating": 4.8, "review_count": "", "latitude": 28.5306568, "longitude": 77.08498519999999, "maps_url": "https://www.google.com/maps/place/?q=place_id:0x390d1bb0ed2b78c9:0xb962a26eb951c969"}, {"place_id": "0x390d1c3fadaf436b:0x7da80df34b6cc628", "name": "Acelema It Solutions Pvt. Ltd", "category": "Software company", "street": "L 357, 1st Floor", "city": "Gurgaon - Delhi Expy", "phone": "09015904466", "website": "https://www.acelema.com/", "rating": 5, "review_count": "", "latitude": 28.5456917, "longitude": 77.1231365, "maps_url": "https://www.google.com/maps/place/?q=place_id:0x390d1c3fadaf436b:0x7da80df34b6cc628"}, {"place_id": "0x390d1beee555554d:0xcbe5fb6f267d1386", "name": "HL computer", "category": "Computer service", "street": "Telephone Exchange Rd", "city": "D Block, Samalkha, Kapas Hera", "phone": "07011088026", "website": "", "rating": 5, "review_count": "", "latitude": 28.532791999999997, "longitude": 77.0908621, "maps_url": "https://www.google.com/maps/place/?q=place_id:0x390d1beee555554d:0xcbe5fb6f267d1386"}, {"place_id": "0x390d19440bc59efb:0xda6549686148f7b4", "name": "PerfectionGeeks Technologies", "category": "Software company", "street": "Plot 378-379, Udyog Vihar Phase 4 Rd", "city": "near nokia building", "phone": "08920947884", "website": "http://www.perfectiongeeks.com/", "rating": 4.9, "review_count": "", "latitude": 28.5002221, "longitude": 77.0730516, "maps_url": "https://www.google.com/maps/place/?q=place_id:0x390d19440bc59efb:0xda6549686148f7b4"}, {"place_id": "0x390d1b0076c735ad:0x13551f319095520a", "name": "Aftab IT information technology", "category": "Computer Hardware Company", "street": "C58", "city": "D Block, Kapas Hera Estate", "phone": "", "website": "", "rating": 5, "review_count": "", "latitude": 28.5221669, "longitude": 77.08510989999999, "maps_url": "https://www.google.com/maps/place/?q=place_id:0x390d1b0076c735ad:0x13551f319095520a"}, {"place_id": "0x8ead70a4df68ac37:0xa002cbc7ee104914", "name": "WeezsTech - IT Support & Services", "category": "Computer security service", "street": "216", "city": "opp. Animal Quarantine & Certification Service", "phone": "09873766667", "website": "https://weezstech.com/", "rating": 4.8, "review_count": "", "latitude": 28.5291057, "longitude": 77.0867198, "maps_url": "https://www.google.com/maps/place/?q=place_id:0x8ead70a4df68ac37:0xa002cbc7ee104914"}, {"place_id": "0x390d013ca8ac1387:0x8a0db85b518267d5", "name": "NexGen Innovators", "category": "Software company", "street": "114B, 3rd floor, Dwarka Mor", "city": "New Delhi, Delhi 110059", "phone": "", "website": "https://www.nexgi.com/", "rating": 4.9, "review_count": "", "latitude": 28.618961, "longitude": 77.0322202, "maps_url": "https://www.google.com/maps/place/?q=place_id:0x390d013ca8ac1387:0x8a0db85b518267d5"}, {"place_id": "0x390d1923af5d91ed:0xbe103b16161f5631", "name": "Condeco Software Private Limited", "category": "Software company", "street": "Tower C", "city": "4th floor building 10", "phone": "01244760150", "website": "http://www.condecosoftware.com/apac", "rating": 4.3, "review_count": "", "latitude": 28.4940696, "longitude": 77.0885457, "maps_url": "https://www.google.com/maps/place/?q=place_id:0x390d1923af5d91ed:0xbe103b16161f5631"}, {"place_id": "0x390d19298db2fb35:0xcaa0d46737c4561c", "name": "MLM Software Developer | Sunny citrix", "category": "Software company", "street": "office no 427C, 4th floor, vashisht complex", "city": "Sikanderpur", "phone": "07906059336", "website": "http://sunnycitrix.com/", "rating": 4.8, "review_count": "", "latitude": 28.4816798, "longitude": 77.09770569999999, "maps_url": "https://www.google.com/maps/place/?q=place_id:0x390d19298db2fb35:0xcaa0d46737c4561c"}, {"place_id": "0x390d195c57ccd5e1:0x1b2c706c8f63247e", "name": "Byteprojects - Technologies", "category": "Software company", "street": "Skootr Offices", "city": "PlotNo. 264", "phone": "07876435599", "website": "http://byteprojects.in/", "rating": 4.8, "review_count": "", "latitude": 28.5101685, "longitude": 77.0828891, "maps_url": "https://www.google.com/maps/place/?q=place_id:0x390d195c57ccd5e1:0x1b2c706c8f63247e"}, {"place_id": "0x390cfd00fd453a1b:0x9b04afa48c2538ec", "name": "Inwoin Technologies Pvt. Ltd.", "category": "Software company", "street": "Building No. 309", "city": "310", "phone": "", "website": "http://www.inwoin.com/", "rating": 4.5, "review_count": "", "latitude": 28.4999559, "longitude": 77.07965879999999, "maps_url": "https://www.google.com/maps/place/?q=place_id:0x390cfd00fd453a1b:0x9b04afa48c2538ec"}, {"place_id": "0x390d19174792f4db:0xcb5f589caa71b6e7", "name": "Knocial India Limited", "category": "Software company", "street": "60B", "city": "Udyog Vihar, Sector 22", "phone": "09354120847", "website": "https://www.knocialindia.com/", "rating": 4.7, "review_count": "", "latitude": 28.504239499999997, "longitude": 77.0651981, "maps_url": "https://www.google.com/maps/place/?q=place_id:0x390d19174792f4db:0xcb5f589caa71b6e7"}, {"place_id": "0x390d1905cf9418ab:0x68c73ef2c55c6a92", "name": "Dixinfotech | Best Web Development Company in Gurgaon", "category": "Software company", "street": "Plot No. 96, 1st Floor", "city": "Udyog Vihar Phase 1, Sector 20", "phone": "09717106162", "website": "https://www.dixinfotech.com/website-designing-company-in-gurgaon", "rating": 5, "review_count": "", "latitude": 28.5169219, "longitude": 77.0803425, "maps_url": "https://www.google.com/maps/place/?q=place_id:0x390d1905cf9418ab:0x68c73ef2c55c6a92"}, {"place_id": "0x390d195c26bfa369:0x69bd8efd2e3a31fe", "name": "Radical Minds Technologies Pvt. Ltd.", "category": "BPO Company", "street": "368", "city": "Phase II, Udyog Vihar, Sector 20", "phone": "01244338366", "website": "http://www.radicalminds.in/", "rating": 4.2, "review_count": "", "latitude": 28.506335099999998, "longitude": 77.0877546, "maps_url": "https://www.google.com/maps/place/?q=place_id:0x390d195c26bfa369:0x69bd8efd2e3a31fe"}, {"place_id": "0x2a72b8b69d7b6493:0x11251466d4d34cac", "name": "WebZonal IT Company", "category": "Website designer", "street": "Wz-258/2-3, D Block Rd", "city": "Khazan Basti, Nangal Raya, Janakpuri", "phone": "09811170903", "website": "http://webzonal.com/", "rating": 5, "review_count": "", "latitude": 28.6122102, "longitude": 77.11159549999999, "maps_url": "https://www.google.com/maps/place/?q=place_id:0x2a72b8b69d7b6493:0x11251466d4d34cac"}, {"place_id": "0x390d191598f48ef3:0x70991b4ff870f05d", "name": "Shree Partners LLC", "category": "Software company", "street": "1, Tower A, Building, Cyber City", "city": "Corporate Edge Level", "phone": "01246728815", "website": "https://www.shreepartners.com/", "rating": 4.3, "review_count": "", "latitude": 28.4936018, "longitude": 77.088325, "maps_url": "https://www.google.com/maps/place/?q=place_id:0x390d191598f48ef3:0x70991b4ff870f05d"}, {"place_id": "0x390d1946a4b0d01f:0xab23cbaa408b3b9c", "name": "Tagbin Services Pvt. Ltd. \u2013 Best AI & Experiential Tech Company in Gurgaon", "category": "Software company", "street": "3rd Floor, Wing A, Enkay Centre", "city": "Vaniya Kunj", "phone": "08178112682", "website": "https://tagbin.in/", "rating": 4.2, "review_count": "", "latitude": 28.4974691, "longitude": 77.08654609999999, "maps_url": "https://www.google.com/maps/place/?q=place_id:0x390d1946a4b0d01f:0xab23cbaa408b3b9c"}, {"place_id": "0x390d1befbc453317:0xcc4ac18db3083745", "name": "Ecom Express Private Limited india", "category": "Logistics service", "street": "14", "city": "12", "phone": "08376888888", "website": "https://ecomexpress.in/about-us/", "rating": 3.3, "review_count": "", "latitude": 28.5325061, "longitude": 77.08937639999999, "maps_url": "https://www.google.com/maps/place/?q=place_id:0x390d1befbc453317:0xcc4ac18db3083745"}, {"place_id": "0x390d1bdec847b583:0x36765c00cf267a8", "name": "SHR Lifestyles Private Limited", "category": "Clothing store", "street": "Kh No 14/10", "city": "Building A & B", "phone": "07827000200", "website": "https://shreelifestyle.com/", "rating": 4.3, "review_count": "", "latitude": 28.5323726, "longitude": 77.0885794, "maps_url": "https://www.google.com/maps/place/?q=place_id:0x390d1bdec847b583:0x36765c00cf267a8"}, {"place_id": "0x390ce3b5c2a11543:0xc4df0cd95534bf85", "name": "LimeTray", "category": "Software company", "street": "2nd Floor", "city": "815", "phone": "", "website": "https://limetray.com/", "rating": 3.6, "review_count": "", "latitude": 28.5015508, "longitude": 77.08626919999999, "maps_url": "https://www.google.com/maps/place/?q=place_id:0x390ce3b5c2a11543:0xc4df0cd95534bf85"}, {"place_id": "0x390ce1877a5ef8eb:0xd5abb94a30425144", "name": "Plusone Technologies Private Limited", "category": "Software company", "street": "Phase IV, Udyog Vihar, Sector 18", "city": "Gurugram, Haryana 122015", "phone": "09891387094", "website": "https://www.plusonetech.co/", "rating": 4.7, "review_count": "", "latitude": 28.4941475, "longitude": 77.0808448, "maps_url": "https://www.google.com/maps/place/?q=place_id:0x390ce1877a5ef8eb:0xd5abb94a30425144"}, {"place_id": "0x390d1960c2b8367f:0xd2d30e45ac71acea", "name": "Vorombetech Solutions - Top IT & Digitalization Service Company in Gurugram", "category": "Software company", "street": "249", "city": "Phase IV, Udyog Vihar, Sector 19", "phone": "", "website": "https://vorombetech.com/", "rating": 4.8, "review_count": "", "latitude": 28.4941475, "longitude": 77.0808448, "maps_url": "https://www.google.com/maps/place/?q=place_id:0x390d1960c2b8367f:0xd2d30e45ac71acea"}, {"place_id": "0x390d1bef4daf96a7:0x33d57344e58c597c", "name": "Da Milano Leathers Pvt. Ltd.", "category": "Corporate office", "street": "85, Main Rd", "city": "Kapas Hera Extension, Kapas Hera", "phone": "09971144157", "website": "http://www.damilano.com/", "rating": 4.1, "review_count": "", "latitude": 28.530355399999998, "longitude": 77.08408349999999, "maps_url": "https://www.google.com/maps/place/?q=place_id:0x390d1bef4daf96a7:0x33d57344e58c597c"}, {"place_id": "0x390d19361c56cecd:0x50517af3dc928d70", "name": "Mycom", "category": "Software company", "street": "7th Floor", "city": "Building 8b", "phone": "01244508000", "website": "http://www.mycom-osi.com/", "rating": 4.3, "review_count": "", "latitude": 28.4982059, "longitude": 77.0900367, "maps_url": "https://www.google.com/maps/place/?q=place_id:0x390d19361c56cecd:0x50517af3dc928d70"}, {"place_id": "0x390d193c3a36e523:0xe68f8d2568faeaad", "name": "Espire Infolabs Pvt. Ltd.", "category": "Software company", "street": "486 & 487", "city": "Phase III, Udyog Vihar III, Sector 20", "phone": "01247173000", "website": "http://www.espire.com/", "rating": 4.1, "review_count": "", "latitude": 28.5119516, "longitude": 77.0899661, "maps_url": "https://www.google.com/maps/place/?q=place_id:0x390d193c3a36e523:0xe68f8d2568faeaad"}, {"place_id": "0x390d193854a9b805:0xeb675c7a6d5768f7", "name": "Cvent India", "category": "Software company", "street": "19th Floor Building", "city": "No.14C", "phone": "0008001008934", "website": "https://careers.cvent.com/", "rating": 4.3, "review_count": "", "latitude": 28.4968638, "longitude": 77.0941567, "maps_url": "https://www.google.com/maps/place/?q=place_id:0x390d193854a9b805:0xeb675c7a6d5768f7"}, {"place_id": "0x390d195b3d68bfd5:0x33d426418fb46db7", "name": "Kockpit Analytics Pvt. Ltd", "category": "Corporate office", "street": "No.1", "city": "Bhikaji Cama Place, Rama Krishna Puram", "phone": "09599080265", "website": "", "rating": 4.7, "review_count": "", "latitude": 28.508890599999997, "longitude": 77.087429, "maps_url": "https://www.google.com/maps/place/?q=place_id:0x390d195b3d68bfd5:0x33d426418fb46db7"}, {"place_id": "0x390d1be7f1a44f95:0x84524a5425f8930d", "name": "InfraDost Technologies Pvt Ltd.- Microsoft Adobe Corel Draw & Security Solution Provider", "category": "Software company", "street": "Gurgaon - Delhi Expy", "city": "Block B, Mahipalpur Village, Mahipalpur", "phone": "08287792542", "website": "http://www.infradost.com/", "rating": 4.6, "review_count": "", "latitude": 28.5485743, "longitude": 77.1264697, "maps_url": "https://www.google.com/maps/place/?q=place_id:0x390d1be7f1a44f95:0x84524a5425f8930d"}, {"place_id": "0x390d192fc20b97e7:0x3048b25634f6d955", "name": "Nagarro", "category": "Software company", "street": "Plot 6B, Sub. Major Laxmi Chand Rd", "city": "Maruti Udyog, Sector 18", "phone": "", "website": "https://www.nagarro.com/en", "rating": 4.5, "review_count": "", "latitude": 28.491098599999997, "longitude": 77.0673492, "maps_url": "https://www.google.com/maps/place/?q=place_id:0x390d192fc20b97e7:0x3048b25634f6d955"}, {"place_id": "0x390d195e96bb4105:0xfba8615a67d65660", "name": "Onkar Infotech", "category": "BPO Company", "street": "117", "city": "Udyog Vihar Phase 1, Udyog Vihar, Sector 20", "phone": "01244004742", "website": "http://www.onkarinfotech.com/", "rating": 3.9, "review_count": "", "latitude": 28.5137038, "longitude": 77.0832096, "maps_url": "https://www.google.com/maps/place/?q=place_id:0x390d195e96bb4105:0xfba8615a67d65660"}, {"place_id": "0x390d19404f4f65d5:0xc7a5e785eb2e8ef6", "name": "Infodart Technologies Ltd", "category": "Software company", "street": "2nd floor", "city": "plot no 254", "phone": "", "website": "https://www.infodartglobal.com/", "rating": 4, "review_count": "", "latitude": 28.4979135, "longitude": 77.0815518, "maps_url": "https://www.google.com/maps/place/?q=place_id:0x390d19404f4f65d5:0xc7a5e785eb2e8ef6"}, {"place_id": "0x390d191d0bb8a9db:0xf6295047e107a843", "name": "Robust Infotech - IT Services | Digital Transformation | Best Website/Software Development Company", "category": "Software company", "street": "90B, Delhi - Jaipur Expy", "city": "Nitin Vihar, Udyog Vihar, Sector 18", "phone": "07982914476", "website": "", "rating": 5, "review_count": "", "latitude": 28.441292299999997, "longitude": 77.0148859, "maps_url": "https://www.google.com/maps/place/?q=place_id:0x390d191d0bb8a9db:0xf6295047e107a843"}, {"place_id": "0x390d195b3d68bfd5:0x33d426418fb46db7", "name": "Kockpit Analytics Pvt. Ltd", "category": "Corporate office", "street": "No.1", "city": "Bhikaji Cama Place, Rama Krishna Puram", "phone": "09599080265", "website": "", "rating": 4.7, "review_count": "", "latitude": 28.508890599999997, "longitude": 77.087429, "maps_url": "https://www.google.com/maps/place/?q=place_id:0x390d195b3d68bfd5:0x33d426418fb46db7"}, {"place_id": "0x41ddcb5488aa4703:0x5290c64921de1a5b", "name": "Bloatware IT Software Development Company | Game Development | Software Company in delhi", "category": "Software company", "street": "SILVER OAK FARMS", "city": "660, Mehrauli-Gurgaon Rd", "phone": "", "website": "https://bloatwareitsolutions.com/", "rating": 5, "review_count": "", "latitude": 28.4911034, "longitude": 77.1432663, "maps_url": "https://www.google.com/maps/place/?q=place_id:0x41ddcb5488aa4703:0x5290c64921de1a5b"}, {"place_id": "0x390d1be7f1a44f95:0x84524a5425f8930d", "name": "InfraDost Technologies Pvt Ltd.- Microsoft Adobe Corel Draw & Security Solution Provider", "category": "Software company", "street": "Gurgaon - Delhi Expy", "city": "Block B, Mahipalpur Village, Mahipalpur", "phone": "08287792542", "website": "http://www.infradost.com/", "rating": 4.6, "review_count": "", "latitude": 28.5485743, "longitude": 77.1264697, "maps_url": "https://www.google.com/maps/place/?q=place_id:0x390d1be7f1a44f95:0x84524a5425f8930d"}, {"place_id": "0x390d192fc20b97e7:0x3048b25634f6d955", "name": "Nagarro", "category": "Software company", "street": "Plot 6B, Sub. Major Laxmi Chand Rd", "city": "Maruti Udyog, Sector 18", "phone": "", "website": "https://www.nagarro.com/en", "rating": 4.5, "review_count": "", "latitude": 28.491098599999997, "longitude": 77.0673492, "maps_url": "https://www.google.com/maps/place/?q=place_id:0x390d192fc20b97e7:0x3048b25634f6d955"}, {"place_id": "0x390d195e96bb4105:0xfba8615a67d65660", "name": "Onkar Infotech", "category": "BPO Company", "street": "117", "city": "Udyog Vihar Phase 1, Udyog Vihar, Sector 20", "phone": "01244004742", "website": "http://www.onkarinfotech.com/", "rating": 3.9, "review_count": "", "latitude": 28.5137038, "longitude": 77.0832096, "maps_url": "https://www.google.com/maps/place/?q=place_id:0x390d195e96bb4105:0xfba8615a67d65660"}, {"place_id": "0x390d19404f4f65d5:0xc7a5e785eb2e8ef6", "name": "Infodart Technologies Ltd", "category": "Software company", "street": "2nd floor", "city": "plot no 254", "phone": "", "website": "https://www.infodartglobal.com/", "rating": 4, "review_count": "", "latitude": 28.4979135, "longitude": 77.0815518, "maps_url": "https://www.google.com/maps/place/?q=place_id:0x390d19404f4f65d5:0xc7a5e785eb2e8ef6"}, {"place_id": "0x390d1bee2e8d76b9:0xbf3737caa355ecdb", "name": "Action Earthmovers- L&T Komatsu , VSS and Ajax Engineering Private Ltd. Dealer", "category": "Construction equipment supplier", "street": "Khasra No. -77, Old Delhi Gurugram Rd", "city": "Near Jindal Distributor", "phone": "01146045708", "website": "https://actionearthmovers.in/", "rating": 4.3, "review_count": "", "latitude": 28.533938499999998, "longitude": 77.0899094, "maps_url": "https://www.google.com/maps/place/?q=place_id:0x390d1bee2e8d76b9:0xbf3737caa355ecdb"}, {"place_id": "0x390d1959e54e0cdb:0x7120a86a0b29095e", "name": "Gurgaon SEO Company", "category": "Website designer", "street": "First Floor Plot", "city": "270, Udyog Vihar II Rd", "phone": "", "website": "", "rating": 2, "review_count": "", "latitude": 28.5074082, "longitude": 77.08512379999999, "maps_url": "https://www.google.com/maps/place/?q=place_id:0x390d1959e54e0cdb:0x7120a86a0b29095e"}, {"place_id": "0x390d190b8996b54d:0xa4d9ad7263547701", "name": "Company", "category": "Corporate office", "street": "The Coworking Space", "city": "A-14/15 DLF Phase 1, Sector 26 A Truworx", "phone": "01140844560", "website": "https://www.quickcompany.in/", "rating": 4.1, "review_count": "", "latitude": 28.474366699999997, "longitude": 77.0943154, "maps_url": "https://www.google.com/maps/place/?q=place_id:0x390d190b8996b54d:0xa4d9ad7263547701"}, {"place_id": "0x390d195b180061c3:0xbc2dc26222ba3801", "name": "Team Computers Pvt Ltd", "category": "Software company", "street": "5th floor", "city": "Plot no. 278", "phone": "18001024200", "website": "https://www.teamcomputers.com/", "rating": 4.3, "review_count": "", "latitude": 28.508890599999997, "longitude": 77.087429, "maps_url": "https://www.google.com/maps/place/?q=place_id:0x390d195b180061c3:0xbc2dc26222ba3801"}, {"place_id": "0x390d05713cbc05f9:0x29ec332097ea9861", "name": "Bluebyte It Solutions", "category": "Software company", "street": "MS-83", "city": "Block MS, Mohan Garden, Uttam Nagar", "phone": "08178838292", "website": "https://www.bluebyteitsolutions.com/", "rating": 5, "review_count": "", "latitude": 28.6289797, "longitude": 77.0335781, "maps_url": "https://www.google.com/maps/place/?q=place_id:0x390d05713cbc05f9:0x29ec332097ea9861"}, {"place_id": "0x390d1b0dd003915d:0x746a031a8a3e2544", "name": "Shree Associates", "category": "Printing equipment supplier", "street": "Unnamed Road", "city": "Jindal Colony, Samalkha, Pushpanjali Farms", "phone": "", "website": "", "rating": 4.8, "review_count": "", "latitude": 28.530449899999997, "longitude": 77.0870841, "maps_url": "https://www.google.com/maps/place/?q=place_id:0x390d1b0dd003915d:0x746a031a8a3e2544"}, {"place_id": "0x390d1be5768550b1:0x959b12fbab28129c", "name": "DGFC Pvt. Ltd.", "category": "Transportation service", "street": "D Block, Samalka", "city": "New Delhi, Delhi 110097", "phone": "", "website": "http://www.dgfc.in/", "rating": 4.3, "review_count": "", "latitude": 28.5302683, "longitude": 77.0877368, "maps_url": "https://www.google.com/maps/place/?q=place_id:0x390d1be5768550b1:0x959b12fbab28129c"}, {"place_id": "0x390d192a43d18f13:0x8bbba9dab452c924", "name": "Eon Networks Pvt Ltd", "category": "Computer support and services", "street": "733, Udyog Vihar Phase V Rd", "city": "Phase V, Udyog Vihar, Sector 19", "phone": "09810644642", "website": "http://eonconnects.net/", "rating": 4.5, "review_count": "", "latitude": 28.5046906, "longitude": 77.0857224, "maps_url": "https://www.google.com/maps/place/?q=place_id:0x390d192a43d18f13:0x8bbba9dab452c924"}, {"place_id": "0x390d1b2f8bde56c1:0xc7513d3cc2901e26", "name": "Elevate Life Care", "category": "Corporate office", "street": "Plot No. 40, Old Delhi, Gurugram", "city": "Rd", "phone": "", "website": "https://elevatelifecare.in/", "rating": 5, "review_count": "", "latitude": 28.532701799999998, "longitude": 77.0894455, "maps_url": "https://www.google.com/maps/place/?q=place_id:0x390d1b2f8bde56c1:0xc7513d3cc2901e26"}, {"place_id": "0x390d19afd1d64805:0xdc0ff76292f115a0", "name": "ichhapurti Corporate Office", "category": "E-commerce service", "street": "GGJ SOLUTIONS PVT. LTD, Plot No. 112, 3rd Floor", "city": "Udyog Vihar, Phase I, Sector 20", "phone": "", "website": "", "rating": 3.3, "review_count": "", "latitude": 28.5147753, "longitude": 77.0848065, "maps_url": "https://www.google.com/maps/place/?q=place_id:0x390d19afd1d64805:0xdc0ff76292f115a0"}, {"place_id": "0x4156579e876131e7:0x356c887f8dac5e97", "name": "Haaditech Private Limited", "category": "Software company", "street": "Gate No. 04", "city": "Ambience Mall", "phone": "", "website": "https://www.haaditech.com/", "rating": 5, "review_count": "", "latitude": 28.5057491, "longitude": 77.0960972, "maps_url": "https://www.google.com/maps/place/?q=place_id:0x4156579e876131e7:0x356c887f8dac5e97"}, {"place_id": "0x390d1ba58a8d16f1:0x5eee3b07bd93086a", "name": "Aarsh digital service center", "category": "Computer store", "street": "House no 1116", "city": "Gali No. 3", "phone": "07303618595", "website": "", "rating": 5, "review_count": "", "latitude": 28.5286062, "longitude": 77.08431999999999, "maps_url": "https://www.google.com/maps/place/?q=place_id:0x390d1ba58a8d16f1:0x5eee3b07bd93086a"}, {"place_id": "0x390d05c8987801e5:0x128e04dce6c4cbc4", "name": "Matrix Infotech Solution | Software Development Company", "category": "Software company", "street": "j j", "city": "Dwarka Mor, Block WE, Mohan Garden, Razapur Khurd", "phone": "08920817059", "website": "http://www.matrixinfotechsolution.com/", "rating": 3.9, "review_count": "", "latitude": 28.637037, "longitude": 77.0291258, "maps_url": "https://www.google.com/maps/place/?q=place_id:0x390d05c8987801e5:0x128e04dce6c4cbc4"}, {"place_id": "0x390d1f4effffffff:0xcfc715ac63417946", "name": "Bechtel India Private Limited", "category": "Corporate office", "street": "244-245", "city": "Phase IV, Udyog Vihar, Knowledge Park", "phone": "01244098000", "website": "http://www.bechtel.com/", "rating": 4.4, "review_count": "", "latitude": 28.4956277, "longitude": 77.0839426, "maps_url": "https://www.google.com/maps/place/?q=place_id:0x390d1f4effffffff:0xcfc715ac63417946"}, {"place_id": "0x390ce58c7403e0a1:0x2a35ba3fcd3ecb95", "name": "Akhil Systems Pvt Ltd - Electronic Medical Records Software, Best Hospital Software India, Hospital Management Software", "category": "Software company", "street": "5th Floor", "city": "Incuspaze Building", "phone": "08448799453", "website": "https://akhilsystems.com/", "rating": 3.4, "review_count": "", "latitude": 28.4914019, "longitude": 77.0771321, "maps_url": "https://www.google.com/maps/place/?q=place_id:0x390ce58c7403e0a1:0x2a35ba3fcd3ecb95"}, {"place_id": "0x390d1b03afd847d1:0x3f8589776214e47b", "name": "Techbizz - IT Solutions", "category": "Software company", "street": "1st floor", "city": "Najafgarh Kapashera Rd", "phone": "08130622472", "website": "", "rating": 5, "review_count": "", "latitude": 28.5325596, "longitude": 77.0540195, "maps_url": "https://www.google.com/maps/place/?q=place_id:0x390d1b03afd847d1:0x3f8589776214e47b"}, {"place_id": "0x390d19454748b5f1:0x930fdb13eea6af9b", "name": "Auquall BPO - Best BPO and BPM company in gurgaon", "category": "BPO Company", "street": "698, Udyog Vihar Phase V Rd", "city": "Phase V, Udyog Vihar, Sector 19", "phone": "09899005897", "website": "", "rating": 4.4, "review_count": "", "latitude": 28.505634099999998, "longitude": 77.0837823, "maps_url": "https://www.google.com/maps/place/?q=place_id:0x390d19454748b5f1:0x930fdb13eea6af9b"}, {"place_id": "0x390d19c4f81c373b:0x569790526001fe47", "name": "Pasenture Technologies - Web Development Company in Gurugram, Software Development Company in Gurgaon for CRM & Saas Software", "category": "Software company", "street": "2nd Floor", "city": "90, IDC", "phone": "09717197498", "website": "https://pasenture.in/", "rating": 4, "review_count": "", "latitude": 28.4716508, "longitude": 77.0509349, "maps_url": "https://www.google.com/maps/place/?q=place_id:0x390d19c4f81c373b:0x569790526001fe47"}, {"place_id": "0x390cfb4bf15a6733:0xaf50e6f3c5fb7641", "name": "Digitals Daddy: Web & App Development Company", "category": "Software company", "street": "Metro Gate No. 2", "city": "Nearest Sikandarpur", "phone": "09818286609", "website": "https://www.digitalsdaddy.com/", "rating": 4.9, "review_count": "", "latitude": 28.4847884, "longitude": 77.0922192, "maps_url": "https://www.google.com/maps/place/?q=place_id:0x390cfb4bf15a6733:0xaf50e6f3c5fb7641"}, {"place_id": "0x390d19158765706b:0x7940981b18929c00", "name": "Infogix International Pvt. Ltd.", "category": "Software company", "street": "5 th floor", "city": "Tower 10", "phone": "01244802900", "website": "https://www.infogix.com/", "rating": 4, "review_count": "", "latitude": 28.4945511, "longitude": 77.08714619999999, "maps_url": "https://www.google.com/maps/place/?q=place_id:0x390d19158765706b:0x7940981b18929c00"}, {"place_id": "0x390d1b00420e2b91:0xc7113b6dd60783df", "name": "SHARMA SINGLA & CO (Chartered Accountants)", "category": "Certified public accountant", "street": "2nd Floor, Westend Plaza", "city": "201", "phone": "09871210063", "website": "https://www.sharmasingla.com/", "rating": 5, "review_count": "", "latitude": 28.5274322, "longitude": 77.0854506, "maps_url": "https://www.google.com/maps/place/?q=place_id:0x390d1b00420e2b91:0xc7113b6dd60783df"}, {"place_id": "0x390d1915fa5d766d:0x1d92c0eb013cd4f2", "name": "FIS Global Business Solutions India Pvt. Ltd.", "category": "Corporate office", "street": "402, I Park, Plot No. 15", "city": "Phase IV", "phone": "01243927500", "website": "https://www.fisglobal.com/", "rating": 4.1, "review_count": "", "latitude": 28.490092899999997, "longitude": 77.078841, "maps_url": "https://www.google.com/maps/place/?q=place_id:0x390d1915fa5d766d:0x1d92c0eb013cd4f2"}, {"place_id": "0x390d19345bcdc4f3:0x61d5221ed2c17f35", "name": "Cognizant", "category": "Software company", "street": "Tower C, SEZ Building, Building No 6, 5th & 6th Floor DLF C yber City Rd W Block", "city": "Near Shankar Chowk", "phone": "", "website": "http://www.cognizant.com/india", "rating": 4.1, "review_count": "", "latitude": 28.4964521, "longitude": 77.096576, "maps_url": "https://www.google.com/maps/place/?q=place_id:0x390d19345bcdc4f3:0x61d5221ed2c17f35"}, {"place_id": "0x390d1be42b1aaaab:0xda9146c54a1cd5d7", "name": "Anytime Express - International Courier Services In Delhi & NCR", "category": "Courier service", "street": "Lg 16", "city": "Westend Plaza", "phone": "08851473292", "website": "https://anytimeexpress.in/", "rating": 4.8, "review_count": "", "latitude": 28.5274322, "longitude": 77.0854506, "maps_url": "https://www.google.com/maps/place/?q=place_id:0x390d1be42b1aaaab:0xda9146c54a1cd5d7"}, {"place_id": "0x390d1bdd4c998743:0xd01d40485ce42b03", "name": "Tactical Logistics Pvt. Ltd.", "category": "Customs warehouse", "street": "D Block, Samalka", "city": "New Delhi, Delhi 110097", "phone": "", "website": "", "rating": 4.4, "review_count": "", "latitude": 28.5322911, "longitude": 77.0891429, "maps_url": "https://www.google.com/maps/place/?q=place_id:0x390d1bdd4c998743:0xd01d40485ce42b03"}, {"place_id": "0x390d195d0d8bbaeb:0x879480fbc713a400", "name": "MJS eSTORE", "category": "Software company", "street": "223-224", "city": "Udyog Vihar Phase 1, Udyog Vihar, Sector 20", "phone": "", "website": "", "rating": 4.1, "review_count": "", "latitude": 28.509130799999998, "longitude": 77.08123619999999, "maps_url": "https://www.google.com/maps/place/?q=place_id:0x390d195d0d8bbaeb:0x879480fbc713a400"}, {"place_id": "0x390d1bef4daf941b:0xbfc4ba78aedb1ffc", "name": "Deventure Sarovar Portico Kapashera, New Delhi", "category": "Hotel", "street": "88-89, Main Rd", "city": "Kapas Hera Extension, Kapas Hera", "phone": "01149099999", "website": "https://www.sarovarhotels.com/deventure-sarovar-portico--kapashera-new-delhi/", "rating": 4.2, "review_count": "", "latitude": 28.531170099999997, "longitude": 77.0853115, "maps_url": "https://www.google.com/maps/place/?q=place_id:0x390d1bef4daf941b:0xbfc4ba78aedb1ffc"}, {"place_id": "0x390d195c405a28cd:0x601d98b0e3748746", "name": "SupportMart Global Services Pvt Ltd", "category": "Computer service", "street": "29", "city": "Udyog Vihar Phase 1, Dundahera Village, Sector 20", "phone": "01244618200", "website": "", "rating": 3.7, "review_count": "", "latitude": 28.512702599999997, "longitude": 77.0800531, "maps_url": "https://www.google.com/maps/place/?q=place_id:0x390d195c405a28cd:0x601d98b0e3748746"}, {"place_id": "0x390d05f43df5b29b:0x857f927e00982d67", "name": "MLM Software Company in Delhi | MLM Software Development", "category": "Software company", "street": "Plot no 198", "city": "Prashant Enclave, Bapraula Extension, Baprola", "phone": "08130287135", "website": "https://www.weblyticsinfotech.com/", "rating": 5, "review_count": "", "latitude": 28.6365546, "longitude": 77.01408649999999, "maps_url": "https://www.google.com/maps/place/?q=place_id:0x390d05f43df5b29b:0x857f927e00982d67"}, {"place_id": "0x390d193c3a36fabd:0x8bd7aacd8793bdb7", "name": "Orange Business Services", "category": "Public relations firm", "street": "Infinity Tower 8, Tower B", "city": "DLF Cyber City, DLF Phase 2, Sector 25", "phone": "", "website": "http://www.orange-business.com/", "rating": 4.5, "review_count": "", "latitude": 28.495814199999998, "longitude": 77.0910088, "maps_url": "https://www.google.com/maps/place/?q=place_id:0x390d193c3a36fabd:0x8bd7aacd8793bdb7"}, {"place_id": "0x390d195abaaaaaab:0x70637331b211cdbf", "name": "ARCIS e Services Pvt. Ltd", "category": "BPO Company", "street": "415", "city": "Udyog Vihar III, Sector 20", "phone": "01242398392", "website": "https://www.arcisindia.com/", "rating": 3.8, "review_count": "", "latitude": 28.508582399999998, "longitude": 77.08945299999999, "maps_url": "https://www.google.com/maps/place/?q=place_id:0x390d195abaaaaaab:0x70637331b211cdbf"}, {"place_id": "0x390d1d9639abaf13:0x303c12f676cc1719", "name": "Bareja Elevators", "category": "Elevator service", "street": "Road", "city": "D Block, Samalka", "phone": "09958977899", "website": "", "rating": 4.8, "review_count": "", "latitude": 28.5318623, "longitude": 77.0945679, "maps_url": "https://www.google.com/maps/place/?q=place_id:0x390d1d9639abaf13:0x303c12f676cc1719"}, {"place_id": "0x390d19a6d0cd5b3f:0xfcb2ab3c1c513941", "name": "Avighnity Technologies | Digital Marketing, PPC, Social Media, Website Designing, SEO Agency in Gurgaon", "category": "Software company", "street": "Building 96, First Floor", "city": "Udyog Vihar Phase 1, Udyog Vihar, Sector 20", "phone": "08595364679", "website": "https://www.avighnity.com/", "rating": 4.3, "review_count": "", "latitude": 28.5116326, "longitude": 77.083787, "maps_url": "https://www.google.com/maps/place/?q=place_id:0x390d19a6d0cd5b3f:0xfcb2ab3c1c513941"}, {"place_id": "0x390d1be42b1aaaab:0xda9146c54a1cd5d7", "name": "Anytime Express - International Courier Services In Delhi & NCR", "category": "Courier service", "street": "Lg 16", "city": "Westend Plaza", "phone": "08851473292", "website": "https://anytimeexpress.in/", "rating": 4.8, "review_count": "", "latitude": 28.5274322, "longitude": 77.0854506, "maps_url": "https://www.google.com/maps/place/?q=place_id:0x390d1be42b1aaaab:0xda9146c54a1cd5d7"}, {"place_id": "0x390d1bdd4c998743:0xd01d40485ce42b03", "name": "Tactical Logistics Pvt. Ltd.", "category": "Customs warehouse", "street": "D Block, Samalka", "city": "New Delhi, Delhi 110097", "phone": "", "website": "", "rating": 4.4, "review_count": "", "latitude": 28.5322911, "longitude": 77.0891429, "maps_url": "https://www.google.com/maps/place/?q=place_id:0x390d1bdd4c998743:0xd01d40485ce42b03"}, {"place_id": "0x390d195d0d8bbaeb:0x879480fbc713a400", "name": "MJS eSTORE", "category": "Software company", "street": "223-224", "city": "Udyog Vihar Phase 1, Udyog Vihar, Sector 20", "phone": "", "website": "", "rating": 4.1, "review_count": "", "latitude": 28.509130799999998, "longitude": 77.08123619999999, "maps_url": "https://www.google.com/maps/place/?q=place_id:0x390d195d0d8bbaeb:0x879480fbc713a400"}, {"place_id": "0x390d1bef4daf941b:0xbfc4ba78aedb1ffc", "name": "Deventure Sarovar Portico Kapashera, New Delhi", "category": "Hotel", "street": "88-89, Main Rd", "city": "Kapas Hera Extension, Kapas Hera", "phone": "01149099999", "website": "https://www.sarovarhotels.com/deventure-sarovar-portico--kapashera-new-delhi/", "rating": 4.2, "review_count": "", "latitude": 28.531170099999997, "longitude": 77.0853115, "maps_url": "https://www.google.com/maps/place/?q=place_id:0x390d1bef4daf941b:0xbfc4ba78aedb1ffc"}, {"place_id": "0x390d195c405a28cd:0x601d98b0e3748746", "name": "SupportMart Global Services Pvt Ltd", "category": "Computer service", "street": "29", "city": "Udyog Vihar Phase 1, Dundahera Village, Sector 20", "phone": "01244618200", "website": "", "rating": 3.7, "review_count": "", "latitude": 28.512702599999997, "longitude": 77.0800531, "maps_url": "https://www.google.com/maps/place/?q=place_id:0x390d195c405a28cd:0x601d98b0e3748746"}, {"place_id": "0x390d05f43df5b29b:0x857f927e00982d67", "name": "MLM Software Company in Delhi | MLM Software Development", "category": "Software company", "street": "Plot no 198", "city": "Prashant Enclave, Bapraula Extension, Baprola", "phone": "08130287135", "website": "https://www.weblyticsinfotech.com/", "rating": 5, "review_count": "", "latitude": 28.6365546, "longitude": 77.01408649999999, "maps_url": "https://www.google.com/maps/place/?q=place_id:0x390d05f43df5b29b:0x857f927e00982d67"}, {"place_id": "0x390d1f659e341e09:0xd88af0c1a7ecbdf8", "name": "Biswass IT Services Pvt. Ltd.", "category": "Software company", "street": "House No 590 1st Floor, ArjanGarh", "city": "BabaMoholla, Aya Nagar", "phone": "", "website": "https://www.biswass.com/", "rating": 4.8, "review_count": "", "latitude": 28.4766589, "longitude": 77.13484439999999, "maps_url": "https://www.google.com/maps/place/?q=place_id:0x390d1f659e341e09:0xd88af0c1a7ecbdf8"}, {"place_id": "0x390d193c3a36fabd:0x8bd7aacd8793bdb7", "name": "Orange Business Services", "category": "Public relations firm", "street": "Infinity Tower 8, Tower B", "city": "DLF Cyber City, DLF Phase 2, Sector 25", "phone": "", "website": "http://www.orange-business.com/", "rating": 4.5, "review_count": "", "latitude": 28.495814199999998, "longitude": 77.0910088, "maps_url": "https://www.google.com/maps/place/?q=place_id:0x390d193c3a36fabd:0x8bd7aacd8793bdb7"}, {"place_id": "0x390d1b3f00d047f7:0x9b0acbc6decfed67", "name": "VBage Tech", "category": "Software company", "street": "WZ-330", "city": "Palam Village, Palam", "phone": "08383889042", "website": "https://www.vbagetech.com/", "rating": 4.5, "review_count": "", "latitude": 28.589986099999997, "longitude": 77.0768539, "maps_url": "https://www.google.com/maps/place/?q=place_id:0x390d1b3f00d047f7:0x9b0acbc6decfed67"}, {"place_id": "0x390d195abaaaaaab:0x70637331b211cdbf", "name": "ARCIS e Services Pvt. Ltd", "category": "BPO Company", "street": "415", "city": "Udyog Vihar III, Sector 20", "phone": "01242398392", "website": "https://www.arcisindia.com/", "rating": 3.8, "review_count": "", "latitude": 28.508582399999998, "longitude": 77.08945299999999, "maps_url": "https://www.google.com/maps/place/?q=place_id:0x390d195abaaaaaab:0x70637331b211cdbf"}, {"place_id": "0x390d1d9639abaf13:0x303c12f676cc1719", "name": "Bareja Elevators", "category": "Elevator service", "street": "Road", "city": "D Block, Samalka", "phone": "09958977899", "website": "", "rating": 4.8, "review_count": "", "latitude": 28.5318623, "longitude": 77.0945679, "maps_url": "https://www.google.com/maps/place/?q=place_id:0x390d1d9639abaf13:0x303c12f676cc1719"}, {"place_id": "0x390d19a6d0cd5b3f:0xfcb2ab3c1c513941", "name": "Avighnity Technologies | Digital Marketing, PPC, Social Media, Website Designing, SEO Agency in Gurgaon", "category": "Software company", "street": "Building 96, First Floor", "city": "Udyog Vihar Phase 1, Udyog Vihar, Sector 20", "phone": "08595364679", "website": "https://www.avighnity.com/", "rating": 4.3, "review_count": "", "latitude": 28.5116326, "longitude": 77.083787, "maps_url": "https://www.google.com/maps/place/?q=place_id:0x390d19a6d0cd5b3f:0xfcb2ab3c1c513941"}, {"place_id": "0x390d1be42769e19b:0x358074c4e6bbb55a", "name": "Ecom Express Limited", "category": "Corporate office", "street": "Ground Floor, 13/16 min, 17 min, Samalka", "city": "Old Delhi Rd", "phone": "01246488888", "website": "http://ecomexpress.express/", "rating": 1.2, "review_count": "", "latitude": 28.5265658, "longitude": 77.0852888, "maps_url": "https://www.google.com/maps/place/?q=place_id:0x390d1be42769e19b:0x358074c4e6bbb55a"}, {"place_id": "0x390d1a972e7b03ad:0xc2253ede1e6b5dfc", "name": "Knitech Software", "category": "Software company", "street": "G 542", "city": "Qutub Vihar I, Block A, Goyla Village", "phone": "", "website": "", "rating": 4.9, "review_count": "", "latitude": 28.5765618, "longitude": 77.0243346, "maps_url": "https://www.google.com/maps/place/?q=place_id:0x390d1a972e7b03ad:0xc2253ede1e6b5dfc"}, {"place_id": "0x390d1b000115be13:0xef670b1cba71000e", "name": "Vikas electronics and electricals", "category": "Electronics store", "street": "G3JR+QV7", "city": "D Block, Samalka", "phone": "", "website": "", "rating": 5, "review_count": "", "latitude": 28.531902, "longitude": 77.09217029999999, "maps_url": "https://www.google.com/maps/place/?q=place_id:0x390d1b000115be13:0xef670b1cba71000e"}, {"place_id": "0x390d055ab880b807:0xcb5c025daa2b2795", "name": "Tech Web Mantra", "category": "Software company", "street": "B-77", "city": "near Dwarka Mor Metro Station", "phone": "09871521039", "website": "https://www.techwebmantra.com/", "rating": 5, "review_count": "", "latitude": 28.614187899999997, "longitude": 77.0362179, "maps_url": "https://www.google.com/maps/place/?q=place_id:0x390d055ab880b807:0xcb5c025daa2b2795"}, {"place_id": "0x390d193628f9608b:0x33567585d2e83dc3", "name": "EXL Service India", "category": "Software company", "street": "Tower D", "city": "Building No. 14", "phone": "01246144700", "website": "https://www.exlservice.com/locations", "rating": 4.3, "review_count": "", "latitude": 28.4969382, "longitude": 77.0944075, "maps_url": "https://www.google.com/maps/place/?q=place_id:0x390d193628f9608b:0x33567585d2e83dc3"}, {"place_id": "0x390d1ba82e015ebf:0x9b0ef336c971f4a7", "name": "Blue Dart Express Limited", "category": "Courier service", "street": "PLOT NO 2 KHASRA NO 28/10", "city": "SAMALKHA RED LIGHT", "phone": "", "website": "https://www.bluedart.com/", "rating": 3.4, "review_count": "", "latitude": 28.5288605, "longitude": 77.088988, "maps_url": "https://www.google.com/maps/place/?q=place_id:0x390d1ba82e015ebf:0x9b0ef336c971f4a7"}, {"place_id": "0x390d195b82955c11:0x4ac608c95db239fa", "name": "Worxpertise (Edge Business Solutions Pvt. Ltd.)", "category": "Business to business service", "street": "4th Floor, WING-B", "city": "AIHP Tower", "phone": "", "website": "https://worxpertise.com/", "rating": 4.1, "review_count": "", "latitude": 28.497374899999997, "longitude": 77.0827276, "maps_url": "https://www.google.com/maps/place/?q=place_id:0x390d195b82955c11:0x4ac608c95db239fa"}, {"place_id": "0x390d1b9ba3261e11:0xadf7dfb21144287b", "name": "A Square Appraisal - Govt Approved Valuation Company (Real Estate Appraiser)", "category": "Real estate appraiser", "street": "Motor Market", "city": "Plot No. 14, Killa No. 13", "phone": "01148028460", "website": "https://asquareappraisal.com/", "rating": 5, "review_count": "", "latitude": 28.5321051, "longitude": 77.09035449999999, "maps_url": "https://www.google.com/maps/place/?q=place_id:0x390d1b9ba3261e11:0xadf7dfb21144287b"}]}