{"timestamp": 1773731474.8895319, "keyword": "IT company", "location": "delhi", "cell_idx": 444, "results": [{"place_id": "0x46d12742e05e473:0x5264b13ac6fcef02", "name": "Info Tech India", "category": "Software company", "street": "KAILASH BUILDING", "city": "1212, KG Marg", "phone": "", "website": "https://infotechindia.in/", "rating": 5, "review_count": "", "latitude": 28.629473299999997, "longitude": 77.22220159999999, "maps_url": "https://www.google.com/maps/place/?q=place_id:0x46d12742e05e473:0x5264b13ac6fcef02"}, {"place_id": "0x390ce458d0000001:0xf2123bd299ec4501", "name": "IT Company India", "category": "Software company", "street": "D56", "city": "D Block, Sector 10", "phone": "09999244854", "website": "https://www.itcompanyindia.in/", "rating": 4.7, "review_count": "", "latitude": 28.589917699999997, "longitude": 77.3351153, "maps_url": "https://www.google.com/maps/place/?q=place_id:0x390ce458d0000001:0xf2123bd299ec4501"}, {"place_id": "0x390ce3c153b89811:0xe7a279685777e9ca", "name": "IT Company", "category": "Automation company", "street": "A-14", "city": "near iskcon temple", "phone": "", "website": "http://www.opuswiz.com/", "rating": 3, "review_count": "", "latitude": 28.557167, "longitude": 77.25424819999999, "maps_url": "https://www.google.com/maps/place/?q=place_id:0x390ce3c153b89811:0xe7a279685777e9ca"}, {"place_id": "0x390ce2e52043e633:0x3ed44d79ea4bd91c", "name": "Wirecto", "category": "Software company", "street": "Triloki Colony", "city": "C-49", "phone": "09716670074", "website": "https://wirecto.app/", "rating": 5, "review_count": "", "latitude": 28.575404799999998, "longitude": 77.2250054, "maps_url": "https://www.google.com/maps/place/?q=place_id:0x390ce2e52043e633:0x3ed44d79ea4bd91c"}, {"place_id": "0x390cfd36df0d730b:0xd425c6f106d9cf8", "name": "I. T. Solutions", "category": "Software company", "street": "Gate No. 8", "city": "A-6, 1st Floor, Inner Circle, Above Post office", "phone": "01141523242", "website": "http://www.itsolutioncp.com/", "rating": 4.9, "review_count": "", "latitude": 28.6324367, "longitude": 77.2183441, "maps_url": "https://www.google.com/maps/place/?q=place_id:0x390cfd36df0d730b:0xd425c6f106d9cf8"}, {"place_id": "0x390ce1597b5509e5:0xfd8209b937b44d3c", "name": "IT Solutions India Private Limited", "category": "Software company", "street": "D-88/5", "city": "Pocket D, Okhla Phase I, Okhla Industrial Estate", "phone": "09810017429", "website": "https://www.itsipl.com/", "rating": 4.2, "review_count": "", "latitude": 28.520146, "longitude": 77.280431, "maps_url": "https://www.google.com/maps/place/?q=place_id:0x390ce1597b5509e5:0xfd8209b937b44d3c"}, {"place_id": "0x390cfd4b1d3ba695:0xb16c2090d9df4e5c", "name": "Infocera IT", "category": "Software company", "street": "First Floor", "city": "Block-L", "phone": "", "website": "https://infocera.in/", "rating": 4.7, "review_count": "", "latitude": 28.634275499999998, "longitude": 77.2217273, "maps_url": "https://www.google.com/maps/place/?q=place_id:0x390cfd4b1d3ba695:0xb16c2090d9df4e5c"}, {"place_id": "0x39f89c0fb3b411eb:0xbe473f977e9b7558", "name": "Kbeatech - Digital Solutions Company", "category": "Software company", "street": "1893, 1st Floor", "city": "Uday Chand Marg", "phone": "", "website": "https://kbeatech.in/", "rating": 4.9, "review_count": "", "latitude": 28.571338299999997, "longitude": 77.2228884, "maps_url": "https://www.google.com/maps/place/?q=place_id:0x39f89c0fb3b411eb:0xbe473f977e9b7558"}, {"place_id": "0x390d03d2e32b8b3b:0x82fa2b6b795ab600", "name": "Iraitech | Software Development Company", "category": "Software company", "street": "Central Square Complex 3, Unit No-1051, 1st Floor, Near Filmistan, DCM chowk", "city": "Bara Hindu Rao, Kishan Ganj", "phone": "08130104108", "website": "https://www.iraitech.com/", "rating": 4.1, "review_count": "", "latitude": 28.6631951, "longitude": 77.20308639999999, "maps_url": "https://www.google.com/maps/place/?q=place_id:0x390d03d2e32b8b3b:0x82fa2b6b795ab600"}, {"place_id": "0x390cfcac5aaaaaed:0xa20ab2e7b400180", "name": "\ud835\udc68\ud835\udc76 \ud835\udc7a\ud835\udc90\ud835\udc87\ud835\udc95\ud835\udc98\ud835\udc82\ud835\udc93\ud835\udc86 \ud835\udc7a\ud835\udc90\ud835\udc8d\ud835\udc96\ud835\udc95\ud835\udc8a\ud835\udc90\ud835\udc8f Website Designing company-website development company-product promotion and ERP development company", "category": "Software company", "street": "1B", "city": "S-505", "phone": "01142603444", "website": "https://aosoftwaresolution.com/", "rating": 4.8, "review_count": "", "latitude": 28.6287195, "longitude": 77.2766171, "maps_url": "https://www.google.com/maps/place/?q=place_id:0x390cfcac5aaaaaed:0xa20ab2e7b400180"}, {"place_id": "0x390d1d86a4f12173:0x3a6b42ea6f4b8260", "name": "Softvanz Technologies Private Limited", "category": "Software company", "street": "Somdutt Chamber 1", "city": "BT-22/9", "phone": "", "website": "https://softvanz.com/", "rating": 5, "review_count": "", "latitude": 28.567948899999998, "longitude": 77.1889269, "maps_url": "https://www.google.com/maps/place/?q=place_id:0x390d1d86a4f12173:0x3a6b42ea6f4b8260"}, {"place_id": "0x390d02994de5e515:0xd908bc03409a0d37", "name": "Himalayan IT Solutions | Best Website Designing Company in Delhi | SEO/Digital Marketing Company in Delhi NCR, India", "category": "Software company", "street": "61/4255, Padam Singh Rd", "city": "Block 29, Block 1, Regar Pura, Karol Bagh", "phone": "09899098509", "website": "http://www.himalayanitsolutions.com/", "rating": 3.9, "review_count": "", "latitude": 28.649673999999997, "longitude": 77.186599, "maps_url": "https://www.google.com/maps/place/?q=place_id:0x390d02994de5e515:0xd908bc03409a0d37"}, {"place_id": "0x390ce3094f4a9af1:0xdc21c66946b829ad", "name": "BAUDHYANTRAM IT Solutions | Website Designing | Web Development | Software Company in Delhi", "category": "Software company", "street": "H82 2nd Floor", "city": "opposite Bengali Sweet Center", "phone": "07900899996", "website": "http://www.baudhyantram.in/", "rating": 4.8, "review_count": "", "latitude": 28.5695803, "longitude": 77.221047, "maps_url": "https://www.google.com/maps/place/?q=place_id:0x390ce3094f4a9af1:0xdc21c66946b829ad"}, {"place_id": "0x390cfd554ee63851:0xea2adb2e36e4ce16", "name": "Globe Alley Tech. - Software Development Company", "category": "Software company", "street": "J6JG+6RW", "city": "119", "phone": "09910710140", "website": "http://globealley.us/", "rating": 4.9, "review_count": "", "latitude": 28.6306084, "longitude": 77.22708829999999, "maps_url": "https://www.google.com/maps/place/?q=place_id:0x390cfd554ee63851:0xea2adb2e36e4ce16"}, {"place_id": "0x390ce5fdcc79e755:0x309ce99251b84ef6", "name": "Optyminds IT Solutions - Top AI and IT company I Best Digital agency in Noida | Delhi NCR | India", "category": "Software company", "street": "1st Floor", "city": "B-70", "phone": "08929075975", "website": "https://optyminds.com/", "rating": 4.9, "review_count": "", "latitude": 28.584679599999998, "longitude": 77.3135042, "maps_url": "https://www.google.com/maps/place/?q=place_id:0x390ce5fdcc79e755:0x309ce99251b84ef6"}, {"place_id": "0x390ce25e81555555:0xf93f773552127f47", "name": "SANEKT SOFTWARE SOLUTION", "category": "Software company", "street": "Top floor", "city": "H 11", "phone": "01141589565", "website": "http://sanekt.com/", "rating": 5, "review_count": "", "latitude": 28.571361, "longitude": 77.221733, "maps_url": "https://www.google.com/maps/place/?q=place_id:0x390ce25e81555555:0xf93f773552127f47"}, {"place_id": "0x390cfd36664c4e63:0xcce34350707b204e", "name": "DataSlexIndia | On-Demand Software Development Company", "category": "Software company", "street": "210,211,212 BMC House, N1", "city": "Middle Cir", "phone": "01124845172", "website": "https://dataslexindia.com/", "rating": 5, "review_count": "", "latitude": 28.630570499999997, "longitude": 77.2198088, "maps_url": "https://www.google.com/maps/place/?q=place_id:0x390cfd36664c4e63:0xcce34350707b204e"}, {"place_id": "0x390ce3b48e27a563:0x4ec8ae3c524366b", "name": "iSOFT INDIA TECHNOLOGIES", "category": "Software company", "street": "E-168|169, Amar Colony, Lajpat Nagar", "city": "New Delhi, Delhi 110024", "phone": "09717978320", "website": "", "rating": 4.9, "review_count": "", "latitude": 28.5657368, "longitude": 77.23946029999999, "maps_url": "https://www.google.com/maps/place/?q=place_id:0x390ce3b48e27a563:0x4ec8ae3c524366b"}, {"place_id": "0x390ce1fb44618b65:0x8e06b2a6128352d1", "name": "Acropolis Infotech - Delhi Office", "category": "Software company", "street": "metro station gate", "city": "55, 2nd Floor, Lane 2", "phone": "09999876593", "website": "https://www.acropolisinfotech.com/", "rating": 4.6, "review_count": "", "latitude": 28.518907, "longitude": 77.2015435, "maps_url": "https://www.google.com/maps/place/?q=place_id:0x390ce1fb44618b65:0x8e06b2a6128352d1"}, {"place_id": "0x390ce3512b42e945:0xe8ce9b06e1651251", "name": "Instant IT services - Best Hardware & Software Related Services", "category": "Software company", "street": "koli camp", "city": "69B", "phone": "09804836325", "website": "", "rating": 4.7, "review_count": "", "latitude": 28.5758728, "longitude": 77.2565554, "maps_url": "https://www.google.com/maps/place/?q=place_id:0x390ce3512b42e945:0xe8ce9b06e1651251"}, {"place_id": "0x390d165555555555:0xf57c20f7d07d8fd1", "name": "Teckinfo Solutions Pvt Ltd", "category": "Software company", "street": "1/1 BA, 3rd Floor, Mohammadpur,", "city": "Bhikaji Cama Place", "phone": "01149605500", "website": "https://www.teckinfo.com/", "rating": 4.6, "review_count": "", "latitude": 28.566004099999997, "longitude": 77.187579, "maps_url": "https://www.google.com/maps/place/?q=place_id:0x390d165555555555:0xf57c20f7d07d8fd1"}, {"place_id": "0x390ce3860c81c723:0xc5f50e43c0a86a3e", "name": "Nextr Technology", "category": "Software company", "street": "2nd Floor", "city": "1483/A-1", "phone": "09911751575", "website": "http://www.nextr.in/", "rating": 4.9, "review_count": "", "latitude": 28.574374, "longitude": 77.224284, "maps_url": "https://www.google.com/maps/place/?q=place_id:0x390ce3860c81c723:0xc5f50e43c0a86a3e"}, {"place_id": "0x390ce3a1fa7275f1:0x2c792339bc369536", "name": "Ezeetech Solutions", "category": "Software company", "street": "149-A, 1st Floor", "city": "Baba House Complex", "phone": "01149901562", "website": "https://ezeetechonline.com/", "rating": 4.9, "review_count": "", "latitude": 28.576534199999998, "longitude": 77.26283029999999, "maps_url": "https://www.google.com/maps/place/?q=place_id:0x390ce3a1fa7275f1:0x2c792339bc369536"}, {"place_id": "0x2a72b8b69d7b6493:0x11251466d4d34cac", "name": "WebZonal IT Company", "category": "Website designer", "street": "Wz-258/2-3, D Block Rd", "city": "Khazan Basti, Nangal Raya, Janakpuri", "phone": "09811170903", "website": "http://webzonal.com/", "rating": 5, "review_count": "", "latitude": 28.6122102, "longitude": 77.11159549999999, "maps_url": "https://www.google.com/maps/place/?q=place_id:0x2a72b8b69d7b6493:0x11251466d4d34cac"}, {"place_id": "0x4ebf586dbe4d7c09:0x968455c83bf5226c", "name": "Anchor IT Solutions- App Development | Website Development | Digital Marketing", "category": "Software company", "street": "4", "city": "Vinoba Puri, Lajpat Nagar II, Lajpat Nagar", "phone": "07678658584", "website": "", "rating": 4.8, "review_count": "", "latitude": 28.566371399999998, "longitude": 77.2486924, "maps_url": "https://www.google.com/maps/place/?q=place_id:0x4ebf586dbe4d7c09:0x968455c83bf5226c"}, {"place_id": "0x390ce44609d8fd9b:0x9c680f27679610f6", "name": "Crestech Software", "category": "Software company", "street": "Plot No. D, Vyapar Marg", "city": "D Block, Sector 2", "phone": "08826666755", "website": "https://www.crestechsoftware.com/", "rating": 3.6, "review_count": "", "latitude": 28.5836924, "longitude": 77.3166213, "maps_url": "https://www.google.com/maps/place/?q=place_id:0x390ce44609d8fd9b:0x9c680f27679610f6"}, {"place_id": "0x390d1daf5bbb6d71:0xd493e8d457a28388", "name": "DPM IT SOLUTIONS", "category": "Software company", "street": "2nd floor, madangiri", "city": "111, E-2", "phone": "09650413450", "website": "https://dpmitsolutions.com/", "rating": 5, "review_count": "", "latitude": 28.565620799999998, "longitude": 77.16005679999999, "maps_url": "https://www.google.com/maps/place/?q=place_id:0x390d1daf5bbb6d71:0xd493e8d457a28388"}, {"place_id": "0x390ce293a1d8d7cf:0xceb3a334eb476e7", "name": "Combine Company", "category": "Educational consultant", "street": "35 A, Prithvi Raj Road", "city": "New Delhi, Delhi 110003", "phone": "09810111169", "website": "https://bestfituniversities.com/", "rating": 4.4, "review_count": "", "latitude": 28.592962699999998, "longitude": 77.21440319999999, "maps_url": "https://www.google.com/maps/place/?q=place_id:0x390ce293a1d8d7cf:0xceb3a334eb476e7"}, {"place_id": "0x390d1d9ce0eaada3:0xc5a1a0a2458099e3", "name": "CODENCREATIVE TECH PVT LTD", "category": "Software company", "street": "DDA Flat", "city": "RBI Officers Colony, Vasant Vihar", "phone": "09717047610", "website": "https://codencreative.com/", "rating": 4.9, "review_count": "", "latitude": 28.563302099999998, "longitude": 77.1519732, "maps_url": "https://www.google.com/maps/place/?q=place_id:0x390d1d9ce0eaada3:0xc5a1a0a2458099e3"}, {"place_id": "0x390ce3a2021e9897:0x28bf52d36a7d0c19", "name": "It Softtech - Website Designing and Development Company in Delhi, India", "category": "Internet marketing service", "street": "149, Ring Rd", "city": "opp. Maharani Bagh", "phone": "09810056177", "website": "", "rating": 5, "review_count": "", "latitude": 28.5763395, "longitude": 77.2640869, "maps_url": "https://www.google.com/maps/place/?q=place_id:0x390ce3a2021e9897:0x28bf52d36a7d0c19"}, {"place_id": "0x390cfcd5693382a9:0x7d163441e68be0fd", "name": "OCIO Technology", "category": "Software company", "street": "316, 3rd Floor", "city": "Pratap Bhawan", "phone": "09999220359", "website": "http://ociotechnology.com/", "rating": 4.9, "review_count": "", "latitude": 28.627443399999997, "longitude": 77.241478, "maps_url": "https://www.google.com/maps/place/?q=place_id:0x390cfcd5693382a9:0x7d163441e68be0fd"}, {"place_id": "0x390ce3003fffffe3:0x1dd892a28603e769", "name": "Corporate Infotech Pvt Ltd.", "category": "Software company", "street": "E-81", "city": "E Block, Sector 6", "phone": "1800116474", "website": "https://cipl.org.in/", "rating": 4.4, "review_count": "", "latitude": 28.5937284, "longitude": 77.3206974, "maps_url": "https://www.google.com/maps/place/?q=place_id:0x390ce3003fffffe3:0x1dd892a28603e769"}, {"place_id": "0x390ce26dc4d4ba2d:0x9486a6d620e379f9", "name": "Akal Information Systems Ltd.", "category": "Software company", "street": "Tower J, World Trade Center", "city": "103", "phone": "01146503545", "website": "https://www.akalinfo.com/", "rating": 3.9, "review_count": "", "latitude": 28.567935499999997, "longitude": 77.1923202, "maps_url": "https://www.google.com/maps/place/?q=place_id:0x390ce26dc4d4ba2d:0x9486a6d620e379f9"}, {"place_id": "0x390ce307bcb22a5d:0x9ccc7b5165fafc25", "name": "EDGISS IT SERVICES INC.", "category": "Software company", "street": "40, Jangpura Rd", "city": "Bhogal", "phone": "07982001184", "website": "https://www.edgiss.in/", "rating": 5, "review_count": "", "latitude": 28.582393699999997, "longitude": 77.24992309999999, "maps_url": "https://www.google.com/maps/place/?q=place_id:0x390ce307bcb22a5d:0x9ccc7b5165fafc25"}, {"place_id": "0x390feda4c4f56aed:0x2277b287e38fc0ec", "name": "Dizivan IT Solutions Pvt Ltd- App Development & Digital Marketing Company", "category": "Software company", "street": "near Metro Station New Ashok Nagar", "city": "Block B, New Ashok Nagar", "phone": "09142092979", "website": "https://dizivan.com/", "rating": 5, "review_count": "", "latitude": 28.5891575, "longitude": 77.3020624, "maps_url": "https://www.google.com/maps/place/?q=place_id:0x390feda4c4f56aed:0x2277b287e38fc0ec"}, {"place_id": "0x390d03adaef37299:0xd8b343093deaee7", "name": "Ruminate IT Solution | Best software company in Delhi NCR | IT Software company", "category": "Software company", "street": "C-64", "city": "Pocket B, Hari Nagar", "phone": "09625650376", "website": "https://www.ruminateitsolution.com/", "rating": 5, "review_count": "", "latitude": 28.628819, "longitude": 77.10428399999999, "maps_url": "https://www.google.com/maps/place/?q=place_id:0x390d03adaef37299:0xd8b343093deaee7"}, {"place_id": "0x390cfcad2d191127:0x83c805201ec0a98e", "name": "IT Nucleus", "category": "Website designer", "street": "310, 3rd Floor, S-524, Aggarwal House Opp-Metro Pillar 27", "city": "School Block shakarpur, Laxmi Nagar", "phone": "01143001828", "website": "http://www.itnucleus.com/", "rating": 4.9, "review_count": "", "latitude": 28.629542599999997, "longitude": 77.2766257, "maps_url": "https://www.google.com/maps/place/?q=place_id:0x390cfcad2d191127:0x83c805201ec0a98e"}, {"place_id": "0x390d029a60a72d25:0x45441d38cea092f1", "name": "Payroll Software Companies", "category": "Software company", "street": "4/28, Ground Floor", "city": "Saraswati Marg", "phone": "09711195490", "website": "", "rating": 4.3, "review_count": "", "latitude": 28.6484551, "longitude": 77.1875826, "maps_url": "https://www.google.com/maps/place/?q=place_id:0x390d029a60a72d25:0x45441d38cea092f1"}, {"place_id": "0x390ce2eb32dff915:0xf8abdbf6732fd4b3", "name": "Pulsar Pvt Ltd", "category": "Corporate office", "street": "20-D, Prithviraj Rd", "city": "South Avenue Lane Area, Tughlak Road Area", "phone": "", "website": "", "rating": 4.3, "review_count": "", "latitude": 28.5966852, "longitude": 77.21761029999999, "maps_url": "https://www.google.com/maps/place/?q=place_id:0x390ce2eb32dff915:0xf8abdbf6732fd4b3"}, {"place_id": "0x390cfd35391deb71:0xdbdd1388c7dc51b6", "name": "Jak Software Pvt Ltd", "category": "Software company", "street": "52 Janpath", "city": "New Delhi, Delhi 110001", "phone": "07827249056", "website": "http://www.jaksoftware.co.in/", "rating": 4.4, "review_count": "", "latitude": 28.627537999999998, "longitude": 77.21878989999999, "maps_url": "https://www.google.com/maps/place/?q=place_id:0x390cfd35391deb71:0xdbdd1388c7dc51b6"}, {"place_id": "0x390ce3d606c913ef:0xd246bd5631eb2cad", "name": "Delvetech", "category": "Software company", "street": "87A/1, 3rd Floor, Opp. Block N-115, G.K-1, Near Moolchand Merto", "city": "Block B, Zamrudpur, Greater Kailash", "phone": "09873895154", "website": "http://www.delvetech.co.in/", "rating": 4.1, "review_count": "", "latitude": 28.5570597, "longitude": 77.2356981, "maps_url": "https://www.google.com/maps/place/?q=place_id:0x390ce3d606c913ef:0xd246bd5631eb2cad"}, {"place_id": "0x390d1df079759d1f:0x8bfa70033f6c672a", "name": "NR Technoserve Pvt. Ltd.", "category": "Software company", "street": "133, Katwaria Sarai", "city": "Phase-2, Qutab Institutional Area", "phone": "07289096762", "website": "http://www.nrtechnoserve.co.in/", "rating": 4.4, "review_count": "", "latitude": 28.5413306, "longitude": 77.18495519999999, "maps_url": "https://www.google.com/maps/place/?q=place_id:0x390d1df079759d1f:0x8bfa70033f6c672a"}, {"place_id": "0x390ce3b7c0000001:0x46ddd80ee502d937", "name": "Amtrak Technologies Private Limited", "category": "Computer support and services", "street": "6, Community Centre", "city": "East of Kailash", "phone": "01126448000", "website": "https://amtrak.co.in/", "rating": 4.4, "review_count": "", "latitude": 28.558434899999998, "longitude": 77.2463302, "maps_url": "https://www.google.com/maps/place/?q=place_id:0x390ce3b7c0000001:0x46ddd80ee502d937"}, {"place_id": "0x390ce3932eaaaaab:0xb308d9aae0d93852", "name": "Al Hadaf Technologies\u2013 ERP, CRM, HRM, Hospital, School, Billing Software Development Company in Delhi NCR", "category": "Software company", "street": "96, Gate No-2", "city": "opp. Escort Hospital", "phone": "08586972994", "website": "https://www.alhadaftech.com/", "rating": 4.9, "review_count": "", "latitude": 28.5562397, "longitude": 77.2762099, "maps_url": "https://www.google.com/maps/place/?q=place_id:0x390ce3932eaaaaab:0xb308d9aae0d93852"}, {"place_id": "0x390cfdcc4be47a2d:0xbd6a23fa53037221", "name": "Web Players Technology- Website Designing Company in Central Delhi - Landing Page Designing Company in Delhi", "category": "Software company", "street": "CP N-12 UPPER GROUND FLOOR MUNSI LAL BUILDING", "city": "Connaught Cir", "phone": "09717292583", "website": "https://www.web-players.co.in/", "rating": 5, "review_count": "", "latitude": 28.6315566, "longitude": 77.22262119999999, "maps_url": "https://www.google.com/maps/place/?q=place_id:0x390cfdcc4be47a2d:0xbd6a23fa53037221"}, {"place_id": "0x390ce226100110ef:0xe529d399458dbf03", "name": "First IT", "category": "Software company", "street": "S/F 776-A", "city": "Chirag Dilli", "phone": "", "website": "https://www.firstit.in/", "rating": 5, "review_count": "", "latitude": 28.5376318, "longitude": 77.2282863, "maps_url": "https://www.google.com/maps/place/?q=place_id:0x390ce226100110ef:0xe529d399458dbf03"}, {"place_id": "0x390ce3c8e5555555:0xc908f703f65324ea", "name": "Vinayak Compserve Pvt.Ltd", "category": "Computer service", "street": "220", "city": "Sant Nagar, East of Kailash", "phone": "01126430397", "website": "https://vinayakit.com/", "rating": 3.7, "review_count": "", "latitude": 28.5536721, "longitude": 77.2494229, "maps_url": "https://www.google.com/maps/place/?q=place_id:0x390ce3c8e5555555:0xc908f703f65324ea"}, {"place_id": "0x390cfd4003b035d5:0x710fbda5c1a9b3dc", "name": "TechMaa AI Innovations Pvt. Ltd.", "category": "Software company", "street": "3, SF", "city": "Kundan Mansion", "phone": "09910947998", "website": "https://www.techmaa.org/", "rating": 4.8, "review_count": "", "latitude": 28.6410409, "longitude": 77.23569549999999, "maps_url": "https://www.google.com/maps/place/?q=place_id:0x390cfd4003b035d5:0x710fbda5c1a9b3dc"}, {"place_id": "0x390ce30f4c4ed777:0x3a7c5e032ce51ce5", "name": "Appextech Software Solutions", "category": "Software company", "street": "Second Floor", "city": "Mohan Cooperative Industrial Estate", "phone": "09911432451", "website": "https://www.appextech.com/", "rating": 4.9, "review_count": "", "latitude": 28.502260099999997, "longitude": 77.28519, "maps_url": "https://www.google.com/maps/place/?q=place_id:0x390ce30f4c4ed777:0x3a7c5e032ce51ce5"}, {"place_id": "0x390ce3db460cee5f:0x47a6e8d4aa56a40f", "name": "Injoria Technologies: Website, Custome Software, Mobile Apps Development company", "category": "Computer support and services", "street": "Second Floor", "city": "Pandav Nagar Complex", "phone": "09911177045", "website": "", "rating": 4.5, "review_count": "", "latitude": 28.6215884, "longitude": 77.2842872, "maps_url": "https://www.google.com/maps/place/?q=place_id:0x390ce3db460cee5f:0x47a6e8d4aa56a40f"}, {"place_id": "0x390ce3cfe91504eb:0x55346c5c499223d7", "name": "CCS Computers Private Limited", "category": "Computer support and services", "street": "2nd-3rd Floor Skipper House", "city": "Nehru Place", "phone": "01126463959", "website": "http://www.ccscomputers.co.in/", "rating": 4, "review_count": "", "latitude": 28.550090599999997, "longitude": 77.2537834, "maps_url": "https://www.google.com/maps/place/?q=place_id:0x390ce3cfe91504eb:0x55346c5c499223d7"}, {"place_id": "0x390ce45bcd61048f:0x5f6a5602f4155df7", "name": "JK Technosoft Limited", "category": "Software company", "street": "F", "city": "3", "phone": "01204606300", "website": "https://jktech.com/", "rating": 4.2, "review_count": "", "latitude": 28.5802509, "longitude": 77.31793329999999, "maps_url": "https://www.google.com/maps/place/?q=place_id:0x390ce45bcd61048f:0x5f6a5602f4155df7"}, {"place_id": "0x390ce242f9a4a027:0xb1f2b4656ab9d166", "name": "Metasoft IT Systems Pvt Ltd", "category": "Software company", "street": "South Extension Plaza 2", "city": "401 402, Guneet Kashyap Marg Rd", "phone": "09910975699", "website": "http://www.metasoft.co.in/", "rating": "", "review_count": "", "latitude": 28.5636208, "longitude": 77.2198183, "maps_url": "https://www.google.com/maps/place/?q=place_id:0x390ce242f9a4a027:0xb1f2b4656ab9d166"}, {"place_id": "0x390cfd355ca0fea9:0x1f2be0f1ef6dbdcf", "name": "Vayam Technologies Ltd.", "category": "Corporate office", "street": "Thapar House", "city": "124, Janpath Ln", "phone": "01147101200", "website": "https://www.vayamtech.com/", "rating": 3.8, "review_count": "", "latitude": 28.624508, "longitude": 77.21805499999999, "maps_url": "https://www.google.com/maps/place/?q=place_id:0x390cfd355ca0fea9:0x1f2be0f1ef6dbdcf"}, {"place_id": "0x390ce25e35e99b33:0xf443abe69b4e8fcc", "name": "Synapse Valuetech Private Limited", "category": "Software company", "street": "Lower Ground Floor", "city": "221", "phone": "01146628882", "website": "https://www.synapsevaluetech.com/", "rating": 4.3, "review_count": "", "latitude": 28.558165, "longitude": 77.2592385, "maps_url": "https://www.google.com/maps/place/?q=place_id:0x390ce25e35e99b33:0xf443abe69b4e8fcc"}, {"place_id": "0x390ce36b879ceb4d:0x77a6a28989570b75", "name": "RMI - India", "category": "Corporate office", "street": "J628+674", "city": "Tees January Road Area, Motilal Nehru Marg Area", "phone": "", "website": "https://rmi.org/india", "rating": 4.3, "review_count": "", "latitude": 28.600520099999997, "longitude": 77.2156928, "maps_url": "https://www.google.com/maps/place/?q=place_id:0x390ce36b879ceb4d:0x77a6a28989570b75"}, {"place_id": "0x390ce33ad759f8cd:0xdda7c76f5bf998c2", "name": "Graphic Web Animation Academy In Delhi", "category": "Website designer", "street": "S-5, Type 4", "city": "NDMC Officers Flat", "phone": "09871218228", "website": "https://graphicwebanimationacademy.com/", "rating": 5, "review_count": "", "latitude": 28.5974918, "longitude": 77.2156401, "maps_url": "https://www.google.com/maps/place/?q=place_id:0x390ce33ad759f8cd:0xdda7c76f5bf998c2"}, {"place_id": "0x390ce3c577996141:0x6f0e309d0c4c2de1", "name": "Eagle Information Systems Pvt. Ltd.", "category": "Computer support and services", "street": "Madhuban Building", "city": "705", "phone": "09818188012", "website": "http://www.eagle.in/", "rating": 4.5, "review_count": "", "latitude": 28.5486501, "longitude": 77.2520914, "maps_url": "https://www.google.com/maps/place/?q=place_id:0x390ce3c577996141:0x6f0e309d0c4c2de1"}, {"place_id": "0x390ce44efef427e7:0x4d0a10522519f65e", "name": "Omnie Solutions (I) Pvt Ltd", "category": "Software company", "street": "D-108", "city": "Sector 2, D Block, Sector 2", "phone": "09266754671", "website": "https://www.omniesolutions.com/", "rating": 3.4, "review_count": "", "latitude": 28.583485, "longitude": 77.316155, "maps_url": "https://www.google.com/maps/place/?q=place_id:0x390ce44efef427e7:0x4d0a10522519f65e"}, {"place_id": "0x390ce5fe6ef869d7:0xa4fe2f6b97f33330", "name": "Fenebris India Pvt Ltd | Website Development And Digital Marketing Company In Noida", "category": "Software company", "street": "H-47", "city": "H Block, Sector 63", "phone": "07503638275", "website": "https://fenebrisindia.com/", "rating": 4.8, "review_count": "", "latitude": 28.6289606, "longitude": 77.376075, "maps_url": "https://www.google.com/maps/place/?q=place_id:0x390ce5fe6ef869d7:0xa4fe2f6b97f33330"}, {"place_id": "0x390ce296aa75438f:0x4a807bb750e9c5c8", "name": "Bharat - ASEAN Maitri Park", "category": "Park", "street": "Tughlaq Cres", "city": "Tuglak Crescent Area, Tughlak Road Area", "phone": "", "website": "", "rating": 4.4, "review_count": "", "latitude": 28.5944202, "longitude": 77.2117696, "maps_url": "https://www.google.com/maps/place/?q=place_id:0x390ce296aa75438f:0x4a807bb750e9c5c8"}, {"place_id": "0x390d03fd9307cd73:0x7a223a0902c6e0cd", "name": "Web Cloud Technology", "category": "Marketing agency", "street": "3A/74 W.E.A", "city": "Sat Nagar, Karol Bagh", "phone": "08882324811", "website": "https://webcloudtechnology.in/", "rating": 4.4, "review_count": "", "latitude": 28.6465632, "longitude": 77.1824149, "maps_url": "https://www.google.com/maps/place/?q=place_id:0x390d03fd9307cd73:0x7a223a0902c6e0cd"}, {"place_id": "0x390cfd35c8f89657:0xadbc7004661a9c74", "name": "Sterco Digitex Pvt Limited", "category": "Website designer", "street": "2nd Floor", "city": "72, Janpath Rd", "phone": "01204857333", "website": "https://www.stercodigitex.com/", "rating": 4.1, "review_count": "", "latitude": 28.628133, "longitude": 77.21985099999999, "maps_url": "https://www.google.com/maps/place/?q=place_id:0x390cfd35c8f89657:0xadbc7004661a9c74"}, {"place_id": "0x390ce25f6e3d2b9d:0x57f3a0fc9725f59b", "name": "YATRA POINT TOURISM COMPANY INDIA", "category": "Travel agency", "street": "OFFICE NO-7", "city": "BULDING NO N-1, LGF", "phone": "08860016982", "website": "", "rating": 4.9, "review_count": "", "latitude": 28.574078, "longitude": 77.219089, "maps_url": "https://www.google.com/maps/place/?q=place_id:0x390ce25f6e3d2b9d:0x57f3a0fc9725f59b"}, {"place_id": "0x390cfb4bf15a6733:0xaf50e6f3c5fb7641", "name": "Digitals Daddy: Web & App Development Company", "category": "Website designer", "street": "Metro Gate No. 2", "city": "Nearest Sikandarpur", "phone": "09818286609", "website": "https://www.digitalsdaddy.com/", "rating": 4.9, "review_count": "", "latitude": 28.4847884, "longitude": 77.0922192, "maps_url": "https://www.google.com/maps/place/?q=place_id:0x390cfb4bf15a6733:0xaf50e6f3c5fb7641"}, {"place_id": "0x390ce15795555555:0x9bb8a801d00d7573", "name": "DreamSoft Infotech - Website Development Company in India", "category": "Software company", "street": "A-75 Third Floor", "city": "A Block, Sector 5", "phone": "01204380622", "website": "https://dreamsoftinfotech.com/", "rating": 3.4, "review_count": "", "latitude": 28.591018899999998, "longitude": 77.32201529999999, "maps_url": "https://www.google.com/maps/place/?q=place_id:0x390ce15795555555:0x9bb8a801d00d7573"}, {"place_id": "0x390d1b2cb6508ab9:0x1ecc23dbb116ce2a", "name": "India Data Entry Services", "category": "E-commerce service", "street": "", "city": "", "phone": "09015666732", "website": "http://www.india-data-entry-services.com/", "rating": 4.6, "review_count": "", "latitude": 28.5273522, "longitude": 77.20898509999999, "maps_url": "https://www.google.com/maps/place/?q=place_id:0x390d1b2cb6508ab9:0x1ecc23dbb116ce2a"}, {"place_id": "0x390ce32f7f91b893:0xf7c2be7eb729f502", "name": "Digital marketing Company, website Designing Company ( Logo Designing Company ) ( Online Marketplace )", "category": "Website designer", "street": "120-G", "city": "Hari Nagar Ashram", "phone": "08920138925", "website": "https://royalcruiselimos.com/", "rating": 5, "review_count": "", "latitude": 28.5718902, "longitude": 77.2559809, "maps_url": "https://www.google.com/maps/place/?q=place_id:0x390ce32f7f91b893:0xf7c2be7eb729f502"}, {"place_id": "0x390ce30403b64187:0x8726709a519a194c", "name": "Digital Marketing Company", "category": "Advertising agency", "street": "Unit Number 109, 1St Floor, Mercantile House", "city": "KG Marg", "phone": "09599575057", "website": "https://www.linkedin.com/in/arvindnirala/", "rating": 4.9, "review_count": "", "latitude": 28.622821799999997, "longitude": 77.2253394, "maps_url": "https://www.google.com/maps/place/?q=place_id:0x390ce30403b64187:0x8726709a519a194c"}, {"place_id": "0x390ce3b5e9981665:0x6ed3916f90d5be3c", "name": "Netsoft Consulting Services", "category": "Information services", "street": "24, IInd Floor, Community Center, East Of Kailash", "city": "behind Sapna Cinema", "phone": "01145330000", "website": "https://netsoftit.com/contact-us/", "rating": 3.5, "review_count": "", "latitude": 28.5583678, "longitude": 77.24568579999999, "maps_url": "https://www.google.com/maps/place/?q=place_id:0x390ce3b5e9981665:0x6ed3916f90d5be3c"}, {"place_id": "0x390d1d8baaaaaaab:0x81e02841f207d0f0", "name": "S SONY & COMPANY PVT. LTD", "category": "Real Estate Builders & Construction Company", "street": "G-4, ANUPAMA BUILDING II FLOOR", "city": "Hauz Khas", "phone": "01135002651", "website": "http://ssony.in/", "rating": 4.9, "review_count": "", "latitude": 28.5510508, "longitude": 77.2048471, "maps_url": "https://www.google.com/maps/place/?q=place_id:0x390d1d8baaaaaaab:0x81e02841f207d0f0"}, {"place_id": "0x390d1b0010fc2321:0x12e9154c815cf007", "name": "Prashant Dwivedi IT company", "category": "Warehouse", "street": "G3P5+GVC", "city": "Nayak Pura, Bijwasan", "phone": "", "website": "", "rating": "", "review_count": "", "latitude": 28.536316, "longitude": 77.059649, "maps_url": "https://www.google.com/maps/place/?q=place_id:0x390d1b0010fc2321:0x12e9154c815cf007"}, {"place_id": "0x390ce3c87abeddd9:0xa68500e49b658474", "name": "IT Magnum Opus", "category": "Computer support and services", "street": "P-31", "city": "Sriniwaspuri Extn, Block Q, Private Colony, Sri Niwaspuri", "phone": "", "website": "https://www.itmo.in/", "rating": 4.8, "review_count": "", "latitude": 28.5626805, "longitude": 77.2597913, "maps_url": "https://www.google.com/maps/place/?q=place_id:0x390ce3c87abeddd9:0xa68500e49b658474"}, {"place_id": "0x390cfd35c8f89657:0xadbc7004661a9c74", "name": "Sterco Digitex Pvt Limited", "category": "Software company", "street": "2nd Floor", "city": "72, Janpath Rd", "phone": "01204857333", "website": "https://www.stercodigitex.com/", "rating": 4.1, "review_count": "", "latitude": 28.628133, "longitude": 77.21985099999999, "maps_url": "https://www.google.com/maps/place/?q=place_id:0x390cfd35c8f89657:0xadbc7004661a9c74"}, {"place_id": "0x390ce25f6e3d2b9d:0x57f3a0fc9725f59b", "name": "YATRA POINT TOURISM COMPANY INDIA", "category": "Travel agency", "street": "OFFICE NO-7", "city": "BULDING NO N-1, LGF", "phone": "08860016982", "website": "", "rating": 4.9, "review_count": "", "latitude": 28.574078, "longitude": 77.219089, "maps_url": "https://www.google.com/maps/place/?q=place_id:0x390ce25f6e3d2b9d:0x57f3a0fc9725f59b"}, {"place_id": "0x390cfb4bf15a6733:0xaf50e6f3c5fb7641", "name": "Digitals Daddy: Web & App Development Company", "category": "Software company", "street": "Metro Gate No. 2", "city": "Nearest Sikandarpur", "phone": "09818286609", "website": "https://www.digitalsdaddy.com/", "rating": 4.9, "review_count": "", "latitude": 28.4847884, "longitude": 77.0922192, "maps_url": "https://www.google.com/maps/place/?q=place_id:0x390cfb4bf15a6733:0xaf50e6f3c5fb7641"}, {"place_id": "0x390ce15795555555:0x9bb8a801d00d7573", "name": "DreamSoft Infotech - Website Development Company in India", "category": "Software company", "street": "A-75 Third Floor", "city": "A Block, Sector 5", "phone": "01204380622", "website": "https://dreamsoftinfotech.com/", "rating": 3.4, "review_count": "", "latitude": 28.591018899999998, "longitude": 77.32201529999999, "maps_url": "https://www.google.com/maps/place/?q=place_id:0x390ce15795555555:0x9bb8a801d00d7573"}, {"place_id": "0x390d1b2cb6508ab9:0x1ecc23dbb116ce2a", "name": "India Data Entry Services", "category": "E-commerce service", "street": "", "city": "", "phone": "09015666732", "website": "http://www.india-data-entry-services.com/", "rating": 4.6, "review_count": "", "latitude": 28.5273522, "longitude": 77.20898509999999, "maps_url": "https://www.google.com/maps/place/?q=place_id:0x390d1b2cb6508ab9:0x1ecc23dbb116ce2a"}, {"place_id": "0x390ce32f7f91b893:0xf7c2be7eb729f502", "name": "Digital marketing Company, website Designing Company ( Logo Designing Company ) ( Online Marketplace )", "category": "Website designer", "street": "120-G", "city": "Hari Nagar Ashram", "phone": "08920138925", "website": "https://royalcruiselimos.com/", "rating": 5, "review_count": "", "latitude": 28.5718902, "longitude": 77.2559809, "maps_url": "https://www.google.com/maps/place/?q=place_id:0x390ce32f7f91b893:0xf7c2be7eb729f502"}, {"place_id": "0x390ce30403b64187:0x8726709a519a194c", "name": "Digital Marketing Company", "category": "Advertising agency", "street": "Unit Number 109, 1St Floor, Mercantile House", "city": "KG Marg", "phone": "09599575057", "website": "https://www.linkedin.com/in/arvindnirala/", "rating": 4.9, "review_count": "", "latitude": 28.622821799999997, "longitude": 77.2253394, "maps_url": "https://www.google.com/maps/place/?q=place_id:0x390ce30403b64187:0x8726709a519a194c"}, {"place_id": "0x390ce3b5e9981665:0x6ed3916f90d5be3c", "name": "Netsoft Consulting Services", "category": "Information services", "street": "24, IInd Floor, Community Center, East Of Kailash", "city": "behind Sapna Cinema", "phone": "01145330000", "website": "https://netsoftit.com/contact-us/", "rating": 3.5, "review_count": "", "latitude": 28.5583678, "longitude": 77.24568579999999, "maps_url": "https://www.google.com/maps/place/?q=place_id:0x390ce3b5e9981665:0x6ed3916f90d5be3c"}, {"place_id": "0x390d1d8baaaaaaab:0x81e02841f207d0f0", "name": "S SONY & COMPANY PVT. LTD", "category": "Real Estate Builders & Construction Company", "street": "G-4, ANUPAMA BUILDING II FLOOR", "city": "Hauz Khas", "phone": "01135002651", "website": "http://ssony.in/", "rating": 4.9, "review_count": "", "latitude": 28.5510508, "longitude": 77.2048471, "maps_url": "https://www.google.com/maps/place/?q=place_id:0x390d1d8baaaaaaab:0x81e02841f207d0f0"}, {"place_id": "0x390d1b0010fc2321:0x12e9154c815cf007", "name": "Prashant Dwivedi IT company", "category": "Warehouse", "street": "G3P5+GVC", "city": "Nayak Pura, Bijwasan", "phone": "", "website": "", "rating": "", "review_count": "", "latitude": 28.536316, "longitude": 77.059649, "maps_url": "https://www.google.com/maps/place/?q=place_id:0x390d1b0010fc2321:0x12e9154c815cf007"}, {"place_id": "0x390ce3083df185df:0xcff0bc07ace98fca", "name": "Dwitty & Company", "category": "Website designer", "street": "B-109", "city": "Block D, Jangpura B", "phone": "07011273521", "website": "", "rating": 5, "review_count": "", "latitude": 28.581945599999997, "longitude": 77.2534653, "maps_url": "https://www.google.com/maps/place/?q=place_id:0x390ce3083df185df:0xcff0bc07ace98fca"}, {"place_id": "0x390ce299b531ca49:0x46fd651ffbf39158", "name": "Hindustan Petroleum Corporation Limited", "category": "Petrol Pump", "street": "Ground Floor", "city": "Lok Kalyan Marg", "phone": "09711197159", "website": "https://petrolpump.hpretail.in/hindustan-petroleum-corporation-limited-bedi-motors-petrol-pump-chanakyapuri-new-delhi-98145/Home?utm_source=locator&utm_medium=googleplaces", "rating": 4, "review_count": "", "latitude": 28.596294699999998, "longitude": 77.2044636, "maps_url": "https://www.google.com/maps/place/?q=place_id:0x390ce299b531ca49:0x46fd651ffbf39158"}, {"place_id": "0x3be7c21b5901e181:0x7fe794585addc1f6", "name": "Smartinfologiks - Software Development Company in India | IT Solutions", "category": "Software company", "street": "Hilton Center", "city": "514", "phone": "07400064691", "website": "https://www.smartinfologiks.com/", "rating": 4.6, "review_count": "", "latitude": 19.0139592, "longitude": 73.0382705, "maps_url": "https://www.google.com/maps/place/?q=place_id:0x3be7c21b5901e181:0x7fe794585addc1f6"}, {"place_id": "0x390ce550ac43f535:0x7efd3596bc8722ed", "name": "DataMetricks Consulting Private Limited- Best Digital Marketing & Web Development Company in Noida", "category": "Software company", "street": "12th Floor, TOWER-C", "city": "ITHUM TOWER", "phone": "07303946657", "website": "http://www.datametricks.com/", "rating": 5, "review_count": "", "latitude": 28.626568, "longitude": 77.37237549999999, "maps_url": "https://www.google.com/maps/place/?q=place_id:0x390ce550ac43f535:0x7efd3596bc8722ed"}, {"place_id": "0x390ce300bfffffff:0xe1356f6e89808ee9", "name": "Skylark Elevator Company", "category": "Elevator Manufacturer", "street": "208, Defence Colony Flyover", "city": "Block M, Jungpura Extension, Market", "phone": "09953667500", "website": "https://www.skylarkelevator.com/", "rating": 2.6, "review_count": "", "latitude": 28.5801894, "longitude": 77.238514, "maps_url": "https://www.google.com/maps/place/?q=place_id:0x390ce300bfffffff:0xe1356f6e89808ee9"}, {"place_id": "0x390ce3fa30cb5c19:0xc2b9c3fe8db1dd54", "name": "KIREN SMART SERVICES", "category": "Software company", "street": "D-196, New", "city": "G/F, Lajpat Nagar I, Lajpat Nagar", "phone": "09873907360", "website": "https://kirensmartservices.com/", "rating": 4.1, "review_count": "", "latitude": 28.5785903, "longitude": 77.2423422, "maps_url": "https://www.google.com/maps/place/?q=place_id:0x390ce3fa30cb5c19:0xc2b9c3fe8db1dd54"}, {"place_id": "0x3bc2becdc35b6937:0x515ac559c349eee3", "name": "Thinkitive Technologies Private Limited", "category": "Software company", "street": "4th Floor", "city": "ABIL IMPERIAL COMMERCIAL SPACES", "phone": "08956467327", "website": "https://www.thinkitive.com/", "rating": 3.9, "review_count": "", "latitude": 18.5563888, "longitude": 73.7729748, "maps_url": "https://www.google.com/maps/place/?q=place_id:0x3bc2becdc35b6937:0x515ac559c349eee3"}, {"place_id": "0x390cfd3515adae13:0x1bb352627e7e90e6", "name": "The Shipping Corporation Of India Limited", "category": "Shipping company", "street": "1st floor, Chandralok Buillding, 36 Janpath", "city": "Janpath Rd", "phone": "01123322446", "website": "http://www.shipindia.com/", "rating": 3.9, "review_count": "", "latitude": 28.6243965, "longitude": 77.2196376, "maps_url": "https://www.google.com/maps/place/?q=place_id:0x390cfd3515adae13:0x1bb352627e7e90e6"}, {"place_id": "0x390ce39d936b3e73:0x7322566a7104ffd3", "name": "Utsao - Corporate & Business Gifts", "category": "Corporate gift supplier", "street": "S/F1", "city": "Bhaskar Bhavan", "phone": "09289738874", "website": "https://utsao.com/", "rating": 4.7, "review_count": "", "latitude": 28.570666, "longitude": 77.2222604, "maps_url": "https://www.google.com/maps/place/?q=place_id:0x390ce39d936b3e73:0x7322566a7104ffd3"}, {"place_id": "0x390ce298357a3f15:0xc301987228297cf7", "name": "Nikku Wheel Balancing And Alignment", "category": "Wheel alignment service", "street": "Mustafa Kemal Attaturk Rd", "city": "Safdarjang's Tomb, Delhi Race Club", "phone": "09810576997", "website": "http://nikkuwheelbalancingandalignment.blogspot.com/?m=1", "rating": 4.9, "review_count": "", "latitude": 28.5963256, "longitude": 77.2044059, "maps_url": "https://www.google.com/maps/place/?q=place_id:0x390ce298357a3f15:0xc301987228297cf7"}, {"place_id": "0x390ce393335b0317:0xd6f26887ac202ae7", "name": "DRM and COMPANY", "category": "Medical equipment supplier", "street": "O-30", "city": "ODS, Lajpat Nagar 4, Lajpat Nagar", "phone": "08851267277", "website": "http://www.drmcompany.co.in/", "rating": 4.6, "review_count": "", "latitude": 28.5644229, "longitude": 77.2485993, "maps_url": "https://www.google.com/maps/place/?q=place_id:0x390ce393335b0317:0xd6f26887ac202ae7"}, {"place_id": "0x390ce25bf3643f6d:0xf1699cfc4b71993d", "name": "Fireball Securitas | Security Guards Service | Top security services | Delhi India", "category": "Security guard service", "street": "1899, Uday Chand Marg", "city": "South Extension I, Kotla Mubarakpur", "phone": "08586977224", "website": "http://www.fireballindia.com/", "rating": 4.6, "review_count": "", "latitude": 28.5719329, "longitude": 77.221848, "maps_url": "https://www.google.com/maps/place/?q=place_id:0x390ce25bf3643f6d:0xf1699cfc4b71993d"}, {"place_id": "0x390cfcdf40000001:0x4c12a97db05da004", "name": "Kapur & Company", "category": "Cell phone store", "street": "3574", "city": "near Sablock Clinic", "phone": "01123275265", "website": "https://www.kapurncompany.com/?utm_source=google&utm_medium=wix_google_business_profile&utm_campaign=11484373263752398986", "rating": 4.9, "review_count": "", "latitude": 28.6425785, "longitude": 77.2402833, "maps_url": "https://www.google.com/maps/place/?q=place_id:0x390cfcdf40000001:0x4c12a97db05da004"}, {"place_id": "0x390ce3c87abeddd9:0xa68500e49b658474", "name": "IT Magnum Opus", "category": "Computer support and services", "street": "P-31", "city": "Sriniwaspuri Extn, Block Q, Private Colony, Sri Niwaspuri", "phone": "", "website": "https://www.itmo.in/", "rating": 4.8, "review_count": "", "latitude": 28.5626805, "longitude": 77.2597913, "maps_url": "https://www.google.com/maps/place/?q=place_id:0x390ce3c87abeddd9:0xa68500e49b658474"}, {"place_id": "0x390ce5a33cd2518d:0x3244b9b13b227b75", "name": "Value Innovation Labs", "category": "Corporate office", "street": "A-51", "city": "A Block, Sector 16", "phone": "08826028999", "website": "https://www.valueinnovationlabs.com/", "rating": 4.6, "review_count": "", "latitude": 28.579780099999997, "longitude": 77.31397539999999, "maps_url": "https://www.google.com/maps/place/?q=place_id:0x390ce5a33cd2518d:0x3244b9b13b227b75"}, {"place_id": "0x390ce39635e612d5:0xb288fe6c9172f2af", "name": "Bombay Shirt Company", "category": "Formal Clothing Store", "street": "2A, Second Floor, Property No. G-26", "city": "South Extension I, Block G", "phone": "07382349837", "website": "https://www.bombayshirts.com/", "rating": 4.6, "review_count": "", "latitude": 28.5690386, "longitude": 77.2206563, "maps_url": "https://www.google.com/maps/place/?q=place_id:0x390ce39635e612d5:0xb288fe6c9172f2af"}, {"place_id": "0x390ce307c858845f:0x502848c25123ea85", "name": "Al Hassan Group | Global Leaders in Exports and Imports", "category": "Import export company", "street": "14/746", "city": "14/746, NH-19", "phone": "09555510115", "website": "http://www.alhassangroup.in/", "rating": 4.7, "review_count": "", "latitude": 28.582683099999997, "longitude": 77.2510777, "maps_url": "https://www.google.com/maps/place/?q=place_id:0x390ce307c858845f:0x502848c25123ea85"}, {"place_id": "0x390ce35071aa88f7:0x6b1c5c0fde4cac28", "name": "CAAQ Consultancy - Company Registration & Compliance Consultant Delhi", "category": "Accounting firm", "street": "S/F", "city": "Bhaskar Bhavan", "phone": "", "website": "https://caaq.in/", "rating": 4.1, "review_count": "", "latitude": 28.570666, "longitude": 77.2222604, "maps_url": "https://www.google.com/maps/place/?q=place_id:0x390ce35071aa88f7:0x6b1c5c0fde4cac28"}, {"place_id": "0x390d1f0df92e353d:0x54e79553d987073c", "name": "Zombie Marketers | Performance Marketing | Digital Marketing | Website development company in Delhi | SEO company in Delhi", "category": "Marketing agency", "street": "89/9 Mamman House B Block 4th Floor", "city": "Kishangarh Village, Vasant Kunj", "phone": "08527273938", "website": "", "rating": 4.4, "review_count": "", "latitude": 28.5189249, "longitude": 77.1646754, "maps_url": "https://www.google.com/maps/place/?q=place_id:0x390d1f0df92e353d:0x54e79553d987073c"}, {"place_id": "0x390ce294b4c84339:0x80c633abe78fe47d", "name": "Tata House", "category": "Apartment building", "street": "23, Prithviraj Rd", "city": "Prathviraj Road Area, Lodhi Estate", "phone": "", "website": "", "rating": 4.7, "review_count": "", "latitude": 28.595879, "longitude": 77.21748, "maps_url": "https://www.google.com/maps/place/?q=place_id:0x390ce294b4c84339:0x80c633abe78fe47d"}, {"place_id": "0x390ce295d72484b1:0x23064066f4b8e074", "name": "Nagaland House", "category": "Guest house", "street": "9, Dr APJ Abdul Kalam Rd", "city": "Opposite Tuglak Police Station", "phone": "01123015638", "website": "", "rating": 4.2, "review_count": "", "latitude": 28.597464799999997, "longitude": 77.2117964, "maps_url": "https://www.google.com/maps/place/?q=place_id:0x390ce295d72484b1:0x23064066f4b8e074"}, {"place_id": "0x390ce2160c350ae7:0x769ee9e445eca4d6", "name": "The Sports Company", "category": "Corporate office", "street": "141-A, Fourth Floor", "city": "Shahpur Jat, Siri Fort", "phone": "09821384210", "website": "http://tscglobal.in/", "rating": 4.8, "review_count": "", "latitude": 28.548057999999997, "longitude": 77.216359, "maps_url": "https://www.google.com/maps/place/?q=place_id:0x390ce2160c350ae7:0x769ee9e445eca4d6"}, {"place_id": "0x390cfd11498fe06d:0x4b790c1ebfb4f82e", "name": "TripToniq Pvt Ltd - Best Tour and Travel Company in India", "category": "Travel agency", "street": "4th Floor", "city": "Harsha Bhawan", "phone": "09560118008", "website": "https://triptoniq.com/", "rating": 5, "review_count": "", "latitude": 28.6326204, "longitude": 77.22187869999999, "maps_url": "https://www.google.com/maps/place/?q=place_id:0x390cfd11498fe06d:0x4b790c1ebfb4f82e"}, {"place_id": "0x390cdc6f70fb5be5:0xa34888feda73528d", "name": "Pepper Designs", "category": "Website designer", "street": "House No 1, Ground Floor", "city": "Hauz Khas Village", "phone": "09811767560", "website": "https://www.pepper-designs.com/", "rating": 4.6, "review_count": "", "latitude": 28.555021999999997, "longitude": 77.19471399999999, "maps_url": "https://www.google.com/maps/place/?q=place_id:0x390cdc6f70fb5be5:0xa34888feda73528d"}, {"place_id": "0x390ce31f8414d201:0xd94fa7c34d7873a2", "name": "Bhardwaj And Company (Steel Shuttering and Scaffolding Material Supplier)", "category": "Construction equipment supplier", "street": "85-A , Ground Floor", "city": "Bhardwaj Plaza", "phone": "09811109106", "website": "http://bhardwajandcompany.com/", "rating": 4.9, "review_count": "", "latitude": 28.557116399999998, "longitude": 77.23596979999999, "maps_url": "https://www.google.com/maps/place/?q=place_id:0x390ce31f8414d201:0xd94fa7c34d7873a2"}, {"place_id": "0x390ce3eaafdd8f17:0xf5df8132dd0ffb46", "name": "NDMC OFFICE OF THE EXECUTIVE ENGINEER'S QC&TA, BM-II, STORES (ELECTRIC)", "category": "Local government office", "street": "J627+43Q", "city": "TEES JANUARY LANE NDMC", "phone": "", "website": "https://ndmc.gov.in/departments/qc_ta.aspx", "rating": 4.8, "review_count": "", "latitude": 28.600336499999997, "longitude": 77.21271879999999, "maps_url": "https://www.google.com/maps/place/?q=place_id:0x390ce3eaafdd8f17:0xf5df8132dd0ffb46"}, {"place_id": "0x390ce383cbe684f9:0x6df322cd06395a6c", "name": "Level Up The Photo Video Company | Corporate & Healthcare Video Production | Photography & Live Streaming Services", "category": "Video production service", "street": "C - 546", "city": "Block C, Defence Colony", "phone": "09718979770", "website": "http://www.leveluppvc.com/", "rating": 5, "review_count": "", "latitude": 28.5670589, "longitude": 77.23005069999999, "maps_url": "https://www.google.com/maps/place/?q=place_id:0x390ce383cbe684f9:0x6df322cd06395a6c"}, {"place_id": "0x44410b48618716b:0x7d0c5e38d0253ca9", "name": "WENGS SOLUTIONS LLP", "category": "Website designer", "street": "", "city": "", "phone": "09999537998", "website": "https://www.wengs.co.in/", "rating": 4.9, "review_count": "", "latitude": 13.4222866, "longitude": 142.1078416, "maps_url": "https://www.google.com/maps/place/?q=place_id:0x44410b48618716b:0x7d0c5e38d0253ca9"}, {"place_id": "0x390ce2ed5b089f99:0x7d3c29c7cfbc1d3b", "name": "Jor Bagh Telephone Exchange", "category": "Telephone company", "street": "H6Q9+R9G", "city": "Aliganj, Jor Bagh", "phone": "", "website": "http://mtnldelhi.in/", "rating": 3.6, "review_count": "", "latitude": 28.5895515, "longitude": 77.2184654, "maps_url": "https://www.google.com/maps/place/?q=place_id:0x390ce2ed5b089f99:0x7d3c29c7cfbc1d3b"}, {"place_id": "0x390ce3ca02c212bf:0x831590e44471eedc", "name": "SANKET GARG & COMPANY", "category": "Accounting firm", "street": "No. 10", "city": "216-B/1 Basement Gautam Nagar", "phone": "09810577298", "website": "http://casanketgargindia.co.in/", "rating": 5, "review_count": "", "latitude": 28.5607808, "longitude": 77.21212799999999, "maps_url": "https://www.google.com/maps/place/?q=place_id:0x390ce3ca02c212bf:0x831590e44471eedc"}, {"place_id": "0x390ce57639c8172b:0xe4a7b4b7666f989e", "name": "Sane it pvt ltd", "category": "Data Entry Service Provider", "street": "", "city": "", "phone": "09289114987", "website": "", "rating": 2, "review_count": "", "latitude": 21.0680074, "longitude": 82.7525294, "maps_url": "https://www.google.com/maps/place/?q=place_id:0x390ce57639c8172b:0xe4a7b4b7666f989e"}, {"place_id": "0x390d03f2f37aef51:0xc4e7406ccd44f399", "name": "AGS TELECALLING MARKETING", "category": "Computer support and services", "street": "", "city": "", "phone": "08377896397", "website": "http://agstelecallingmarketing.in/", "rating": 4.4, "review_count": "", "latitude": 28.5273522, "longitude": 77.20898509999999, "maps_url": "https://www.google.com/maps/place/?q=place_id:0x390d03f2f37aef51:0xc4e7406ccd44f399"}, {"place_id": "0x390ce293b70d3b05:0xa4296bc49f362bb5", "name": "Lutyens Bungalow", "category": "Bed & breakfast", "street": "39, Prithviraj Rd", "city": "near Safdurjung Tomb", "phone": "01124611341", "website": "http://www.lutyensbungalow.co.in/", "rating": 4.5, "review_count": "", "latitude": 28.591950599999997, "longitude": 77.21376649999999, "maps_url": "https://www.google.com/maps/place/?q=place_id:0x390ce293b70d3b05:0xa4296bc49f362bb5"}, {"place_id": "0x390ce1fb6c608877:0x254b4f46d3d3a13d", "name": "adivaha\u00ae -Travel Technology Company", "category": "Software company", "street": "E 252 1st Floor Sant Nagar, East Of Kailsh", "city": "New Delhi, Delhi 110065", "phone": "", "website": "https://www.adivaha.com/", "rating": 3, "review_count": "", "latitude": 28.555513899999998, "longitude": 77.2502335, "maps_url": "https://www.google.com/maps/place/?q=place_id:0x390ce1fb6c608877:0x254b4f46d3d3a13d"}, {"place_id": "0x390ce3183add74cf:0xfde1d5b0d4bfbc2e", "name": "Ananta", "category": "Housing complex", "street": "27A, Dr APJ Abdul Kalam Rd", "city": "Tughlak Road Area", "phone": "", "website": "", "rating": "", "review_count": "", "latitude": 28.597838699999997, "longitude": 77.21264699999999, "maps_url": "https://www.google.com/maps/place/?q=place_id:0x390ce3183add74cf:0xfde1d5b0d4bfbc2e"}, {"place_id": "0x390d1d4e77aff9c1:0x5dcb2d916235e4e", "name": "Tiffany & Co., Delhi", "category": "Jewelry store", "street": "Commercial Complex, Yashwant place", "city": "The Chanakya Ground Floor", "phone": "08595405644", "website": "https://www.tiffany.co.in/", "rating": 4.4, "review_count": "", "latitude": 28.5848797, "longitude": 77.1908473, "maps_url": "https://www.google.com/maps/place/?q=place_id:0x390d1d4e77aff9c1:0x5dcb2d916235e4e"}, {"place_id": "0x390ce3d5ee90c35d:0xf7c3aa15159883b3", "name": "Weekend Yatra | Best Adventure Trekking Company | Adventure Travel", "category": "Tour operator", "street": "4th Floor", "city": "B 165", "phone": "08527508490", "website": "https://weekendyatra.in/", "rating": 5, "review_count": "", "latitude": 28.5595821, "longitude": 77.2562805, "maps_url": "https://www.google.com/maps/place/?q=place_id:0x390ce3d5ee90c35d:0xf7c3aa15159883b3"}, {"place_id": "0x390ce34e49b627ab:0xf91f8f0ac3105233", "name": "Sunder Watch Company", "category": "Watch store", "street": "Shop No. J-35B, Pushpa", "city": "Central Market, Lajpat Nagar II", "phone": "", "website": "", "rating": 4.9, "review_count": "", "latitude": 28.5690226, "longitude": 77.2436111, "maps_url": "https://www.google.com/maps/place/?q=place_id:0x390ce34e49b627ab:0xf91f8f0ac3105233"}, {"place_id": "0x390ce340b27bc093:0xc927e8fe50cf47f5", "name": "Ghar point (A house renting company)", "category": "Real estate consultant", "street": "B 272", "city": "Block B, Greater Kailash I, Greater Kailash", "phone": "09599685158", "website": "", "rating": 4.8, "review_count": "", "latitude": 28.556379699999997, "longitude": 77.2326027, "maps_url": "https://www.google.com/maps/place/?q=place_id:0x390ce340b27bc093:0xc927e8fe50cf47f5"}, {"place_id": "0x390ce25cbfa79397:0x46a2dca7ef01e52c", "name": "VAPS & CO.", "category": "Accounting firm", "street": "C-42", "city": "South Extension II, Block C", "phone": "01141645051", "website": "http://vaps.co.in/", "rating": 5, "review_count": "", "latitude": 28.567705999999998, "longitude": 77.22196199999999, "maps_url": "https://www.google.com/maps/place/?q=place_id:0x390ce25cbfa79397:0x46a2dca7ef01e52c"}, {"place_id": "0x390ce3175692c131:0xaf941a29efce4031", "name": "Tiffin By Claridges", "category": "Delivery service", "street": "12, Dr APJ Abdul Kalam Rd", "city": "Tees January Road Area, Motilal Nehru Marg Area", "phone": "09971718208", "website": "https://order.claridges.com/claridges/delivery", "rating": 5, "review_count": "", "latitude": 28.6003428, "longitude": 77.21625089999999, "maps_url": "https://www.google.com/maps/place/?q=place_id:0x390ce3175692c131:0xaf941a29efce4031"}, {"place_id": "0x390ce20c05555555:0x15fe85e8b5322da8", "name": "DCC SUPPLY CHAIN & DISTRIBUTION LLP formerly known as Dairy Chem Corporation", "category": "Cold storage facility", "street": "Community Center", "city": "AB -17", "phone": "09899972766", "website": "", "rating": 5, "review_count": "", "latitude": 28.5661591, "longitude": 77.19903819999999, "maps_url": "https://www.google.com/maps/place/?q=place_id:0x390ce20c05555555:0x15fe85e8b5322da8"}, {"place_id": "0x390d03b6ecb23137:0x58a2d768eaf97735", "name": "The Creation", "category": "Website designer", "street": "4th Floor", "city": "17, Pusa Rd", "phone": "09818405894", "website": "http://www.thecreation.in/", "rating": 4.5, "review_count": "", "latitude": 28.64474, "longitude": 77.191228, "maps_url": "https://www.google.com/maps/place/?q=place_id:0x390d03b6ecb23137:0x58a2d768eaf97735"}, {"place_id": "0x390cfcf3d766c6e3:0xae584b7e82859b14", "name": "Shri Tapodhani Aluminium Trading Company", "category": "Aluminium Supplier", "street": "Xv 2758, Street No. 6", "city": "near banke bihari mandir", "phone": "09911087778", "website": "https://tapodhani.com/", "rating": 4.8, "review_count": "", "latitude": 28.6435481, "longitude": 77.21105469999999, "maps_url": "https://www.google.com/maps/place/?q=place_id:0x390cfcf3d766c6e3:0xae584b7e82859b14"}, {"place_id": "0x390cfd360f21ba35:0x50503ebf2806ecc5", "name": "The New India Assurance Company Ltd", "category": "Insurance company", "street": "E -9, connaught Place", "city": "New Delhi, Delhi 110001", "phone": "18002091415", "website": "http://www.newindia.co.in/index.aspx", "rating": 3.4, "review_count": "", "latitude": 28.633089599999998, "longitude": 77.22199619999999, "maps_url": "https://www.google.com/maps/place/?q=place_id:0x390cfd360f21ba35:0x50503ebf2806ecc5"}, {"place_id": "0x390cfdd8e37bd86d:0x6fdf6f77ed7835ed", "name": "Business Setup in Dubai - AE Setup", "category": "Business management consultant", "street": "GF-39A", "city": "Indra Prakash Building", "phone": "", "website": "https://aesetup.com/", "rating": "", "review_count": "", "latitude": 28.6293059, "longitude": 77.22376489999999, "maps_url": "https://www.google.com/maps/place/?q=place_id:0x390cfdd8e37bd86d:0x6fdf6f77ed7835ed"}, {"place_id": "0x390cfd3570e5fce1:0xa05ab9787d143e2", "name": "One Imperial Place Business Centre", "category": "Business center", "street": "Janpath Rd", "city": "near Metro Station", "phone": "01123341234", "website": "", "rating": 4.7, "review_count": "", "latitude": 28.625857, "longitude": 77.218378, "maps_url": "https://www.google.com/maps/place/?q=place_id:0x390cfd3570e5fce1:0xa05ab9787d143e2"}, {"place_id": "0x390ce3c851487b1f:0xb893e768ca355a6c", "name": "Aditya V Agarwal & Company", "category": "Certified public accountant", "street": "First Floor 29", "city": "Community Center", "phone": "09873131781", "website": "", "rating": 5, "review_count": "", "latitude": 28.5586234, "longitude": 77.2455276, "maps_url": "https://www.google.com/maps/place/?q=place_id:0x390ce3c851487b1f:0xb893e768ca355a6c"}, {"place_id": "0x390cfd3459b91a79:0xdb761654f8748f84", "name": "IndiaFirst Life Insurance Company Ltd.", "category": "Insurance company", "street": "2nd Floor", "city": "Narain Manzil", "phone": "01169298700", "website": "https://www.indiafirstlife.com/customer-service/branch-locator/delhi/new-delhi", "rating": 3.3, "review_count": "", "latitude": 28.629535599999997, "longitude": 77.2238955, "maps_url": "https://www.google.com/maps/place/?q=place_id:0x390cfd3459b91a79:0xdb761654f8748f84"}, {"place_id": "0x390ce21efd4c8921:0xe5e8dcd288b2c303", "name": "anovIP", "category": "Law firm", "street": "Community Center", "city": "Wing B: 161-B/4, 6th Floor Gulmohar House, Yusuf Sarai", "phone": "01141835550", "website": "http://www.anovip.com/", "rating": 3.9, "review_count": "", "latitude": 28.557895499999997, "longitude": 77.20812099999999, "maps_url": "https://www.google.com/maps/place/?q=place_id:0x390ce21efd4c8921:0xe5e8dcd288b2c303"}]}