[{"place_id": "ChIJM-ZDIOXiDDkRHNlL6nlN1D4", "name": "Wirecto", "street": "Triloki Colony, C-49, South Extension I, Mahaveer Nagar, Kotla Mubarakpur, New Delhi, Delhi 110003, India", "phone": "+91 97166 70074", "rating": "5", "review_count": "", "website": "https://wirecto.app/", "latitude": 28.575404799999998, "longitude": 77.2250054, "maps_url": "https://www.google.com/maps/search/?api=1&query=Wirecto&query_place_id=ChIJM-ZDIOXiDDkRHNlL6nlN1D4"}, {"place_id": "ChIJEZi4U8HjDDkRyul3V2h5ouc", "name": "IT Company", "street": "A-14, near iskcon temple, Block A, APB Garhi, Vasant Vihar, New Delhi, Delhi 110065, India", "phone": "", "rating": "3", "review_count": "", "website": "http://www.opuswiz.com/", "latitude": 28.557167, "longitude": 77.25424819999999, "maps_url": "https://www.google.com/maps/search/?api=1&query=IT%20Company&query_place_id=ChIJEZi4U8HjDDkRyul3V2h5ouc"}, {"place_id": "ChIJ___vH4QdDTkRcfEk8wzF_JM", "name": "Netsure IT Solution Private Limited (NSIT GLOBAL)", "street": "Ansal Chamber-2, NSIT GLOBAL, 428, Bhikaji Cama Place, Rama Krishna Puram, New Delhi, Delhi 110066, India", "phone": "+91 1800 313 818 283", "rating": "4.3", "review_count": "", "website": "", "latitude": 28.5677649, "longitude": 77.187382, "maps_url": "https://www.google.com/maps/search/?api=1&query=Netsure%20IT%20Solution%20Private%20Limited%20%28NSIT%20GLOBAL%29&query_place_id=ChIJ___vH4QdDTkRcfEk8wzF_JM"}, {"place_id": "ChIJ6xG0sw-c-DkRWHWbfpc_R74", "name": "Kbeatech - Digital Solutions Company", "street": "1893, 1st Floor, Uday Chand Marg, South Extension I, Kotla Mubarakpur, New Delhi, Delhi 110049, India", "phone": "", "rating": "4.9", "review_count": "", "website": "https://kbeatech.in/", "latitude": 28.571338299999997, "longitude": 77.2228884, "maps_url": "https://www.google.com/maps/search/?api=1&query=Kbeatech%20-%20Digital%20Solutions%20Company&query_place_id=ChIJ6xG0sw-c-DkRWHWbfpc_R74"}, {"place_id": "ChIJVVVVgV7iDDkRR38SUjV3P_k", "name": "SANEKT SOFTWARE SOLUTION", "street": "Top floor, H 11, South Extension, Block H, New Delhi, Delhi 110049, India", "phone": "+91 11 4158 9565", "rating": "5", "review_count": "", "website": "http://sanekt.com/", "latitude": 28.571361, "longitude": 77.221733, "maps_url": "https://www.google.com/maps/search/?api=1&query=SANEKT%20SOFTWARE%20SOLUTION&query_place_id=ChIJVVVVgV7iDDkRR38SUjV3P_k"}, {"place_id": "ChIJ8ZpKTwnjDDkRrSm4RmnGIdw", "name": "BAUDHYANTRAM IT Solutions | Website Designing | Web Development | Software Company in Delhi", "street": "H82 2nd Floor, opposite Bengali Sweet Center, South Extension I, Block H, New Delhi, Delhi 110049, India", "phone": "+91 79008 99996", "rating": "4.8", "review_count": "", "website": "http://www.baudhyantram.in/", "latitude": 28.5695803, "longitude": 77.221047, "maps_url": "https://www.google.com/maps/search/?api=1&query=BAUDHYANTRAM%20IT%20Solutions%20%7C%20Website%20Designing%20%7C%20Web%20Development%20%7C%20Software%20Company%20in%20Delhi&query_place_id=ChIJ8ZpKTwnjDDkRrSm4RmnGIdw"}, {"place_id": "ChIJ5QlVe1nhDDkRPE20N7kJgv0", "name": "IT Solutions India Private Limited", "street": "D-88/5, Pocket D, Okhla Phase I, Okhla Industrial Estate, New Delhi, Delhi 110020, India", "phone": "+91 98100 17429", "rating": "4.2", "review_count": "", "website": "https://www.itsipl.com/", "latitude": 28.520146, "longitude": 77.280431, "maps_url": "https://www.google.com/maps/search/?api=1&query=IT%20Solutions%20India%20Private%20Limited&query_place_id=ChIJ5QlVe1nhDDkRPE20N7kJgv0"}, {"place_id": "ChIJ_ek9kI_jDDkRG_vTxz1et2A", "name": "iTech Mission Private Limited (iTM)", "street": "4th Floor, Saira Tower, Gulmohar Commercial Complex, Yusuf Sarai, New Delhi, Delhi 110049, India", "phone": "", "rating": "5", "review_count": "", "website": "http://www.itechmission.org/", "latitude": 28.557895499999997, "longitude": 77.20812099999999, "maps_url": "https://www.google.com/maps/search/?api=1&query=iTech%20Mission%20Private%20Limited%20%28iTM%29&query_place_id=ChIJ_ek9kI_jDDkRG_vTxz1et2A"}, {"place_id": "ChIJ52accIQdDTkRCa5voVGiIbg", "name": "IT Works @ Siyaram", "street": "404, BHIKAJI CAMA PLACE, Bhikaji Cama Place, Rama Krishna Puram, New Delhi, Delhi 110066, India", "phone": "+91 11 4317 8782", "rating": "4.8", "review_count": "", "website": "http://www.garruda.co.in/", "latitude": 28.567508399999998, "longitude": 77.18817349999999, "maps_url": "https://www.google.com/maps/search/?api=1&query=IT%20Works%20%40%20Siyaram&query_place_id=ChIJ52accIQdDTkRCa5voVGiIbg"}, {"place_id": "ChIJcyHxpIYdDTkRYIJLb-pCazo", "name": "Softvanz Technologies Private Limited", "street": "Somdutt Chamber 1, BT-22/9, Bhikaji Cama Place, Rama Krishna Puram, New Delhi, Delhi 110066, India", "phone": "", "rating": "5", "review_count": "", "website": "https://softvanz.com/", "latitude": 28.567948899999998, "longitude": 77.1889269, "maps_url": "https://www.google.com/maps/search/?api=1&query=Softvanz%20Technologies%20Private%20Limited&query_place_id=ChIJcyHxpIYdDTkRYIJLb-pCazo"}, {"place_id": "ChIJVVVVVVUWDTkR0Y990PcgfPU", "name": "Teckinfo Solutions Pvt Ltd", "street": "1/1 BA, 3rd Floor, Mohammadpur,, Bhikaji Cama Place, New Delhi, Delhi 110066, India", "phone": "+91 11 4960 5500", "rating": "4.5", "review_count": "", "website": "https://www.teckinfo.com/", "latitude": 28.566004099999997, "longitude": 77.187579, "maps_url": "https://www.google.com/maps/search/?api=1&query=Teckinfo%20Solutions%20Pvt%20Ltd&query_place_id=ChIJVVVVVVUWDTkR0Y990PcgfPU"}, {"place_id": "ChIJLbrUxG3iDDkR-XnjINamhpQ", "name": "Akal Information Systems Ltd.", "street": "Tower J, World Trade Center, 103, Nauroji Nagar, New Delhi, Delhi 110029, India", "phone": "+91 11 4650 3545", "rating": "3.9", "review_count": "", "website": "https://www.akalinfo.com/", "latitude": 28.567935499999997, "longitude": 77.1923202, "maps_url": "https://www.google.com/maps/search/?api=1&query=Akal%20Information%20Systems%20Ltd.&query_place_id=ChIJLbrUxG3iDDkR-XnjINamhpQ"}, {"place_id": "ChIJVed5zP3lDDkR9k64UZLpnDA", "name": "Optyminds IT Solutions - Top AI and IT company I Best Digital agency in Noida | Delhi NCR | India", "street": "1st Floor, B-70, B Block, Sector 2, Noida, Uttar Pradesh 201301, India", "phone": "+91 89290 75975", "rating": "4.9", "review_count": "", "website": "https://optyminds.com/", "latitude": 28.584679599999998, "longitude": 77.3135042, "maps_url": "https://www.google.com/maps/search/?api=1&query=Optyminds%20IT%20Solutions%20-%20Top%20AI%20and%20IT%20company%20I%20Best%20Digital%20agency%20in%20Noida%20%7C%20Delhi%20NCR%20%7C%20India&query_place_id=ChIJVed5zP3lDDkR9k64UZLpnDA"}, {"place_id": "ChIJPwAAsCfiDDkRC4G_PEpojAY", "name": "IT Solution INDIA", "street": "Triveni Commercial Complex, Sheikh Sarai Phase 1, Sheikh Sarai, New Delhi, Delhi 110017, India", "phone": "+91 93122 09167", "rating": "4.8", "review_count": "", "website": "https://itsolutionindia.in/", "latitude": 28.5364054, "longitude": 77.22372, "maps_url": "https://www.google.com/maps/search/?api=1&query=IT%20Solution%20INDIA&query_place_id=ChIJPwAAsCfiDDkRC4G_PEpojAY"}, {"place_id": "ChIJJ6Ck-ULiDDkRZtG5amW08rE", "name": "Metasoft IT Systems Pvt Ltd", "street": "South Extension Plaza 2, 401 402, Guneet Kashyap Marg Rd, South Extension II, Masjid Moth Village, New Delhi, Delhi 110049, India", "phone": "+91 99109 75699", "rating": "", "review_count": "", "website": "http://www.metasoft.co.in/", "latitude": 28.5636208, "longitude": 77.2198183, "maps_url": "https://www.google.com/maps/search/?api=1&query=Metasoft%20IT%20Systems%20Pvt%20Ltd&query_place_id=ChIJJ6Ck-ULiDDkRZtG5amW08rE"}, {"place_id": "ChIJWQqKpavjDDkRQOIeLYJRow0", "name": "Informlive", "street": "Pillanji Village, Pilanji, Sarojini Nagar, New Delhi, Delhi 110023, India", "phone": "", "rating": "4", "review_count": "", "website": "http://www.informlive.in/", "latitude": 28.5783727, "longitude": 77.2010277, "maps_url": "https://www.google.com/maps/search/?api=1&query=Informlive&query_place_id=ChIJWQqKpavjDDkRQOIeLYJRow0"}, {"place_id": "ChIJEWC-3RDjDDkRlaR-qGzH5yk", "name": "DigiTecholic Private Limited", "street": "1st Floor, H-11, near Bengali Sweet Center, South Extension I, Block H, New Delhi, Delhi 110049, India", "phone": "+91 77008 40888", "rating": "5", "review_count": "", "website": "https://www.digitecholic.com/", "latitude": 28.5713112, "longitude": 77.2219863, "maps_url": "https://www.google.com/maps/search/?api=1&query=DigiTecholic%20Private%20Limited&query_place_id=ChIJEWC-3RDjDDkRlaR-qGzH5yk"}, {"place_id": "ChIJq6qq2oUdDTkRid2GJgw5ukE", "name": "Team Computers Pvt Ltd", "street": "1, Mohammadpur Main Rd, Bhikaji Cama Place, Rama Krishna Puram, New Delhi, Delhi 110066, India", "phone": "+91 1800 102 4200", "rating": "4.2", "review_count": "", "website": "https://www.teamcomputers.com/", "latitude": 28.5661684, "longitude": 77.1871848, "maps_url": "https://www.google.com/maps/search/?api=1&query=Team%20Computers%20Pvt%20Ltd&query_place_id=ChIJq6qq2oUdDTkRid2GJgw5ukE"}, {"place_id": "ChIJnUoSYw_cDDkRHVdWBWiR9BI", "name": "Creation and Development (CAD) - Digital Marketing Agency", "street": "Suite - 301, 3rd floor, Plaza -1, Leela Ram Market Rd, South Extension II, Block B, New Delhi, Delhi 110049, India", "phone": "+91 88029 60996", "rating": "5", "review_count": "", "website": "https://creationanddevelopment.com/", "latitude": 28.564223199999997, "longitude": 77.2196822, "maps_url": "https://www.google.com/maps/search/?api=1&query=Creation%20and%20Development%20%28CAD%29%20-%20Digital%20Marketing%20Agency&query_place_id=ChIJnUoSYw_cDDkRHVdWBWiR9BI"}, {"place_id": "ChIJ7xABECbiDDkRA7-NRZnTKeU", "name": "First IT", "street": "S/F 776-A, Chirag Dilli, New Delhi, Delhi 110017, India", "phone": "+91 70117 09416", "rating": "5", "review_count": "", "website": "https://www.firstit.in/", "latitude": 28.5376318, "longitude": 77.2282863, "maps_url": "https://www.google.com/maps/search/?api=1&query=First%20IT&query_place_id=ChIJ7xABECbiDDkRA7-NRZnTKeU"}, {"place_id": "ChIJl5geAqLjDDkRGQx9atNSvyg", "name": "It Softtech - Website Designing and Development Company in Delhi, India", "street": "149, Ring Rd, opp. Maharani Bagh, Kilokri, Phase 1, Hari Nagar Ashram, New Delhi, Delhi 110014, India", "phone": "+91 98100 56177", "rating": "5", "review_count": "", "website": "", "latitude": 28.5763395, "longitude": 77.2640869, "maps_url": "https://www.google.com/maps/search/?api=1&query=It%20Softtech%20-%20Website%20Designing%20and%20Development%20Company%20in%20Delhi%2C%20India&query_place_id=ChIJl5geAqLjDDkRGQx9atNSvyg"}, {"place_id": "ChIJQ1H4m_LjDDkRcVAsSQeDk0Q", "name": "Kajol Web Solutions", "street": "Block C, East Kidwai Nagar, Kidwai Nagar, New Delhi, Delhi 110023, India", "phone": "+91 99901 48838", "rating": "4.6", "review_count": "", "website": "", "latitude": 28.572165899999998, "longitude": 77.2106711, "maps_url": "https://www.google.com/maps/search/?api=1&query=Kajol%20Web%20Solutions&query_place_id=ChIJQ1H4m_LjDDkRcVAsSQeDk0Q"}, {"place_id": "ChIJW00PGoQdDTkR0xI2-NtLYDY", "name": "Intek Micro Systems Pvt.Ltd", "street": "E-131, 3rd Floor, Ganpathi Bhawan, Mohammadpur, opp. Bhikaji Cama Place, New Delhi, Delhi 110066, India", "phone": "+91 11 4608 9696", "rating": "3", "review_count": "", "website": "", "latitude": 28.567966799999997, "longitude": 77.1881528, "maps_url": "https://www.google.com/maps/search/?api=1&query=Intek%20Micro%20Systems%20Pvt.Ltd&query_place_id=ChIJW00PGoQdDTkR0xI2-NtLYDY"}, {"place_id": "ChIJLw32ebYWFQ0RqFl7kH3EWJQ", "name": "MarkTech Company", "street": "INA, Laxmi Bai Nagar, New Delhi, Delhi 110023, India", "phone": "+91 85278 80385", "rating": "3.9", "review_count": "", "website": "https://markteches.com/", "latitude": 28.5754463, "longitude": 77.2077127, "maps_url": "https://www.google.com/maps/search/?api=1&query=MarkTech%20Company&query_place_id=ChIJLw32ebYWFQ0RqFl7kH3EWJQ"}, {"place_id": "ChIJAQAAwLfjDDkRN9kC5Q7Y3UY", "name": "Amtrak Technologies Private Limited", "street": "6, Community Centre, East of Kailash, New Delhi, Delhi 110065, India", "phone": "+91 11 2644 8000", "rating": "4.4", "review_count": "", "website": "https://amtrak.co.in/", "latitude": 28.558434899999998, "longitude": 77.2463302, "maps_url": "https://www.google.com/maps/search/?api=1&query=Amtrak%20Technologies%20Private%20Limited&query_place_id=ChIJAQAAwLfjDDkRN9kC5Q7Y3UY"}, {"place_id": "ChIJFeXlTZkCDTkRNw2aQAO8CNk", "name": "Himalayan IT Solutions | Best Website Designing Company in Delhi | SEO/Digital Marketing Company in Delhi NCR, India", "street": "61/4255, Padam Singh Rd, Block 29, Block 1, Regar Pura, Karol Bagh, Delhi, 110005, India", "phone": "+91 98990 98509", "rating": "3.9", "review_count": "", "website": "http://www.himalayanitsolutions.com/", "latitude": 28.649673999999997, "longitude": 77.186599, "maps_url": "https://www.google.com/maps/search/?api=1&query=Himalayan%20IT%20Solutions%20%7C%20Best%20Website%20Designing%20Company%20in%20Delhi%20%7C%20SEO/Digital%20Marketing%20Company%20in%20Delhi%20NCR%2C%20India&query_place_id=ChIJFeXlTZkCDTkRNw2aQAO8CNk"}, {"place_id": "ChIJ7xPJBtbjDDkRrSzrMVa9RtI", "name": "Delvetech", "street": "87A/1, 3rd Floor, Opp. Block N-115, G.K-1, Near Moolchand Merto, Block B, Zamrudpur, Greater Kailash, New Delhi, Delhi 110048, India", "phone": "+91 98738 95154", "rating": "4.1", "review_count": "", "website": "http://www.delvetech.co.in/", "latitude": 28.5570597, "longitude": 77.2356981, "maps_url": "https://www.google.com/maps/search/?api=1&query=Delvetech&query_place_id=ChIJ7xPJBtbjDDkRrSzrMVa9RtI"}, {"place_id": "ChIJI8eBDIbjDDkRPmqowEMO9cU", "name": "Nextr Technology", "street": "2nd Floor, 1483/A-1, South Extension I, Wazir Nagar, New Delhi, Delhi 110003, India", "phone": "+91 99117 51575", "rating": "4.9", "review_count": "", "website": "http://www.nextr.in/", "latitude": 28.574374, "longitude": 77.224284, "maps_url": "https://www.google.com/maps/search/?api=1&query=Nextr%20Technology&query_place_id=ChIJI8eBDIbjDDkRPmqowEMO9cU"}, {"place_id": "ChIJL7i0Y9rGFUIRZKmtphSoS3k", "name": "Asha Tech | Website Designing | App Development | IT Company in Delhi", "street": "no 2, 195, Lane No. 1, Westend Marg, near Saket Metro Gate, Saidulajab, Saket, Delhi 110030, India", "phone": "+91 75310 80874", "rating": "4.7", "review_count": "", "website": "https://ashatech.co.in/", "latitude": 28.519994099999998, "longitude": 77.2008791, "maps_url": "https://www.google.com/maps/search/?api=1&query=Asha%20Tech%20%7C%20Website%20Designing%20%7C%20App%20Development%20%7C%20IT%20Company%20in%20Delhi&query_place_id=ChIJL7i0Y9rGFUIRZKmtphSoS3k"}, {"place_id": "ChIJ4V-yv1ofDTkRVSmfFV5NnH0", "name": "Jaimru Technology Pvt Ltd", "street": "WARD NO. 2, Plot No. 178 M 33 A/1, Garhwal Colony, Lakhi Nath Kuti, Mehrauli, New Delhi, Delhi 110030, India", "phone": "+91 78381 53420", "rating": "4.9", "review_count": "", "website": "https://www.jaimru.com/", "latitude": 28.524347499999998, "longitude": 77.1731889, "maps_url": "https://www.google.com/maps/search/?api=1&query=Jaimru%20Technology%20Pvt%20Ltd&query_place_id=ChIJ4V-yv1ofDTkRVSmfFV5NnH0"}, {"place_id": "ChIJFfjSkavjDDkRzKEhC20mEkE", "name": "Hitech67 Solutions", "street": "Shop no. P-92, nearby Axis Bank ATM, Pilanji, Sarojini Nagar, New Delhi, Delhi 110023, India", "phone": "", "rating": "", "review_count": "", "website": "", "latitude": 28.578471399999998, "longitude": 77.2000631, "maps_url": "https://www.google.com/maps/search/?api=1&query=Hitech67%20Solutions&query_place_id=ChIJFfjSkavjDDkRzKEhC20mEkE"}, {"place_id": "ChIJ6wQV6c_jDDkR1yOSSVxsNFU", "name": "CCS Computers Private Limited", "street": "2nd-3rd Floor Skipper House, Nehru Place, New Delhi, Delhi 110019, India", "phone": "+91 11 2646 3959", "rating": "4", "review_count": "", "website": "http://www.ccscomputers.co.in/", "latitude": 28.550090599999997, "longitude": 77.2537834, "maps_url": "https://www.google.com/maps/search/?api=1&query=CCS%20Computers%20Private%20Limited&query_place_id=ChIJ6wQV6c_jDDkR1yOSSVxsNFU"}, {"place_id": "ChIJ-3zhw4UdDTkRCXVHyhmvwik", "name": "Panalink | Website, App, AI Design & Development Company", "street": "K 128, Mohammadpur Main Rd, Bhikaji Cama Place, Rama Krishna Puram, New Delhi, Delhi 110066, India", "phone": "+91 98995 24524", "rating": "4.7", "review_count": "", "website": "https://panalinks.com/", "latitude": 28.564894199999998, "longitude": 77.1861411, "maps_url": "https://www.google.com/maps/search/?api=1&query=Panalink%20%7C%20Website%2C%20App%2C%20AI%20Design%20%26%20Development%20Company&query_place_id=ChIJ-3zhw4UdDTkRCXVHyhmvwik"}, {"place_id": "ChIJ3_XyNzL9DDkRAp2oT8Rg22w", "name": "Agriculture Insurance Company of India Limited", "street": "Office Block 1, Plate B & C, 5th Floor, NH 48, Opposite AIIMS gate 2, East Kidwai Nagar, Kidwai Nagar, New Delhi, Delhi 110023, India", "phone": "+91 11 2460 4444", "rating": "4.3", "review_count": "", "website": "https://www.aicofindia.com/", "latitude": 28.5697726, "longitude": 77.2126467, "maps_url": "https://www.google.com/maps/search/?api=1&query=Agriculture%20Insurance%20Company%20of%20India%20Limited&query_place_id=ChIJ3_XyNzL9DDkRAp2oT8Rg22w"}, {"place_id": "ChIJnSs9bl_iDDkRm_Ull_yg81c", "name": "YATRA POINT TOURISM COMPANY INDIA", "street": "OFFICE NO-7, BULDING NO N-1, LGF, 4, near BANSALI JEWLLERS L, South Extension I, New Delhi, Delhi 110003, India", "phone": "+91 88600 16982", "rating": "4.9", "review_count": "", "website": "", "latitude": 28.574078, "longitude": 77.219089, "maps_url": "https://www.google.com/maps/search/?api=1&query=YATRA%20POINT%20TOURISM%20COMPANY%20INDIA&query_place_id=ChIJnSs9bl_iDDkRm_Ull_yg81c"}, {"place_id": "ChIJkysewbjjDDkRg2Rca2SwWNc", "name": "NCRTC", "street": "GatiShakti Bhawan, INA Type A Quarters, INA, New Delhi, Delhi 110023, India", "phone": "+91 11 2466 6700", "rating": "4.5", "review_count": "", "website": "https://www.ncrtc.in/", "latitude": 28.576932499999998, "longitude": 77.2133825, "maps_url": "https://www.google.com/maps/search/?api=1&query=NCRTC&query_place_id=ChIJkysewbjjDDkRg2Rca2SwWNc"}, {"place_id": "ChIJf8uUfJf9DDkRdHxvwmVvU-s", "name": "Cashify Mobile Phone Shop | Kiosk in INA Metro Station, New Delhi", "street": "Concourse, INA Metro Station, Towards, Pink Line, Laxmi Bai Nagar, New Delhi, Delhi 110023, India", "phone": "+91 731 462 0541", "rating": "4.5", "review_count": "", "website": "https://www.cashify.in/sell-old-mobile-phone?__utmrg=gmbsellpage&utm_source=google&utm_medium=my_business_listing&utm_campaign=gmbsellpage&utm_term=gmblisting&utm_content=gmbsell", "latitude": 28.573857999999998, "longitude": 77.208325, "maps_url": "https://www.google.com/maps/search/?api=1&query=Cashify%20Mobile%20Phone%20Shop%20%7C%20Kiosk%20in%20INA%20Metro%20Station%2C%20New%20Delhi&query_place_id=ChIJf8uUfJf9DDkRdHxvwmVvU-s"}, {"place_id": "ChIJpWa_fFviDDkRq3qmI_sKcf4", "name": "Jetking South Ext. Learning Center", "street": "F-38 , Second Floor, Infront of McDonald Part 1, South Extension I, Block F, New Delhi, Delhi 110049, India", "phone": "+91 11 4106 8989", "rating": "4.7", "review_count": "", "website": "https://www.jetking.com/centres/south-extension", "latitude": 28.569656, "longitude": 77.2196429, "maps_url": "https://www.google.com/maps/search/?api=1&query=Jetking%20South%20Ext.%20Learning%20Center&query_place_id=ChIJpWa_fFviDDkRq3qmI_sKcf4"}, {"place_id": "ChIJG2Y2P6j-DDkR7uRmh78VN4k", "name": "IT Solution", "street": "P7CG+RPF, Mahalaxmi Vihar, Phase 7, Block A, Shiv Vihar, Karawal Nagar, Delhi, 110090, India", "phone": "+91 98182 31784", "rating": "5", "review_count": "", "website": "", "latitude": 28.722054399999998, "longitude": 77.2768011, "maps_url": "https://www.google.com/maps/search/?api=1&query=IT%20Solution&query_place_id=ChIJG2Y2P6j-DDkR7uRmh78VN4k"}, {"place_id": "ChIJDY6dKt8dDTkRuQO3q1RF7qQ", "name": "Docsys Kalmin Solutions Pvt Ltd", "street": "Office Number 111-113, Ansal Chambers - 2 6, Bhikaji Cama Place, New Delhi, Delhi 110066, India", "phone": "+91 95601 08201", "rating": "5", "review_count": "", "website": "https://docsyskalmin.com/", "latitude": 28.5676629, "longitude": 77.18819069999999, "maps_url": "https://www.google.com/maps/search/?api=1&query=Docsys%20Kalmin%20Solutions%20Pvt%20Ltd&query_place_id=ChIJDY6dKt8dDTkRuQO3q1RF7qQ"}, {"place_id": "ChIJ1cYFVz4Cwi4RFo4woZw-FKs", "name": "Radiance Growth", "street": "Block D, East Kidwai Nagar, Kidwai Nagar, New Delhi, Delhi 110023, India", "phone": "+91 92664 16926", "rating": "5", "review_count": "", "website": "https://www.radiancegrowth.com/", "latitude": 28.572510899999997, "longitude": 77.21226469999999, "maps_url": "https://www.google.com/maps/search/?api=1&query=Radiance%20Growth&query_place_id=ChIJ1cYFVz4Cwi4RFo4woZw-FKs"}, {"place_id": "ChIJAwglKzrjDDkR7tEhqATiQnE", "name": "AMITECH IT SOLUTIONS Authorized Dealer - Matrix Epabx System | IP-PBX | CCTV Camera In Delhi", "street": "B-4, Basement, Shivalik Colony, Humayunpur, Malviya Nagar, New Delhi, Delhi 110017, India", "phone": "+91 99996 63767", "rating": "4.5", "review_count": "", "website": "", "latitude": 28.561581699999998, "longitude": 77.19240769999999, "maps_url": "https://www.google.com/maps/search/?api=1&query=AMITECH%20IT%20SOLUTIONS%20Authorized%20Dealer%20-%20Matrix%20Epabx%20System%20%7C%20IP-PBX%20%7C%20CCTV%20Camera%20In%20Delhi&query_place_id=ChIJAwglKzrjDDkR7tEhqATiQnE"}, {"place_id": "ChIJa1l6d_vjDDkR1pBwvF0XRyk", "name": "LawGical Manthan", "street": "D8, NBCC Towers Tower, 4, NBCC Apts Rd, Block D, East Kidwai Nagar, Kidwai Nagar, New Delhi, Delhi 110023, India", "phone": "+91 99535 57922", "rating": "4.8", "review_count": "", "website": "https://sites.google.com/view/lawgicalmanthan", "latitude": 28.5723728, "longitude": 77.21242459999999, "maps_url": "https://www.google.com/maps/search/?api=1&query=LawGical%20Manthan&query_place_id=ChIJa1l6d_vjDDkR1pBwvF0XRyk"}, {"place_id": "ChIJHbatIwTjDDkRVCVzqy9JENQ", "name": "Anu Tours & Travels(AT&T) Since 1984", "street": "25 C S C Suvidha Bazaar Market, Sarojini Nagar, New Delhi, Delhi 110023, India", "phone": "+91 96509 27551", "rating": "5", "review_count": "", "website": "http://www.anuluxurycab.com/", "latitude": 28.5728476, "longitude": 77.20109699999999, "maps_url": "https://www.google.com/maps/search/?api=1&query=Anu%20Tours%20%26%20Travels%28AT%26T%29%20Since%201984&query_place_id=ChIJHbatIwTjDDkRVCVzqy9JENQ"}, {"place_id": "ChIJZRaY6bXjDDkRPL7VkG-R024", "name": "Netsoft Consulting Services", "street": "24, IInd Floor, Community Center, East Of Kailash, behind Sapna Cinema, New Delhi, Delhi 110065, India", "phone": "+91 11 4533 0000", "rating": "3.5", "review_count": "", "website": "https://netsoftit.com/contact-us/", "latitude": 28.5583678, "longitude": 77.24568579999999, "maps_url": "https://www.google.com/maps/search/?api=1&query=Netsoft%20Consulting%20Services&query_place_id=ChIJZRaY6bXjDDkRPL7VkG-R024"}, {"place_id": "ChIJpX0tUhgPPaIRs5FTPhqcYsA", "name": "TrendingArcc", "street": "House No. 210, Lane, Krishna Nagar, Safdarjung Enclave, New Delhi, Delhi 110029, India", "phone": "+91 78385 27549", "rating": "5", "review_count": "", "website": "https://trendingarcc.com/", "latitude": 28.563453499999998, "longitude": 77.1922113, "maps_url": "https://www.google.com/maps/search/?api=1&query=TrendingArcc&query_place_id=ChIJpX0tUhgPPaIRs5FTPhqcYsA"}, {"place_id": "ChIJIZW4JJrjDDkRqQX9KF5siG4", "name": "Cloude Data Delhi | Best Cloud Service Provider company in India", "street": "First Floor, A 212, Okhla Phase 3 Rd, near by hdfc bank, Okhla Phase III, Okhla Industrial Estate, New Delhi, Delhi 110020, India", "phone": "+91 88823 53612", "rating": "4.7", "review_count": "", "website": "https://cloudedata.com/", "latitude": 28.548515, "longitude": 77.2712834, "maps_url": "https://www.google.com/maps/search/?api=1&query=Cloude%20Data%20Delhi%20%7C%20Best%20Cloud%20Service%20Provider%20company%20in%20India&query_place_id=ChIJIZW4JJrjDDkRqQX9KF5siG4"}, {"place_id": "ChIJ179hxWPiDDkRiV16zLF2wNs", "name": "Tinny Watch", "street": "Shop .2, Mohan Singh Market INA, Aviation Colony, INA Colony, New Delhi, Delhi 110023, India", "phone": "+91 99712 24947", "rating": "4.8", "review_count": "", "website": "", "latitude": 28.573739699999997, "longitude": 77.20996079999999, "maps_url": "https://www.google.com/maps/search/?api=1&query=Tinny%20Watch&query_place_id=ChIJ179hxWPiDDkRiV16zLF2wNs"}, {"place_id": "ChIJ77RrK0PiDDkRPY8Py_CvjpU", "name": "AaOne Group", "street": "South Extension II, Block B, New Delhi, Delhi 110049, India", "phone": "+91 85888 31915", "rating": "4.7", "review_count": "", "website": "https://www.aaonegroup.com/", "latitude": 28.566106899999998, "longitude": 77.2168405, "maps_url": "https://www.google.com/maps/search/?api=1&query=AaOne%20Group&query_place_id=ChIJ77RrK0PiDDkRPY8Py_CvjpU"}, {"place_id": "ChIJ47mMe1niDDkRjlKuT3uah50", "name": "Astrologer Dr.Naveen Sharma", "street": "24/c Yusuf Sarai Greenpark Ext.Near Gurudwara opposite indian oil building, New Delhi, Delhi 110023, India", "phone": "+91 96508 34736", "rating": "4.9", "review_count": "", "website": "http://www.astrosadhna.com/", "latitude": 28.574651, "longitude": 77.20432, "maps_url": "https://www.google.com/maps/search/?api=1&query=Astrologer%20Dr.Naveen%20Sharma&query_place_id=ChIJ47mMe1niDDkRjlKuT3uah50"}, {"place_id": "ChIJ2d2-esjjDDkRdIRlm-QAhaY", "name": "IT Magnum Opus", "street": "P-31, Sriniwaspuri Extn, Block Q, Private Colony, Sri Niwaspuri, New Delhi, Delhi 110065, India", "phone": "", "rating": "4.8", "review_count": "", "website": "https://www.itmo.in/", "latitude": 28.5626805, "longitude": 77.2597913, "maps_url": "https://www.google.com/maps/search/?api=1&query=IT%20Magnum%20Opus&query_place_id=ChIJ2d2-esjjDDkRdIRlm-QAhaY"}, {"place_id": "ChIJPUQG7G3iDDkRMaXUNQUyX48", "name": "Arun Watch Company", "street": "D.A, V. School Building, Metro Station, 11-12, Sri Aurobindo Marg, above Green Park, next to Indian Oil Bhavan, Yusuf Sarai, New Delhi, Delhi 110016, India", "phone": "+91 79828 02738", "rating": "4.3", "review_count": "", "website": "http://arunwatch.com/?utm_source=gmb&utm_medium=referral", "latitude": 28.5582906, "longitude": 77.20701799999999, "maps_url": "https://www.google.com/maps/search/?api=1&query=Arun%20Watch%20Company&query_place_id=ChIJPUQG7G3iDDkRMaXUNQUyX48"}, {"place_id": "ChIJsbV4bGLiDDkRMFa0pE1HnQ4", "name": "Char Dham Yatra", "street": "19A, (Kashmiri Market), INA Market, New Delhi, Delhi 110023, India", "phone": "+91 98687 78968", "rating": "4.1", "review_count": "", "website": "http://www.chardhama.com/", "latitude": 28.575475299999997, "longitude": 77.2099752, "maps_url": "https://www.google.com/maps/search/?api=1&query=Char%20Dham%20Yatra&query_place_id=ChIJsbV4bGLiDDkRMFa0pE1HnQ4"}, {"place_id": "ChIJ0VmQemziDDkR9AzorK_GtY0", "name": "Xalta", "street": "Gulmohar Commercial Complex, 161, B/4, 4th Floor, Gautam Nagar, Yusuf Sarai, New Delhi, Delhi 110049, India", "phone": "", "rating": "3.6", "review_count": "", "website": "https://xalta.co.in/", "latitude": 28.558654699999998, "longitude": 77.20854159999999, "maps_url": "https://www.google.com/maps/search/?api=1&query=Xalta&query_place_id=ChIJ0VmQemziDDkR9AzorK_GtY0"}, {"place_id": "ChIJl0TrQT3jDDkRWaj-FUO99C8", "name": "T-Huts Laxmi Bai Nagar", "street": "H6G3+H59, Block Y, Laxmi Bai Nagar, New Delhi, Delhi 110023, India", "phone": "", "rating": "4.9", "review_count": "", "website": "", "latitude": 28.5764228, "longitude": 77.2029783, "maps_url": "https://www.google.com/maps/search/?api=1&query=T-Huts%20Laxmi%20Bai%20Nagar&query_place_id=ChIJl0TrQT3jDDkRWaj-FUO99C8"}, {"place_id": "ChIJ6cnzsQ_jDDkRaJnJan_x37A", "name": "GPS Tracker India - Vehicle Tracking System for Car, Bike, Electric Vehicles, Wireless GPS", "street": "42, Palika Gram Marg, Block Y, Sarojini Nagar, New Delhi, Delhi 110023, India", "phone": "+91 94296 92866", "rating": "5", "review_count": "", "website": "https://www.gpstrackerindia.com/", "latitude": 28.5753766, "longitude": 77.20295, "maps_url": "https://www.google.com/maps/search/?api=1&query=GPS%20Tracker%20India%20-%20Vehicle%20Tracking%20System%20for%20Car%2C%20Bike%2C%20Electric%20Vehicles%2C%20Wireless%20GPS&query_place_id=ChIJ6cnzsQ_jDDkRaJnJan_x37A"}, {"place_id": "ChIJ94iqcVDjDDkRKKxM3g9cHGs", "name": "CAAQ Consultancy - Company Registration & Compliance Consultant Delhi", "street": "S/F, Bhaskar Bhavan, 1882/A, South Extension I, Kotla Mubarakpur, New Delhi, Delhi 110003, India", "phone": "", "rating": "4.1", "review_count": "", "website": "https://caaq.in/", "latitude": 28.570666, "longitude": 77.2222604, "maps_url": "https://www.google.com/maps/search/?api=1&query=CAAQ%20Consultancy%20-%20Company%20Registration%20%26%20Compliance%20Consultant%20Delhi&query_place_id=ChIJ94iqcVDjDDkRKKxM3g9cHGs"}, {"place_id": "ChIJBf3LYGEEDTkRTNcypGFosWE", "name": "Datar Security Service Group company", "street": "201, Second Floor, Bhikaji Cama Place, Bhawan II, New Delhi, Delhi 110066, India", "phone": "+91 1800 120 4131", "rating": "3.9", "review_count": "", "website": "http://www.dssg.in/", "latitude": 28.5690264, "longitude": 77.1872187, "maps_url": "https://www.google.com/maps/search/?api=1&query=Datar%20Security%20Service%20Group%20company&query_place_id=ChIJBf3LYGEEDTkRTNcypGFosWE"}, {"place_id": "ChIJs30LDYQdDTkRkxfniOWdY5E", "name": "Website Promotion company in Delhi", "street": "705(b, Bhikaji Cama Place, New Delhi, Delhi 110066, India", "phone": "", "rating": "", "review_count": "", "website": "https://direct-i.com/", "latitude": 28.5674408, "longitude": 77.1877414, "maps_url": "https://www.google.com/maps/search/?api=1&query=Website%20Promotion%20company%20in%20Delhi&query_place_id=ChIJs30LDYQdDTkRkxfniOWdY5E"}, {"place_id": "ChIJH5fVVGLiDDkRX7PAImNY5Cs", "name": "Hindustan Petroleum Corporation Limited", "street": "Ground Floor, opposite INA Market, Laxmi Bai Nagar, New Delhi, Delhi 110023, India", "phone": "+91 11 2086 2487", "rating": "4", "review_count": "", "website": "https://petrolpump.hpretail.in/hindustan-petroleum-corporation-limited-luxmi-super-services-petrol-pump-laxmi-bai-nagar-new-delhi-98162/Home?utm_source=locator&utm_medium=googleplaces", "latitude": 28.573740899999997, "longitude": 77.2090053, "maps_url": "https://www.google.com/maps/search/?api=1&query=Hindustan%20Petroleum%20Corporation%20Limited&query_place_id=ChIJH5fVVGLiDDkRX7PAImNY5Cs"}, {"place_id": "ChIJjcPrTQTjDDkR8HZMDXyx6y8", "name": "MAY & CO.", "street": "1899-B, South Extension I, G/F, Kotla Mubarakpur, New Delhi, Delhi 110049, India", "phone": "+91 72178 34405", "rating": "4.3", "review_count": "", "website": "https://mayandco.in/", "latitude": 28.5716008, "longitude": 77.2217416, "maps_url": "https://www.google.com/maps/search/?api=1&query=MAY%20%26%20CO.&query_place_id=ChIJjcPrTQTjDDkR8HZMDXyx6y8"}, {"place_id": "ChIJyykPKFDkDDkRZq_KFF971rE", "name": "L.B. Bonafide Private Limited", "street": "1513, Fourth Floor Wazir Nagar, opp. B1 Defence Colony, Kotla Mubarakpur, New Delhi, Delhi 110003, India", "phone": "+91 92122 41110", "rating": "4.3", "review_count": "", "website": "https://www.lbbonafide.com/", "latitude": 28.568518599999997, "longitude": 77.2253946, "maps_url": "https://www.google.com/maps/search/?api=1&query=L.B.%20Bonafide%20Private%20Limited&query_place_id=ChIJyykPKFDkDDkRZq_KFF971rE"}, {"place_id": "ChIJcQWHt2HiDDkRHG18zz3XZ5I", "name": "DDA Vikas Sadan", "street": "H6G7+2CP, Barapullah Rd, beside SBI Bank, Aviation Colony, INA Colony, New Delhi, Delhi 110023, India", "phone": "+91 11 2469 0431", "rating": "3.8", "review_count": "", "website": "https://www.dda.org.in/", "latitude": 28.5750849, "longitude": 77.2135928, "maps_url": "https://www.google.com/maps/search/?api=1&query=DDA%20Vikas%20Sadan&query_place_id=ChIJcQWHt2HiDDkRHG18zz3XZ5I"}, {"place_id": "ChIJp8bFql3iDDkRxH_07xofJWI", "name": "Nitin Mittal & Co.", "street": "C 21b, South Extension I, Block C, New Delhi, Delhi 110049, India", "phone": "+91 98101 47514", "rating": "4.7", "review_count": "", "website": "http://nmcindia.net/", "latitude": 28.572980899999997, "longitude": 77.2193036, "maps_url": "https://www.google.com/maps/search/?api=1&query=Nitin%20Mittal%20%26%20Co.&query_place_id=ChIJp8bFql3iDDkRxH_07xofJWI"}, {"place_id": "ChIJp49ihIXjDDkRzmwE8r6TA-Y", "name": "EMKAY TRADING CO.", "street": "A-46, South Extension I, Bapu Park, Kotla Mubarakpur, New Delhi, Delhi 110003, India", "phone": "", "rating": "4.3", "review_count": "", "website": "", "latitude": 28.5750176, "longitude": 77.2209108, "maps_url": "https://www.google.com/maps/search/?api=1&query=EMKAY%20TRADING%20CO.&query_place_id=ChIJp49ihIXjDDkRzmwE8r6TA-Y"}, {"place_id": "ChIJt3elTq_jDDkRjJkukEDBWvs", "name": "AGARWAL ANIL & COMPANY (TaxDarzee)", "street": "L, 2, South Extension II, Block A, New Delhi, Delhi 110049, India", "phone": "+91 95600 04881", "rating": "5", "review_count": "", "website": "http://www.aacindia.in/", "latitude": 28.5671771, "longitude": 77.2222069, "maps_url": "https://www.google.com/maps/search/?api=1&query=AGARWAL%20ANIL%20%26%20COMPANY%20%28TaxDarzee%29&query_place_id=ChIJt3elTq_jDDkRjJkukEDBWvs"}, {"place_id": "ChIJV5b4yDX9DDkRdJwaZgRwvK0", "name": "Sterco Digitex Pvt Limited", "street": "2nd Floor, 72, Janpath Rd, Atul Grove Road, Janpath, Connaught Place, New Delhi, Delhi 110001, India", "phone": "+91 120 485 7333", "rating": "4.1", "review_count": "", "website": "https://www.stercodigitex.com/", "latitude": 28.628133, "longitude": 77.21985099999999, "maps_url": "https://www.google.com/maps/search/?api=1&query=Sterco%20Digitex%20Pvt%20Limited&query_place_id=ChIJV5b4yDX9DDkRdJwaZgRwvK0"}, {"place_id": "ChIJQxTLPpbjDDkRRxBkQlk7hHQ", "name": "BELENUS INTERNATIONAL LLP", "street": "SHOP NO. 36, Laxmi Bai Nagar, New Delhi, Delhi 110023, India", "phone": "+91 96438 88319", "rating": "4.9", "review_count": "", "website": "http://www.belenusinternational.com/", "latitude": 28.5780067, "longitude": 77.2094762, "maps_url": "https://www.google.com/maps/search/?api=1&query=BELENUS%20INTERNATIONAL%20LLP&query_place_id=ChIJQxTLPpbjDDkRRxBkQlk7hHQ"}, {"place_id": "ChIJ53Cv2g3jDDkRrsjtGC0_l3s", "name": "Masstige Solutions - Website Design Company, Digital Marketing, SEO, PPC", "street": "Block N, N-4, South Extension I, Block H, New Delhi, Delhi 110049, India", "phone": "", "rating": "5", "review_count": "", "website": "https://masstigesolutions.com/", "latitude": 28.571444699999997, "longitude": 77.22144159999999, "maps_url": "https://www.google.com/maps/search/?api=1&query=Masstige%20Solutions%20-%20Website%20Design%20Company%2C%20Digital%20Marketing%2C%20SEO%2C%20PPC&query_place_id=ChIJ53Cv2g3jDDkRrsjtGC0_l3s"}, {"place_id": "ChIJeVWuhPTjDDkRt-WGI_g9dwE", "name": "SOS Party - Offsite Event Management Company Delhi", "street": "Gate no. 2, Metro Station, Ground Floor, N-161, Saira Tower, Marg, near Green Park, Gautam Nagar, New Delhi, Delhi 110049, India", "phone": "+91 79734 32360", "rating": "4.9", "review_count": "", "website": "https://www.sosparty.io/", "latitude": 28.561588999999998, "longitude": 77.213152, "maps_url": "https://www.google.com/maps/search/?api=1&query=SOS%20Party%20-%20Offsite%20Event%20Management%20Company%20Delhi&query_place_id=ChIJeVWuhPTjDDkRt-WGI_g9dwE"}, {"place_id": "ChIJk7iRfy_jDDkRAvUpt36-wvc", "name": "Digital marketing Company, website Designing Company ( Logo Designing Company ) ( Online Marketplace )", "street": "120-G, Hari Nagar Ashram, New Delhi, Delhi 110065, India", "phone": "+91 89201 38925", "rating": "5", "review_count": "", "website": "https://royalcruiselimos.com/", "latitude": 28.5718902, "longitude": 77.2559809, "maps_url": "https://www.google.com/maps/search/?api=1&query=Digital%20marketing%20Company%2C%20website%20Designing%20Company%20%28%20Logo%20Designing%20Company%20%29%20%28%20Online%20Marketplace%20%29&query_place_id=ChIJk7iRfy_jDDkRAvUpt36-wvc"}, {"place_id": "ChIJf9UaOrLjDDkReC2pP5ay46U", "name": "Movee Merchant - Video Production Company and Corporate Film Makers", "street": "271, South Extension, Masjid Moth Village, New Delhi, Delhi 110049, India", "phone": "+91 83770 85770", "rating": "4.9", "review_count": "", "website": "http://www.moveemerchant.com/", "latitude": 28.561701099999997, "longitude": 77.2197229, "maps_url": "https://www.google.com/maps/search/?api=1&query=Movee%20Merchant%20-%20Video%20Production%20Company%20and%20Corporate%20Film%20Makers&query_place_id=ChIJf9UaOrLjDDkReC2pP5ay46U"}, {"place_id": "ChIJ_9ehJ-HjDDkRafWbKf-O6SE", "name": "CCA", "street": "H6H5+9Q2, Laxmi Bai Nagar, New Delhi, Delhi 110023, India", "phone": "+91 98112 70683", "rating": "3.4", "review_count": "", "website": "http://www.cca.gov.in/", "latitude": 28.5783842, "longitude": 77.2093836, "maps_url": "https://www.google.com/maps/search/?api=1&query=CCA&query_place_id=ChIJ_9ehJ-HjDDkRafWbKf-O6SE"}, {"place_id": "ChIJveFaxobiDDkRTREy7aF8sYE", "name": "Tenex Tutorials", "street": "Block D, East Kidwai Nagar, Kidwai Nagar, New Delhi, Delhi 110023, India", "phone": "+91 98113 63863", "rating": "4.9", "review_count": "", "website": "https://www.tenextutorials.com/", "latitude": 28.572903, "longitude": 77.2113, "maps_url": "https://www.google.com/maps/search/?api=1&query=Tenex%20Tutorials&query_place_id=ChIJveFaxobiDDkRTREy7aF8sYE"}, {"place_id": "ChIJbT9k81viDDkRPZlxS_ycafE", "name": "Fireball Securitas | Security Guards Service | Top security services | Delhi India", "street": "1899, Uday Chand Marg, South Extension I, Kotla Mubarakpur, New Delhi, Delhi 110049, India", "phone": "+91 85869 77224", "rating": "4.6", "review_count": "", "website": "http://www.fireballindia.com/", "latitude": 28.5719329, "longitude": 77.221848, "maps_url": "https://www.google.com/maps/search/?api=1&query=Fireball%20Securitas%20%7C%20Security%20Guards%20Service%20%7C%20Top%20security%20services%20%7C%20Delhi%20India&query_place_id=ChIJbT9k81viDDkRPZlxS_ycafE"}, {"place_id": "ChIJvxLCAsrjDDkR3O5xROSQFYM", "name": "SANKET GARG & COMPANY", "street": "No. 10, 216-B/1 Basement Gautam Nagar, opposite Gulmohar Park, Gate, New Delhi, Delhi 110049, India", "phone": "+91 98105 77298", "rating": "5", "review_count": "", "website": "http://casanketgargindia.co.in/", "latitude": 28.5607808, "longitude": 77.21212799999999, "maps_url": "https://www.google.com/maps/search/?api=1&query=SANKET%20GARG%20%26%20COMPANY&query_place_id=ChIJvxLCAsrjDDkR3O5xROSQFYM"}, {"place_id": "ChIJXZXdK13iDDkRNf6UaRzjkT0", "name": "Kapoor Watch Co. - Official Rolex Retailer", "street": "D-10, South Extension II, Block D, New Delhi, Delhi 110049, India", "phone": "+91 11 4165 8888", "rating": "4.3", "review_count": "", "website": "https://www.kapoorwatch.com/", "latitude": 28.568520499999998, "longitude": 77.21854669999999, "maps_url": "https://www.google.com/maps/search/?api=1&query=Kapoor%20Watch%20Co.%20-%20Official%20Rolex%20Retailer&query_place_id=ChIJXZXdK13iDDkRNf6UaRzjkT0"}, {"place_id": "ChIJQYv4wITjDDkRFKFQE55yXQU", "name": "INA KITCHEN CO.", "street": "210, MOHAN SINGH MARKET, INA, INA Colony, New Delhi, Delhi 110023, India", "phone": "+91 83758 10081", "rating": "3", "review_count": "", "website": "", "latitude": 28.5740628, "longitude": 77.2098784, "maps_url": "https://www.google.com/maps/search/?api=1&query=INA%20KITCHEN%20CO.&query_place_id=ChIJQYv4wITjDDkRFKFQE55yXQU"}, {"place_id": "ChIJ66Hh_FriDDkRDZUEiepmJhE", "name": "Jyoti Group", "street": "B-79, Block B, Defence Colony, New Delhi, Delhi 110024, India", "phone": "+91 11 2433 7662", "rating": "3.8", "review_count": "", "website": "http://www.jtcindia.com/", "latitude": 28.5692663, "longitude": 77.2263239, "maps_url": "https://www.google.com/maps/search/?api=1&query=Jyoti%20Group&query_place_id=ChIJ66Hh_FriDDkRDZUEiepmJhE"}, {"place_id": "ChIJnZxVjmfiDDkRsx_8QL4sXOA", "name": "Lall and Sethi", "street": "D - 17, South Extension II, Block D, New Delhi, Delhi 110049, India", "phone": "+91 11 4289 9999", "rating": "4.4", "review_count": "", "website": "http://indiaip.com/", "latitude": 28.5679828, "longitude": 77.2172128, "maps_url": "https://www.google.com/maps/search/?api=1&query=Lall%20and%20Sethi&query_place_id=ChIJnZxVjmfiDDkRsx_8QL4sXOA"}, {"place_id": "ChIJK4yTE-kdDTkRetyeEpn0a-I", "name": "KOLATH & CO", "street": "FFS 4, ANSAL CHAMBERS I, 3, Bhikaji Cama Place, New Delhi, Delhi 110066, India", "phone": "+91 94978 36863", "rating": "5", "review_count": "", "website": "http://www.kolath.in/", "latitude": 28.568639599999997, "longitude": 77.1886024, "maps_url": "https://www.google.com/maps/search/?api=1&query=KOLATH%20%26%20CO&query_place_id=ChIJK4yTE-kdDTkRetyeEpn0a-I"}, {"place_id": "ChIJiWuStgfjDDkRyu442boUJT8", "name": "Planet Mushroom | Kingdom of Functional Mushrooms | Buy Mushrooms", "street": "Shop 158, INA Market, Aviation Colony, INA Colony, New Delhi, Delhi 110023, India", "phone": "+91 73022 68070", "rating": "4.9", "review_count": "", "website": "https://planetmushroom.co.in/collections/all", "latitude": 28.5744394, "longitude": 77.21015129999999, "maps_url": "https://www.google.com/maps/search/?api=1&query=Planet%20Mushroom%20%7C%20Kingdom%20of%20Functional%20Mushrooms%20%7C%20Buy%20Mushrooms&query_place_id=ChIJiWuStgfjDDkRyu442boUJT8"}, {"place_id": "ChIJ5W5sFgDjDDkRPHZ3LKRUCRc", "name": "The Londonn Burger Co", "street": "INA Metro Station, Dilli Haat, Kidwai Nagar West, Kidwai Nagar, New Delhi, Delhi 110023, India", "phone": "", "rating": "3.8", "review_count": "", "website": "https://londonnburger.com/", "latitude": 28.5734876, "longitude": 77.2090018, "maps_url": "https://www.google.com/maps/search/?api=1&query=The%20Londonn%20Burger%20Co&query_place_id=ChIJ5W5sFgDjDDkRPHZ3LKRUCRc"}, {"place_id": "ChIJqZocyx4dDTkRIGmJgMArzUo", "name": "Cholamandalam MS General Insurance Company Ltd", "street": "4th Floor, J Tower, World Trade Centre, J 402, Naurojni Nagar Market, Block G, Nauroji Nagar, Bikaji, Place, New Delhi, Delhi 110116, India", "phone": "+91 1800 208 5544", "rating": "4", "review_count": "", "website": "https://www.cholainsurance.com/", "latitude": 28.569320299999998, "longitude": 77.1969842, "maps_url": "https://www.google.com/maps/search/?api=1&query=Cholamandalam%20MS%20General%20Insurance%20Company%20Ltd&query_place_id=ChIJqZocyx4dDTkRIGmJgMArzUo"}, {"place_id": "ChIJdU0Mp2HiDDkR-H568wVWZps", "name": "Ayush Bhavan", "street": "B Block, GPO Complex, Barapullah Rd, Aviation Colony, INA Colony, New Delhi, Delhi 110023, India", "phone": "+91 11 2465 1299", "rating": "4.3", "review_count": "", "website": "http://www.ayush.gov.in/", "latitude": 28.574157699999997, "longitude": 77.2140087, "maps_url": "https://www.google.com/maps/search/?api=1&query=Ayush%20Bhavan&query_place_id=ChIJdU0Mp2HiDDkR-H568wVWZps"}, {"place_id": "ChIJQSOc197jDDkRoGc4DungpLc", "name": "WordSword Creations Private Limited", "street": "G, 17D, South Extension II, Block K, New Delhi, Delhi 110049, India", "phone": "+91 11 7969 9924", "rating": "4.7", "review_count": "", "website": "https://www.wordswordcreations.com/", "latitude": 28.5650116, "longitude": 77.2170058, "maps_url": "https://www.google.com/maps/search/?api=1&query=WordSword%20Creations%20Private%20Limited&query_place_id=ChIJQSOc197jDDkRoGc4DungpLc"}, {"place_id": "ChIJF79dh6DjDDkRBwJywuhgcE4", "name": "ATC Guild", "street": "T, 1/7, Pocket B, INA Colony, New Delhi, Delhi 110023, India", "phone": "+91 11 2465 4571", "rating": "5", "review_count": "", "website": "http://atcguild.in/", "latitude": 28.5747413, "longitude": 77.21079259999999, "maps_url": "https://www.google.com/maps/search/?api=1&query=ATC%20Guild&query_place_id=ChIJF79dh6DjDDkRBwJywuhgcE4"}, {"place_id": "ChIJc5SXfXXiDDkRrkA-0Qmm1RQ", "name": "A Little Anarky Films | Corporate Video Production House / Company Delhi", "street": "", "phone": "+91 81309 29009", "rating": "4.4", "review_count": "", "website": "http://www.alittleanarkyfilms.com/", "latitude": 21.0680074, "longitude": 82.7525294, "maps_url": "https://www.google.com/maps/search/?api=1&query=A%20Little%20Anarky%20Films%20%7C%20Corporate%20Video%20Production%20House%20/%20Company%20Delhi&query_place_id=ChIJc5SXfXXiDDkRrkA-0Qmm1RQ"}, {"place_id": "ChIJk1LJF0DjDDkRdi9f87VLxbE", "name": "S.S. GRAPHICS", "street": "Shop No. 21, INA, Kashmiri Market, New Delhi, New Delhi, Delhi 110023, India", "phone": "+91 95407 29392", "rating": "4.8", "review_count": "", "website": "", "latitude": 28.5751964, "longitude": 77.2103673, "maps_url": "https://www.google.com/maps/search/?api=1&query=S.S.%20GRAPHICS&query_place_id=ChIJk1LJF0DjDDkRdi9f87VLxbE"}, {"place_id": "ChIJhzH23HziDDkRSlAi4zTDRL0", "name": "Indane - Vikram Enterprises", "street": "Plot No 2, behind Dilli Haat, Dilli Haat, Kidwai Nagar West, Kidwai Nagar, New Delhi, Delhi 110023, India", "phone": "+91 88024 68842", "rating": "3.3", "review_count": "", "website": "https://locator.iocl.com/indane/indane-vikram-enterprises-gas-agency-west-kidwai-nagar-new-delhi-123472/Home?utm_source=locator&utm_medium=googleplaces", "latitude": 28.5727664, "longitude": 77.2071382, "maps_url": "https://www.google.com/maps/search/?api=1&query=Indane%20-%20Vikram%20Enterprises&query_place_id=ChIJhzH23HziDDkRSlAi4zTDRL0"}, {"place_id": "ChIJY1VVlULiDDkRmnmmG2AdKTI", "name": "WorkSure MedPharma Consultancy India Pvt. Ltd.", "street": "Ist Floor, Commercial Complex, AB-3, near Indian Overseas Bank, Block A 1, Nauroji Nagar, Safdarjung Enclave, New Delhi, Delhi 110029, India", "phone": "+91 11 2616 2722", "rating": "4.3", "review_count": "", "website": "http://www.worksure.org/", "latitude": 28.5657043, "longitude": 77.1989983, "maps_url": "https://www.google.com/maps/search/?api=1&query=WorkSure%20MedPharma%20Consultancy%20India%20Pvt.%20Ltd.&query_place_id=ChIJY1VVlULiDDkRmnmmG2AdKTI"}, {"place_id": "ChIJbU6shjQCDTkR9OR2vPKUd8U", "name": "CNK RK & Co, Chartered Accountants", "street": "A1/20, Block A 1, Nauroji Nagar, Safdarjung Enclave, New Delhi, Delhi 110029, India", "phone": "+91 11 4657 7572", "rating": "4.4", "review_count": "", "website": "http://www.cnk-rk.co/", "latitude": 28.5658186, "longitude": 77.1956012, "maps_url": "https://www.google.com/maps/search/?api=1&query=CNK%20RK%20%26%20Co%2C%20Chartered%20Accountants&query_place_id=ChIJbU6shjQCDTkR9OR2vPKUd8U"}, {"place_id": "ChIJq4YRnM_hDDkRXDOmlmNBFkM", "name": "Acclefina Advisory Services Private Limited", "street": "#58, Madangir, New Delhi, Delhi 110049, India", "phone": "+91 90907 97465", "rating": "5", "review_count": "", "website": "", "latitude": 28.5555909, "longitude": 77.21583989999999, "maps_url": "https://www.google.com/maps/search/?api=1&query=Acclefina%20Advisory%20Services%20Private%20Limited&query_place_id=ChIJq4YRnM_hDDkRXDOmlmNBFkM"}, {"place_id": "ChIJl5Onv1ziDDkRLOUB76fcokY", "name": "VAPS & CO.", "street": "C-42, South Extension II, Block C, New Delhi, Delhi 110049, India", "phone": "+91 11 4164 5051", "rating": "5", "review_count": "", "website": "http://vaps.co.in/", "latitude": 28.567705999999998, "longitude": 77.22196199999999, "maps_url": "https://www.google.com/maps/search/?api=1&query=VAPS%20%26%20CO.&query_place_id=ChIJl5Onv1ziDDkRLOUB76fcokY"}, {"place_id": "ChIJr_QQWxj--48RzvtdSGFRK7g", "name": "YB Insight and Database", "street": "", "phone": "+91 99976 34339", "rating": "", "review_count": "", "website": "https://www.ybinsights.com/", "latitude": 28.6440837, "longitude": 77.0932314, "maps_url": "https://www.google.com/maps/search/?api=1&query=YB%20Insight%20and%20Database&query_place_id=ChIJr_QQWxj--48RzvtdSGFRK7g"}, {"place_id": "ChIJYVVVxW3iDDkRq3n5wZwjxc0", "name": "Ca in Delhi - CA M C Maheshwari & Company - Ca firm - Chartered Accountant Delhi", "street": "Building No.17, 1st Floor, Yusuf Sarai Main Road, Near Green Park Metro Station, New Delhi, Delhi 110016, India", "phone": "+91 98993 50801", "rating": "4.4", "review_count": "", "website": "", "latitude": 28.560641099999998, "longitude": 77.2070262, "maps_url": "https://www.google.com/maps/search/?api=1&query=Ca%20in%20Delhi%20-%20CA%20M%20C%20Maheshwari%20%26%20Company%20-%20Ca%20firm%20-%20Chartered%20Accountant%20Delhi&query_place_id=ChIJYVVVxW3iDDkRq3n5wZwjxc0"}, {"place_id": "ChIJbY8E51ziDDkRWyP9oqGID_4", "name": "Jobs In Delhi", "street": "211,South Ex, New Delhi, Delhi 110049, India", "phone": "+91 11 3204 2705", "rating": "3.7", "review_count": "95", "website": "https://clomint.com/post-an-ad/", "latitude": 28.5678487, "longitude": 77.22091309999999, "maps_url": "https://www.google.com/maps/search/?api=1&query=Jobs%20In%20Delhi&query_place_id=ChIJbY8E51ziDDkRWyP9oqGID_4"}, {"place_id": "ChIJk_ON0pbjDDkRn5U8OjFzSDc", "name": "HDFC Life Insurance", "street": "3rd Floor, No. 48, Mahatma Gandhi Rd, near P.P Jewellers, South Extension I, Block F, New Delhi, Delhi 110049, India", "phone": "+91 88798 87504", "rating": "3.5", "review_count": "", "website": "https://branch.hdfclife.com/hdfc-life-insurance-company-south-extension-part-1-new-delhi-5252/Home", "latitude": 28.569371399999998, "longitude": 77.2172734, "maps_url": "https://www.google.com/maps/search/?api=1&query=HDFC%20Life%20Insurance&query_place_id=ChIJk_ON0pbjDDkRn5U8OjFzSDc"}, {"place_id": "ChIJG5c2QKLjDDkRH31MYHyrHYE", "name": "E-print Service", "street": "H-10, South Extension I, Block H, New Delhi, Delhi 110049, India", "phone": "+91 79823 21369", "rating": "5", "review_count": "", "website": "https://e-print.in/", "latitude": 28.5713768, "longitude": 77.2217694, "maps_url": "https://www.google.com/maps/search/?api=1&query=E-print%20Service&query_place_id=ChIJG5c2QKLjDDkRH31MYHyrHYE"}, {"place_id": "ChIJ5Vv7cG_cDDkRjVJz2v6ISKM", "name": "Pepper Designs", "street": "House No 1, Ground Floor, Hauz Khas Village, New Delhi, Delhi 110016, India", "phone": "+91 98117 67560", "rating": "4.6", "review_count": "", "website": "https://www.pepper-designs.com/", "latitude": 28.555021999999997, "longitude": 77.19471399999999, "maps_url": "https://www.google.com/maps/search/?api=1&query=Pepper%20Designs&query_place_id=ChIJ5Vv7cG_cDDkRjVJz2v6ISKM"}]