{"timestamp": 1773730844.9564083, "keyword": "IT company", "location": "delhi", "cell_idx": 303, "results": [{"place_id": "0x390d1b0e3fffffff:0x6daaf31757ecac3a", "name": "Koyna K IT Solutions (Kodewell)", "category": "Computer Hardware Company", "street": "C-1", "city": "Block C, Sector 8 Dwarka, Dwarka", "phone": "09810617986", "website": "http://www.kodewell.in/", "rating": 4.4, "review_count": "", "latitude": 28.569539199999998, "longitude": 77.0783484, "maps_url": "https://www.google.com/maps/place/?q=place_id:0x390d1b0e3fffffff:0x6daaf31757ecac3a"}, {"place_id": "0x390d05f1c70d0d6b:0x80d816e36f28618f", "name": "Katchin Tech Private Limited | Software Development Company in Delhi NCR", "category": "Software company", "street": "A-4", "city": "near skin decor", "phone": "07669005215", "website": "https://www.katchintech.com/", "rating": 5, "review_count": "", "latitude": 28.575834099999998, "longitude": 77.05139609999999, "maps_url": "https://www.google.com/maps/place/?q=place_id:0x390d05f1c70d0d6b:0x80d816e36f28618f"}, {"place_id": "0x390ce21b8d636751:0xda2fa1d06a704eab", "name": "Prinknest Technology LLP", "category": "Software company", "street": "1st Floor", "city": "RZ 122 D, Plot No.1", "phone": "08076833804", "website": "https://prinknest.com/", "rating": 4.8, "review_count": "", "latitude": 28.606828, "longitude": 77.0816226, "maps_url": "https://www.google.com/maps/place/?q=place_id:0x390ce21b8d636751:0xda2fa1d06a704eab"}, {"place_id": "0x390d1b0ad6565c37:0x9ee772d45ffed70d", "name": "IOTtech Softwares", "category": "Software company", "street": "First & Second Floor", "city": "Lucky Plaza", "phone": "08034798583", "website": "", "rating": 4.9, "review_count": "", "latitude": 28.5847981, "longitude": 77.07323199999999, "maps_url": "https://www.google.com/maps/place/?q=place_id:0x390d1b0ad6565c37:0x9ee772d45ffed70d"}, {"place_id": "0x390d1bb72bd328b1:0xd9425539dc10edb3", "name": "SOFT INDIA WEB SOFTWARE DEVELOPMENT PVT LTD", "category": "Software company", "street": "Ground Floor", "city": "A- 107", "phone": "09625503688", "website": "http://www.softindia.in/", "rating": 3.2, "review_count": "", "latitude": 28.587611, "longitude": 77.0704514, "maps_url": "https://www.google.com/maps/place/?q=place_id:0x390d1bb72bd328b1:0xd9425539dc10edb3"}, {"place_id": "0x390d013ca8ac1387:0x8a0db85b518267d5", "name": "NexGen Innovators", "category": "Software company", "street": "114B, 3rd floor, Dwarka Mor", "city": "New Delhi, Delhi 110059", "phone": "", "website": "https://www.nexgi.com/", "rating": 4.9, "review_count": "", "latitude": 28.618961, "longitude": 77.0322202, "maps_url": "https://www.google.com/maps/place/?q=place_id:0x390d013ca8ac1387:0x8a0db85b518267d5"}, {"place_id": "0x390d1b1fb85c71ed:0x1aa4ba2a08b02c1d", "name": "Tecmicra Solutions - Software, Website Development & Digital Marketing Company", "category": "Software company", "street": "Floor, D410", "city": "3rd", "phone": "07042387253", "website": "https://tecmicra.co.in/", "rating": 5, "review_count": "", "latitude": 28.5849324, "longitude": 77.071085, "maps_url": "https://www.google.com/maps/place/?q=place_id:0x390d1b1fb85c71ed:0x1aa4ba2a08b02c1d"}, {"place_id": "0x390ce458d0000001:0xf2123bd299ec4501", "name": "IT Company India", "category": "Software company", "street": "D56", "city": "D Block, Sector 10", "phone": "09999244854", "website": "https://www.itcompanyindia.in/", "rating": 4.7, "review_count": "", "latitude": 28.589917699999997, "longitude": 77.3351153, "maps_url": "https://www.google.com/maps/place/?q=place_id:0x390ce458d0000001:0xf2123bd299ec4501"}, {"place_id": "0x390d1b524d89b769:0xb5c7f7f25cdd761a", "name": "Inowix Technologies", "category": "Software company", "street": "224 Dada Dev Tower 3rd Floor Behind Akash Hospital, main road, rajapuri chowk, opp sector 4 dwarka", "city": "Raja Puri, Matiala", "phone": "", "website": "https://www.inowix.in/", "rating": 5, "review_count": "", "latitude": 28.5708961, "longitude": 77.07486089999999, "maps_url": "https://www.google.com/maps/place/?q=place_id:0x390d1b524d89b769:0xb5c7f7f25cdd761a"}, {"place_id": "0x390d1ac4f284e761:0x9464ca79c229a74d", "name": "Times IT Services Pvt. Ltd", "category": "Software company", "street": "Vardhman Bahnhof Plaza", "city": "204", "phone": "09650012304", "website": "https://www.timesitservices.com/", "rating": 4.9, "review_count": "", "latitude": 28.5906919, "longitude": 77.043549, "maps_url": "https://www.google.com/maps/place/?q=place_id:0x390d1ac4f284e761:0x9464ca79c229a74d"}, {"place_id": "0x390d1b7465daad1f:0xcb6513e16f7b8db2", "name": "UNC MART PVT. LTD.", "category": "Software company", "street": "Plot#14 Pochanpur", "city": "Sector 23", "phone": "07428505014", "website": "http://www.uncmart.in/", "rating": 4.9, "review_count": "", "latitude": 28.568372, "longitude": 77.0695528, "maps_url": "https://www.google.com/maps/place/?q=place_id:0x390d1b7465daad1f:0xcb6513e16f7b8db2"}, {"place_id": "0x390d1b07258b26f1:0x8226854068152e3e", "name": "Softcom Technologies - Web Designing Company in Delhi", "category": "Website designer", "street": "S-89, Manish Global Mall", "city": "Sector 22 Dwarka, Dwarka", "phone": "09910258463", "website": "https://www.softcomtechnologies.com/", "rating": 5, "review_count": "", "latitude": 28.559992299999998, "longitude": 77.0596212, "maps_url": "https://www.google.com/maps/place/?q=place_id:0x390d1b07258b26f1:0x8226854068152e3e"}, {"place_id": "0x390d1a5532eb800f:0xf2e1540348673db7", "name": "bitGain Technology Private Limited", "category": "Software company", "street": "Plot No 497", "city": "Bharthal, Sector 26 Dwarka, Bharthal", "phone": "09560002243", "website": "https://www.bitgaintech.com/", "rating": 4.7, "review_count": "", "latitude": 28.5467209, "longitude": 77.0473114, "maps_url": "https://www.google.com/maps/place/?q=place_id:0x390d1a5532eb800f:0xf2e1540348673db7"}, {"place_id": "0x390d1ca8de94abb1:0xc070687f1d5f8558", "name": "Bita Infotech IT Solutions:: Website Designing & Development Company", "category": "Software company", "street": "Rz-31 B, Street No. 5", "city": "Block M, West Sagarpur, Sagar Pur", "phone": "08178256664", "website": "https://bitainfotech.com/", "rating": 4.7, "review_count": "", "latitude": 28.6056495, "longitude": 77.1012293, "maps_url": "https://www.google.com/maps/place/?q=place_id:0x390d1ca8de94abb1:0xc070687f1d5f8558"}, {"place_id": "0x390d053af4b9fae1:0xa955718786ea4c90", "name": "Efficient IT & Electronic Services Private Limited", "category": "Software company", "street": "1st floor", "city": "VV Plaza building", "phone": "08750042191", "website": "http://www.efficientindia.com/", "rating": 4.4, "review_count": "", "latitude": 28.6100702, "longitude": 77.03385709999999, "maps_url": "https://www.google.com/maps/place/?q=place_id:0x390d053af4b9fae1:0xa955718786ea4c90"}, {"place_id": "0x390d02e520aee25b:0x322870f3355c7f4b", "name": "Delphi Infotech (Cybersecurity & Cloud Solutions)", "category": "Software company", "street": "225A, D-21", "city": "Corporate Park", "phone": "01145075151", "website": "https://www.delphiinfo.com/", "rating": 4.2, "review_count": "", "latitude": 28.5618181, "longitude": 77.0670596, "maps_url": "https://www.google.com/maps/place/?q=place_id:0x390d02e520aee25b:0x322870f3355c7f4b"}, {"place_id": "0x390d1b18046bbffb:0xb21dca8c6a640dbf", "name": "GreenTrans Logistics and Transport Software Company", "category": "Software company", "street": "A 59,IIIrd Floor", "city": "Sector 8 Dwarka, Dwarka", "phone": "09958840764", "website": "https://greentrans.in/", "rating": 4.9, "review_count": "", "latitude": 28.5742418, "longitude": 77.0705795, "maps_url": "https://www.google.com/maps/place/?q=place_id:0x390d1b18046bbffb:0xb21dca8c6a640dbf"}, {"place_id": "0x2a72b8b69d7b6493:0x11251466d4d34cac", "name": "WebZonal IT Company", "category": "Website designer", "street": "Wz-258/2-3, D Block Rd", "city": "Khazan Basti, Nangal Raya, Janakpuri", "phone": "09811170903", "website": "http://webzonal.com/", "rating": 5, "review_count": "", "latitude": 28.6122102, "longitude": 77.11159549999999, "maps_url": "https://www.google.com/maps/place/?q=place_id:0x2a72b8b69d7b6493:0x11251466d4d34cac"}, {"place_id": "0x390d1b86b6b5582d:0x36c722e124b57be8", "name": "kdrsoft Technologies - website designing company in delhi", "category": "Website designer", "street": "2nd Floor", "city": "Manish Global Mall", "phone": "09910258463", "website": "https://www.kdrsoft.com/", "rating": 4.9, "review_count": "", "latitude": 28.559937299999998, "longitude": 77.0596687, "maps_url": "https://www.google.com/maps/place/?q=place_id:0x390d1b86b6b5582d:0x36c722e124b57be8"}, {"place_id": "0x390d04c0827451cd:0xdd5c02a5efb3fcb8", "name": "DKG Labs Pvt. Ltd.", "category": "Software company", "street": "Corporate Park", "city": "D 21", "phone": "09810805605", "website": "https://www.dkgrouplabs.com/", "rating": 4.2, "review_count": "", "latitude": 28.5618579, "longitude": 77.0674429, "maps_url": "https://www.google.com/maps/place/?q=place_id:0x390d04c0827451cd:0xdd5c02a5efb3fcb8"}, {"place_id": "0x390d1b3afecfedbf:0xc70cd49f6315cda2", "name": "RHA Technologies Pvt Ltd", "category": "Software company", "street": "3rd Floor, D21", "city": "Corporate Park", "phone": "09625773094", "website": "https://rhatechnologies.com/", "rating": 5, "review_count": "", "latitude": 28.5618181, "longitude": 77.0670596, "maps_url": "https://www.google.com/maps/place/?q=place_id:0x390d1b3afecfedbf:0xc70cd49f6315cda2"}, {"place_id": "0x390d191100000001:0x424476192b3b5b5b", "name": "Binary Semantics Limited", "category": "Software company", "street": "PLot no", "city": "38", "phone": "08929156505", "website": "https://www.binarysemantics.com/", "rating": 3.7, "review_count": "", "latitude": 28.5018823, "longitude": 77.0701466, "maps_url": "https://www.google.com/maps/place/?q=place_id:0x390d191100000001:0x424476192b3b5b5b"}, {"place_id": "0x390ce3c153b89811:0xe7a279685777e9ca", "name": "IT Company", "category": "Automation company", "street": "A-14", "city": "near iskcon temple", "phone": "", "website": "http://www.opuswiz.com/", "rating": 3, "review_count": "", "latitude": 28.557167, "longitude": 77.25424819999999, "maps_url": "https://www.google.com/maps/place/?q=place_id:0x390ce3c153b89811:0xe7a279685777e9ca"}, {"place_id": "0x390d195e4483ae05:0xec67b2579bb38803", "name": "eXtendCode - Software Development Company", "category": "Software company", "street": "Plot 63, Second Floor, Udyog Vihar Phase -1,", "city": "Gurugram, Haryana 122016", "phone": "01244261219", "website": "http://www.extendcode.com/", "rating": 4.1, "review_count": "", "latitude": 28.514535199999997, "longitude": 77.0815075, "maps_url": "https://www.google.com/maps/place/?q=place_id:0x390d195e4483ae05:0xec67b2579bb38803"}, {"place_id": "0x390d1923af5d91ed:0xbe103b16161f5631", "name": "Condeco Software Private Limited", "category": "Software company", "street": "Tower C", "city": "4th floor building 10", "phone": "01244760150", "website": "http://www.condecosoftware.com/apac", "rating": 4.3, "review_count": "", "latitude": 28.4940696, "longitude": 77.0885457, "maps_url": "https://www.google.com/maps/place/?q=place_id:0x390d1923af5d91ed:0xbe103b16161f5631"}, {"place_id": "0x390d19298db2fb35:0xcaa0d46737c4561c", "name": "MLM Software Developer | Sunny citrix", "category": "Software company", "street": "office no 427C, 4th floor, vashisht complex", "city": "Sikanderpur", "phone": "07906059336", "website": "http://sunnycitrix.com/", "rating": 4.8, "review_count": "", "latitude": 28.4816798, "longitude": 77.09770569999999, "maps_url": "https://www.google.com/maps/place/?q=place_id:0x390d19298db2fb35:0xcaa0d46737c4561c"}, {"place_id": "0x390d05a9e1c5836b:0xffa4b24b103b66b", "name": "Aloweb Private Limited", "category": "Website designer", "street": "3nd Floor", "city": "B-40", "phone": "", "website": "https://aaloweb.com/", "rating": 5, "review_count": "", "latitude": 28.5726865, "longitude": 77.0761624, "maps_url": "https://www.google.com/maps/place/?q=place_id:0x390d05a9e1c5836b:0xffa4b24b103b66b"}, {"place_id": "0x390d1b8e5b6999a1:0x522ffbc2c7c23362", "name": "Techthastu Private Limited (Techthaastu)", "category": "Software company", "street": "Techthaastu Office, Pt. Mehru Marg, Outer Bharthal Firni road Bharthal Village", "city": "near Govt. Girls senior secondary School", "phone": "08383889042", "website": "https://www.techthaastu.com/", "rating": 5, "review_count": "", "latitude": 28.5403192, "longitude": 77.0524594, "maps_url": "https://www.google.com/maps/place/?q=place_id:0x390d1b8e5b6999a1:0x522ffbc2c7c23362"}, {"place_id": "0x390d1b8d94bfebb9:0xdbd74207ae3d35e7", "name": "SysTools Software Pvt Ltd", "category": "Software company", "street": "City Centre", "city": "528", "phone": "06230830862", "website": "https://www.systoolsgroup.com/", "rating": 4.5, "review_count": "", "latitude": 28.5921344, "longitude": 77.0417265, "maps_url": "https://www.google.com/maps/place/?q=place_id:0x390d1b8d94bfebb9:0xdbd74207ae3d35e7"}, {"place_id": "0x390d1bbd14a92329:0x69ccddf6d89ff", "name": "PMPA SOFTTECH PVT. LTD.", "category": "Software company", "street": "6/A6", "city": "Pocket-8, Sector 23b, Dwarka", "phone": "07073003833", "website": "", "rating": 4.5, "review_count": "", "latitude": 28.563591799999998, "longitude": 77.0417138, "maps_url": "https://www.google.com/maps/place/?q=place_id:0x390d1bbd14a92329:0x69ccddf6d89ff"}, {"place_id": "0x29182cd90b477205:0xafbdc18388b8d100", "name": "Ananta Technology - IT Company", "category": "Web hosting company", "street": "RZB-214, Old Mehrauli Rd", "city": "Palam Colony, Part - I, Raj Nagar", "phone": "", "website": "https://anantatechnology.com/", "rating": 5, "review_count": "", "latitude": 28.584313899999998, "longitude": 77.0862543, "maps_url": "https://www.google.com/maps/place/?q=place_id:0x29182cd90b477205:0xafbdc18388b8d100"}, {"place_id": "0x390d02994de5e515:0xd908bc03409a0d37", "name": "Himalayan IT Solutions | Best Website Designing Company in Delhi | SEO/Digital Marketing Company in Delhi NCR, India", "category": "Software company", "street": "61/4255, Padam Singh Rd", "city": "Block 29, Block 1, Regar Pura, Karol Bagh", "phone": "09899098509", "website": "http://www.himalayanitsolutions.com/", "rating": 3.9, "review_count": "", "latitude": 28.649673999999997, "longitude": 77.186599, "maps_url": "https://www.google.com/maps/place/?q=place_id:0x390d02994de5e515:0xd908bc03409a0d37"}, {"place_id": "0x390d1b9ddfccb265:0xb589ee8b4aaaa57c", "name": "50 Hertz Limited", "category": "Software company", "street": "Corporate Park", "city": "303, 3rd Floor, D21", "phone": "01140110747", "website": "https://www.50hertz.in/", "rating": 4.6, "review_count": "", "latitude": 28.5618181, "longitude": 77.0670596, "maps_url": "https://www.google.com/maps/place/?q=place_id:0x390d1b9ddfccb265:0xb589ee8b4aaaa57c"}, {"place_id": "0x390d05713cbc05f9:0x29ec332097ea9861", "name": "Bluebyte It Solutions", "category": "Software company", "street": "MS-83", "city": "Block MS, Mohan Garden, Uttam Nagar", "phone": "08178838292", "website": "https://www.bluebyteitsolutions.com/", "rating": 5, "review_count": "", "latitude": 28.6289797, "longitude": 77.0335781, "maps_url": "https://www.google.com/maps/place/?q=place_id:0x390d05713cbc05f9:0x29ec332097ea9861"}, {"place_id": "0x390d1b3f00d047f7:0x9b0acbc6decfed67", "name": "VBage Tech", "category": "Software company", "street": "WZ-330", "city": "Palam Village, Palam", "phone": "08383889042", "website": "https://www.vbagetech.com/", "rating": 4.5, "review_count": "", "latitude": 28.589986099999997, "longitude": 77.0768539, "maps_url": "https://www.google.com/maps/place/?q=place_id:0x390d1b3f00d047f7:0x9b0acbc6decfed67"}, {"place_id": "0x390d198145cf3e03:0xe92b2e4710cf28a4", "name": "Ganga IT Solution Ltd", "category": "Software company", "street": "0390, Phase", "city": "3", "phone": "09899550645", "website": "https://www.gangaitsolution.com/", "rating": 5, "review_count": "", "latitude": 28.5116241, "longitude": 77.0881259, "maps_url": "https://www.google.com/maps/place/?q=place_id:0x390d198145cf3e03:0xe92b2e4710cf28a4"}, {"place_id": "0x390d191d0bb8a9db:0xf6295047e107a843", "name": "Robust Infotech - IT Services | Digital Transformation | Best Website/Software Development Company", "category": "Software company", "street": "90B, Delhi - Jaipur Expy", "city": "Nitin Vihar, Udyog Vihar, Sector 18", "phone": "07982914476", "website": "", "rating": 5, "review_count": "", "latitude": 28.441292299999997, "longitude": 77.0148859, "maps_url": "https://www.google.com/maps/place/?q=place_id:0x390d191d0bb8a9db:0xf6295047e107a843"}, {"place_id": "0x390d19174792f4db:0xcb5f589caa71b6e7", "name": "Knocial India Limited", "category": "Software company", "street": "60B", "city": "Udyog Vihar, Sector 22", "phone": "09354120847", "website": "https://www.knocialindia.com/", "rating": 4.7, "review_count": "", "latitude": 28.504239499999997, "longitude": 77.0651981, "maps_url": "https://www.google.com/maps/place/?q=place_id:0x390d19174792f4db:0xcb5f589caa71b6e7"}, {"place_id": "0x448aa981f5f4e8af:0x24d0bd0e978530df", "name": "Tech Rajendra", "category": "Software company", "street": "3rd Floor", "city": "Plot no. 190, Golf Course Rd", "phone": "09540020546", "website": "https://www.techrajendra.com/", "rating": 4.5, "review_count": "", "latitude": 28.586822299999998, "longitude": 77.0276827, "maps_url": "https://www.google.com/maps/place/?q=place_id:0x448aa981f5f4e8af:0x24d0bd0e978530df"}, {"place_id": "0x390d19437cb628b3:0x12e71803eb09ac16", "name": "Clavax Technologies", "category": "Software company", "street": "727", "city": "Udyog Vihar, Phase 5", "phone": "+18444252829", "website": "http://www.clavax.com/", "rating": 4.1, "review_count": "", "latitude": 28.5052123, "longitude": 77.0850025, "maps_url": "https://www.google.com/maps/place/?q=place_id:0x390d19437cb628b3:0x12e71803eb09ac16"}, {"place_id": "0x390d191d0bb8a9db:0xf6295047e107a843", "name": "Robust Infotech - IT Services | Digital Transformation | Best Website/Software Development Company", "category": "Software company", "street": "90B, Delhi - Jaipur Expy", "city": "Nitin Vihar, Udyog Vihar, Sector 18", "phone": "07982914476", "website": "", "rating": 5, "review_count": "", "latitude": 28.441292299999997, "longitude": 77.0148859, "maps_url": "https://www.google.com/maps/place/?q=place_id:0x390d191d0bb8a9db:0xf6295047e107a843"}, {"place_id": "0x390d19174792f4db:0xcb5f589caa71b6e7", "name": "Knocial India Limited", "category": "Software company", "street": "60B", "city": "Udyog Vihar, Sector 22", "phone": "09354120847", "website": "https://www.knocialindia.com/", "rating": 4.7, "review_count": "", "latitude": 28.504239499999997, "longitude": 77.0651981, "maps_url": "https://www.google.com/maps/place/?q=place_id:0x390d19174792f4db:0xcb5f589caa71b6e7"}, {"place_id": "0x390ce3ad10000061:0xeff7e6017a22cce7", "name": "Alpinesoft IT Solutions Authorized Google Workspace Reseller", "category": "Software company", "street": "162/9 Ist Floor, KIshangarh - Gaushala Marg", "city": "Lakhi Nath Kuti, Mehrauli, Vasant Kunj", "phone": "09999011157", "website": "https://www.alpinesoftit.com/", "rating": 4.3, "review_count": "", "latitude": 28.515394399999998, "longitude": 77.16460359999999, "maps_url": "https://www.google.com/maps/place/?q=place_id:0x390ce3ad10000061:0xeff7e6017a22cce7"}, {"place_id": "0x448aa981f5f4e8af:0x24d0bd0e978530df", "name": "Tech Rajendra", "category": "Software company", "street": "3rd Floor", "city": "Plot no. 190, Golf Course Rd", "phone": "09540020546", "website": "https://www.techrajendra.com/", "rating": 4.5, "review_count": "", "latitude": 28.586822299999998, "longitude": 77.0276827, "maps_url": "https://www.google.com/maps/place/?q=place_id:0x448aa981f5f4e8af:0x24d0bd0e978530df"}, {"place_id": "0x28293a8ba78ff0ff:0x8ca733c72179ea81", "name": "Ssinfoserve", "category": "Software company", "street": "Netaji Subhas University Of Technology", "city": "Plot no 72, ROAD", "phone": "09220659870", "website": "http://www.ssinfoserve.com/", "rating": 5, "review_count": "", "latitude": 28.615536199999998, "longitude": 77.0339884, "maps_url": "https://www.google.com/maps/place/?q=place_id:0x28293a8ba78ff0ff:0x8ca733c72179ea81"}, {"place_id": "0x390d19437cb628b3:0x12e71803eb09ac16", "name": "Clavax Technologies", "category": "Software company", "street": "727", "city": "Udyog Vihar, Phase 5", "phone": "+18444252829", "website": "http://www.clavax.com/", "rating": 4.1, "review_count": "", "latitude": 28.5052123, "longitude": 77.0850025, "maps_url": "https://www.google.com/maps/place/?q=place_id:0x390d19437cb628b3:0x12e71803eb09ac16"}, {"place_id": "0x390d19316748a39b:0x427bebf40160d8ac", "name": "Construe IT Solutions Pvt. Ltd.", "category": "Software company", "street": "R # 3", "city": "56/10", "phone": "08130713756", "website": "http://www.construesol.com/", "rating": 4, "review_count": "", "latitude": 28.489741799999997, "longitude": 77.0963127, "maps_url": "https://www.google.com/maps/place/?q=place_id:0x390d19316748a39b:0x427bebf40160d8ac"}, {"place_id": "0x390d1b164554bcc9:0xde40e34e39c6885", "name": "PitchWorx - Presentation Design Agency", "category": "Website designer", "street": "PitchWorx, 4th Floor D21 Corporate Park, 427", "city": "near Metro Station Dwarka Sector 8", "phone": "09810896095", "website": "https://pitchworx.com/", "rating": 4.3, "review_count": "", "latitude": 28.5656216, "longitude": 77.0670146, "maps_url": "https://www.google.com/maps/place/?q=place_id:0x390d1b164554bcc9:0xde40e34e39c6885"}, {"place_id": "0x390d1bfd61687473:0x878fa1ec1c9a9d7f", "name": "T&N Business Services Pvt Ltd Delhi", "category": "Business management consultant", "street": "3rd", "city": "E-517", "phone": "09455579997", "website": "http://www.tnservices.in/", "rating": 4.7, "review_count": "", "latitude": 28.584938899999997, "longitude": 77.072231, "maps_url": "https://www.google.com/maps/place/?q=place_id:0x390d1bfd61687473:0x878fa1ec1c9a9d7f"}, {"place_id": "0x390d1b2440000001:0x7b52a88f21fc0d82", "name": "DesignDot Technologies | #1 Best Website & App Development | Top Software & AIML Solutions Company in Delhi", "category": "Software company", "street": "RZ 1/13, 3RD FLOOR, Main Road Above HDFC Bank, Dwarka, Near Palam Metro Gate 2", "city": "New Delhi, Delhi 110077", "phone": "09999652812", "website": "https://www.designdot.co.in/", "rating": 5, "review_count": "", "latitude": 28.587238199999998, "longitude": 77.0850727, "maps_url": "https://www.google.com/maps/place/?q=place_id:0x390d1b2440000001:0x7b52a88f21fc0d82"}, {"place_id": "0x390d1b0076c735ad:0x13551f319095520a", "name": "Aftab IT information technology", "category": "Computer Hardware Company", "street": "C58", "city": "D Block, Kapas Hera Estate", "phone": "", "website": "", "rating": 5, "review_count": "", "latitude": 28.5221669, "longitude": 77.08510989999999, "maps_url": "https://www.google.com/maps/place/?q=place_id:0x390d1b0076c735ad:0x13551f319095520a"}, {"place_id": "0x390d1be7f1a44f95:0x84524a5425f8930d", "name": "InfraDost Technologies Pvt Ltd.- Microsoft Adobe Corel Draw & Security Solution Provider", "category": "Software company", "street": "Gurgaon - Delhi Expy", "city": "Block B, Mahipalpur Village, Mahipalpur", "phone": "08287792542", "website": "http://www.infradost.com/", "rating": 4.6, "review_count": "", "latitude": 28.5485743, "longitude": 77.1264697, "maps_url": "https://www.google.com/maps/place/?q=place_id:0x390d1be7f1a44f95:0x84524a5425f8930d"}, {"place_id": "0x390d1ba2b97290ff:0x89787d29c3ad6b38", "name": "DigiVigyan Marketing Pvt. Ltd.", "category": "Website designer", "street": "3rd Floor, C", "city": "60", "phone": "", "website": "https://www.digivigyan.com/", "rating": 4.8, "review_count": "", "latitude": 28.570065099999997, "longitude": 77.0761868, "maps_url": "https://www.google.com/maps/place/?q=place_id:0x390d1ba2b97290ff:0x89787d29c3ad6b38"}, {"place_id": "0x390d191598f48ef3:0x70991b4ff870f05d", "name": "Shree Partners LLC", "category": "Software company", "street": "1, Tower A, Building, Cyber City", "city": "Corporate Edge Level", "phone": "01246728815", "website": "https://www.shreepartners.com/", "rating": 4.3, "review_count": "", "latitude": 28.4936018, "longitude": 77.088325, "maps_url": "https://www.google.com/maps/place/?q=place_id:0x390d191598f48ef3:0x70991b4ff870f05d"}, {"place_id": "0xaba1caff5ebd1a41:0xc12abb7cbd5897f6", "name": "Nexus It Solutions | Website Design Company", "category": "Software company", "street": "B", "city": "1/76, Agar Nagar Rd", "phone": "09650783278", "website": "https://www.nexusitsolutions.in/", "rating": 4.9, "review_count": "", "latitude": 28.6964071, "longitude": 77.0426695, "maps_url": "https://www.google.com/maps/place/?q=place_id:0xaba1caff5ebd1a41:0xc12abb7cbd5897f6"}, {"place_id": "0x390d111d07edf909:0x44e1a4686c7dbfe6", "name": "Eonlint", "category": "Software company", "street": "Street No. 2", "city": "Deenpur, Shyam Vihar Phase-1, Najafgarh", "phone": "", "website": "https://eonlint.com/", "rating": 5, "review_count": "", "latitude": 28.591023099999997, "longitude": 77.0027392, "maps_url": "https://www.google.com/maps/place/?q=place_id:0x390d111d07edf909:0x44e1a4686c7dbfe6"}, {"place_id": "0x390d05c94d5ebb61:0xe8289327a1223c5", "name": "Shivnik Technology", "category": "Software company", "street": "3rd floor", "city": "245, Om Vihar St", "phone": "", "website": "https://www.instagram.com/shivniktechnology/", "rating": 5, "review_count": "", "latitude": 28.622485299999997, "longitude": 77.0498868, "maps_url": "https://www.google.com/maps/place/?q=place_id:0x390d05c94d5ebb61:0xe8289327a1223c5"}, {"place_id": "0x390d05c8987801e5:0x128e04dce6c4cbc4", "name": "Matrix Infotech Solution | Software Development Company", "category": "Software company", "street": "j j", "city": "Dwarka Mor, Block WE, Mohan Garden, Razapur Khurd", "phone": "08920817059", "website": "http://www.matrixinfotechsolution.com/", "rating": 3.9, "review_count": "", "latitude": 28.637037, "longitude": 77.0291258, "maps_url": "https://www.google.com/maps/place/?q=place_id:0x390d05c8987801e5:0x128e04dce6c4cbc4"}, {"place_id": "0x390d195c26bfa369:0x69bd8efd2e3a31fe", "name": "Radical Minds Technologies Pvt. Ltd.", "category": "BPO Company", "street": "368", "city": "Phase II, Udyog Vihar, Sector 20", "phone": "01244338366", "website": "http://www.radicalminds.in/", "rating": 4.2, "review_count": "", "latitude": 28.506335099999998, "longitude": 77.0877546, "maps_url": "https://www.google.com/maps/place/?q=place_id:0x390d195c26bfa369:0x69bd8efd2e3a31fe"}, {"place_id": "0x20616dbf813c03ef:0xc8fd1ca47f902e9e", "name": "Bloatware IT Software Company | website Designing Company | Software Company | MLM |CRM | Android Apps", "category": "Software company", "street": "C1", "city": "Rama Park", "phone": "08920750797", "website": "https://bloatwareitsolutions.com/", "rating": 4.5, "review_count": "", "latitude": 28.621265599999997, "longitude": 77.0324943, "maps_url": "https://www.google.com/maps/place/?q=place_id:0x20616dbf813c03ef:0xc8fd1ca47f902e9e"}, {"place_id": "0x390d1bf64609aa2d:0x4e317fa864029b55", "name": "IT Digitals We are providing all IT Services", "category": "Computer support and services", "street": "IT Digitals GHP", "city": "Rezang La Marg", "phone": "09821848522", "website": "http://www.itdigitals.in/", "rating": 5, "review_count": "", "latitude": 28.53125, "longitude": 77.0511162, "maps_url": "https://www.google.com/maps/place/?q=place_id:0x390d1bf64609aa2d:0x4e317fa864029b55"}, {"place_id": "0x390d1960c2b8367f:0xd2d30e45ac71acea", "name": "Vorombetech Solutions - Top IT & Digitalization Service Company in Gurugram", "category": "Software company", "street": "249", "city": "Phase IV, Udyog Vihar, Sector 19", "phone": "", "website": "https://vorombetech.com/", "rating": 4.8, "review_count": "", "latitude": 28.4941475, "longitude": 77.0808448, "maps_url": "https://www.google.com/maps/place/?q=place_id:0x390d1960c2b8367f:0xd2d30e45ac71acea"}, {"place_id": "0x41ddcb5488aa4703:0x5290c64921de1a5b", "name": "Bloatware IT Software Development Company | Game Development | Software Company in delhi", "category": "Software company", "street": "SILVER OAK FARMS", "city": "660, Mehrauli-Gurgaon Rd", "phone": "", "website": "https://bloatwareitsolutions.com/", "rating": 5, "review_count": "", "latitude": 28.4911034, "longitude": 77.1432663, "maps_url": "https://www.google.com/maps/place/?q=place_id:0x41ddcb5488aa4703:0x5290c64921de1a5b"}, {"place_id": "0x4f697d3361ddeb39:0xe0e2b2ed3253d014", "name": "Oceanic Studio - Web Development & Digital Marketing Company in Delhi", "category": "Website designer", "street": "Basement, 249", "city": "Block B, Sector 8 Dwarka, Dwarka", "phone": "09891043380", "website": "http://www.oceanicstudio.net/", "rating": 5, "review_count": "", "latitude": 28.5701, "longitude": 77.079269, "maps_url": "https://www.google.com/maps/place/?q=place_id:0x4f697d3361ddeb39:0xe0e2b2ed3253d014"}, {"place_id": "0x390d1981bffb1f6b:0xf891b0df53e98e19", "name": "Ketaki Technologies", "category": "Software company", "street": "Pocket F, Sector 2, Palam Vihar", "city": "Gurugram, Haryana 122017", "phone": "09667435592", "website": "https://sites.google.com/view/ketaki-and-rohit-technologies", "rating": 5, "review_count": "", "latitude": 28.5127843, "longitude": 77.0369834, "maps_url": "https://www.google.com/maps/place/?q=place_id:0x390d1981bffb1f6b:0xf891b0df53e98e19"}, {"place_id": "0x390d1df0721e08c5:0x49d5fd4648a33c2d", "name": "Nibble Software | Website Design & Development | Travel Web API & CRM | SEO, SMO, Paid Ads, Amazon & Flipkart Marketing", "category": "Website designer", "street": "4th Floor", "city": "Moolchand Tower", "phone": "09971066697", "website": "https://www.nibblesoftware.com/", "rating": 4.8, "review_count": "", "latitude": 28.6000862, "longitude": 77.0818018, "maps_url": "https://www.google.com/maps/place/?q=place_id:0x390d1df0721e08c5:0x49d5fd4648a33c2d"}, {"place_id": "0x390d1905cf9418ab:0x68c73ef2c55c6a92", "name": "Dixinfotech | Best Web Development Company in Gurgaon", "category": "Software company", "street": "Plot No. 96, 1st Floor", "city": "Udyog Vihar Phase 1, Sector 20", "phone": "09717106162", "website": "https://www.dixinfotech.com/website-designing-company-in-gurgaon", "rating": 5, "review_count": "", "latitude": 28.5169219, "longitude": 77.0803425, "maps_url": "https://www.google.com/maps/place/?q=place_id:0x390d1905cf9418ab:0x68c73ef2c55c6a92"}, {"place_id": "0x390d1bf076ad40a5:0x6e54f7930154b26d", "name": "pNthaan: Technologies - Digital Marketing Company in Delhi - Social Media Marketing", "category": "Software company", "street": "D2/15, Dabri - Palam Rd", "city": "Vinod Puri, Block B 3, Vijay Enclave, Mahavir Enclave", "phone": "09810455309", "website": "https://pnthaan.com/", "rating": 4.9, "review_count": "", "latitude": 28.602663399999997, "longitude": 77.0801891, "maps_url": "https://www.google.com/maps/place/?q=place_id:0x390d1bf076ad40a5:0x6e54f7930154b26d"}, {"place_id": "0x390d19a5c5dc01b9:0xcf1c4aafe9fa0dfa", "name": "TechPhosis Private Limited", "category": "Software company", "street": "Ansal Palam Corporate Plaza", "city": "S-346", "phone": "", "website": "https://www.techphosis.com/", "rating": 5, "review_count": "", "latitude": 28.497216599999998, "longitude": 77.0201775, "maps_url": "https://www.google.com/maps/place/?q=place_id:0x390d19a5c5dc01b9:0xcf1c4aafe9fa0dfa"}, {"place_id": "0x390d1b6807b97c57:0xb6dc40e91d71681f", "name": "Algo2bots Infotech", "category": "Software company", "street": "WZ-291, Street Number 8", "city": "Sadh Nagar I, Sadh Nagar, Palam", "phone": "09911447760", "website": "http://algo2botsinfotech.com/", "rating": 5, "review_count": "", "latitude": 28.587672599999998, "longitude": 77.09199129999999, "maps_url": "https://www.google.com/maps/place/?q=place_id:0x390d1b6807b97c57:0xb6dc40e91d71681f"}, {"place_id": "0x390d1a972e7b03ad:0xc2253ede1e6b5dfc", "name": "Knitech Software", "category": "Software company", "street": "G 542", "city": "Qutub Vihar I, Block A, Goyla Village", "phone": "", "website": "", "rating": 4.9, "review_count": "", "latitude": 28.5765618, "longitude": 77.0243346, "maps_url": "https://www.google.com/maps/place/?q=place_id:0x390d1a972e7b03ad:0xc2253ede1e6b5dfc"}, {"place_id": "0x390d0165c4c0adb7:0x24c751b1139cf8dc", "name": "StartupGali", "category": "License bureau", "street": "2nd Floor", "city": "D-480", "phone": "09650082009", "website": "https://www.startupgali.com/", "rating": 4.9, "review_count": "", "latitude": 28.584743399999997, "longitude": 77.069817, "maps_url": "https://www.google.com/maps/place/?q=place_id:0x390d0165c4c0adb7:0x24c751b1139cf8dc"}, {"place_id": "0x390d1b0baba5d5ef:0x8e97bd9f00f59f69", "name": "AR IT Solutions", "category": "Computer repair service", "street": "opposite Axis Bank Branch", "city": "Bijwasan", "phone": "09015936236", "website": "", "rating": 5, "review_count": "", "latitude": 28.532836099999997, "longitude": 77.0544587, "maps_url": "https://www.google.com/maps/place/?q=place_id:0x390d1b0baba5d5ef:0x8e97bd9f00f59f69"}, {"place_id": "0x390d1ba9e4d9c8b5:0x7185b4f217d4fa89", "name": "SNIG Technologies Pvt. Ltd.", "category": "Software company", "street": "285, Gali Number 2", "city": "Kapas Hera Extension, Kapas Hera", "phone": "08010022240", "website": "", "rating": 5, "review_count": "", "latitude": 28.5288975, "longitude": 77.0801706, "maps_url": "https://www.google.com/maps/place/?q=place_id:0x390d1ba9e4d9c8b5:0x7185b4f217d4fa89"}, {"place_id": "0x390d04d2f6575abb:0xd5553781913e9a53", "name": "Espial Infotech", "category": "Software company", "street": "Uttam Vihar, Block B, Uttam Nagar, Bindapur", "city": "Delhi, 110059", "phone": "", "website": "http://espial.in/", "rating": 5, "review_count": "", "latitude": 28.611546399999998, "longitude": 77.06602269999999, "maps_url": "https://www.google.com/maps/place/?q=place_id:0x390d04d2f6575abb:0xd5553781913e9a53"}, {"place_id": "0x390d1b0010fc2321:0x12e9154c815cf007", "name": "Prashant Dwivedi IT company", "category": "Warehouse", "street": "G3P5+GVC", "city": "Nayak Pura, Bijwasan", "phone": "", "website": "", "rating": "", "review_count": "", "latitude": 28.536316, "longitude": 77.059649, "maps_url": "https://www.google.com/maps/place/?q=place_id:0x390d1b0010fc2321:0x12e9154c815cf007"}, {"place_id": "0x390d190b8996b54d:0xa4d9ad7263547701", "name": "Company", "category": "Corporate office", "street": "The Coworking Space", "city": "A-14/15 DLF Phase 1, Sector 26 A Truworx", "phone": "01140844560", "website": "https://www.quickcompany.in/", "rating": 4.1, "review_count": "", "latitude": 28.474366699999997, "longitude": 77.0943154, "maps_url": "https://www.google.com/maps/place/?q=place_id:0x390d190b8996b54d:0xa4d9ad7263547701"}, {"place_id": "0x390d1b2ee6fef4a1:0x7c17412d3b1bd5d3", "name": "SD Global Logistics India Pvt Ltd", "category": "Warehouse", "street": "3rd Floor, D21, Corporate Park, Metro Station", "city": "314A", "phone": "09354898033", "website": "https://sdgloballogistics.com/", "rating": 4.6, "review_count": "", "latitude": 28.5618579, "longitude": 77.0674429, "maps_url": "https://www.google.com/maps/place/?q=place_id:0x390d1b2ee6fef4a1:0x7c17412d3b1bd5d3"}, {"place_id": "0x390d1b3c7aaaaaab:0xcc0116b944b8452c", "name": "ESIGN WEB SERVICES PVT LTD", "category": "Website designer", "street": "3rd Floor", "city": "Plot No 24", "phone": "09718099999", "website": "https://www.esignwebservices.com/", "rating": 4.7, "review_count": "", "latitude": 28.5857121, "longitude": 77.0494913, "maps_url": "https://www.google.com/maps/place/?q=place_id:0x390d1b3c7aaaaaab:0xcc0116b944b8452c"}, {"place_id": "0x390ce1e37852388b:0x6f833f38da2b6477", "name": "Kuresys Labs Pvt. Ltd.", "category": "Pharmaceutical company", "street": "Corporate Park", "city": "D-21", "phone": "", "website": "https://www.kuresys.com/", "rating": 4.1, "review_count": "", "latitude": 28.5618181, "longitude": 77.0670596, "maps_url": "https://www.google.com/maps/place/?q=place_id:0x390ce1e37852388b:0x6f833f38da2b6477"}, {"place_id": "0x390d19c4f81c373b:0x569790526001fe47", "name": "Pasenture Technologies - Web Development Company in Gurugram, Software Development Company in Gurgaon for CRM & Saas Software", "category": "Software company", "street": "2nd Floor", "city": "90, IDC", "phone": "09717197498", "website": "https://pasenture.in/", "rating": 4, "review_count": "", "latitude": 28.4716508, "longitude": 77.0509349, "maps_url": "https://www.google.com/maps/place/?q=place_id:0x390d19c4f81c373b:0x569790526001fe47"}, {"place_id": "0x390d19ad585bba37:0xc7a1380f3c30571a", "name": "Wroffy Technologies Pvt Ltd", "category": "Software company", "street": "304", "city": "Vipul Business Park", "phone": "01244349014", "website": "https://www.wroffy.com/", "rating": 4.3, "review_count": "", "latitude": 28.4226457, "longitude": 77.0376039, "maps_url": "https://www.google.com/maps/place/?q=place_id:0x390d19ad585bba37:0xc7a1380f3c30571a"}, {"place_id": "0x390d193c3a36e523:0xe68f8d2568faeaad", "name": "Espire Infolabs Pvt. Ltd.", "category": "Software company", "street": "486 & 487", "city": "Phase III, Udyog Vihar III, Sector 20", "phone": "01247173000", "website": "http://www.espire.com/", "rating": 4.1, "review_count": "", "latitude": 28.5119516, "longitude": 77.0899661, "maps_url": "https://www.google.com/maps/place/?q=place_id:0x390d193c3a36e523:0xe68f8d2568faeaad"}, {"place_id": "0x390d1b03afd847d1:0x3f8589776214e47b", "name": "Techbizz - IT Solutions", "category": "Software company", "street": "1st floor", "city": "Najafgarh Kapashera Rd", "phone": "08130622472", "website": "", "rating": 5, "review_count": "", "latitude": 28.5325596, "longitude": 77.0540195, "maps_url": "https://www.google.com/maps/place/?q=place_id:0x390d1b03afd847d1:0x3f8589776214e47b"}, {"place_id": "0x390d1b458d3d20eb:0x47d2d14ac7564c", "name": "All India Shifting Solution", "category": "Transportation service", "street": "KH NO. 29/6 , POL NO. 135, Bijwasan , Najafgarh Dwarka Sector 27", "city": "New Delhi, Delhi 110061", "phone": "09812761242", "website": "", "rating": 3.5, "review_count": "", "latitude": 28.5604867, "longitude": 77.0729605, "maps_url": "https://www.google.com/maps/place/?q=place_id:0x390d1b458d3d20eb:0x47d2d14ac7564c"}, {"place_id": "0x390d047b429014f3:0x4f6c0e50deba17a", "name": "GTM Builders & Promoters Pvt. Ltd.", "category": "Corporate office", "street": "Office No. 217, 2nd Floor, Corporate Park, DMRC Building", "city": "D-21", "phone": "01145314531", "website": "http://www.gtm.co.in/", "rating": 4.5, "review_count": "", "latitude": 28.5618181, "longitude": 77.0670596, "maps_url": "https://www.google.com/maps/place/?q=place_id:0x390d047b429014f3:0x4f6c0e50deba17a"}, {"place_id": "0x390d1b0545b2c0cd:0x23ba5665da999202", "name": "Animeria Technologies - Software & App Development | Digital Marketing", "category": "Software company", "street": "A30", "city": "Block D, Sector 8 Dwarka, Dwarka", "phone": "08882612956", "website": "https://www.animeriatechnologies.com/", "rating": 5, "review_count": "", "latitude": 28.572037899999998, "longitude": 77.070837, "maps_url": "https://www.google.com/maps/place/?q=place_id:0x390d1b0545b2c0cd:0x23ba5665da999202"}, {"place_id": "0x390d1b23e97c2a67:0x27b82d5a0c14861a", "name": "Stryker Security & Staffing Solutions Pvt. Ltd.", "category": "Security service", "street": "First Floor", "city": "984/1, H. Mohalla Shahabad", "phone": "", "website": "http://www.strykerindia.com/", "rating": 4.6, "review_count": "", "latitude": 28.554172599999998, "longitude": 77.0700947, "maps_url": "https://www.google.com/maps/place/?q=place_id:0x390d1b23e97c2a67:0x27b82d5a0c14861a"}, {"place_id": "0x390d1ba812ffffff:0x66b5edbef8307c8e", "name": "D-Axis Digiweb Solutions", "category": "Website designer", "street": "2nd Floor, Corporate Park", "city": "210A", "phone": "09911305599", "website": "https://daxisdigiweb.com/", "rating": 4.6, "review_count": "", "latitude": 28.5618181, "longitude": 77.0670596, "maps_url": "https://www.google.com/maps/place/?q=place_id:0x390d1ba812ffffff:0x66b5edbef8307c8e"}, {"place_id": "0x41d0a87c8f4afaf:0x24b53b7f7ad5bf06", "name": "Fox Beryl - Digital Marketing Company", "category": "Website designer", "street": "G-16/2 Street NO. 2 Raj nagar", "city": "Part-2, Palam", "phone": "08595869757", "website": "https://foxberyl.in/", "rating": 5, "review_count": "", "latitude": 28.585067199999997, "longitude": 77.0815736, "maps_url": "https://www.google.com/maps/place/?q=place_id:0x41d0a87c8f4afaf:0x24b53b7f7ad5bf06"}, {"place_id": "0x390d1b7f62671cb1:0x9d53d75be3f61652", "name": "Manikaran Power Limited", "category": "Electric utility company", "street": "3rd Floor, Corporate Park", "city": "301", "phone": "01140408000", "website": "https://manikaranpowerltd.in/", "rating": 4, "review_count": "", "latitude": 28.5618181, "longitude": 77.0670596, "maps_url": "https://www.google.com/maps/place/?q=place_id:0x390d1b7f62671cb1:0x9d53d75be3f61652"}, {"place_id": "0x390d1b5b3a65aaaf:0x6808da13816ca185", "name": "D21 Corporate Park", "category": "Corporate office", "street": "Corporate Park", "city": "Sector 21, Mohammadpur", "phone": "09038010999", "website": "https://d21corporatepark.in/", "rating": 4.4, "review_count": "", "latitude": 28.561619999999998, "longitude": 77.0669752, "maps_url": "https://www.google.com/maps/place/?q=place_id:0x390d1b5b3a65aaaf:0x6808da13816ca185"}, {"place_id": "0x390d195b180061c3:0xbc2dc26222ba3801", "name": "Team Computers Pvt Ltd", "category": "Software company", "street": "5th floor", "city": "Plot no. 278", "phone": "18001024200", "website": "https://www.teamcomputers.com/", "rating": 4.3, "review_count": "", "latitude": 28.508890599999997, "longitude": 77.087429, "maps_url": "https://www.google.com/maps/place/?q=place_id:0x390d195b180061c3:0xbc2dc26222ba3801"}, {"place_id": "0x390d1f659e341e09:0xd88af0c1a7ecbdf8", "name": "Biswass IT Services Pvt. Ltd.", "category": "Software company", "street": "House No 590 1st Floor, ArjanGarh", "city": "BabaMoholla, Aya Nagar", "phone": "", "website": "https://www.biswass.com/", "rating": 4.8, "review_count": "", "latitude": 28.4766589, "longitude": 77.13484439999999, "maps_url": "https://www.google.com/maps/place/?q=place_id:0x390d1f659e341e09:0xd88af0c1a7ecbdf8"}, {"place_id": "0x390d1adbffffffff:0x47351decce42f4a5", "name": "Gazelle Information Technologies Private Limited", "category": "Consultant", "street": "201C/6, Second Floor Corporate Park, D-21 Dwarka, Near Dwarka Sector-8 Metro Station", "city": "Delhi 110077", "phone": "09868825252", "website": "https://www.gazelle.in/", "rating": 3.5, "review_count": "", "latitude": 28.5714012, "longitude": 77.07195639999999, "maps_url": "https://www.google.com/maps/place/?q=place_id:0x390d1adbffffffff:0x47351decce42f4a5"}, {"place_id": "0x390d1959e54e0cdb:0x7120a86a0b29095e", "name": "Gurgaon SEO Company", "category": "Website designer", "street": "First Floor Plot", "city": "270, Udyog Vihar II Rd", "phone": "", "website": "", "rating": 2, "review_count": "", "latitude": 28.5074082, "longitude": 77.08512379999999, "maps_url": "https://www.google.com/maps/place/?q=place_id:0x390d1959e54e0cdb:0x7120a86a0b29095e"}, {"place_id": "0x390d1bf7b99f3135:0x7b59ef65ff972e2", "name": "XB Software Development Company", "category": "Software company", "street": "Goma Plaza", "city": "E-512, Ramphal Chowk Rd", "phone": "08802878718", "website": "", "rating": 5, "review_count": "", "latitude": 28.586331899999998, "longitude": 77.0716807, "maps_url": "https://www.google.com/maps/place/?q=place_id:0x390d1bf7b99f3135:0x7b59ef65ff972e2"}, {"place_id": "0x390d197810cfea33:0xe321cb37dcd3c67f", "name": "Back2stores Technologies Pvt Ltd", "category": "Software company", "street": "D 602, border", "city": "near kapashera", "phone": "", "website": "http://back2stores.com/", "rating": 4.3, "review_count": "", "latitude": 28.5181795, "longitude": 77.0772691, "maps_url": "https://www.google.com/maps/place/?q=place_id:0x390d197810cfea33:0xe321cb37dcd3c67f"}, {"place_id": "0x390d1b2e3e454c3d:0x1f00bbefc62a4b30", "name": "Website Designing Company in India", "category": "Website designer", "street": "Gali No 32", "city": "Block T, Rajapuri, Uttam Nagar", "phone": "08800245633", "website": "https://webcareindia.com/", "rating": 4.9, "review_count": "", "latitude": 28.6053942, "longitude": 77.0586278, "maps_url": "https://www.google.com/maps/place/?q=place_id:0x390d1b2e3e454c3d:0x1f00bbefc62a4b30"}, {"place_id": "0x390d036a16f841d9:0x9b91311b1453f4c0", "name": "Zon Tec Solutions", "category": "Software company", "street": "3rd Floor", "city": "302 - 302 A, West", "phone": "09599902185", "website": "https://zontecsolutions.com/", "rating": 4.1, "review_count": "", "latitude": 28.6382303, "longitude": 77.1205162, "maps_url": "https://www.google.com/maps/place/?q=place_id:0x390d036a16f841d9:0x9b91311b1453f4c0"}]}