{"timestamp": 1773729381.5707994, "keyword": "IT company", "location": "delhi", "cell_idx": 79, "results": [{"place_id": "0x390d19451015db1f:0x98acadfa866404e7", "name": "Info-X Software Technology Pvt. Ltd.", "category": "Software company", "street": "335, Udyog Vihar II Rd", "city": "near SBI", "phone": "01244303166", "website": "https://infox.com/", "rating": 3.5, "review_count": "", "latitude": 28.505895199999998, "longitude": 77.0862368, "maps_url": "https://www.google.com/maps/place/?q=place_id:0x390d19451015db1f:0x98acadfa866404e7"}, {"place_id": "0x390d194215555555:0x98aab7d8cd2f09a6", "name": "EON Technologies Pvt Ltd", "category": "Software company", "street": "733, Udyog Vihar Phase V Rd", "city": "Phase V, Udyog Vihar, Sector 19", "phone": "01242345191", "website": "", "rating": 3.7, "review_count": "", "latitude": 28.5047027, "longitude": 77.08575359999999, "maps_url": "https://www.google.com/maps/place/?q=place_id:0x390d194215555555:0x98aab7d8cd2f09a6"}, {"place_id": "0x390d19437cb628b3:0x12e71803eb09ac16", "name": "Clavax Technologies", "category": "Software company", "street": "727", "city": "Udyog Vihar, Phase 5", "phone": "+18444252829", "website": "http://www.clavax.com/", "rating": 4.1, "review_count": "", "latitude": 28.5052123, "longitude": 77.0850025, "maps_url": "https://www.google.com/maps/place/?q=place_id:0x390d19437cb628b3:0x12e71803eb09ac16"}, {"place_id": "0x390d195c26bfa369:0x69bd8efd2e3a31fe", "name": "Radical Minds Technologies Pvt. Ltd.", "category": "BPO Company", "street": "368", "city": "Phase II, Udyog Vihar, Sector 20", "phone": "01244338366", "website": "http://www.radicalminds.in/", "rating": 4.2, "review_count": "", "latitude": 28.506335099999998, "longitude": 77.0877546, "maps_url": "https://www.google.com/maps/place/?q=place_id:0x390d195c26bfa369:0x69bd8efd2e3a31fe"}, {"place_id": "0x390d18db30f58d29:0xc7b84db691b8ed1f", "name": "Rapidsoft Technologies", "category": "Software company", "street": "Plot No", "city": "872, Udyog Vihar Phase V Rd", "phone": "07428913744", "website": "http://www.rapidsofttechnologies.com/", "rating": 3.9, "review_count": "", "latitude": 28.5032107, "longitude": 77.087064, "maps_url": "https://www.google.com/maps/place/?q=place_id:0x390d18db30f58d29:0xc7b84db691b8ed1f"}, {"place_id": "0x390d19440d251b57:0x5d93a3ac9d62d3ae", "name": "Josh Technology Group", "category": "Software company", "street": "861", "city": "Phase V, Udyog Vihar, Sector 19", "phone": "01244376916", "website": "http://www.joshtechnologygroup.com/", "rating": 3.8, "review_count": "", "latitude": 28.503218999999998, "longitude": 77.0860004, "maps_url": "https://www.google.com/maps/place/?q=place_id:0x390d19440d251b57:0x5d93a3ac9d62d3ae"}, {"place_id": "0x390d19443ee44173:0xc9c69f05eef068c1", "name": "NYGGS Construction ERP Software", "category": "Software company", "street": "Plot No, 872", "city": "Phase V, Udyog Vihar, Sector 19", "phone": "07303593999", "website": "https://nyggs.com/construction-erp-software", "rating": 4.9, "review_count": "", "latitude": 28.503245699999997, "longitude": 77.0869388, "maps_url": "https://www.google.com/maps/place/?q=place_id:0x390d19443ee44173:0xc9c69f05eef068c1"}, {"place_id": "0x390ceff9104cd4f3:0x6643b5058c1a18c0", "name": "WNC Technologies", "category": "Software company", "street": "wework", "city": "393, Udyog Vihar Phase 3 Rd", "phone": "08527084792", "website": "https://www.wnctech.ai/", "rating": 4.9, "review_count": "", "latitude": 28.505696, "longitude": 77.08870189999999, "maps_url": "https://www.google.com/maps/place/?q=place_id:0x390ceff9104cd4f3:0x6643b5058c1a18c0"}, {"place_id": "0x390d1946d1811c7f:0xe30e15db9976b3e", "name": "HIPL - Heuristics Informatics Pvt. Ltd.", "category": "Software company", "street": "5th Floor", "city": "CDS Corporate Tower", "phone": "01244928500", "website": "https://hipl.co.in/", "rating": 4.3, "review_count": "", "latitude": 28.5047471, "longitude": 77.0881484, "maps_url": "https://www.google.com/maps/place/?q=place_id:0x390d1946d1811c7f:0xe30e15db9976b3e"}, {"place_id": "0x390d1944a3689949:0x63200da406e47fac", "name": "DCM Infotech Limited", "category": "Computer support and services", "street": "316, Udyog Vihar II Rd", "city": "Phase II, Udyog Vihar, Sector 20", "phone": "01244122800", "website": "http://dcminfotech.com/", "rating": 3.8, "review_count": "", "latitude": 28.506505399999998, "longitude": 77.0857503, "maps_url": "https://www.google.com/maps/place/?q=place_id:0x390d1944a3689949:0x63200da406e47fac"}, {"place_id": "0x390d19438b577eb7:0x69e9ed58a02404e3", "name": "Smart Tech Infosystems Pvt. Ltd.", "category": "Software company", "street": "777", "city": "Phase V, Udyog Vihar, Sector 19", "phone": "", "website": "http://www.stisys.com/", "rating": 4, "review_count": "", "latitude": 28.5032025, "longitude": 77.0848393, "maps_url": "https://www.google.com/maps/place/?q=place_id:0x390d19438b577eb7:0x69e9ed58a02404e3"}, {"place_id": "0x390d1993bd871777:0x59b8dceaab966d6e", "name": "Web & Mobile App Development Company in Gurgaon - WEBIENT TECHNOLOGIES", "category": "Software company", "street": "97, 2nd Floor", "city": "Udyog Vihar Phase V Rd", "phone": "09075069326", "website": "https://webienttechnologies.in/", "rating": 5, "review_count": "", "latitude": 28.4993746, "longitude": 77.0833406, "maps_url": "https://www.google.com/maps/place/?q=place_id:0x390d1993bd871777:0x59b8dceaab966d6e"}, {"place_id": "0x390d19abbe8a5671:0x7f9eaed758fb59ee", "name": "Appcods", "category": "Software company", "street": "2nd Floor, Enkay Square, Plot 448-A", "city": "NH8", "phone": "08010888273", "website": "", "rating": 5, "review_count": "", "latitude": 28.4970438, "longitude": 77.08564129999999, "maps_url": "https://www.google.com/maps/place/?q=place_id:0x390d19abbe8a5671:0x7f9eaed758fb59ee"}, {"place_id": "0x390d193b948d4c9d:0x70bc4fee27776892", "name": "TechIND", "category": "Software company", "street": "791/5, 5", "city": "Phase V, Udyog Vihar, Sector 19", "phone": "09560494261", "website": "https://techinds.com/", "rating": 4.8, "review_count": "", "latitude": 28.502229699999997, "longitude": 77.08500289999999, "maps_url": "https://www.google.com/maps/place/?q=place_id:0x390d193b948d4c9d:0x70bc4fee27776892"}, {"place_id": "0x390d192ead051335:0x1f45fb98e90cc397", "name": "Honeysha Technologies, Software Company in Gurgaon, Digital Marketing Agency in Gurgaon", "category": "Software company", "street": "Cyber City", "city": "U-79/18, Rd Number 79", "phone": "07692079000", "website": "https://honeyshatech.com/", "rating": 4.5, "review_count": "", "latitude": 28.4900566, "longitude": 77.09324459999999, "maps_url": "https://www.google.com/maps/place/?q=place_id:0x390d192ead051335:0x1f45fb98e90cc397"}, {"place_id": "0x390d194741219b65:0xf77831cdf9be2066", "name": "eSec Forte Technologies", "category": "Computer security service", "street": "1st & 2nd Floor", "city": "Plot no. 888", "phone": "01244264666", "website": "https://www.esecforte.com/", "rating": 4.7, "review_count": "", "latitude": 28.5031182, "longitude": 77.0878417, "maps_url": "https://www.google.com/maps/place/?q=place_id:0x390d194741219b65:0xf77831cdf9be2066"}, {"place_id": "0x390d19a4d5896daf:0x8c50d47ac6969b8a", "name": "Watsoo Express - Technology Company", "category": "Software company", "street": "Plot 872", "city": "Phase V, Udyog Vihar, Sector 19", "phone": "08448835133", "website": "https://www.watsoo.com/", "rating": 4.3, "review_count": "", "latitude": 28.5031546, "longitude": 77.0868557, "maps_url": "https://www.google.com/maps/place/?q=place_id:0x390d19a4d5896daf:0x8c50d47ac6969b8a"}, {"place_id": "0x390d192a43d18f13:0x8bbba9dab452c924", "name": "Eon Networks Pvt Ltd", "category": "Computer support and services", "street": "733, Udyog Vihar Phase V Rd", "city": "Phase V, Udyog Vihar, Sector 19", "phone": "09810644642", "website": "http://eonconnects.net/", "rating": 4.5, "review_count": "", "latitude": 28.5046906, "longitude": 77.0857224, "maps_url": "https://www.google.com/maps/place/?q=place_id:0x390d192a43d18f13:0x8bbba9dab452c924"}, {"place_id": "0x390d1959935e7567:0x7aec1b8aa8ba33fb", "name": "Sequentum India", "category": "Computer support and services", "street": "667, Udyog Vihar Phase V Rd", "city": "Phase V, Udyog Vihar, Sector 19", "phone": "08665946019", "website": "http://sequentum.com/", "rating": 4.6, "review_count": "", "latitude": 28.5027695, "longitude": 77.08437719999999, "maps_url": "https://www.google.com/maps/place/?q=place_id:0x390d1959935e7567:0x7aec1b8aa8ba33fb"}, {"place_id": "0x390d19440bc59efb:0xda6549686148f7b4", "name": "PerfectionGeeks Technologies", "category": "Software company", "street": "Plot 378-379, Udyog Vihar Phase 4 Rd", "city": "near nokia building", "phone": "08920947884", "website": "http://www.perfectiongeeks.com/", "rating": 4.9, "review_count": "", "latitude": 28.5002221, "longitude": 77.0730516, "maps_url": "https://www.google.com/maps/place/?q=place_id:0x390d19440bc59efb:0xda6549686148f7b4"}, {"place_id": "0x390d1946aac2cc95:0xc0357040d4394b73", "name": "24 Tech Support", "category": "Computer repair service", "street": "768, Udyog Vihar Phase V Rd", "city": "Phase V, Udyog Vihar, Sector 19", "phone": "08285138670", "website": "http://www.24techsupport.in/", "rating": 4, "review_count": "", "latitude": 28.504044, "longitude": 77.085859, "maps_url": "https://www.google.com/maps/place/?q=place_id:0x390d1946aac2cc95:0xc0357040d4394b73"}, {"place_id": "0x3be7b90855692f21:0x94f09723f9eaa80", "name": "PAYGATE INDIA PRIVATE LIMITED", "category": "Software company", "street": "879, Udyog Vihar Phase V Rd", "city": "Phase V, Udyog Vihar, Sector 19", "phone": "", "website": "", "rating": 3.7, "review_count": "", "latitude": 28.501945499999998, "longitude": 77.0869043, "maps_url": "https://www.google.com/maps/place/?q=place_id:0x3be7b90855692f21:0x94f09723f9eaa80"}, {"place_id": "0x390d195e4483ae05:0xec67b2579bb38803", "name": "eXtendCode - Software Development Company", "category": "Software company", "street": "Plot 63, Second Floor, Udyog Vihar Phase -1,", "city": "Gurugram, Haryana 122016", "phone": "01244261219", "website": "http://www.extendcode.com/", "rating": 4.1, "review_count": "", "latitude": 28.514535199999997, "longitude": 77.0815075, "maps_url": "https://www.google.com/maps/place/?q=place_id:0x390d195e4483ae05:0xec67b2579bb38803"}, {"place_id": "0x390d198145cf3e03:0xe92b2e4710cf28a4", "name": "Ganga IT Solution Ltd", "category": "Software company", "street": "0390, Phase", "city": "3", "phone": "09899550645", "website": "https://www.gangaitsolution.com/", "rating": 5, "review_count": "", "latitude": 28.5116241, "longitude": 77.0881259, "maps_url": "https://www.google.com/maps/place/?q=place_id:0x390d198145cf3e03:0xe92b2e4710cf28a4"}, {"place_id": "0x390d19076874b279:0xfb85b417dfd6a3b1", "name": "Technocube", "category": "Software company", "street": "336 Udyog Vihar", "city": "Phase IV", "phone": "09958852734", "website": "https://technocube.in/", "rating": 5, "review_count": "", "latitude": 28.504742399999998, "longitude": 77.0874429, "maps_url": "https://www.google.com/maps/place/?q=place_id:0x390d19076874b279:0xfb85b417dfd6a3b1"}, {"place_id": "0x390d1956e7719229:0x494a13223914efdc", "name": "CyberCube Services Pvt Ltd", "category": "Computer security service", "street": "Third Floor", "city": "Plot No - 880, Udyog Vihar Phase V Rd", "phone": "09891675123", "website": "https://www.cybercube.co/", "rating": 4.7, "review_count": "", "latitude": 28.5039686, "longitude": 77.0864285, "maps_url": "https://www.google.com/maps/place/?q=place_id:0x390d1956e7719229:0x494a13223914efdc"}, {"place_id": "0x390d19b2eca900cd:0x833b44db65d92c66", "name": "Digicuro | Space Management and Automation | SaaS - Gurgaon", "category": "Software company", "street": "758, Udyog Vihar Phase V Rd", "city": "Phase V, Udyog Vihar, Sector 19", "phone": "09717665065", "website": "https://www.digicuro.com/", "rating": 5, "review_count": "", "latitude": 28.5034355, "longitude": 77.08472309999999, "maps_url": "https://www.google.com/maps/place/?q=place_id:0x390d19b2eca900cd:0x833b44db65d92c66"}, {"place_id": "0x390d1948a901da95:0x4a34e5bb6daab881", "name": "DLF Cyberpark, Gurugram", "category": "Corporate office", "street": "Phase III, Udyog Vihar, Sector 20", "city": "Gurugram, Haryana 122016", "phone": "01244568900", "website": "https://www.dlf.in/offices/gurugram/dlf-cyberpark", "rating": 4.7, "review_count": "", "latitude": 28.5019261, "longitude": 77.0909384, "maps_url": "https://www.google.com/maps/place/?q=place_id:0x390d1948a901da95:0x4a34e5bb6daab881"}, {"place_id": "0x390d183124b3ce65:0x769cc0a2b6f1c2c7", "name": "NKC Projects", "category": "Software company", "street": "Plot No, 872, Udyog Vihar Phase V Rd", "city": "Phase V, Udyog Vihar, Sector 19", "phone": "01246902630", "website": "http://www.nkcproject.com/", "rating": 4.3, "review_count": "", "latitude": 28.503218399999998, "longitude": 77.08701599999999, "maps_url": "https://www.google.com/maps/place/?q=place_id:0x390d183124b3ce65:0x769cc0a2b6f1c2c7"}, {"place_id": "0x390d19454748b5f1:0x930fdb13eea6af9b", "name": "Auquall BPO - Best BPO and BPM company in gurgaon", "category": "BPO Company", "street": "698, Udyog Vihar Phase V Rd", "city": "Phase V, Udyog Vihar, Sector 19", "phone": "09899005897", "website": "", "rating": 4.4, "review_count": "", "latitude": 28.505634099999998, "longitude": 77.0837823, "maps_url": "https://www.google.com/maps/place/?q=place_id:0x390d19454748b5f1:0x930fdb13eea6af9b"}, {"place_id": "0xa3bf1e8405634021:0x4bd191d1d7b1b386", "name": "Selective Brains Speziell Pvt. Ltd.", "category": "BPO Company", "street": "BASEMENT", "city": "Plot 736, Udyog Vihar Phase V Rd", "phone": "", "website": "", "rating": 4.9, "review_count": "", "latitude": 28.504990199999998, "longitude": 77.0847896, "maps_url": "https://www.google.com/maps/place/?q=place_id:0xa3bf1e8405634021:0x4bd191d1d7b1b386"}, {"place_id": "0x2b16fa0d5f31d9bf:0xfc17958d56b2386c", "name": "RMT Engineering", "category": "Software company", "street": "368, Second Floor", "city": "Phase II, Udyog Vihar, Sector 20", "phone": "09689524411", "website": "https://rmtengg.com/", "rating": 5, "review_count": "", "latitude": 28.506273, "longitude": 77.0877885, "maps_url": "https://www.google.com/maps/place/?q=place_id:0x2b16fa0d5f31d9bf:0xfc17958d56b2386c"}, {"place_id": "0x390d1944d619cb1d:0x13bbfa4a38da1dd7", "name": "Shunya Ekai Technologies India", "category": "Automation company", "street": "664, Udyog Vihar Phase V Rd", "city": "Udyog Vihar 3, Udyog Vihar, Sector 19", "phone": "09650477323", "website": "http://www.shunyaekai.tech/index.html", "rating": 4.3, "review_count": "", "latitude": 28.5022526, "longitude": 77.0841116, "maps_url": "https://www.google.com/maps/place/?q=place_id:0x390d1944d619cb1d:0x13bbfa4a38da1dd7"}, {"place_id": "0x390d1960c2b8367f:0xd2d30e45ac71acea", "name": "Vorombetech Solutions - Top IT & Digitalization Service Company in Gurugram", "category": "Software company", "street": "249", "city": "Phase IV, Udyog Vihar, Sector 19", "phone": "", "website": "https://vorombetech.com/", "rating": 4.8, "review_count": "", "latitude": 28.4941475, "longitude": 77.0808448, "maps_url": "https://www.google.com/maps/place/?q=place_id:0x390d1960c2b8367f:0xd2d30e45ac71acea"}, {"place_id": "0x390d19d6d58171e1:0x814144c32c906348", "name": "Tech it!", "category": "E - Commerce Agency", "street": "Udyog Vihar II Rd", "city": "Phase II, Udyog Vihar, Sector 20", "phone": "", "website": "https://trytechit.co/", "rating": "", "review_count": "", "latitude": 28.5059015, "longitude": 77.0884849, "maps_url": "https://www.google.com/maps/place/?q=place_id:0x390d19d6d58171e1:0x814144c32c906348"}, {"place_id": "0x390d19c7e68f01a9:0xdd8b2a67f9f7f024", "name": "Siemens Limited", "category": "Corporate office", "street": "10th & 11 Floor, B Tower", "city": "Dlf Cyber Park", "phone": "", "website": "https://new.siemens.com/in/en.html", "rating": 4.7, "review_count": "", "latitude": 28.503510499999997, "longitude": 77.0892513, "maps_url": "https://www.google.com/maps/place/?q=place_id:0x390d19c7e68f01a9:0xdd8b2a67f9f7f024"}, {"place_id": "0x390d19b51955b3f9:0xa393322f40184796", "name": "TrueFan Corporate Office", "category": "Corporate office", "street": "786", "city": "Phase V, Udyog Vihar, Sector 19", "phone": "", "website": "http://truefan.in/", "rating": 3.7, "review_count": "", "latitude": 28.5036603, "longitude": 77.0859609, "maps_url": "https://www.google.com/maps/place/?q=place_id:0x390d19b51955b3f9:0xa393322f40184796"}, {"place_id": "0x390d1948d428ea8f:0xe4b573f2d68522a", "name": "EY GDS Gurgaon", "category": "Corporate office", "street": "DLF Cyber Park, 3rd Floor, Tower A&B", "city": "Phase III, Udyog Vihar, Sector 20", "phone": "", "website": "https://www.ey.com/en_in/careers/global-delivery-services", "rating": 4.6, "review_count": "", "latitude": 28.5033811, "longitude": 77.0902175, "maps_url": "https://www.google.com/maps/place/?q=place_id:0x390d1948d428ea8f:0xe4b573f2d68522a"}, {"place_id": "0x390d19b7eb51eec1:0xce30846c59c13175", "name": "Ecuzen Software Pvt Ltd.", "category": "Software company", "street": "742, Udyog Vihar Phase V Rd", "city": "Phase V, Udyog Vihar, Sector 19", "phone": "", "website": "https://www.ecuzen.com/", "rating": 3.5, "review_count": "", "latitude": 28.5057032, "longitude": 77.0847172, "maps_url": "https://www.google.com/maps/place/?q=place_id:0x390d19b7eb51eec1:0xce30846c59c13175"}, {"place_id": "0x390d196640000001:0x7866daefdb91e023", "name": "Times Internet Limited", "category": "Media company", "street": "Ecstasy IT Park", "city": "Times Internet Limited, Ecstasy IT Park", "phone": "01244518550", "website": "http://www.timesinternet.in/", "rating": 4.4, "review_count": "", "latitude": 28.5050942, "longitude": 77.0880288, "maps_url": "https://www.google.com/maps/place/?q=place_id:0x390d196640000001:0x7866daefdb91e023"}, {"place_id": "0x390d1946ca7a5237:0xbc1f7e5a00a56e37", "name": "BankFlex | Core Banking and Digital Banking Solution", "category": "Software company", "street": "733, Udyog Vihar Phase V Rd", "city": "Phase V, Udyog Vihar, Sector 19", "phone": "", "website": "http://www.bankflex.net/", "rating": 5, "review_count": "", "latitude": 28.5046365, "longitude": 77.0857707, "maps_url": "https://www.google.com/maps/place/?q=place_id:0x390d1946ca7a5237:0xbc1f7e5a00a56e37"}, {"place_id": "0x390d233423cb9d69:0xa575a6f599ef7db6", "name": "Proswl Technology Private Limited", "category": "Software company", "street": "90B, Delhi - Jaipur Expy", "city": "Udyog Vihar, Sector 18", "phone": "01244271015", "website": "https://proswl.com/", "rating": 5, "review_count": "", "latitude": 28.485295999999998, "longitude": 77.0746961, "maps_url": "https://www.google.com/maps/place/?q=place_id:0x390d233423cb9d69:0xa575a6f599ef7db6"}, {"place_id": "0x390d1944ef3681fb:0x4a98aa138d6aee7e", "name": "Mectech Group", "category": "Corporate office", "street": "366, Udyog Vihar II Rd", "city": "Phase II, Udyog Vihar, Sector 20", "phone": "01244700800", "website": "http://www.mectech.co.in/", "rating": 4.1, "review_count": "", "latitude": 28.505819499999998, "longitude": 77.087372, "maps_url": "https://www.google.com/maps/place/?q=place_id:0x390d1944ef3681fb:0x4a98aa138d6aee7e"}, {"place_id": "0x390d19448756e679:0x1ce14c7872f51302", "name": "BayOne Techno Advisors,Pvt Ltd", "category": "Corporate office", "street": "883, Udyog Vihar Phase V Rd", "city": "Phase V, Udyog Vihar, Sector 19", "phone": "", "website": "", "rating": 4.4, "review_count": "", "latitude": 28.5036153, "longitude": 77.0868732, "maps_url": "https://www.google.com/maps/place/?q=place_id:0x390d19448756e679:0x1ce14c7872f51302"}, {"place_id": "0x390d192ebb708cbb:0xf68c7c3cfd1422a2", "name": "Climbax Entertainment Private Limited | Enterprise Tech | Marketing | Animations", "category": "Software company", "street": "758, Udyog Vihar Phase V Rd", "city": "Phase V, Udyog Vihar, Sector 19", "phone": "09910014641", "website": "https://www.climbaxentertainment.com/", "rating": 4.7, "review_count": "", "latitude": 28.5034355, "longitude": 77.08472309999999, "maps_url": "https://www.google.com/maps/place/?q=place_id:0x390d192ebb708cbb:0xf68c7c3cfd1422a2"}, {"place_id": "0x390ce458d0000001:0xf2123bd299ec4501", "name": "IT Company India", "category": "Software company", "street": "D56", "city": "D Block, Sector 10", "phone": "09999244854", "website": "https://www.itcompanyindia.in/", "rating": 4.7, "review_count": "", "latitude": 28.589917699999997, "longitude": 77.3351153, "maps_url": "https://www.google.com/maps/place/?q=place_id:0x390ce458d0000001:0xf2123bd299ec4501"}, {"place_id": "0x390d19640b7dcc97:0x39f49df0bddba696", "name": "GrowthGear", "category": "Software company", "street": "306, 3rd Floor", "city": "WeWork Vi-John Tower", "phone": "", "website": "http://www.growthgear.in/", "rating": 4.5, "review_count": "", "latitude": 28.505550099999997, "longitude": 77.08890319999999, "maps_url": "https://www.google.com/maps/place/?q=place_id:0x390d19640b7dcc97:0x39f49df0bddba696"}, {"place_id": "0x390d194e31bc7fa1:0xdae6bf625511c0b8", "name": "Creditron Services Private limited", "category": "Corporate office", "street": "806-807, Udyog Vihar Phase V Rd", "city": "Phase V, Udyog Vihar, Sector 20", "phone": "", "website": "", "rating": 4.4, "review_count": "", "latitude": 28.5032025, "longitude": 77.0875336, "maps_url": "https://www.google.com/maps/place/?q=place_id:0x390d194e31bc7fa1:0xdae6bf625511c0b8"}, {"place_id": "0x390d19370da3cb55:0xfa98b6c97124b76c", "name": "Ernst and Young LLP", "category": "Corporate office", "street": "DLF Cyber Park", "city": "Phase II, Udyog Vihar, Sector 20", "phone": "01244701000", "website": "http://www.ey.com/", "rating": 4.3, "review_count": "", "latitude": 28.5018566, "longitude": 77.0909307, "maps_url": "https://www.google.com/maps/place/?q=place_id:0x390d19370da3cb55:0xfa98b6c97124b76c"}, {"place_id": "0x390d19316748a39b:0x427bebf40160d8ac", "name": "Construe IT Solutions Pvt. Ltd.", "category": "Software company", "street": "R # 3", "city": "56/10", "phone": "08130713756", "website": "http://www.construesol.com/", "rating": 4, "review_count": "", "latitude": 28.489741799999997, "longitude": 77.0963127, "maps_url": "https://www.google.com/maps/place/?q=place_id:0x390d19316748a39b:0x427bebf40160d8ac"}, {"place_id": "0x390d19ad1703bf49:0x6d83426aaca2113d", "name": "DDT SOFTWARE & ECOMM PVT LTD", "category": "Software company", "street": "512, Udyog Vihar Phase V Rd", "city": "near spaze club building", "phone": "09810944806", "website": "https://www.ddtsoftwareandecommerce.com/", "rating": "", "review_count": "", "latitude": 28.498896, "longitude": 77.0850399, "maps_url": "https://www.google.com/maps/place/?q=place_id:0x390d19ad1703bf49:0x6d83426aaca2113d"}, {"place_id": "0x390d196165555575:0x11c9ef7484aa92e6", "name": "Web Services India Pvt Ltd.", "category": "Internet service provider", "street": "Plot No", "city": "768, Udyog Vihar Phase V Rd", "phone": "01244141855", "website": "https://www.webservicesindia.in/", "rating": 5, "review_count": "", "latitude": 28.5041114, "longitude": 77.0857714, "maps_url": "https://www.google.com/maps/place/?q=place_id:0x390d196165555575:0x11c9ef7484aa92e6"}, {"place_id": "0x390d196ce1d5cde5:0x18d202f4ab828476", "name": "Koexist Coworking Space, Udyog Vihar", "category": "Coworking space", "street": "791", "city": "Phase V, Udyog Vihar, Sector 19", "phone": "", "website": "", "rating": 4.3, "review_count": "", "latitude": 28.502248299999998, "longitude": 77.08501389999999, "maps_url": "https://www.google.com/maps/place/?q=place_id:0x390d196ce1d5cde5:0x18d202f4ab828476"}, {"place_id": "0x390d1944709852d1:0x8ac7f5d2e72f67f5", "name": "NBCL Marketing Pvt. Ltd.", "category": "BPO Company", "street": "770, Udyog Vihar Phase V Rd", "city": "Phase V, Udyog Vihar, Sector 19", "phone": "01244101156", "website": "", "rating": 3.3, "review_count": "", "latitude": 28.5038919, "longitude": 77.0856866, "maps_url": "https://www.google.com/maps/place/?q=place_id:0x390d1944709852d1:0x8ac7f5d2e72f67f5"}, {"place_id": "0x390d1946d18bc23f:0x5f9dfba15e2a6ab1", "name": "Energy Bots Pvt. Ltd.", "category": "Electronics Company", "street": "CDS Corporate Towers", "city": "Udyog Vihar Phase 3 Rd", "phone": "01244224188", "website": "http://www.energy-bots.com/", "rating": 4.1, "review_count": "", "latitude": 28.5047511, "longitude": 77.0881462, "maps_url": "https://www.google.com/maps/place/?q=place_id:0x390d1946d18bc23f:0x5f9dfba15e2a6ab1"}, {"place_id": "0x390d194298c5ce09:0x4cccce1bd9041dfb", "name": "Deck Mount Electronics", "category": "Corporate office", "street": "683", "city": "Phase V, Udyog Vihar, Sector 19", "phone": "18003092499", "website": "https://www.deckmount.in/", "rating": 3.8, "review_count": "", "latitude": 28.505004999999997, "longitude": 77.083878, "maps_url": "https://www.google.com/maps/place/?q=place_id:0x390d194298c5ce09:0x4cccce1bd9041dfb"}, {"place_id": "0x390d1935e01e6e29:0xb912c933c4dbde38", "name": "Gartner", "category": "Corporate office", "street": "G32R+WC5", "city": "Phase II, Udyog Vihar, Sector 20", "phone": "01246500000", "website": "http://www.gartner.com/", "rating": 4.9, "review_count": "", "latitude": 28.502250399999998, "longitude": 77.091117, "maps_url": "https://www.google.com/maps/place/?q=place_id:0x390d1935e01e6e29:0xb912c933c4dbde38"}, {"place_id": "0x390d193feaaaaaab:0xbe3b01c1cbe0ddb0", "name": "Interface Microsystems", "category": "Manufacturer", "street": "341-342", "city": "Phase II, Udyog Vihar, Sector 20", "phone": "01244736950", "website": "http://www.interfaceauto.com/", "rating": 4.1, "review_count": "", "latitude": 28.506417799999998, "longitude": 77.085573, "maps_url": "https://www.google.com/maps/place/?q=place_id:0x390d193feaaaaaab:0xbe3b01c1cbe0ddb0"}, {"place_id": "0x390d1917be815c17:0x38e62caab3dcf37e", "name": "MBG Corporate Services \u2013 Legal, Tax & Business Advisory Experts India", "category": "Corporate office", "street": "356, Udyog Vihar II Rd", "city": "Phase II, Udyog Vihar, Sector 20", "phone": "08860190008", "website": "http://www.mbgcorp.com/in/", "rating": 4.3, "review_count": "", "latitude": 28.5052879, "longitude": 77.08618539999999, "maps_url": "https://www.google.com/maps/place/?q=place_id:0x390d1917be815c17:0x38e62caab3dcf37e"}, {"place_id": "0x390d1990db19986d:0x76f7bda3736fe4c4", "name": "Panchisoft", "category": "Software company", "street": "H-166, Street No. 2", "city": "I Block, H- Block, Dharam Colony, Palam Vihar Extension", "phone": "09810735390", "website": "https://www.panchisoft.com/", "rating": 5, "review_count": "", "latitude": 28.5014164, "longitude": 77.0380527, "maps_url": "https://www.google.com/maps/place/?q=place_id:0x390d1990db19986d:0x76f7bda3736fe4c4"}, {"place_id": "0x390d1908240b424d:0x922957d4fa0772c1", "name": "Upsynk", "category": "Education center", "street": "Lower Ground Floor", "city": "Plot No. 747, Udyog Vihar Phase V Rd", "phone": "08130927999", "website": "http://www.upsynk.in/", "rating": 4.8, "review_count": "", "latitude": 28.5047082, "longitude": 77.0850138, "maps_url": "https://www.google.com/maps/place/?q=place_id:0x390d1908240b424d:0x922957d4fa0772c1"}, {"place_id": "0x390d1905cf9418ab:0x68c73ef2c55c6a92", "name": "Dixinfotech | Best Web Development Company in Gurgaon", "category": "Software company", "street": "Plot No. 96, 1st Floor", "city": "Udyog Vihar Phase 1, Sector 20", "phone": "09717106162", "website": "https://www.dixinfotech.com/website-designing-company-in-gurgaon", "rating": 5, "review_count": "", "latitude": 28.5169219, "longitude": 77.0803425, "maps_url": "https://www.google.com/maps/place/?q=place_id:0x390d1905cf9418ab:0x68c73ef2c55c6a92"}, {"place_id": "0x390d1940ccb9416b:0xdbcf1c2884b51623", "name": "Mercury Solutions Limited", "category": "Training center", "street": "464, Udyog Vihar Phase V Rd", "city": "Phase II, Udyog Vihar, Sector 19", "phone": "01244985555", "website": "https://www.mercurysolutions.co/?utm_source=GMB&utm_medium=Link&utm_campaign=Local", "rating": 3.9, "review_count": "", "latitude": 28.505483599999998, "longitude": 77.0889878, "maps_url": "https://www.google.com/maps/place/?q=place_id:0x390d1940ccb9416b:0xdbcf1c2884b51623"}, {"place_id": "0x390d19663bdbf7d9:0x7c4d851ee61d402f", "name": "ISHIDA INDIA PVT. LTD.", "category": "Weighing Scale Supplier", "street": "382, Ground Floor, Udyog Vihar, Phase- II", "city": "Gurugram, Haryana 122016", "phone": "01244844391", "website": "https://www.ishida.com/ww/en/", "rating": 4.3, "review_count": "", "latitude": 28.5051182, "longitude": 77.0876986, "maps_url": "https://www.google.com/maps/place/?q=place_id:0x390d19663bdbf7d9:0x7c4d851ee61d402f"}, {"place_id": "0x390d196a4a46c73b:0xf41908c944238963", "name": "VConsyst Software Solutions", "category": "Software company", "street": "F3XG+QP5", "city": "NH 8", "phone": "01244382364", "website": "http://www.vconsyst.co.uk/", "rating": 4.3, "review_count": "", "latitude": 28.499377, "longitude": 77.076849, "maps_url": "https://www.google.com/maps/place/?q=place_id:0x390d196a4a46c73b:0xf41908c944238963"}, {"place_id": "0x390d02346f3e420d:0x949bc7f023e3a201", "name": "Channelplay Limited", "category": "Marketing agency", "street": "800", "city": "Phase V, Udyog Vihar, Sector 19", "phone": "", "website": "https://www.channelplay.in/", "rating": 4.2, "review_count": "", "latitude": 28.5017967, "longitude": 77.0858472, "maps_url": "https://www.google.com/maps/place/?q=place_id:0x390d02346f3e420d:0x949bc7f023e3a201"}, {"place_id": "0x390d191ea3862ff9:0x1c2e6ae0498e15a9", "name": "CDS Infra Projects Limited", "category": "Corporate office", "street": "390", "city": "Phase II, Udyog Vihar, Sector 20", "phone": "", "website": "http://www.cdsipl.com/", "rating": 3.8, "review_count": "", "latitude": 28.5047231, "longitude": 77.0881224, "maps_url": "https://www.google.com/maps/place/?q=place_id:0x390d191ea3862ff9:0x1c2e6ae0498e15a9"}, {"place_id": "0x390d19e89561c187:0x8e88ec4c1a5b1e73", "name": "Gate No. 4, DLF Cyberpark", "category": "Corporate office", "street": "803, Shankar Chowk Rd", "city": "Phase V, Udyog Vihar, Sector 19", "phone": "", "website": "", "rating": 4.5, "review_count": "", "latitude": 28.503483, "longitude": 77.0881358, "maps_url": "https://www.google.com/maps/place/?q=place_id:0x390d19e89561c187:0x8e88ec4c1a5b1e73"}, {"place_id": "0x390d19007e22d1a1:0x8b39b9245706d2a2", "name": "Flosenso", "category": "Electronics Company", "street": "5th Floor", "city": "CDS Corporate Tower", "phone": "", "website": "https://www.flosenso.com/", "rating": 3.5, "review_count": "", "latitude": 28.5049556, "longitude": 77.088171, "maps_url": "https://www.google.com/maps/place/?q=place_id:0x390d19007e22d1a1:0x8b39b9245706d2a2"}, {"place_id": "0x390d194215555555:0xb7def05c15b6f8a5", "name": "Cas Weighing India Private Limited", "category": "Weighing Scale Supplier", "street": "Plot No. 788", "city": "Sector 19", "phone": "09212559707", "website": "https://www.casindia.in/", "rating": 4.1, "review_count": "", "latitude": 28.503874, "longitude": 77.086152, "maps_url": "https://www.google.com/maps/place/?q=place_id:0x390d194215555555:0xb7def05c15b6f8a5"}, {"place_id": "0x390d19c522b88ed9:0x443f8d4dc3172bcb", "name": "Boston Consulting Group", "category": "Business management consultant", "street": "DLF Cyber City", "city": "DLF Cyberpark, 7th and 8th Floor", "phone": "01244597000", "website": "https://www.bcg.com/offices/new-delhi/default", "rating": 4.6, "review_count": "", "latitude": 28.502257, "longitude": 77.0904402, "maps_url": "https://www.google.com/maps/place/?q=place_id:0x390d19c522b88ed9:0x443f8d4dc3172bcb"}, {"place_id": "0x390d1ef4326f18bd:0x421fc2ad3383278d", "name": "Splice Global", "category": "Software company", "street": "791", "city": "Phase V, Udyog Vihar, Sector 19", "phone": "09599509350", "website": "https://www.spliceglobal.com/", "rating": 4.9, "review_count": "", "latitude": 28.5022214, "longitude": 77.0849858, "maps_url": "https://www.google.com/maps/place/?q=place_id:0x390d1ef4326f18bd:0x421fc2ad3383278d"}, {"place_id": "0x390cefd4642e4341:0xf4352d86fbeed246", "name": "Dolphy India Pvt. Ltd- Delhi", "category": "Industrial equipment supplier", "street": "Ground Floor", "city": "Plot No. 355, Udyog Vihar II Rd", "phone": "09520202035", "website": "https://dolphy.in/", "rating": 4.7, "review_count": "", "latitude": 28.5053511, "longitude": 77.0861389, "maps_url": "https://www.google.com/maps/place/?q=place_id:0x390cefd4642e4341:0xf4352d86fbeed246"}, {"place_id": "0x390d195b82c058cb:0xb1919aa41134ab66", "name": "Acuity Knowledge Partners", "category": "Corporate office", "street": "267, Shankar Chowk Rd", "city": "Udyog Vihar Phase 1, Udyog Vihar, Sector 20", "phone": "01246609000", "website": "https://www.acuitykp.com/contact-us/", "rating": 4, "review_count": "", "latitude": 28.506427, "longitude": 77.08451989999999, "maps_url": "https://www.google.com/maps/place/?q=place_id:0x390d195b82c058cb:0xb1919aa41134ab66"}, {"place_id": "0x390d1907481afdb5:0x82f0368c7d88417b", "name": "CogentHub Pvt. Limited", "category": "Association / Organization", "street": "756, Udyog Vihar Phase V Rd", "city": "Phase V, Udyog Vihar, Sector 19", "phone": "", "website": "https://www.cogenthub.com/", "rating": 3.3, "review_count": "", "latitude": 28.504002, "longitude": 77.0845338, "maps_url": "https://www.google.com/maps/place/?q=place_id:0x390d1907481afdb5:0x82f0368c7d88417b"}, {"place_id": "0x390d19125ec27ed7:0xa1e907700b6b3159", "name": "Hogarth India", "category": "Website designer", "street": "8th Floor, Tower B, DLF Cyber Park, 405-B", "city": "3", "phone": "", "website": "https://www.hogarthww.com/", "rating": 4.3, "review_count": "", "latitude": 28.503068499999998, "longitude": 77.08964519999999, "maps_url": "https://www.google.com/maps/place/?q=place_id:0x390d19125ec27ed7:0xa1e907700b6b3159"}, {"place_id": "0x390d19454f2b45a1:0xe52b99ad0e74fe59", "name": "TUV SUD South Asia Pvt. Ltd.", "category": "Certification agency", "street": "373, Udyog Vihar II Rd", "city": "Phase II, Udyog Vihar, Sector 20", "phone": "01246199699", "website": "http://www.tuvsud.com/in", "rating": 4.4, "review_count": "", "latitude": 28.506572199999997, "longitude": 77.08878059999999, "maps_url": "https://www.google.com/maps/place/?q=place_id:0x390d19454f2b45a1:0xe52b99ad0e74fe59"}, {"place_id": "0x390d193ff211b3fb:0xd964ffb67296e058", "name": "IStrat Software Pvt. Ltd.", "category": "Software company", "street": "90D,", "city": "Udyog Vihar Phase IV, Sector 18", "phone": "01244121000", "website": "", "rating": 3.8, "review_count": "", "latitude": 28.485205399999998, "longitude": 77.0740924, "maps_url": "https://www.google.com/maps/place/?q=place_id:0x390d193ff211b3fb:0xd964ffb67296e058"}, {"place_id": "0x390d19447b5b8955:0xb4788adb8d3be1f1", "name": "Global Information Systems Technologies Pvt. Ltd.", "category": "Software company", "street": "Udyog Vihar Phase V Rd", "city": "Phase V, Udyog Vihar, Sector 19", "phone": "01244614000", "website": "http://www.gist.in/", "rating": 4.1, "review_count": "", "latitude": 28.505697899999998, "longitude": 77.0846031, "maps_url": "https://www.google.com/maps/place/?q=place_id:0x390d19447b5b8955:0xb4788adb8d3be1f1"}, {"place_id": "0x390d199fba8f8f6f:0x27ed79f74937431f", "name": "BIU Digital Services Pvt. Ltd.", "category": "Marketing agency", "street": "Vi-John Tower", "city": "393, Udyog Vihar Phase 3 Rd", "phone": "09588392388", "website": "https://branditup.in/", "rating": 5, "review_count": "", "latitude": 28.505620999999998, "longitude": 77.0887398, "maps_url": "https://www.google.com/maps/place/?q=place_id:0x390d199fba8f8f6f:0x27ed79f74937431f"}, {"place_id": "0x390d19001e7f7d69:0xcc77a290048c9b0c", "name": "CDS Corporate Tower", "category": "Real Estate Builders & Construction Company", "street": "390, Shankar Chowk Rd", "city": "Udyog Vihar Phase 3 Rd", "phone": "", "website": "http://www.cdsipl.com/", "rating": 4.8, "review_count": "", "latitude": 28.5049556, "longitude": 77.088171, "maps_url": "https://www.google.com/maps/place/?q=place_id:0x390d19001e7f7d69:0xcc77a290048c9b0c"}, {"place_id": "0x390d19449fd2a653:0xdb8ee4b5ef1746d", "name": "P.E. Analytics Ltd. (PropEquity)", "category": "Research and product development", "street": "PLOT NO", "city": "348, Udyog Vihar II Rd", "phone": "01244522786", "website": "http://www.propequity.in/", "rating": 3.9, "review_count": "", "latitude": 28.5060437, "longitude": 77.0851848, "maps_url": "https://www.google.com/maps/place/?q=place_id:0x390d19449fd2a653:0xdb8ee4b5ef1746d"}, {"place_id": "0x390d19350f3a2e97:0x835bc6b909d2b68e", "name": "Apolis", "category": "Corporate office", "street": "736, Udyog Vihar Phase V Rd", "city": "Phase V, Udyog Vihar, Sector 19", "phone": "", "website": "https://apolisrises.com/?utm_source=google&utm_medium=organic&utm_campaign=gmb-gurgaon", "rating": 4.8, "review_count": "", "latitude": 28.504990199999998, "longitude": 77.0847896, "maps_url": "https://www.google.com/maps/place/?q=place_id:0x390d19350f3a2e97:0x835bc6b909d2b68e"}, {"place_id": "0x390d199c24f9ebdd:0x78aa1b75e24c47f2", "name": "Cosentus", "category": "Business administration service", "street": "749, Udyog Vihar Phase V Rd", "city": "Phase V, Udyog Vihar, Sector 19", "phone": "", "website": "https://cosentus.com/", "rating": 3.8, "review_count": "", "latitude": 28.504891399999998, "longitude": 77.08508859999999, "maps_url": "https://www.google.com/maps/place/?q=place_id:0x390d199c24f9ebdd:0x78aa1b75e24c47f2"}, {"place_id": "0x390d192409eb1411:0xbf1f68f4b2dd1d69", "name": "Appicia Technologies", "category": "Software company", "street": "Third floor", "city": "Ashirwad", "phone": "08076917265", "website": "https://appicia.com/", "rating": 5, "review_count": "", "latitude": 28.4885505, "longitude": 77.01963889999999, "maps_url": "https://www.google.com/maps/place/?q=place_id:0x390d192409eb1411:0xbf1f68f4b2dd1d69"}, {"place_id": "0x390d1fe29a5eb4df:0x6a1a986a7727c4cd", "name": "Reddington Global Consultancy Pvt. Ltd", "category": "Corporate office", "street": "750, Udyog Vihar Phase V Rd", "city": "Phase V, Udyog Vihar, Sector 19", "phone": "09818224495", "website": "https://www.reddingtonglobal.com/", "rating": 4.4, "review_count": "", "latitude": 28.504842999999997, "longitude": 77.0851314, "maps_url": "https://www.google.com/maps/place/?q=place_id:0x390d1fe29a5eb4df:0x6a1a986a7727c4cd"}, {"place_id": "0x390d19309794e0eb:0xa37dc170ebf2b1d0", "name": "Expedia Group", "category": "Corporate office", "street": "DLF CyberPark", "city": "Shankar Chowk Rd", "phone": "01244873888", "website": "http://www.expediagroup.com/", "rating": 4.5, "review_count": "", "latitude": 28.502092299999997, "longitude": 77.09122339999999, "maps_url": "https://www.google.com/maps/place/?q=place_id:0x390d19309794e0eb:0xa37dc170ebf2b1d0"}, {"place_id": "0x390d196c348311f1:0x6c157b4da6e5fd55", "name": "INFOIT SOFTECH PVT. LTD.", "category": "BPO Company", "street": "Basement", "city": "Plot 851, Udyog Vihar Phase V Rd", "phone": "01244383544", "website": "", "rating": 3.6, "review_count": "", "latitude": 28.5024728, "longitude": 77.08629549999999, "maps_url": "https://www.google.com/maps/place/?q=place_id:0x390d196c348311f1:0x6c157b4da6e5fd55"}, {"place_id": "0x390d194420307b11:0xae087c2b08161f78", "name": "Altavista Trading Pvt. Ltd.", "category": "", "street": "845, Udyog Vihar Phase V Rd", "city": "Phase IV, Udyog Vihar, Sector 18", "phone": "", "website": "https://altavistatrading.co.in/", "rating": 4.4, "review_count": "", "latitude": 28.5020126, "longitude": 77.0867189, "maps_url": "https://www.google.com/maps/place/?q=place_id:0x390d194420307b11:0xae087c2b08161f78"}, {"place_id": "0x390d1944164babbb:0x4dfe16ff9080aaa9", "name": "BLS International", "category": "BPO Company", "street": "865", "city": "Phase V, Udyog Vihar, Sector 19", "phone": "01143750006", "website": "http://blscontactcenter.com/", "rating": 4.2, "review_count": "", "latitude": 28.5027692, "longitude": 77.0865625, "maps_url": "https://www.google.com/maps/place/?q=place_id:0x390d1944164babbb:0x4dfe16ff9080aaa9"}, {"place_id": "0x390d191d0bb8a9db:0xf6295047e107a843", "name": "Robust Infotech - IT Services | Digital Transformation | Best Website/Software Development Company", "category": "Software company", "street": "90B, Delhi - Jaipur Expy", "city": "Nitin Vihar, Udyog Vihar, Sector 18", "phone": "07982914476", "website": "", "rating": 5, "review_count": "", "latitude": 28.441292299999997, "longitude": 77.0148859, "maps_url": "https://www.google.com/maps/place/?q=place_id:0x390d191d0bb8a9db:0xf6295047e107a843"}, {"place_id": "0x390d18d43fffffff:0x45cb28a2b74fb65e", "name": "IMV India Pvt. Ltd.", "category": "Medical equipment supplier", "street": "Plot No", "city": "750, Udyog Vihar Phase V Rd", "phone": "01244770707", "website": "http://www.imv-technologies.in/", "rating": 5, "review_count": "", "latitude": 28.5048696, "longitude": 77.0851465, "maps_url": "https://www.google.com/maps/place/?q=place_id:0x390d18d43fffffff:0x45cb28a2b74fb65e"}, {"place_id": "0x390d195ce160ac37:0x1aa87eb08d623c79", "name": "Richa Global Exports 871", "category": "Manufacturer", "street": "871, Udyog Vihar Phase V Rd", "city": "Phase V, Udyog Vihar, Sector 20", "phone": "", "website": "https://www.richaglobal.com/", "rating": 4.2, "review_count": "", "latitude": 28.5030167, "longitude": 77.08707199999999, "maps_url": "https://www.google.com/maps/place/?q=place_id:0x390d195ce160ac37:0x1aa87eb08d623c79"}, {"place_id": "0x390d1946a46a49f1:0x324e0036a89c6b72", "name": "Global Groupware Solutions Limited", "category": "Software company", "street": "393, Udyog Vihar Phase V Rd", "city": "Phase V, Udyog Vihar, Sector 19", "phone": "01244789999", "website": "https://www.employwise.com/", "rating": 5, "review_count": "", "latitude": 28.5055484, "longitude": 77.0887779, "maps_url": "https://www.google.com/maps/place/?q=place_id:0x390d1946a46a49f1:0x324e0036a89c6b72"}, {"place_id": "0x390d194457ecf45d:0x163a8e4d1562947f", "name": "Big Brain Technology,", "category": "Software company", "street": "336, Udyog Vihar Phase 3 Rd", "city": "Phase III, Udyog Vihar, Sector 19", "phone": "02202003821", "website": "http://bigbraintechnology.com/", "rating": 4.5, "review_count": "", "latitude": 28.504734499999998, "longitude": 77.087445, "maps_url": "https://www.google.com/maps/place/?q=place_id:0x390d194457ecf45d:0x163a8e4d1562947f"}, {"place_id": "0x390d19797f3eb4a7:0x65ddfa53db7db08b", "name": "sRide", "category": "Corporate office", "street": "Phase V, Udyog Vihar, Sector 19", "city": "Gurugram, Haryana 122016", "phone": "", "website": "http://www.sride.co/", "rating": 4.2, "review_count": "", "latitude": 28.5033602, "longitude": 77.08466039999999, "maps_url": "https://www.google.com/maps/place/?q=place_id:0x390d19797f3eb4a7:0x65ddfa53db7db08b"}, {"place_id": "0x390d1944e65c63b7:0x880ecd8320df0106", "name": "Mectech Knitfabs 330", "category": "Knitwear manufacturer", "street": "330, Udyog Vihar II Rd", "city": "opposite SBI Bank", "phone": "01244700800", "website": "http://mectechknitfabs.com/", "rating": 4.2, "review_count": "", "latitude": 28.505862999999998, "longitude": 77.0866202, "maps_url": "https://www.google.com/maps/place/?q=place_id:0x390d1944e65c63b7:0x880ecd8320df0106"}, {"place_id": "0x390cfcadf614187b:0x37451820e2df9776", "name": "Stylework - Workspaces at Your Fingertips", "category": "Corporate office", "street": "2nd Floor", "city": "Vi-John Tower", "phone": "09650605494", "website": "https://www.stylework.city/", "rating": 4.9, "review_count": "", "latitude": 28.505617899999997, "longitude": 77.0886991, "maps_url": "https://www.google.com/maps/place/?q=place_id:0x390cfcadf614187b:0x37451820e2df9776"}, {"place_id": "0x390d3c4e8a7a3b23:0xcac03368224997be", "name": "V-Bazaar Corporate Office", "category": "Corporate office", "street": "349, Udyog Vihar II Rd", "city": "Phase II, Udyog Vihar, Sector 20", "phone": "09599296950", "website": "http://www.v-bazaar.com/", "rating": 3.8, "review_count": "", "latitude": 28.506103999999997, "longitude": 77.085351, "maps_url": "https://www.google.com/maps/place/?q=place_id:0x390d3c4e8a7a3b23:0xcac03368224997be"}, {"place_id": "0x390d194475edffbb:0x7f2d55d43d291b1d", "name": "V-Mart Corporate Office", "category": "Corporate office", "street": "Plot No.862, Sector 19", "city": "Phase V, Udyog Vihar, Industrial Area", "phone": "01244640030", "website": "https://www.vmart.co.in/contact/", "rating": 4.2, "review_count": "", "latitude": 28.5029842, "longitude": 77.086035, "maps_url": "https://www.google.com/maps/place/?q=place_id:0x390d194475edffbb:0x7f2d55d43d291b1d"}]}