{"timestamp": 1773733552.143488, "keyword": "IT company", "location": "Indore", "cell_idx": 95, "results": [{"place_id": "0x3962fbe2776846d3:0x99a7ea634a997a68", "name": "Pushkal IT Solution (owner Divya Dubey )", "category": "Software company", "street": "Sai Vihar Colony, Rau", "city": "Indore, Madhya Pradesh 453331", "phone": "07314878045", "website": "http://www.pushkalit.com/", "rating": 4.1, "review_count": "", "latitude": 22.633637, "longitude": 75.807174, "maps_url": "https://www.google.com/maps/place/?q=place_id:0x3962fbe2776846d3:0x99a7ea634a997a68"}, {"place_id": "0x3962fcfabafa14b9:0x8c7a302459aaec0", "name": "Dollop Infotech Pvt. Ltd. | Indore | India", "category": "Software company", "street": "302, Sukhmani Apartment", "city": "Bhawarkua Main Rd", "phone": "09644704844", "website": "https://www.dollopinfotech.com/", "rating": 4.6, "review_count": "", "latitude": 22.6899904, "longitude": 75.8640863, "maps_url": "https://www.google.com/maps/place/?q=place_id:0x3962fcfabafa14b9:0x8c7a302459aaec0"}, {"place_id": "0x3962fb9e7ee26cd1:0x6e8b064681fc929b", "name": "Ozlo IT Services Pvt Ltd", "category": "Software company", "street": "Nakoda Apt", "city": "203", "phone": "07389028888", "website": "https://www.ozloits.com/", "rating": 4.9, "review_count": "", "latitude": 22.646292, "longitude": 75.8283652, "maps_url": "https://www.google.com/maps/place/?q=place_id:0x3962fb9e7ee26cd1:0x6e8b064681fc929b"}, {"place_id": "0x3962fd77fe66251b:0xf341c0ace0b98f53", "name": "Neyonix Infotech", "category": "Software company", "street": "Scheme No", "city": "Gopur Square", "phone": "08962402789", "website": "https://neyonix.com/", "rating": 4.9, "review_count": "", "latitude": 22.6845331, "longitude": 75.82877479999999, "maps_url": "https://www.google.com/maps/place/?q=place_id:0x3962fd77fe66251b:0xf341c0ace0b98f53"}, {"place_id": "0x3962fcf129c55555:0xf972ad5c5b881813", "name": "Technorizen Software Solution | Software Development Company | Mobile Apps l AI/ML Solution l Blockchain l Digital Marketing", "category": "Software company", "street": "Sapphire House", "city": "402 A, B, C", "phone": "07828407092", "website": "https://technorizen.com/", "rating": 4.7, "review_count": "", "latitude": 22.702807, "longitude": 75.871596, "maps_url": "https://www.google.com/maps/place/?q=place_id:0x3962fcf129c55555:0xf972ad5c5b881813"}, {"place_id": "0x3962fd6d5c629411:0xf6c83fcf3257fec1", "name": "Appalto Electronics Pvt Ltd", "category": "Electronics Company", "street": "IT Park", "city": "24-25, Indore - Dhar Rd", "phone": "07314780800", "website": "http://www.appalto.in/", "rating": 4, "review_count": "", "latitude": 22.6925815, "longitude": 75.7888832, "maps_url": "https://www.google.com/maps/place/?q=place_id:0x3962fd6d5c629411:0xf6c83fcf3257fec1"}, {"place_id": "0x3962fdadc95533b3:0x3c9e4e8a432e4e8b", "name": "Diaspark Infotech", "category": "Software company", "street": "60/2 Babulabh Chand Chajlani Marg Naidunia Parishar", "city": "Babu Lalchand Chajlani Rd", "phone": "07314756000", "website": "http://www.diaspark.com/", "rating": 4.2, "review_count": "", "latitude": 22.7036818, "longitude": 75.84430929999999, "maps_url": "https://www.google.com/maps/place/?q=place_id:0x3962fdadc95533b3:0x3c9e4e8a432e4e8b"}, {"place_id": "0x3962fdad8755290d:0xae9be52a6226ab72", "name": "ThoughtWin IT Solutions Pvt. Ltd.", "category": "Software company", "street": "1 Panna estate", "city": "Kesar Bagh Rd", "phone": "09977069348", "website": "https://www.thoughtwin.com/", "rating": 4.1, "review_count": "", "latitude": 22.699189099999998, "longitude": 75.84473919999999, "maps_url": "https://www.google.com/maps/place/?q=place_id:0x3962fdad8755290d:0xae9be52a6226ab72"}, {"place_id": "0x3962fd115f9bdb93:0x763ee98f66e77650", "name": "Young Decade IT Software Solution", "category": "Software company", "street": "office No 202, 2nd floor, Gracia Heights", "city": "Devi Ahilya Marg", "phone": "07987611372", "website": "http://www.youngdecade.com/", "rating": 4.7, "review_count": "", "latitude": 22.7279596, "longitude": 75.8631723, "maps_url": "https://www.google.com/maps/place/?q=place_id:0x3962fd115f9bdb93:0x763ee98f66e77650"}, {"place_id": "0x3962feaa86d43203:0xff2d44d70da2b47e", "name": "Fealty Technologies", "category": "Software company", "street": "211, Jawahar Nagar Rd", "city": "near DMART", "phone": "09755038393", "website": "https://fealtytechnologies.com/", "rating": 4.9, "review_count": "", "latitude": 22.6694501, "longitude": 75.82391009999999, "maps_url": "https://www.google.com/maps/place/?q=place_id:0x3962feaa86d43203:0xff2d44d70da2b47e"}, {"place_id": "0x3962fd4a61ffaf05:0xc08ff92a0d89d11d", "name": "Top Custom Software Development Company | AI, IoT & IT Solutions \u2013 Hiteshi", "category": "Software company", "street": "8th Floor Crystal IT Park", "city": "Madhya Pradesh 452001", "phone": "07312971133", "website": "https://www.hiteshi.com/", "rating": 3.6, "review_count": "", "latitude": 22.685651999999997, "longitude": 75.872211, "maps_url": "https://www.google.com/maps/place/?q=place_id:0x3962fd4a61ffaf05:0xc08ff92a0d89d11d"}, {"place_id": "0x3962fdf54164d23d:0xc82210a6e7c5c954", "name": "Dcode Infocorp Pvt Ltd.", "category": "Software company", "street": "Atulya IT park", "city": "Aditya Nagar, Bhanwar Kuwa", "phone": "", "website": "", "rating": 4.9, "review_count": "", "latitude": 22.6929136, "longitude": 75.8646807, "maps_url": "https://www.google.com/maps/place/?q=place_id:0x3962fdf54164d23d:0xc82210a6e7c5c954"}, {"place_id": "0x3962fdc6969403b1:0xde0646c82299c250", "name": "IT Spark Technology Pvt. Ltd.", "category": "Software company", "street": "4th Floor 418 Shekhar Central Manoramaganj", "city": "New Palasia", "phone": "09109845654", "website": "http://www.itsparktechnology.com/", "rating": 4.8, "review_count": "", "latitude": 22.722727, "longitude": 75.88707099999999, "maps_url": "https://www.google.com/maps/place/?q=place_id:0x3962fdc6969403b1:0xde0646c82299c250"}, {"place_id": "0x3962f90050be525f:0xa62fbb831ddecfb7", "name": "Nevaloss Technologies Pvt. Ltd.", "category": "Software company", "street": "Mhow, Madhya Pradesh 453331", "city": "", "phone": "09479591781", "website": "https://www.nevalosstechnologies.com/", "rating": 5, "review_count": "", "latitude": 22.62643, "longitude": 75.796882, "maps_url": "https://www.google.com/maps/place/?q=place_id:0x3962f90050be525f:0xa62fbb831ddecfb7"}, {"place_id": "0x3963029cbe7dad9d:0x2702a5ef1ada853d", "name": "Vista IT Solutions Pvt. Ltd.", "category": "Software company", "street": "142-A, New IT Park building", "city": "Electronic Complex, Pardesipura", "phone": "", "website": "http://www.vitspl.com/", "rating": 4, "review_count": "", "latitude": 22.7532702, "longitude": 75.8653544, "maps_url": "https://www.google.com/maps/place/?q=place_id:0x3963029cbe7dad9d:0x2702a5ef1ada853d"}, {"place_id": "0x39631d62557ed507:0x5dc2b67a2ba7971a", "name": "Royal IT Service - IT Company in Indore", "category": "Software company", "street": "426 Scheme No. 114 Part 2", "city": "Anurag Nagar Ln", "phone": "09285192850", "website": "http://royalitservice.com/", "rating": 4.3, "review_count": "", "latitude": 22.7622528, "longitude": 75.9022899, "maps_url": "https://www.google.com/maps/place/?q=place_id:0x39631d62557ed507:0x5dc2b67a2ba7971a"}, {"place_id": "0x3962fd480d635977:0x72f82e2825baa4f3", "name": "Mango IT Solutions", "category": "Software company", "street": "15/3, Old Palasia Rd", "city": "behind sarda house", "phone": "07314046693", "website": "http://www.mangoitsolutions.com/", "rating": 4.3, "review_count": "", "latitude": 22.7276298, "longitude": 75.8888766, "maps_url": "https://www.google.com/maps/place/?q=place_id:0x3962fd480d635977:0x72f82e2825baa4f3"}, {"place_id": "0x3963029b14b59d97:0x2910f9065ca3612e", "name": "SynergyTop Inc", "category": "Software company", "street": "114 Ground Floor, IT Park", "city": "New IT Park Building", "phone": "07879123770", "website": "http://synergytop.com/", "rating": 4.6, "review_count": "", "latitude": 22.7522576, "longitude": 75.865411, "maps_url": "https://www.google.com/maps/place/?q=place_id:0x3963029b14b59d97:0x2910f9065ca3612e"}, {"place_id": "0x3962e35a406f4051:0x73250245ff2a3e50", "name": "TekIT Software Solutions - An IT Staff Augmentation & Managed Services Company", "category": "Software company", "street": "Samradhi Park 5", "city": "Chauhan Nagar", "phone": "09685308585", "website": "https://tekitsolution.com/", "rating": 4.5, "review_count": "", "latitude": 22.7024133, "longitude": 75.9094243, "maps_url": "https://www.google.com/maps/place/?q=place_id:0x3962e35a406f4051:0x73250245ff2a3e50"}, {"place_id": "0x3962fd5eacc70f9d:0x572de0aa6bba1b92", "name": "Varlyq Technologies", "category": "Software company", "street": "4/A", "city": "near Gopur Square", "phone": "09340531409", "website": "https://varlyq.com/", "rating": 5, "review_count": "", "latitude": 22.6838333, "longitude": 75.82929589999999, "maps_url": "https://www.google.com/maps/place/?q=place_id:0x3962fd5eacc70f9d:0x572de0aa6bba1b92"}, {"place_id": "0x39631da0239602ff:0xa13448656bdbfa7a", "name": "Softsnare Technologies | IT Company | Software Company in Indore", "category": "Software company", "street": "R-353", "city": "Sector R, Mahalaxmi Nagar", "phone": "06264741175", "website": "http://www.softsnare.com/", "rating": 4.6, "review_count": "", "latitude": 22.758209299999997, "longitude": 75.9096251, "maps_url": "https://www.google.com/maps/place/?q=place_id:0x39631da0239602ff:0xa13448656bdbfa7a"}, {"place_id": "0x39631dbc5e7d2a29:0x1c8746aae1d098c8", "name": "Logical Soft Tech Private Limited ( Software Development IT Company and Software IT training)", "category": "Software company", "street": "388, PU4", "city": "next to Krozzon Hotel", "phone": "08210251824", "website": "http://logicalsofttech.com/", "rating": 4.3, "review_count": "", "latitude": 22.747576, "longitude": 75.896326, "maps_url": "https://www.google.com/maps/place/?q=place_id:0x39631dbc5e7d2a29:0x1c8746aae1d098c8"}, {"place_id": "0x3962fd7221978859:0xf7a3ac341920f06f", "name": "Parkhya Solutions Pvt. Ltd.", "category": "Software company", "street": "121, Devi Ahilya Marg", "city": "Sahakar Nagar, Snehlataganj", "phone": "", "website": "http://www.parkhya.com/", "rating": 4.4, "review_count": "", "latitude": 22.729563499999998, "longitude": 75.863581, "maps_url": "https://www.google.com/maps/place/?q=place_id:0x3962fd7221978859:0xf7a3ac341920f06f"}, {"place_id": "0x3962fd16be970387:0xc737f343f0e4f9a7", "name": "Top Software Development Company in USA | AI/ML | AI Agent | Gen AI | UXUI | Product Development", "category": "Software company", "street": "Crystal IT Park STP-1, 4th Floor Right Wing Ring Road", "city": "Madhya Pradesh 452001", "phone": "07312973109", "website": "https://47billion.com/", "rating": 4.8, "review_count": "", "latitude": 22.6858591, "longitude": 75.8723211, "maps_url": "https://www.google.com/maps/place/?q=place_id:0x3962fd16be970387:0xc737f343f0e4f9a7"}, {"place_id": "0x3962fd5eacc70f9d:0x572de0aa6bba1b92", "name": "Varlyq Technologies", "category": "Software company", "street": "4/A", "city": "near Gopur Square", "phone": "09340531409", "website": "https://varlyq.com/", "rating": 5, "review_count": "", "latitude": 22.6838333, "longitude": 75.82929589999999, "maps_url": "https://www.google.com/maps/place/?q=place_id:0x3962fd5eacc70f9d:0x572de0aa6bba1b92"}, {"place_id": "0x3962fce49bc36553:0x367dceaf7fdaaf4e", "name": "LMS Solutions (India) Pvt. Ltd.", "category": "Software company", "street": "18, Bhawarkua Main Rd", "city": "Professor Colony", "phone": "07314025567", "website": "http://www.lmsin.com/", "rating": 4.4, "review_count": "", "latitude": 22.694553799999998, "longitude": 75.8668371, "maps_url": "https://www.google.com/maps/place/?q=place_id:0x3962fce49bc36553:0x367dceaf7fdaaf4e"}, {"place_id": "0x3962fd1df61c9d07:0xf71a456db0d3920a", "name": "SyStos Technology", "category": "Software company", "street": "2nd Floor", "city": "VAIKUNTA BUSINESS PARK", "phone": "09893530547", "website": "http://www.systostechnology.com/", "rating": 4.7, "review_count": "", "latitude": 22.6788907, "longitude": 75.8341894, "maps_url": "https://www.google.com/maps/place/?q=place_id:0x3962fd1df61c9d07:0xf71a456db0d3920a"}, {"place_id": "0x3962fdfb0d82c841:0x112ab34055682f9e", "name": "OT Solutions Tech Pvt Ltd", "category": "Corporate office", "street": "180", "city": "Slice 4, Scheme 97, Vip Paraspar Nagar", "phone": "09179943453", "website": "https://www.otsolutionstech.com/", "rating": 4.4, "review_count": "", "latitude": 22.6753617, "longitude": 75.8245575, "maps_url": "https://www.google.com/maps/place/?q=place_id:0x3962fdfb0d82c841:0x112ab34055682f9e"}, {"place_id": "0x3962fc51ba5dcfdf:0xbb33bc70a9e565a4", "name": "HETERIZE INFOTECH PRIVATE LIMITED", "category": "Software company", "street": "infront of SBI Bank", "city": "Heterize Infotech Pvt Ltd", "phone": "07314967340", "website": "http://heterizeinfotech.com/", "rating": 4.2, "review_count": "", "latitude": 22.6816627, "longitude": 75.8409331, "maps_url": "https://www.google.com/maps/place/?q=place_id:0x3962fc51ba5dcfdf:0xbb33bc70a9e565a4"}, {"place_id": "0x3962fce2f55ec489:0x92b2a8119dc6c125", "name": "MINDIII Systems Pvt. Ltd", "category": "Software company", "street": "501-504, Fifth Floor", "city": "Krishna tower", "phone": "09165613316", "website": "https://www.mindiii.com/", "rating": 4, "review_count": "", "latitude": 22.7051394, "longitude": 75.9090727, "maps_url": "https://www.google.com/maps/place/?q=place_id:0x3962fce2f55ec489:0x92b2a8119dc6c125"}, {"place_id": "0x3962fd558cb68b8f:0xa5df2c7d0568e24", "name": "BestPeers", "category": "Software company", "street": "Bestpeers InfoSystem Pvt. Ltd. 142-A, First Floor, New IT Park Building", "city": "Electronic Complex, Pardesipura", "phone": "07314984840", "website": "https://www.bestpeers.com/", "rating": 4.2, "review_count": "", "latitude": 22.7533355, "longitude": 75.86544339999999, "maps_url": "https://www.google.com/maps/place/?q=place_id:0x3962fd558cb68b8f:0xa5df2c7d0568e24"}, {"place_id": "0x3962fd144b8f674d:0x368e971cd0aedabc", "name": "AM Webtech Pvt Ltd.", "category": "Software company", "street": "BCC House", "city": "8/5/5", "phone": "08448449003", "website": "https://amwebtech.com/", "rating": 4.2, "review_count": "", "latitude": 22.7156013, "longitude": 75.8855232, "maps_url": "https://www.google.com/maps/place/?q=place_id:0x3962fd144b8f674d:0x368e971cd0aedabc"}, {"place_id": "0x3962fd19c553ee35:0x764cedb2503060d6", "name": "ThinkDebug Indore", "category": "Software company", "street": "301,302", "city": "Shanti Corporate 116", "phone": "09098002268", "website": "https://thinkdebug.com/", "rating": 4.9, "review_count": "", "latitude": 22.702656299999997, "longitude": 75.87068699999999, "maps_url": "https://www.google.com/maps/place/?q=place_id:0x3962fd19c553ee35:0x764cedb2503060d6"}, {"place_id": "0x3962fd47fd6da719:0x27b869ecdc06d81", "name": "Impetus Technologies India Pvt. Ltd.", "category": "Software company", "street": "Sarda House", "city": "24-B", "phone": "07314269300", "website": "http://www.impetus.com/", "rating": 4.5, "review_count": "", "latitude": 22.7274711, "longitude": 75.888379, "maps_url": "https://www.google.com/maps/place/?q=place_id:0x3962fd47fd6da719:0x27b869ecdc06d81"}, {"place_id": "0x3962fd56ce61414d:0xd295f56d54709f92", "name": "GraspCorn Software Solution Pvt. Ltd.", "category": "Software company", "street": "203, Jawahar Nagar Rd", "city": "near DMart Square", "phone": "09770338649", "website": "https://graspcorn.com/", "rating": 4.7, "review_count": "", "latitude": 22.6690532, "longitude": 75.82387729999999, "maps_url": "https://www.google.com/maps/place/?q=place_id:0x3962fd56ce61414d:0xd295f56d54709f92"}, {"place_id": "0x3962fd319c598969:0xa4e99d10e653ecb8", "name": "Shanti Infosoft LLP - AI / Web and App Design And Development Company", "category": "Software company", "street": "1st - 3rd floor PU4", "city": "Plot no 70, Vijay Nagar Square", "phone": "09981225000", "website": "https://shantiinfosoft.com/", "rating": 4.7, "review_count": "", "latitude": 22.7437818, "longitude": 75.89660649999999, "maps_url": "https://www.google.com/maps/place/?q=place_id:0x3962fd319c598969:0xa4e99d10e653ecb8"}, {"place_id": "0x3962fd3785155555:0x839d1e33ed814607", "name": "Abut Technology", "category": "Software company", "street": "Badwani plaza Building", "city": "19/2", "phone": "08839753153", "website": "http://www.abuttechnology.com/", "rating": 4.9, "review_count": "", "latitude": 22.7241476, "longitude": 75.88906949999999, "maps_url": "https://www.google.com/maps/place/?q=place_id:0x3962fd3785155555:0x839d1e33ed814607"}, {"place_id": "0x39625774032b2dd1:0x101c44ef5a877752", "name": "Varcas Nexgen | Digital Marketing & IT Services Company", "category": "Software company", "street": "AL163", "city": "H.B Colony", "phone": "08602758854", "website": "https://www.varcasnexgen.com/", "rating": 5, "review_count": "", "latitude": 22.599356999999998, "longitude": 75.68772539999999, "maps_url": "https://www.google.com/maps/place/?q=place_id:0x39625774032b2dd1:0x101c44ef5a877752"}, {"place_id": "0x3962fc41ca24cfd1:0xaf6e0a08362244ec", "name": "Kiaan Technology", "category": "Software company", "street": "2341/e", "city": "Sector E, Sudama Nagar", "phone": "09752100980", "website": "http://kiaantechnology.com/", "rating": 4.6, "review_count": "", "latitude": 22.6886849, "longitude": 75.828512, "maps_url": "https://www.google.com/maps/place/?q=place_id:0x3962fc41ca24cfd1:0xaf6e0a08362244ec"}, {"place_id": "0x39630396f8f29591:0x89941c1df2cc0c2e", "name": "Cerbosys Technologies Private Limited | Enterprise Solutions & IT Consulting", "category": "Software company", "street": "Trade Center", "city": "M 24, Jain Mandir Rd", "phone": "", "website": "https://www.cerbosys.com/", "rating": 4.7, "review_count": "", "latitude": 22.7215173, "longitude": 75.8831027, "maps_url": "https://www.google.com/maps/place/?q=place_id:0x39630396f8f29591:0x89941c1df2cc0c2e"}, {"place_id": "0x3962fd470f1c8cf3:0x7fc7417560117321", "name": "Maverick Console Services Pvt. Ltd.", "category": "Software company", "street": "MG Road 109 , Royal Ratan Building", "city": "Madhya Pradesh 452007", "phone": "08889785888", "website": "http://www.maverickconsole.com/", "rating": 4.8, "review_count": "", "latitude": 22.7195626, "longitude": 75.8577153, "maps_url": "https://www.google.com/maps/place/?q=place_id:0x3962fd470f1c8cf3:0x7fc7417560117321"}, {"place_id": "0x39630290e555553f:0x3e3f56427ca41603", "name": "Software Company Indore Msorasys", "category": "Software company", "street": "6 radhika society , Scheme No 54", "city": "DDU Nagar, Sukhliya", "phone": "09630186161", "website": "", "rating": 5, "review_count": "", "latitude": 22.7615931, "longitude": 75.8692351, "maps_url": "https://www.google.com/maps/place/?q=place_id:0x39630290e555553f:0x3e3f56427ca41603"}, {"place_id": "0x396303818a953817:0xf67c56bdd73dbf71", "name": "InfiminTus Technologies - Website Design, Application and Software Development IT Company", "category": "Website designer", "street": "2nd Floor", "city": "Chetak Chamber", "phone": "09754316154", "website": "https://infimintustech.com/", "rating": 4.4, "review_count": "", "latitude": 22.7128428, "longitude": 75.8758618, "maps_url": "https://www.google.com/maps/place/?q=place_id:0x396303818a953817:0xf67c56bdd73dbf71"}, {"place_id": "0x3962fcfd2ac6c2f3:0x84bcc6d5601300ef", "name": "TechInfini Solutions Pvt Ltd", "category": "Software company", "street": "Airen Heights", "city": "402", "phone": "09302974394", "website": "https://techinfini.in/", "rating": 4.3, "review_count": "", "latitude": 22.745121299999997, "longitude": 75.89222699999999, "maps_url": "https://www.google.com/maps/place/?q=place_id:0x3962fcfd2ac6c2f3:0x84bcc6d5601300ef"}, {"place_id": "0x3962fd71266aaa83:0x82398caa17930a40", "name": "Octavian InfoTech LLP", "category": "Software company", "street": "A 41 Ayodhya Puri", "city": "Kodriya", "phone": "09977741168", "website": "https://www.octavianinfotech.com/", "rating": 5, "review_count": "", "latitude": 22.537258599999998, "longitude": 75.7726136, "maps_url": "https://www.google.com/maps/place/?q=place_id:0x3962fd71266aaa83:0x82398caa17930a40"}, {"place_id": "0x3962fd9a08cbfebf:0x3291a626ce9c55fa", "name": "RISHUS INFOTECH", "category": "Software company", "street": "office No. 104", "city": "Samiksha Landmark", "phone": "06264601696", "website": "", "rating": 4.3, "review_count": "", "latitude": 22.6785246, "longitude": 75.8514893, "maps_url": "https://www.google.com/maps/place/?q=place_id:0x3962fd9a08cbfebf:0x3291a626ce9c55fa"}, {"place_id": "0x3962fda884647b9d:0xbab5f7ae3cc412d2", "name": "Hokrix Technologies | Blockchain & AI Development Company", "category": "Software company", "street": "Crystal It Park", "city": "Rajiv Gandhi Circle", "phone": "09993438344", "website": "https://hokrix.com/", "rating": 5, "review_count": "", "latitude": 22.685824, "longitude": 75.87226629999999, "maps_url": "https://www.google.com/maps/place/?q=place_id:0x3962fda884647b9d:0xbab5f7ae3cc412d2"}, {"place_id": "0x3962fce358d788b1:0x356c2496ecf853f5", "name": "qualwebs", "category": "Software company", "street": "203, 9930 Spaces 4, Mangal Nagar, Near Rajeev Gandhi Square", "city": "AB Rd", "phone": "08827796669", "website": "http://www.qualwebs.com/", "rating": 4.5, "review_count": "", "latitude": 22.6862592, "longitude": 75.8598803, "maps_url": "https://www.google.com/maps/place/?q=place_id:0x3962fce358d788b1:0x356c2496ecf853f5"}, {"place_id": "0x3962e2c99432dc5b:0x856ffb203358138", "name": "Golden Eagle IT Technologies", "category": "Software company", "street": "4th Floor", "city": "Plot No. 8", "phone": "09584309000", "website": "https://goldeneagle.ai/", "rating": 4.2, "review_count": "", "latitude": 22.747516599999997, "longitude": 75.8972604, "maps_url": "https://www.google.com/maps/place/?q=place_id:0x3962e2c99432dc5b:0x856ffb203358138"}, {"place_id": "0x3962fd23ffffff91:0x4f12a71cfd1a9c6f", "name": "Samyotech Software Solutions Pvt. Ltd.", "category": "Software company", "street": "1st Floor Pramukh Plaza", "city": "near Sajan Prabha Garden", "phone": "07869999639", "website": "http://samyotech.com/", "rating": 4.5, "review_count": "", "latitude": 22.7496656, "longitude": 75.89972829999999, "maps_url": "https://www.google.com/maps/place/?q=place_id:0x3962fd23ffffff91:0x4f12a71cfd1a9c6f"}, {"place_id": "0x3962fce00db324a7:0xe0bfa4e3457de59c", "name": "Yuvasoft Solutions Private Limited", "category": "Software company", "street": "Pukhraj Corporate", "city": "715&801", "phone": "07314089013", "website": "http://www.yuvasoftech.com/", "rating": 4.1, "review_count": "", "latitude": 22.7007954, "longitude": 75.87572469999999, "maps_url": "https://www.google.com/maps/place/?q=place_id:0x3962fce00db324a7:0xe0bfa4e3457de59c"}, {"place_id": "0x3962fd0bbd8c165d:0xf3bbc58bdb8c77ca", "name": "Tcs victor building ITPL", "category": "Software company", "street": "3rd Floor, Plot Number 359", "city": "Scheme 54 PU4", "phone": "07314050227", "website": "http://www.idealittechno.com/", "rating": 3.7, "review_count": "", "latitude": 22.747061, "longitude": 75.89609899999999, "maps_url": "https://www.google.com/maps/place/?q=place_id:0x3962fd0bbd8c165d:0xf3bbc58bdb8c77ca"}, {"place_id": "0x3962fce2079461c5:0xc4b4322623b79034", "name": "GlobalStack IT Solutions", "category": "Software company", "street": "Vikram Tower", "city": "408,", "phone": "", "website": "", "rating": 4.9, "review_count": "", "latitude": 22.7011969, "longitude": 75.8702004, "maps_url": "https://www.google.com/maps/place/?q=place_id:0x3962fce2079461c5:0xc4b4322623b79034"}, {"place_id": "0x3962fd9b07e5774d:0x2d57d4ac2d7d0645", "name": "Developer Bazaar Technologies LLP", "category": "Software company", "street": "401, Infront of", "city": "Sukhmani Apartment, I - Bus Stop", "phone": "07415887200", "website": "https://www.developerbazaar.com/", "rating": 4.8, "review_count": "", "latitude": 22.689997599999998, "longitude": 75.8640736, "maps_url": "https://www.google.com/maps/place/?q=place_id:0x3962fd9b07e5774d:0x2d57d4ac2d7d0645"}, {"place_id": "0x396303d5a2930b45:0x41a77a2891ee6f65", "name": "Srb IT Solution", "category": "Software company", "street": "Bhawrasla", "city": "Indore, Madhya Pradesh 453555", "phone": "08109995550", "website": "https://srbitsolution.com/", "rating": 4.8, "review_count": "", "latitude": 22.795370899999998, "longitude": 75.8621328, "maps_url": "https://www.google.com/maps/place/?q=place_id:0x396303d5a2930b45:0x41a77a2891ee6f65"}, {"place_id": "0x3962fcde3d3ffaff:0x253b0cb7c6f4c785", "name": "Codezilla Technology & Consultancy Pvt. Ltd.", "category": "Software company", "street": "Plot no 92, Above of iWish showroom", "city": "Sapna Sangeeta Rd", "phone": "07314945411", "website": "https://codezilla.io/", "rating": 4.6, "review_count": "", "latitude": 22.7005084, "longitude": 75.86893839999999, "maps_url": "https://www.google.com/maps/place/?q=place_id:0x3962fcde3d3ffaff:0x253b0cb7c6f4c785"}, {"place_id": "0x3962fd2b816f11f5:0x7c4090c19212f021", "name": "TECAI Software & Automation Company in Indore", "category": "Software company", "street": "3rd Floor", "city": "Shubham Corporate", "phone": "07024031779", "website": "https://tecai.in/", "rating": 5, "review_count": "", "latitude": 22.699921399999997, "longitude": 75.8674451, "maps_url": "https://www.google.com/maps/place/?q=place_id:0x3962fd2b816f11f5:0x7c4090c19212f021"}, {"place_id": "0x3962fd457f5260fd:0xcd2c51a579c7db5", "name": "Codiant Software Technologies", "category": "Software company", "street": "101", "city": "Bansi Trade Centre", "phone": "07314032967", "website": "https://codiant.com/", "rating": 4.5, "review_count": "", "latitude": 22.7236461, "longitude": 75.8816631, "maps_url": "https://www.google.com/maps/place/?q=place_id:0x3962fd457f5260fd:0xcd2c51a579c7db5"}, {"place_id": "0x3962fd380ebca3b3:0x9ccc6ea708a0fa2c", "name": "GraffersID - IT Staff Augmentation Company", "category": "Software company", "street": "816 Shekhar Central Palasia", "city": "Square", "phone": "07314915234", "website": "https://graffersid.com/?utm_source=Google+Organic&utm_medium=gmb&utm_campaign=home", "rating": 4.3, "review_count": "", "latitude": 22.7227168, "longitude": 75.8871544, "maps_url": "https://www.google.com/maps/place/?q=place_id:0x3962fd380ebca3b3:0x9ccc6ea708a0fa2c"}, {"place_id": "0x3962fcf12e5fd331:0x3d10f773a83db31e", "name": "InfoGrains", "category": "Software company", "street": "407, Atulya IT Park", "city": "Bhawarkua Main Rd", "phone": "", "website": "https://infograins.com/", "rating": 4.4, "review_count": "", "latitude": 22.6866949, "longitude": 75.87149699999999, "maps_url": "https://www.google.com/maps/place/?q=place_id:0x3962fcf12e5fd331:0x3d10f773a83db31e"}, {"place_id": "0x3962fce37de1d219:0xf07af931ebceaafd", "name": "Jinpushp Infotech Indore || IT Company Indore || Website", "category": "Software company", "street": "Plot No 408,Saklecha Building", "city": "Amitesh Nagar, Krishi Mandi", "phone": "07566043133", "website": "https://jinpushpinfotech.com/", "rating": 4.9, "review_count": "", "latitude": 22.680349099999997, "longitude": 75.8519244, "maps_url": "https://www.google.com/maps/place/?q=place_id:0x3962fce37de1d219:0xf07af931ebceaafd"}, {"place_id": "0x396301dfdd265089:0x8d426dc410b817f2", "name": "Aucwini Technologies", "category": "Software company", "street": "Satpuda Parishar", "city": "B-02", "phone": "", "website": "https://www.aucwinitechnologies.com/", "rating": 4.8, "review_count": "", "latitude": 22.7436178, "longitude": 75.793398, "maps_url": "https://www.google.com/maps/place/?q=place_id:0x396301dfdd265089:0x8d426dc410b817f2"}, {"place_id": "0x3962e2cbd98f0bf7:0xbafbbde339deec8a", "name": "i-SOFTZONE - Software Development Company", "category": "Software company", "street": "Shagun Arcade", "city": "Vijay Nagar Square", "phone": "07415664456", "website": "http://www.isoftzone.com/", "rating": 4, "review_count": "", "latitude": 22.749023299999998, "longitude": 75.8953915, "maps_url": "https://www.google.com/maps/place/?q=place_id:0x3962e2cbd98f0bf7:0xbafbbde339deec8a"}, {"place_id": "0x3962fd558df1e307:0xc681e51830ad104c", "name": "Advantal Technologies Ltd | Product Engineering Firm | Global OEM Solutions Provider", "category": "Software company", "street": "17-A", "city": "Electronic Complex, Pardesipura", "phone": "07314037720", "website": "https://advantaltechnologies.com/", "rating": 4, "review_count": "", "latitude": 22.75162, "longitude": 75.86542949999999, "maps_url": "https://www.google.com/maps/place/?q=place_id:0x3962fd558df1e307:0xc681e51830ad104c"}, {"place_id": "0x3962fdf63c5a16a7:0x36aa8fadb45e2bcf", "name": "Onports Pvt. Ltd. | Software Development Company", "category": "Software company", "street": "Aslam estate", "city": "31", "phone": "09399390985", "website": "https://www.onports.in/", "rating": 5, "review_count": "", "latitude": 22.707174199999997, "longitude": 75.80335769999999, "maps_url": "https://www.google.com/maps/place/?q=place_id:0x3962fdf63c5a16a7:0x36aa8fadb45e2bcf"}, {"place_id": "0x3962e2d6a52db2d7:0x4c94bdd22b5d6da1", "name": "Ignatiuz", "category": "Software company", "street": "Atulya IT Park IT Park Square", "city": "501", "phone": "09993018836", "website": "https://ignatiuz.com/", "rating": 4.2, "review_count": "", "latitude": 22.686808199999998, "longitude": 75.871459, "maps_url": "https://www.google.com/maps/place/?q=place_id:0x3962e2d6a52db2d7:0x4c94bdd22b5d6da1"}, {"place_id": "0x3962f9d55308990b:0xb6ebe2e177c52632", "name": "Prodigitaly Technologies", "category": "Software company", "street": "L-31 Supercity , Opposite Shanti Nagar ,Mhowgaon", "city": "Dr. Ambedkar Nagar, Madhya Pradesh 453441", "phone": "09877530727", "website": "https://prodigitaly.com/", "rating": 5, "review_count": "", "latitude": 22.5524372, "longitude": 75.7565273, "maps_url": "https://www.google.com/maps/place/?q=place_id:0x3962f9d55308990b:0xb6ebe2e177c52632"}, {"place_id": "0x396255c55aec797b:0xdb285abaf0007d02", "name": "Sawariya Computer", "category": "Computer support and services", "street": "A - 432 Main Road, Chirakhan Rd", "city": "Chirakhan, Indore, Madhya Pradesh 453001", "phone": "", "website": "", "rating": "", "review_count": "", "latitude": 22.6400202, "longitude": 75.7011109, "maps_url": "https://www.google.com/maps/place/?q=place_id:0x396255c55aec797b:0xdb285abaf0007d02"}, {"place_id": "0x3962ffd473a40201:0xa76c73231d4845e7", "name": "Medibest TechServ LLP", "category": "Software company", "street": "303", "city": "IT Park Center IT Park", "phone": "09171341515", "website": "https://medibest.in/", "rating": 4.6, "review_count": "", "latitude": 22.6900619, "longitude": 75.7868108, "maps_url": "https://www.google.com/maps/place/?q=place_id:0x3962ffd473a40201:0xa76c73231d4845e7"}, {"place_id": "0x3962fd5f08d732d1:0x1a5c3ac4c26c1ace", "name": "BridgeFix Technology Private Limited", "category": "Software company", "street": "389-390", "city": "Vijay Nagar, Scheme 54 PU4", "phone": "09425960946", "website": "", "rating": 4.3, "review_count": "", "latitude": 22.7475119, "longitude": 75.8966706, "maps_url": "https://www.google.com/maps/place/?q=place_id:0x3962fd5f08d732d1:0x1a5c3ac4c26c1ace"}, {"place_id": "0x39631d55cb5efbc3:0xfbf17bbed2c95ca5", "name": "SoftGetix - IT Staff Augmentation Services", "category": "Software company", "street": "519", "city": "Shagun Tower", "phone": "07314002699", "website": "https://softgetix.com/", "rating": 4.1, "review_count": "", "latitude": 22.7497081, "longitude": 75.89555829999999, "maps_url": "https://www.google.com/maps/place/?q=place_id:0x39631d55cb5efbc3:0xfbf17bbed2c95ca5"}, {"place_id": "0x3962fd569c206d9f:0x40de67f329c8afd7", "name": "Canopus Infosystems Private Limited", "category": "Software company", "street": "Office no. 203, 2nd Floor", "city": "Princes Business Skypark", "phone": "07312551963", "website": "https://www.canopusinfosystems.com/", "rating": 3.8, "review_count": "", "latitude": 22.7458507, "longitude": 75.8930609, "maps_url": "https://www.google.com/maps/place/?q=place_id:0x3962fd569c206d9f:0x40de67f329c8afd7"}, {"place_id": "0x3962fcfac1eaaaab:0x4e225b6d7fe920b7", "name": "Reinforce Software Solutions Pvt. Ltd.", "category": "Software company", "street": "Sai Ram Plaza", "city": "AB Rd", "phone": "07314263617", "website": "http://reinforcewebsol.in/", "rating": 4.5, "review_count": "", "latitude": 22.685712, "longitude": 75.85970499999999, "maps_url": "https://www.google.com/maps/place/?q=place_id:0x3962fcfac1eaaaab:0x4e225b6d7fe920b7"}, {"place_id": "0x396302ab0db87d2d:0x21904cb1ee649626", "name": "Five Exceptions Software Solutions", "category": "Software company", "street": "301, Gravity Tower, Roshan Singh Bhandari Rd", "city": "Janjeerwala Square", "phone": "07314002593", "website": "http://5exceptions.com/", "rating": 4.5, "review_count": "", "latitude": 22.7256324, "longitude": 75.8811552, "maps_url": "https://www.google.com/maps/place/?q=place_id:0x396302ab0db87d2d:0x21904cb1ee649626"}, {"place_id": "0x7a201eaff9d4723:0x40b0fc55a184e033", "name": "Krishnaithub & Solutions Pvt. Ltd.", "category": "Software company", "street": "194", "city": "Greater Vaishali Nagar", "phone": "09202997587", "website": "https://www.krishnaithub.in/", "rating": 4.8, "review_count": "", "latitude": 22.682643199999998, "longitude": 75.8283581, "maps_url": "https://www.google.com/maps/place/?q=place_id:0x7a201eaff9d4723:0x40b0fc55a184e033"}, {"place_id": "0x3962fc3b6d616681:0x8e398fd9971c46b8", "name": "ControlF5 Website Design, Mobile App & Shopify Ecommerce Solutions", "category": "Software company", "street": "1184 B, CAT ROAD", "city": "Near Hawa Bungalow, Vidur Nagar", "phone": "09755524635", "website": "https://www.controlf5.in/", "rating": 4.8, "review_count": "", "latitude": 22.6805287, "longitude": 75.8206881, "maps_url": "https://www.google.com/maps/place/?q=place_id:0x3962fc3b6d616681:0x8e398fd9971c46b8"}, {"place_id": "0x3962fd7f4f8baf87:0x598f75f3363bc558", "name": "Aimfortech - Software | SaaS | Web | E-Commerce Gaming App Development Company in India", "category": "Software company", "street": "103, Greater Kailash Road", "city": "above Nafees Restaurant", "phone": "07314066773", "website": "https://www.aimfortech.com/", "rating": 5, "review_count": "", "latitude": 22.7257765, "longitude": 75.8878778, "maps_url": "https://www.google.com/maps/place/?q=place_id:0x3962fd7f4f8baf87:0x598f75f3363bc558"}, {"place_id": "0x3962fd1775834153:0x228cd29ca22a8bef", "name": "NCS^", "category": "Software company", "street": "NCS^ House, 80", "city": "Jaora Compound", "phone": "07313505885", "website": "http://www.nenosystems.com/", "rating": 4.7, "review_count": "", "latitude": 22.711851199999998, "longitude": 75.877246, "maps_url": "https://www.google.com/maps/place/?q=place_id:0x3962fd1775834153:0x228cd29ca22a8bef"}, {"place_id": "0x3962ff31138e4c33:0x825459bc8e5e68bb", "name": "Oshnic IT Solutions Pvt. Ltd. Indore", "category": "Corporate office", "street": "Nainod Village, Nainod", "city": "Indore, Madhya Pradesh 453112", "phone": "09039355510", "website": "https://www.oshnicit.com/", "rating": 5, "review_count": "", "latitude": 22.733524799999998, "longitude": 75.7776511, "maps_url": "https://www.google.com/maps/place/?q=place_id:0x3962ff31138e4c33:0x825459bc8e5e68bb"}, {"place_id": "0x3962fcf129b6ad6b:0x2f740b60bcda116d", "name": "Gems Essence Infotech Pvt. Ltd.", "category": "Software company", "street": "First Floor", "city": "2570", "phone": "07314969817", "website": "https://www.gemsessence.com/", "rating": 4.6, "review_count": "", "latitude": 22.6883806, "longitude": 75.82845669999999, "maps_url": "https://www.google.com/maps/place/?q=place_id:0x3962fcf129b6ad6b:0x2f740b60bcda116d"}, {"place_id": "0x3962fc41af45f37f:0xc0ce0f727adb409e", "name": "Workholics InfoCorp", "category": "Software company", "street": "278, 2nd Floor", "city": "near Gopur Square", "phone": "08989495923", "website": "", "rating": 4.3, "review_count": "", "latitude": 22.6848141, "longitude": 75.82941699999999, "maps_url": "https://www.google.com/maps/place/?q=place_id:0x3962fc41af45f37f:0xc0ce0f727adb409e"}, {"place_id": "0x3963029cb1d6af1f:0xcf1bea3e7e7a08bd", "name": "Engineer Master Solutions Pvt. Ltd. | Software Company | Website and Mobile app Development", "category": "Software company", "street": "276", "city": "behind Malhar Mega Mall", "phone": "07314980455", "website": "http://www.engineermaster.in/", "rating": 4.4, "review_count": "", "latitude": 22.745530499999997, "longitude": 75.89538809999999, "maps_url": "https://www.google.com/maps/place/?q=place_id:0x3963029cb1d6af1f:0xcf1bea3e7e7a08bd"}, {"place_id": "0x3962fd1640000001:0xc84268147247332c", "name": "Cyber Infrastructure (P) Ltd", "category": "Software company", "street": "142 A", "city": "Electronic Complex, Pardesipura", "phone": "07313564000", "website": "https://www.cisin.com/", "rating": 4, "review_count": "", "latitude": 22.7533372, "longitude": 75.86522389999999, "maps_url": "https://www.google.com/maps/place/?q=place_id:0x3962fd1640000001:0xc84268147247332c"}, {"place_id": "0x3962fceefff1c439:0xb0fa7789cf76d47f", "name": "SSV Technologies", "category": "Software company", "street": "26, AB Rd, Scheme 54 PU4", "city": "Vijay Nagar", "phone": "09039063936", "website": "https://ssvtechnologies.in/", "rating": 4, "review_count": "", "latitude": 22.7454435, "longitude": 75.8965633, "maps_url": "https://www.google.com/maps/place/?q=place_id:0x3962fceefff1c439:0xb0fa7789cf76d47f"}, {"place_id": "0x3962fdb5c2380727:0x859cb1b40afbe442", "name": "Samaritan InfoTech", "category": "Software company", "street": "Malwa Tower", "city": "Square", "phone": "09993671402", "website": "https://www.samaritaninfotech.com/", "rating": 4.6, "review_count": "", "latitude": 22.7254206, "longitude": 75.8862863, "maps_url": "https://www.google.com/maps/place/?q=place_id:0x3962fdb5c2380727:0x859cb1b40afbe442"}, {"place_id": "0x3963021c0be40a73:0x551def50b4297bcf", "name": "Infosys Indore", "category": "Software company", "street": "Near Super Corridor, Scheme No. 151 and 169B", "city": "Super Corridor Rd", "phone": "07314747200", "website": "https://www.infosys.com/", "rating": 4.4, "review_count": "", "latitude": 22.761215, "longitude": 75.8130511, "maps_url": "https://www.google.com/maps/place/?q=place_id:0x3963021c0be40a73:0x551def50b4297bcf"}, {"place_id": "0x3962fd4b09bfe885:0x3d265575f7a4e0ec", "name": "Mactosys | Web Development & Design | Mobile App Development | Digital Marketing Company", "category": "Software company", "street": "502", "city": "Airen Heights", "phone": "07314964875", "website": "http://www.mactosys.com/", "rating": 3.8, "review_count": "", "latitude": 22.745033, "longitude": 75.8921697, "maps_url": "https://www.google.com/maps/place/?q=place_id:0x3962fd4b09bfe885:0x3d265575f7a4e0ec"}, {"place_id": "0x3962fd16c6da7fff:0xa16ada7dbc36f449", "name": "Hvantage Tech Solutions Pvt. Ltd.", "category": "Software company", "street": "509 block B corporate house 5th floor, RNT Marg", "city": "Indore, Madhya Pradesh 452001", "phone": "07314074459", "website": "https://hvantagetechnologies.com/", "rating": 3.2, "review_count": "", "latitude": 22.7172125, "longitude": 75.87177729999999, "maps_url": "https://www.google.com/maps/place/?q=place_id:0x3962fd16c6da7fff:0xa16ada7dbc36f449"}, {"place_id": "0x3962f90d10bd7993:0xe34f9616e2e32c5e", "name": "Welloft IT Solutions", "category": "Website designer", "street": "301 Love App", "city": "SIMROL ROAD Sai Shardha colony Love apartment", "phone": "08819832755", "website": "https://wellsoft.in/", "rating": 5, "review_count": "", "latitude": 22.556339599999998, "longitude": 75.7805716, "maps_url": "https://www.google.com/maps/place/?q=place_id:0x3962f90d10bd7993:0xe34f9616e2e32c5e"}, {"place_id": "0x3962fd76fcd4fde7:0x94ae8da5dd58cbbf", "name": "Gugli", "category": "Software company", "street": "3rd Floor", "city": "Atulya IT Park", "phone": "09479788257", "website": "https://www.gugli.in/", "rating": 5, "review_count": "", "latitude": 22.6866925, "longitude": 75.8713288, "maps_url": "https://www.google.com/maps/place/?q=place_id:0x3962fd76fcd4fde7:0x94ae8da5dd58cbbf"}, {"place_id": "0x3962fce3233cac31:0x92f826f70c7c5a66", "name": "SB Infotech", "category": "Software company", "street": "604, Narendra Tiwari Marg", "city": "near SUDAMA DWAR -A", "phone": "07314932442", "website": "http://www.sbinfotech.org/", "rating": 3.9, "review_count": "", "latitude": 22.6955173, "longitude": 75.8354308, "maps_url": "https://www.google.com/maps/place/?q=place_id:0x3962fce3233cac31:0x92f826f70c7c5a66"}, {"place_id": "0x3962fcaeeb0bfc57:0xd01a3d02608728f1", "name": "VYNOT", "category": "Software company", "street": "33-34 Shree, Khandwa Road", "city": "Krishna Ave phase 2", "phone": "", "website": "https://vynot.co/", "rating": 4.8, "review_count": "", "latitude": 22.664025799999997, "longitude": 75.8924134, "maps_url": "https://www.google.com/maps/place/?q=place_id:0x3962fcaeeb0bfc57:0xd01a3d02608728f1"}, {"place_id": "0x3962fd5eec2cf6a9:0xe1b5f67b53e20d06", "name": "Technoecorp Service Private Limited", "category": "Software company", "street": "C 180 chhatra Chhaya sector 01 Pithampur", "city": "Distt", "phone": "", "website": "http://www.technoecorp.com/", "rating": 4.9, "review_count": "", "latitude": 22.6052993, "longitude": 75.6858365, "maps_url": "https://www.google.com/maps/place/?q=place_id:0x3962fd5eec2cf6a9:0xe1b5f67b53e20d06"}, {"place_id": "0x396303daaf9afaff:0x385c991e7d2f93a0", "name": "Sumbark IT Solutions Pvt Ltd", "category": "Software company", "street": "Sree Ram Enclave", "city": "Kumedi", "phone": "09752353004", "website": "http://sumbark.com/", "rating": 4.4, "review_count": "", "latitude": 22.779533699999998, "longitude": 75.8601796, "maps_url": "https://www.google.com/maps/place/?q=place_id:0x396303daaf9afaff:0x385c991e7d2f93a0"}, {"place_id": "0x3962fce207f10061:0xe8234aa87cb88aad", "name": "Winlancer Technologies", "category": "Software company", "street": "619", "city": "Shekhar central", "phone": "09926372815", "website": "http://www.winlancers.com/", "rating": 4.6, "review_count": "", "latitude": 22.722727, "longitude": 75.88707099999999, "maps_url": "https://www.google.com/maps/place/?q=place_id:0x3962fce207f10061:0xe8234aa87cb88aad"}, {"place_id": "0x3962fcce471be92d:0xd56d849f777985e6", "name": "Systango", "category": "Software company", "street": "Crystal IT Park, Building 1, 3rd Floor", "city": "Ring Rd", "phone": "07312971030", "website": "https://www.systango.com/", "rating": 4.4, "review_count": "", "latitude": 22.685488199999998, "longitude": 75.872337, "maps_url": "https://www.google.com/maps/place/?q=place_id:0x3962fcce471be92d:0xd56d849f777985e6"}, {"place_id": "0x3962fd16f9e66369:0x2f7da749193be981", "name": "Ideavate Solutions", "category": "Software company", "street": "306, Silver Sanchora Castle", "city": "RNT Marg", "phone": "07314025351", "website": "http://www.ideavate.com/", "rating": 4.4, "review_count": "", "latitude": 22.716825, "longitude": 75.873437, "maps_url": "https://www.google.com/maps/place/?q=place_id:0x3962fd16f9e66369:0x2f7da749193be981"}, {"place_id": "0x39630328ba695d7b:0x792447e6ff8a135d", "name": "Covetus Technologies Pvt Ltd", "category": "Software company", "street": "256, Scheme No 78 - III", "city": "Scheme Number 78, Vijay Nagar, Part II, Scheme 78, Vijay Nagar", "phone": "07314200152", "website": "https://www.covetus.com/", "rating": 3.9, "review_count": "", "latitude": 22.763654799999998, "longitude": 75.8880435, "maps_url": "https://www.google.com/maps/place/?q=place_id:0x39630328ba695d7b:0x792447e6ff8a135d"}, {"place_id": "0x3962fdb4c9f1bd5b:0x4b4dcdd123d7c2e3", "name": "P&P Infotech Applying Solutions", "category": "Software company", "street": "137, Gopur Square", "city": "Ahilya Nagar", "phone": "07049037000", "website": "http://www.pnpuniverse.com/", "rating": 4.1, "review_count": "", "latitude": 22.6833803, "longitude": 75.83069379999999, "maps_url": "https://www.google.com/maps/place/?q=place_id:0x3962fdb4c9f1bd5b:0x4b4dcdd123d7c2e3"}, {"place_id": "0x396303ca0b26ad1b:0x42ef155b446fd473", "name": "Yash Technologies IT Park, Super Corridor, Indore", "category": "Corporate office", "street": "Indore, Madhya Pradesh 453112", "city": "", "phone": "07316754444", "website": "https://www.yash.com/", "rating": 4.4, "review_count": "", "latitude": 22.7563125, "longitude": 75.82543749999999, "maps_url": "https://www.google.com/maps/place/?q=place_id:0x396303ca0b26ad1b:0x42ef155b446fd473"}, {"place_id": "0x3962e3d56c170eb1:0x876e329535a3531d", "name": "AG TECHNOLOGIES, Software Company in Indore", "category": "Software company", "street": "28, Shree Krishna Vihar Colony, Near Shree Chintaman Hanuman Mandir, Opp Malviya Petrol Pump, Radisson Square", "city": "Madhya Pradesh 452016", "phone": "", "website": "", "rating": 5, "review_count": "", "latitude": 22.744705999999997, "longitude": 75.910692, "maps_url": "https://www.google.com/maps/place/?q=place_id:0x3962e3d56c170eb1:0x876e329535a3531d"}, {"place_id": "0x3962fda9638f76d3:0xf46aa7d34cc4b2a6", "name": "Blockchain & Mobile App Development Company - Virtual Height IT Services Pvt. Ltd.", "category": "Software company", "street": "Shekhar central", "city": "719, AB Rd", "phone": "09510987700", "website": "https://www.virtualheight.com/?utm_source=GBP&utm_medium=Organic", "rating": 4.5, "review_count": "", "latitude": 22.722727, "longitude": 75.88707099999999, "maps_url": "https://www.google.com/maps/place/?q=place_id:0x3962fda9638f76d3:0xf46aa7d34cc4b2a6"}, {"place_id": "0x3962fd5eec2cf6a9:0xe1b5f67b53e20d06", "name": "Technoecorp Service Private Limited", "category": "Software company", "street": "C 180 chhatra Chhaya sector 01 Pithampur", "city": "Distt", "phone": "", "website": "http://www.technoecorp.com/", "rating": 4.9, "review_count": "", "latitude": 22.6052993, "longitude": 75.6858365, "maps_url": "https://www.google.com/maps/place/?q=place_id:0x3962fd5eec2cf6a9:0xe1b5f67b53e20d06"}, {"place_id": "0x3962fd1790b2e6cb:0x47270a7fe30947bf", "name": "TECHFROLIC", "category": "Software company", "street": "Office No. 509, 165", "city": "Fortune Business Center", "phone": "06479922645", "website": "http://techfrolic.com/", "rating": 5, "review_count": "", "latitude": 22.7143998, "longitude": 75.8745102, "maps_url": "https://www.google.com/maps/place/?q=place_id:0x3962fd1790b2e6cb:0x47270a7fe30947bf"}, {"place_id": "0x3962fdb8a2722093:0x14d572137bda84a7", "name": "NXG Infosystem", "category": "Software company", "street": "9 New Bijalpur", "city": "AB Rd", "phone": "07314020261", "website": "https://nxginfosystem.com/", "rating": 3.8, "review_count": "", "latitude": 22.666330799999997, "longitude": 75.8291557, "maps_url": "https://www.google.com/maps/place/?q=place_id:0x3962fdb8a2722093:0x14d572137bda84a7"}, {"place_id": "0x396303297c7cf2ef:0x965300c0d82fac7c", "name": "IW Technocrats | IT Company", "category": "Software company", "street": "Corporate Park", "city": "816, Cliffton Park Rd", "phone": "", "website": "https://www.iwtechnocrats.in/", "rating": "", "review_count": "", "latitude": 22.763570599999998, "longitude": 75.8794769, "maps_url": "https://www.google.com/maps/place/?q=place_id:0x396303297c7cf2ef:0x965300c0d82fac7c"}, {"place_id": "0x3962e32b2894590f:0x4e73ebc1261cc50", "name": "TheRapidHire Private Limited - Software ,Website & Mobile App Development Company in India, USA", "category": "Software company", "street": "51", "city": "Electronic Complex, Pardesipura", "phone": "07313581354", "website": "https://www.therapidhire.com/", "rating": 3.5, "review_count": "", "latitude": 22.752822, "longitude": 75.867381, "maps_url": "https://www.google.com/maps/place/?q=place_id:0x3962e32b2894590f:0x4e73ebc1261cc50"}, {"place_id": "0x3962fd5d9b59644d:0xce0a63c54471d620", "name": "Webllisto", "category": "Software company", "street": "801", "city": "Airen Heights", "phone": "09589849623", "website": "https://www.webllisto.com/", "rating": 4.5, "review_count": "", "latitude": 22.7450533, "longitude": 75.8923633, "maps_url": "https://www.google.com/maps/place/?q=place_id:0x3962fd5d9b59644d:0xce0a63c54471d620"}, {"place_id": "0x3962fd00704fbad7:0x62c67058e5974eb8", "name": "Brain Inventory", "category": "Software company", "street": "618", "city": "Shekhar central", "phone": "08109561401", "website": "https://braininventory.in/", "rating": 4.4, "review_count": "", "latitude": 22.722678, "longitude": 75.8871721, "maps_url": "https://www.google.com/maps/place/?q=place_id:0x3962fd00704fbad7:0x62c67058e5974eb8"}, {"place_id": "0x390ce458d0000001:0xf2123bd299ec4501", "name": "IT Company India", "category": "Software company", "street": "D56", "city": "D Block, Sector 10", "phone": "09999244854", "website": "https://www.itcompanyindia.in/", "rating": 4.7, "review_count": "", "latitude": 28.589917699999997, "longitude": 77.3351153, "maps_url": "https://www.google.com/maps/place/?q=place_id:0x390ce458d0000001:0xf2123bd299ec4501"}, {"place_id": "0x3962fd5684f3ffff:0x70794951e809d186", "name": "Eminence Infotech", "category": "Software company", "street": "3rd Floor", "city": "AICTSL Campus", "phone": "07566514634", "website": "http://eminenceinfotech.com/", "rating": 4.2, "review_count": "", "latitude": 22.7143431, "longitude": 75.8842609, "maps_url": "https://www.google.com/maps/place/?q=place_id:0x3962fd5684f3ffff:0x70794951e809d186"}, {"place_id": "0x3962fd83eafebe0b:0xb7f51ba9c78299d8", "name": "Satya Kabir E-solutions Private Limited - Indore", "category": "Software company", "street": "3rd Floor", "city": "Mishika Tower", "phone": "08959977624", "website": "https://satyakabir.com/", "rating": 5, "review_count": "", "latitude": 22.7014148, "longitude": 75.8703522, "maps_url": "https://www.google.com/maps/place/?q=place_id:0x3962fd83eafebe0b:0xb7f51ba9c78299d8"}, {"place_id": "0x3962fd1ddad985b3:0x45be486a443156ea", "name": "WelkinGetter Global IT Solutions", "category": "Software company", "street": "Building No. 5", "city": "opposite Tilokchand jain H.S. SchoolMhownaka", "phone": "06232209202", "website": "https://welkingetter.com/", "rating": 5, "review_count": "", "latitude": 22.709618, "longitude": 75.8464834, "maps_url": "https://www.google.com/maps/place/?q=place_id:0x3962fd1ddad985b3:0x45be486a443156ea"}, {"place_id": "0x3962fce3233cac31:0x92f826f70c7c5a66", "name": "SB Infotech", "category": "Software company", "street": "604, Narendra Tiwari Marg", "city": "near SUDAMA DWAR -A", "phone": "07314932442", "website": "http://www.sbinfotech.org/", "rating": 3.9, "review_count": "", "latitude": 22.6955173, "longitude": 75.8354308, "maps_url": "https://www.google.com/maps/place/?q=place_id:0x3962fce3233cac31:0x92f826f70c7c5a66"}, {"place_id": "0x3962fb1f69e49235:0x5bfd5cacd6ce612a", "name": "Digital Fly-High Solution", "category": "Computer support and services", "street": "2nd Floor", "city": "4", "phone": "07389654447", "website": "https://digitalflyhigh.in/", "rating": 4.4, "review_count": "", "latitude": 22.677742799999997, "longitude": 75.8339373, "maps_url": "https://www.google.com/maps/place/?q=place_id:0x3962fb1f69e49235:0x5bfd5cacd6ce612a"}, {"place_id": "0x3962fcfaba24881f:0xafefb3c52fb810af", "name": "Random Soft Solution", "category": "Software company", "street": "M-2 Sukhmani Plaza, Scheme No.59, Amitesh Nagar, AB Road Chithram Square", "city": "Plot No 419, Agra-Bombay Road", "phone": "09993111131", "website": "http://www.randomsoftsolution.com/", "rating": 3.9, "review_count": "", "latitude": 22.681072999999998, "longitude": 75.853402, "maps_url": "https://www.google.com/maps/place/?q=place_id:0x3962fcfaba24881f:0xafefb3c52fb810af"}, {"place_id": "0x3962fd16b8dfba73:0xa54b27af45f7d14d", "name": "Techvalens Software Systems", "category": "Software company", "street": "OM Gurudev Plaza", "city": "410", "phone": "09644506070", "website": "https://www.techvalens.com/", "rating": 3.7, "review_count": "", "latitude": 22.747921899999998, "longitude": 75.8899612, "maps_url": "https://www.google.com/maps/place/?q=place_id:0x3962fd16b8dfba73:0xa54b27af45f7d14d"}, {"place_id": "0x39625614deab87c9:0xac1a988eafd5ac01", "name": "Aeon Medical Private Limited", "category": "Manufacturer", "street": "Sector No.-1", "city": "62, 63 & 64A", "phone": "08989978403", "website": "http://www.aeonmedical.co.in/", "rating": 4.9, "review_count": "", "latitude": 22.6169555, "longitude": 75.6897161, "maps_url": "https://www.google.com/maps/place/?q=place_id:0x39625614deab87c9:0xac1a988eafd5ac01"}, {"place_id": "0x3963035df09fc263:0x7359a04a773d38fe", "name": "Ailogix Software Solutions India Pvt. Ltd.", "category": "Software company", "street": "No. 202, Mahaveer Palace AG - 147, Scheme No. 54", "city": "Vijay Nagar", "phone": "09810778213", "website": "https://www.ailogix.in/", "rating": 3.8, "review_count": "", "latitude": 22.7550547, "longitude": 75.8919536, "maps_url": "https://www.google.com/maps/place/?q=place_id:0x3963035df09fc263:0x7359a04a773d38fe"}, {"place_id": "0x812b55556fbdddf3:0x37a051c28a19caf4", "name": "TanmayiSoft - Website Design Company in Indore", "category": "Software company", "street": "Trade House", "city": "415", "phone": "", "website": "https://tanmayisoft.com/", "rating": 5, "review_count": "", "latitude": 22.7159305, "longitude": 75.8757761, "maps_url": "https://www.google.com/maps/place/?q=place_id:0x812b55556fbdddf3:0x37a051c28a19caf4"}, {"place_id": "0x3962fd83eafebe0b:0xb7f51ba9c78299d8", "name": "Satya Kabir E-solutions Private Limited - Indore", "category": "Software company", "street": "3rd Floor", "city": "Mishika Tower", "phone": "08959977624", "website": "https://satyakabir.com/", "rating": 5, "review_count": "", "latitude": 22.7014148, "longitude": 75.8703522, "maps_url": "https://www.google.com/maps/place/?q=place_id:0x3962fd83eafebe0b:0xb7f51ba9c78299d8"}, {"place_id": "0x3962fd5684f3ffff:0x70794951e809d186", "name": "Eminence Infotech", "category": "Software company", "street": "3rd Floor", "city": "AICTSL Campus", "phone": "07566514634", "website": "http://eminenceinfotech.com/", "rating": 4.2, "review_count": "", "latitude": 22.7143431, "longitude": 75.8842609, "maps_url": "https://www.google.com/maps/place/?q=place_id:0x3962fd5684f3ffff:0x70794951e809d186"}, {"place_id": "0x3962fd40bc0e41a7:0x2b7d7138319726a", "name": "Newput Infotech Private Limited", "category": "Software company", "street": "314, 21/1", "city": "DM Tower", "phone": "07314268545", "website": "http://www.newput.com/", "rating": 4.3, "review_count": "", "latitude": 22.72602, "longitude": 75.882488, "maps_url": "https://www.google.com/maps/place/?q=place_id:0x3962fd40bc0e41a7:0x2b7d7138319726a"}, {"place_id": "0x3962fd1ddad985b3:0x45be486a443156ea", "name": "WelkinGetter Global IT Solutions", "category": "Software company", "street": "Building No. 5", "city": "opposite Tilokchand jain H.S. SchoolMhownaka", "phone": "06232209202", "website": "https://welkingetter.com/", "rating": 5, "review_count": "", "latitude": 22.709618, "longitude": 75.8464834, "maps_url": "https://www.google.com/maps/place/?q=place_id:0x3962fd1ddad985b3:0x45be486a443156ea"}, {"place_id": "0x3962fcfaba24881f:0xafefb3c52fb810af", "name": "Random Soft Solution", "category": "Software company", "street": "M-2 Sukhmani Plaza, Scheme No.59, Amitesh Nagar, AB Road Chithram Square", "city": "Plot No 419, Agra-Bombay Road", "phone": "09993111131", "website": "http://www.randomsoftsolution.com/", "rating": 3.9, "review_count": "", "latitude": 22.681072999999998, "longitude": 75.853402, "maps_url": "https://www.google.com/maps/place/?q=place_id:0x3962fcfaba24881f:0xafefb3c52fb810af"}, {"place_id": "0x3962fce9643647dd:0xc1ffcef90e9b429d", "name": "Crystal IT Park", "category": "Corporate office", "street": "MVPC+8WC", "city": "Indrapuri Colony, Davv Takshila Parisar", "phone": "", "website": "", "rating": 4.4, "review_count": "", "latitude": 22.685824, "longitude": 75.87226629999999, "maps_url": "https://www.google.com/maps/place/?q=place_id:0x3962fce9643647dd:0xc1ffcef90e9b429d"}, {"place_id": "0x3962fc6e7aaaaaab:0xf359644d0535c53", "name": "Tenco Systems & Switchgears Pvt. Ltd.", "category": "Corporate office", "street": "IT Park", "city": "6A, Indore - Dhar Rd", "phone": "09589855999", "website": "http://www.tencogroup.net/", "rating": 4.5, "review_count": "", "latitude": 22.6930373, "longitude": 75.788367, "maps_url": "https://www.google.com/maps/place/?q=place_id:0x3962fc6e7aaaaaab:0xf359644d0535c53"}, {"place_id": "0x390ce458d0000001:0xf2123bd299ec4501", "name": "IT Company India", "category": "Software company", "street": "D56", "city": "D Block, Sector 10", "phone": "09999244854", "website": "https://www.itcompanyindia.in/", "rating": 4.7, "review_count": "", "latitude": 28.589917699999997, "longitude": 77.3351153, "maps_url": "https://www.google.com/maps/place/?q=place_id:0x390ce458d0000001:0xf2123bd299ec4501"}, {"place_id": "0x39625614deab87c9:0xac1a988eafd5ac01", "name": "Aeon Medical Private Limited", "category": "Manufacturer", "street": "Sector No.-1", "city": "62, 63 & 64A", "phone": "08989978403", "website": "http://www.aeonmedical.co.in/", "rating": 4.9, "review_count": "", "latitude": 22.6169555, "longitude": 75.6897161, "maps_url": "https://www.google.com/maps/place/?q=place_id:0x39625614deab87c9:0xac1a988eafd5ac01"}, {"place_id": "0x3963035df09fc263:0x7359a04a773d38fe", "name": "Ailogix Software Solutions India Pvt. Ltd.", "category": "Software company", "street": "No. 202, Mahaveer Palace AG - 147, Scheme No. 54", "city": "Vijay Nagar", "phone": "09810778213", "website": "https://www.ailogix.in/", "rating": 3.8, "review_count": "", "latitude": 22.7550547, "longitude": 75.8919536, "maps_url": "https://www.google.com/maps/place/?q=place_id:0x3963035df09fc263:0x7359a04a773d38fe"}, {"place_id": "0x3962fd16b8dfba73:0xa54b27af45f7d14d", "name": "Techvalens Software Systems", "category": "Software company", "street": "OM Gurudev Plaza", "city": "410", "phone": "09644506070", "website": "https://www.techvalens.com/", "rating": 3.7, "review_count": "", "latitude": 22.747921899999998, "longitude": 75.8899612, "maps_url": "https://www.google.com/maps/place/?q=place_id:0x3962fd16b8dfba73:0xa54b27af45f7d14d"}, {"place_id": "0x812b55556fbdddf3:0x37a051c28a19caf4", "name": "TanmayiSoft - Website Design Company in Indore", "category": "Software company", "street": "Trade House", "city": "415", "phone": "", "website": "https://tanmayisoft.com/", "rating": 5, "review_count": "", "latitude": 22.7159305, "longitude": 75.8757761, "maps_url": "https://www.google.com/maps/place/?q=place_id:0x812b55556fbdddf3:0x37a051c28a19caf4"}, {"place_id": "0x3962fd6188b57d47:0x26b0abd8515dc291", "name": "eWebWorld | Website & Mobile App Development Company in Indore", "category": "Website designer", "street": "Office number 504,505", "city": "Mahasagar Corporate", "phone": "09074976014", "website": "https://ewebworld.in/", "rating": 4.8, "review_count": "", "latitude": 22.718743399999997, "longitude": 75.8867485, "maps_url": "https://www.google.com/maps/place/?q=place_id:0x3962fd6188b57d47:0x26b0abd8515dc291"}, {"place_id": "0x3962fd3f35699959:0x60a1ecf32851850a", "name": "Chapter247 Infotech", "category": "Software company", "street": "6th Floor", "city": "611-612-613", "phone": "07773077715", "website": "https://www.chapter247.com/", "rating": 3.8, "review_count": "", "latitude": 22.7592613, "longitude": 75.9238235, "maps_url": "https://www.google.com/maps/place/?q=place_id:0x3962fd3f35699959:0x60a1ecf32851850a"}, {"place_id": "0x3962fda7e1818cb5:0xbf2d11d2829e12f2", "name": "Smashing Infolabs Pvt Ltd -Drupal Website Design, Mobile App & Software-Shopify Ecommerce Development Company Indore India", "category": "Software company", "street": "302, Atulya IT Park", "city": "Madhya Pradesh 452001", "phone": "07489434407", "website": "https://smashinginfolabs.com/", "rating": 5, "review_count": "", "latitude": 22.686809999999998, "longitude": 75.87146489999999, "maps_url": "https://www.google.com/maps/place/?q=place_id:0x3962fda7e1818cb5:0xbf2d11d2829e12f2"}, {"place_id": "0x39625619956530f7:0x52ada2b7713e79d5", "name": "Diversitech General Engg. Pvt. Ltd. Unit 2", "category": "Manufacturer", "street": "Plot no. 201 A", "city": "Pithampur Industrial Area, Sector no. 1", "phone": "07292403106", "website": "https://www.diversitech.in/", "rating": 4.3, "review_count": "", "latitude": 22.621321, "longitude": 75.70338319999999, "maps_url": "https://www.google.com/maps/place/?q=place_id:0x39625619956530f7:0x52ada2b7713e79d5"}, {"place_id": "0x3962fd146cfcd09f:0x67a4e90ed3f3e3f9", "name": "Walking Dreamz Technologies | Web & Mobile App Development Indore", "category": "Software company", "street": "2, Annapurna Rd", "city": "near Luv kush bakery", "phone": "07000961866", "website": "http://walkingdreamz.com/", "rating": 4.6, "review_count": "", "latitude": 22.6789485, "longitude": 75.8346431, "maps_url": "https://www.google.com/maps/place/?q=place_id:0x3962fd146cfcd09f:0x67a4e90ed3f3e3f9"}, {"place_id": "0x3962f9236d105caf:0xbbc3c9013b8d48dc", "name": "Compli-Tech - Startup Consultant | Company Registration | Website Designing | Ecommerce Website Development", "category": "Business management consultant", "street": "Malwa Complex", "city": "88", "phone": "09302151441", "website": "https://compli-tech.odoo.com/", "rating": "", "review_count": "", "latitude": 22.5676845, "longitude": 75.7600538, "maps_url": "https://www.google.com/maps/place/?q=place_id:0x3962f9236d105caf:0xbbc3c9013b8d48dc"}, {"place_id": "0x3962fce4fee84e1f:0x9cb5925343f3b59f", "name": "FODUU", "category": "Software company", "street": "102 Flat no, Raj Palace,", "city": "Indrapuri Colony,", "phone": "08817304988", "website": "https://www.foduu.com/?utm_source=google-maps&utm_medium=gmb-listing&utm_campaign=google-business-listing", "rating": 4.1, "review_count": "", "latitude": 22.6885203, "longitude": 75.86672449999999, "maps_url": "https://www.google.com/maps/place/?q=place_id:0x3962fce4fee84e1f:0x9cb5925343f3b59f"}, {"place_id": "0x3962ff5be53a9575:0xdd2e633a98eead78", "name": "Hariom Cold Storage", "category": "Cold storage facility", "street": "Dharwara, Madhya Pradesh 453001", "city": "", "phone": "09329297608", "website": "", "rating": 4.7, "review_count": "", "latitude": 22.657959299999998, "longitude": 75.7205008, "maps_url": "https://www.google.com/maps/place/?q=place_id:0x3962ff5be53a9575:0xdd2e633a98eead78"}, {"place_id": "0x3962fddc6fcb9745:0x135861c48067e00b", "name": "DigiHolic Infotech Pvt.Ltd", "category": "Software company", "street": "Office No.201", "city": "AB Rd", "phone": "09522345672", "website": "", "rating": 4.5, "review_count": "", "latitude": 22.6886546, "longitude": 75.8628136, "maps_url": "https://www.google.com/maps/place/?q=place_id:0x3962fddc6fcb9745:0x135861c48067e00b"}, {"place_id": "0x3962fd152488324d:0x5354ade856cfd44c", "name": "Siteadda Labs Technologies LLP", "category": "Website designer", "street": "163, Babu Lalchand Chajlani Rd", "city": "Model Town Colony, Revenue Colony, Sachidanand Nagar", "phone": "07310000012", "website": "https://siteadda.com/", "rating": 4.1, "review_count": "", "latitude": 22.7012434, "longitude": 75.84476219999999, "maps_url": "https://www.google.com/maps/place/?q=place_id:0x3962fd152488324d:0x5354ade856cfd44c"}, {"place_id": "0x3962fce330e1541b:0x125ef4cec09bea4e", "name": "Twarak Infotech Pvt Ltd", "category": "Software company", "street": "201 Sankalp 1", "city": "Chinar Residency, Kishanganj", "phone": "08770604745", "website": "https://www.twarakinfotech.com/", "rating": 4.5, "review_count": "", "latitude": 22.5789062, "longitude": 75.77662269999999, "maps_url": "https://www.google.com/maps/place/?q=place_id:0x3962fce330e1541b:0x125ef4cec09bea4e"}, {"place_id": "0x396256877c6df571:0xd046f0f12a79401f", "name": "Piramal Pharma Limited", "category": "Pharmaceutical company", "street": "plot 67", "city": "70", "phone": "07292428383", "website": "https://www.piramalpharmasolutions.com/", "rating": 4.3, "review_count": "", "latitude": 22.6280648, "longitude": 75.6670381, "maps_url": "https://www.google.com/maps/place/?q=place_id:0x396256877c6df571:0xd046f0f12a79401f"}, {"place_id": "0x3962ff5be53a9575:0xdd2e633a98eead78", "name": "Hariom Cold Storage", "category": "Cold storage facility", "street": "Dharwara, Madhya Pradesh 453001", "city": "", "phone": "09329297608", "website": "", "rating": 4.7, "review_count": "", "latitude": 22.657959299999998, "longitude": 75.7205008, "maps_url": "https://www.google.com/maps/place/?q=place_id:0x3962ff5be53a9575:0xdd2e633a98eead78"}, {"place_id": "0x3962fd7be9357d4f:0xb9a7bbb603b98163", "name": "Inwizards Software Technology", "category": "Software company", "street": "603", "city": "Airen Heights", "phone": "09667584436", "website": "https://www.inwizards.com/", "rating": 4.7, "review_count": "", "latitude": 22.745121299999997, "longitude": 75.89222699999999, "maps_url": "https://www.google.com/maps/place/?q=place_id:0x3962fd7be9357d4f:0xb9a7bbb603b98163"}, {"place_id": "0x3962fd447b4de707:0x24093ad8d03871ae", "name": "EngineerBabu", "category": "Software company", "street": "Infront of Prestige College", "city": "Plot no 156", "phone": "07771890007", "website": "https://www.engineerbabu.com/", "rating": 4.1, "review_count": "", "latitude": 22.764306599999998, "longitude": 75.8871281, "maps_url": "https://www.google.com/maps/place/?q=place_id:0x3962fd447b4de707:0x24093ad8d03871ae"}, {"place_id": "0x3962fdbd30b56e2f:0x6e2142278b0505b8", "name": "Cybernet Services-Digital Marketing, Website Designing & Development, Mobile App Development, Company in Indore | CNS", "category": "Software company", "street": "66, Manik Bagh Rd", "city": "Phadnis Colony, Ashoka Colony, Nandanvan Colony", "phone": "07314248982", "website": "https://cybernetservices.net/", "rating": 5, "review_count": "", "latitude": 22.6927481, "longitude": 75.8550762, "maps_url": "https://www.google.com/maps/place/?q=place_id:0x3962fdbd30b56e2f:0x6e2142278b0505b8"}, {"place_id": "0x3962f8de74603d65:0x146a056fff728057", "name": "Balaji Wafers Private Limited", "category": "Food Processing Company", "street": "SONWAY BHESLAY INDUSTRIAL AREA", "city": "Indore, Madhya Pradesh 453556", "phone": "02812783756", "website": "http://www.balajiwafers.com/", "rating": 4.3, "review_count": "", "latitude": 22.6233178, "longitude": 75.75439399999999, "maps_url": "https://www.google.com/maps/place/?q=place_id:0x3962f8de74603d65:0x146a056fff728057"}, {"place_id": "0x3962f91a9a1deadb:0xf9192245761ff2c", "name": "SmartTech-Developers", "category": "Software company", "street": "Suman Colony", "city": "Mhow Gaon, Madhya Pradesh 453441", "phone": "09691985153", "website": "http://smarttech-developers.com/", "rating": "", "review_count": "", "latitude": 22.5753395, "longitude": 75.74259119999999, "maps_url": "https://www.google.com/maps/place/?q=place_id:0x3962f91a9a1deadb:0xf9192245761ff2c"}, {"place_id": "0x3962fd91141818ad:0xa496e301e28e3226", "name": "Sion Data matics India Pvt. Ltd| Best IT Company In Madhya Pradesh", "category": "Software company", "street": "11,5", "city": "bano doctor compound", "phone": "07880136882", "website": "https://www.sdmipl.com/", "rating": 3.9, "review_count": "", "latitude": 22.7181933, "longitude": 75.87494319999999, "maps_url": "https://www.google.com/maps/place/?q=place_id:0x3962fd91141818ad:0xa496e301e28e3226"}, {"place_id": "0x39625742e7f09c03:0x1422e205ccbcfc55", "name": "PEB Konstruct Technofab Pvt Ltd", "category": "Manufacturer", "street": "AH47", "city": "Pithampur Industrial Area", "phone": "08718000037", "website": "https://www.konstructpeb.com/", "rating": 5, "review_count": "", "latitude": 22.6193705, "longitude": 75.71231019999999, "maps_url": "https://www.google.com/maps/place/?q=place_id:0x39625742e7f09c03:0x1422e205ccbcfc55"}, {"place_id": "0x3962fd146c529801:0xc4c603568388ca95", "name": "Technlogi IT Acumen Private Limited", "category": "Software company", "street": "12, Annapurna Rd", "city": "Model Town Colony, Revenue Colony, Sachidanand Nagar", "phone": "09425327566", "website": "http://www.technlogi.com/", "rating": 5, "review_count": "", "latitude": 22.7008358, "longitude": 75.8415311, "maps_url": "https://www.google.com/maps/place/?q=place_id:0x3962fd146c529801:0xc4c603568388ca95"}, {"place_id": "0x396303a0b00a9073:0x14504de356ba36a3", "name": "Supersourcing", "category": "Software company", "street": "Plot no 156, Scheme no 78", "city": "behind Vrindawan Restaurant", "phone": "08225007007", "website": "https://supersourcing.com/", "rating": 4.4, "review_count": "", "latitude": 22.7643359, "longitude": 75.88706479999999, "maps_url": "https://www.google.com/maps/place/?q=place_id:0x396303a0b00a9073:0x14504de356ba36a3"}, {"place_id": "0x3962e39b92ff9d77:0xc79d3a2696ab1651", "name": "Mxpertz Infolabs - Transforming By Tech | Web & Mobile Development | UI/UX Design | Cloud Solutions | AI/ML Innovations", "category": "Software company", "street": "105", "city": "Captain C.S Naidu Arcade", "phone": "07314957900", "website": "https://www.mxpertz.com/", "rating": 3.9, "review_count": "", "latitude": 22.725223699999997, "longitude": 75.8902705, "maps_url": "https://www.google.com/maps/place/?q=place_id:0x3962e39b92ff9d77:0xc79d3a2696ab1651"}, {"place_id": "0x396257adf5285e4f:0x47f23c9e72775fa", "name": "Eicher Company Pithampur", "category": "Manufacturer", "street": "Pithampur Industrial Area", "city": "Pithampur, Madhya Pradesh 454775", "phone": "", "website": "", "rating": 4.4, "review_count": "", "latitude": 22.6113166, "longitude": 75.6747529, "maps_url": "https://www.google.com/maps/place/?q=place_id:0x396257adf5285e4f:0x47f23c9e72775fa"}, {"place_id": "0x396256630fad880d:0x34336f61dc52c36", "name": "Swaraj Technocraft Ltd", "category": "Industrial equipment supplier", "street": "plot no. 40", "city": "Pithampur Industrial Area, Sector 2", "phone": "09752265813", "website": "http://swarajtechnocrafts.com/", "rating": 3.9, "review_count": "", "latitude": 22.6231241, "longitude": 75.6709223, "maps_url": "https://www.google.com/maps/place/?q=place_id:0x396256630fad880d:0x34336f61dc52c36"}, {"place_id": "0x39631d3398181fb3:0x36571d5568ee09ed", "name": "Viprax - Website Design Company In Indore", "category": "Website designer", "street": "Shekhar central", "city": "717", "phone": "07999685683", "website": "https://viprax.com/", "rating": 4.6, "review_count": "", "latitude": 22.7228618, "longitude": 75.8869101, "maps_url": "https://www.google.com/maps/place/?q=place_id:0x39631d3398181fb3:0x36571d5568ee09ed"}, {"place_id": "0x3962fc14dc6f18bb:0x4fa0454031795ad3", "name": "Yash Computech Solution Pvt Ltd", "category": "Software company", "street": "HB 37, Scheme No 94", "city": "Eastern Ring Rd", "phone": "07566995099", "website": "https://www.ycsin.com/", "rating": 4, "review_count": "", "latitude": 22.690003299999997, "longitude": 75.89254009999999, "maps_url": "https://www.google.com/maps/place/?q=place_id:0x3962fc14dc6f18bb:0x4fa0454031795ad3"}, {"place_id": "0x3962fdf80bee3ccb:0x687eaae2d2acdc7a", "name": "UltraModern Technologies Pvt. Ltd.", "category": "Software company", "street": "565, Sapna Sangeeta Rd", "city": "nearby axis bank", "phone": "08640089400", "website": "http://www.ultramoderntechnologies.com/", "rating": 5, "review_count": "", "latitude": 22.702948, "longitude": 75.8688236, "maps_url": "https://www.google.com/maps/place/?q=place_id:0x3962fdf80bee3ccb:0x687eaae2d2acdc7a"}, {"place_id": "0x3962fdefb1362505:0x3360df36e4b110fc", "name": "Saifee Metals", "category": "Furniture Manufacturer", "street": "Survey No. 367/1/2, Gram Kalaria", "city": "Indore - Dhar Rd", "phone": "09111633281", "website": "http://www.storemoreindia.com/", "rating": 5, "review_count": "", "latitude": 22.679837499999998, "longitude": 75.7372389, "maps_url": "https://www.google.com/maps/place/?q=place_id:0x3962fdefb1362505:0x3360df36e4b110fc"}, {"place_id": "0x39625585673336d1:0x3e45ec912b480171", "name": "Atmadarshan Tv", "category": "Video production service", "street": "Prerna Sadan", "city": "Dhar Rd", "phone": "08005541243", "website": "", "rating": 4.9, "review_count": "", "latitude": 22.680184999999998, "longitude": 75.757026, "maps_url": "https://www.google.com/maps/place/?q=place_id:0x39625585673336d1:0x3e45ec912b480171"}, {"place_id": "0x3962561792d09c63:0xa5d9f36ed1078e96", "name": "MAHLE Engine Components India Pvr. Ltd., Pithampur", "category": "Auto parts manufacturer", "street": "Pithampur Industrial Area", "city": "Pithampur, Madhya Pradesh 454775", "phone": "", "website": "https://www.mahle.com/", "rating": 4.3, "review_count": "", "latitude": 22.617415599999998, "longitude": 75.70191369999999, "maps_url": "https://www.google.com/maps/place/?q=place_id:0x3962561792d09c63:0xa5d9f36ed1078e96"}, {"place_id": "0x39625232dca1c709:0x9be4434972b2d936", "name": "NIRMAL TRADING CORPORATION", "category": "Welding supply store", "street": "PLOT NO 275", "city": "Pithampur Industrial Area, SECTOR 1", "phone": "08109089001", "website": "http://ntcsales.in/", "rating": 4.7, "review_count": "", "latitude": 22.6183326, "longitude": 75.6932484, "maps_url": "https://www.google.com/maps/place/?q=place_id:0x39625232dca1c709:0x9be4434972b2d936"}, {"place_id": "0x3962fdcc6f2d6f87:0x9645b5e3f6ea6f04", "name": "ExpressTech Software Solutions Pvt Ltd", "category": "Software company", "street": "Office 311", "city": "Sai Ram Plaza", "phone": "07314992666", "website": "https://expresstechsoftwares.com/", "rating": 4, "review_count": "", "latitude": 22.685712, "longitude": 75.85970449999999, "maps_url": "https://www.google.com/maps/place/?q=place_id:0x3962fdcc6f2d6f87:0x9645b5e3f6ea6f04"}, {"place_id": "0x461cb2df2d0ef3d5:0x3b8b46af45360b08", "name": "Cloudnet Solutions", "category": "Software company", "street": "", "city": "", "phone": "06264917744", "website": "https://cloudnetsolutions.in/", "rating": 5, "review_count": "", "latitude": 21.0680074, "longitude": 82.7525294, "maps_url": "https://www.google.com/maps/place/?q=place_id:0x461cb2df2d0ef3d5:0x3b8b46af45360b08"}, {"place_id": "0x3962563fe9af31c1:0x48a50e88ce4f80b5", "name": "Rajshree Engineering Pvt. Ltd.", "category": "Manufacturer", "street": "JM7R+PQ6", "city": "Pithampur Industrial Area", "phone": "", "website": "", "rating": 3.7, "review_count": "", "latitude": 22.614297999999998, "longitude": 75.691891, "maps_url": "https://www.google.com/maps/place/?q=place_id:0x3962563fe9af31c1:0x48a50e88ce4f80b5"}, {"place_id": "0x3962e3e2960b98f7:0xe6edcca61da2f17d", "name": "Inspark Technologies", "category": "Website designer", "street": "101, Shree vinayak residency Bengali Square", "city": "Madhya Pradesh 452016", "phone": "09407116798", "website": "https://insparktechnologies.com/", "rating": 5, "review_count": "", "latitude": 22.7249613, "longitude": 75.9085673, "maps_url": "https://www.google.com/maps/place/?q=place_id:0x3962e3e2960b98f7:0xe6edcca61da2f17d"}, {"place_id": "0x39631dbb2049dd65:0xb667eb306f1b92c5", "name": "IT Company", "category": "Information services", "street": "Chikitsak Nagar", "city": "Indore, Madhya Pradesh 452010", "phone": "", "website": "", "rating": 2, "review_count": "", "latitude": 22.7569083, "longitude": 75.9056753, "maps_url": "https://www.google.com/maps/place/?q=place_id:0x39631dbb2049dd65:0xb667eb306f1b92c5"}, {"place_id": "0x3bc2becdc35b6937:0x515ac559c349eee3", "name": "Thinkitive Technologies Private Limited", "category": "Software company", "street": "4th Floor", "city": "ABIL IMPERIAL COMMERCIAL SPACES", "phone": "08956467327", "website": "https://www.thinkitive.com/", "rating": 3.9, "review_count": "", "latitude": 18.5563888, "longitude": 73.7729748, "maps_url": "https://www.google.com/maps/place/?q=place_id:0x3bc2becdc35b6937:0x515ac559c349eee3"}, {"place_id": "0x3be7c21b5901e181:0x7fe794585addc1f6", "name": "Smartinfologiks - Software Development Company in India | IT Solutions", "category": "Software company", "street": "Hilton Center", "city": "514", "phone": "07400064691", "website": "https://www.smartinfologiks.com/", "rating": 4.6, "review_count": "", "latitude": 19.0139592, "longitude": 73.0382705, "maps_url": "https://www.google.com/maps/place/?q=place_id:0x3be7c21b5901e181:0x7fe794585addc1f6"}, {"place_id": "0x39625646b84ffd91:0xceee27e308cc205d", "name": "Medilux Laboratories Pvt. Ltd.", "category": "Pharmaceutical company", "street": "Plot No. 98-99, Sector-1 454 775", "city": "Pithampur Industrial Area", "phone": "07292409991", "website": "https://www.medilux.co.in/", "rating": 4.4, "review_count": "", "latitude": 22.608520199999997, "longitude": 75.6872619, "maps_url": "https://www.google.com/maps/place/?q=place_id:0x39625646b84ffd91:0xceee27e308cc205d"}, {"place_id": "0x3962e37b64b9370b:0x9e561b536c709b5", "name": "Rakuten Symphony", "category": "Corporate office", "street": "Pushp Vihar Colony, Scheme No 131", "city": "Indore, Madhya Pradesh 452010", "phone": "", "website": "https://symphony.rakuten.com/", "rating": 4.2, "review_count": "", "latitude": 22.750048, "longitude": 75.9052169, "maps_url": "https://www.google.com/maps/place/?q=place_id:0x3962e37b64b9370b:0x9e561b536c709b5"}, {"place_id": "0x396256bcd8cfab9b:0x2ab07550da5c6766", "name": "Rubicon Research Ltd, Pithampur", "category": "Manufacturer", "street": "JJCR+G98", "city": "Pithampur Industrial Area", "phone": "", "website": "http://www.rubicon.co.in/", "rating": 4.4, "review_count": "", "latitude": 22.6212967, "longitude": 75.6409537, "maps_url": "https://www.google.com/maps/place/?q=place_id:0x396256bcd8cfab9b:0x2ab07550da5c6766"}, {"place_id": "0x3962e55f9afb01a5:0xa908d4803d9c573c", "name": "Grow Tech website Designing and Developement Company Indore", "category": "Website designer", "street": "BUSINESS PARK", "city": "AB, Indore Bypass Rd", "phone": "07746006410", "website": "https://growtechservices.com/", "rating": 5, "review_count": "", "latitude": 22.6577672, "longitude": 75.9091621, "maps_url": "https://www.google.com/maps/place/?q=place_id:0x3962e55f9afb01a5:0xa908d4803d9c573c"}, {"place_id": "0x3962ff85b7a96525:0x37028b0e8ee465fd", "name": "Gateway by Modi's", "category": "Family restaurant", "street": "MPJ8+HPM", "city": "Kalaria, Madhya Pradesh 453001", "phone": "", "website": "", "rating": 4.4, "review_count": "", "latitude": 22.6814164, "longitude": 75.715901, "maps_url": "https://www.google.com/maps/place/?q=place_id:0x3962ff85b7a96525:0x37028b0e8ee465fd"}, {"place_id": "0x3962fc3a10c7f88b:0x73134d72dcaa2091", "name": "Kayra Animation I Animation company and Animation Institute", "category": "Animation Studio", "street": "Laxmi Tower", "city": "Indore- 2nd Floor, VIJAY", "phone": "09179831131", "website": "http://kayraanimation.com/", "rating": 4.8, "review_count": "", "latitude": 22.684638, "longitude": 75.828756, "maps_url": "https://www.google.com/maps/place/?q=place_id:0x3962fc3a10c7f88b:0x73134d72dcaa2091"}, {"place_id": "0x3962564372fffbb7:0x3dc6aed1005384af", "name": "LEKHISOFT IT SERVICES AND CONSULTANCY", "category": "Software company", "street": "UG-2, Kesar Complex, Pithampur Sec 1, Dist. Dhar MP - 454775", "city": "Pithampur, Madhya Pradesh 454775", "phone": "07292400100", "website": "", "rating": 3.3, "review_count": "", "latitude": 22.620465, "longitude": 75.6848074, "maps_url": "https://www.google.com/maps/place/?q=place_id:0x3962564372fffbb7:0x3dc6aed1005384af"}, {"place_id": "0x39631d6ae4f42a97:0x83bc825e66f9983", "name": "Techwave IT Solutions Pvt Ltd | Software Development Company in Indore | Top IT Company in Indore | India", "category": "Software company", "street": "Bhopal Motors JCB", "city": "near Panchvati", "phone": "09009155444", "website": "http://techwaveitsolutions.com/", "rating": "", "review_count": "", "latitude": 22.792078399999998, "longitude": 75.90735409999999, "maps_url": "https://www.google.com/maps/place/?q=place_id:0x39631d6ae4f42a97:0x83bc825e66f9983"}, {"place_id": "0x3963031c00643839:0x8e799c31760d97c9", "name": "Etcetera Technologies", "category": "Software company", "street": "Minal Shree Apartment", "city": "19", "phone": "", "website": "", "rating": 4.8, "review_count": "", "latitude": 22.732077099999998, "longitude": 75.87504489999999, "maps_url": "https://www.google.com/maps/place/?q=place_id:0x3963031c00643839:0x8e799c31760d97c9"}, {"place_id": "0x3962fd3b47d815f7:0xbc42d69ae78dfaa9", "name": "Techunity IT Consultant Agency", "category": "Software company", "street": "Eco Town, Shree Krishna Avenue Phase 1", "city": "101/34", "phone": "07000097015", "website": "https://techunity.info/", "rating": "", "review_count": "", "latitude": 22.6620769, "longitude": 75.8909614, "maps_url": "https://www.google.com/maps/place/?q=place_id:0x3962fd3b47d815f7:0xbc42d69ae78dfaa9"}, {"place_id": "0x3962fbfb1f3b505b:0x28c7103b84cc86b", "name": "WStack-Hub Technology Private Limited", "category": "Software company", "street": "Jain Tample", "city": "WStack-Hub", "phone": "", "website": "", "rating": "", "review_count": "", "latitude": 22.6396554, "longitude": 75.81532829999999, "maps_url": "https://www.google.com/maps/place/?q=place_id:0x3962fbfb1f3b505b:0x28c7103b84cc86b"}, {"place_id": "0x3962fdc3917dc839:0x770ab0ae980ea8b9", "name": "Web And Apps Villa Technology", "category": "Software company", "street": "1140, N\" Sector", "city": "Nandan Nagar, Chandan Nagar", "phone": "07869091140", "website": "", "rating": 5, "review_count": "", "latitude": 22.7116385, "longitude": 75.8220044, "maps_url": "https://www.google.com/maps/place/?q=place_id:0x3962fdc3917dc839:0x770ab0ae980ea8b9"}, {"place_id": "0x396303bd0b505bf9:0xf91ea7b7a07c038e", "name": "Cohort Innovations - A software development company", "category": "Software company", "street": "467, Shyam Nagar Main Rd", "city": "Shyam Nagar, Sukhliya", "phone": "07771000776", "website": "http://cohortinnovations.com/", "rating": 5, "review_count": "", "latitude": 22.7588278, "longitude": 75.8677902, "maps_url": "https://www.google.com/maps/place/?q=place_id:0x396303bd0b505bf9:0xf91ea7b7a07c038e"}, {"place_id": "0x3962e2c8b661e3cd:0xc761b7784b672eb2", "name": "Techiasm IT Company", "category": "Software company", "street": "near Bengali square", "city": "Ashish Nagar", "phone": "", "website": "", "rating": "", "review_count": "", "latitude": 22.7227757, "longitude": 75.9102118, "maps_url": "https://www.google.com/maps/place/?q=place_id:0x3962e2c8b661e3cd:0xc761b7784b672eb2"}, {"place_id": "0x3962fb03228e51a3:0x15f1f4a61add7fa1", "name": "All In One Solutions", "category": "Computer support and services", "street": "Shri Krishna Paradise", "city": "4, Indore Mega City Cir", "phone": "09713535773", "website": "", "rating": "", "review_count": "", "latitude": 22.6266608, "longitude": 75.8100096, "maps_url": "https://www.google.com/maps/place/?q=place_id:0x3962fb03228e51a3:0x15f1f4a61add7fa1"}, {"place_id": "0x3962f7258c7e67f5:0x3997f7bd639d8477", "name": "Business Consultant", "category": "Business management consultant", "street": "551,Vishwas Nagar, Banjari", "city": "Post", "phone": "08319803782", "website": "", "rating": "", "review_count": "", "latitude": 22.594945799999998, "longitude": 75.6916344, "maps_url": "https://www.google.com/maps/place/?q=place_id:0x3962f7258c7e67f5:0x3997f7bd639d8477"}, {"place_id": "0x3962fdc9447c2cad:0x4e40277a086704f3", "name": "Techie Online", "category": "Internet marketing service", "street": "53 C-1 Sector D , Scheme No 71 Indore", "city": "Indore, Madhya Pradesh 452009", "phone": "09516598292", "website": "", "rating": 4.7, "review_count": "", "latitude": 22.703989, "longitude": 75.82536549999999, "maps_url": "https://www.google.com/maps/place/?q=place_id:0x3962fdc9447c2cad:0x4e40277a086704f3"}]}