[{"place_id": "ChIJA6KtL5kCDTkR7wFe_OSD2bE", "name": "Omniscient IT Solutions Pvt. Ltd", "street": "4, 28, Saraswati Marg, Block 15A, WEA, Karol Bagh, New Delhi, Delhi, 110005, India", "phone": "+91 98110 27310", "rating": "4.6", "review_count": "", "website": "https://www.omniscientitsolutions.com/", "latitude": 28.646959, "longitude": 77.1882229, "maps_url": "https://www.google.com/maps/search/?api=1&query=Omniscient%20IT%20Solutions%20Pvt.%20Ltd&query_place_id=ChIJA6KtL5kCDTkR7wFe_OSD2bE"}, {"place_id": "ChIJO4sr49IDDTkRALZaeWsr-oI", "name": "Iraitech | Software Development Company", "street": "Central Square Complex 3, Unit No-1051, 1st Floor, Near Filmistan, DCM chowk, Bara Hindu Rao, Kishan Ganj, Delhi, 110006, India", "phone": "+91 81301 04108", "rating": "4.1", "review_count": "", "website": "https://www.iraitech.com/", "latitude": 28.6631951, "longitude": 77.20308639999999, "maps_url": "https://www.google.com/maps/search/?api=1&query=Iraitech%20%7C%20Software%20Development%20Company&query_place_id=ChIJO4sr49IDDTkRALZaeWsr-oI"}, {"place_id": "ChIJPR796sD9DDkRLo5M9V9l1nA", "name": "Binarysoft Technologies (We bring IT)", "street": "1st Floor, 1626/33, Block 27F, Naiwala, Karol Bagh, Delhi, 110005, India", "phone": "+91 92054 71661", "rating": "5", "review_count": "", "website": "http://www.binarysoft.com/", "latitude": 28.647633, "longitude": 77.19496199999999, "maps_url": "https://www.google.com/maps/search/?api=1&query=Binarysoft%20Technologies%20%28We%20bring%20IT%29&query_place_id=ChIJPR796sD9DDkRLo5M9V9l1nA"}, {"place_id": "ChIJEZi4U8HjDDkRyul3V2h5ouc", "name": "IT Company", "street": "A-14, near iskcon temple, Block A, APB Garhi, Vasant Vihar, New Delhi, Delhi 110065, India", "phone": "", "rating": "3", "review_count": "", "website": "http://www.opuswiz.com/", "latitude": 28.557167, "longitude": 77.25424819999999, "maps_url": "https://www.google.com/maps/search/?api=1&query=IT%20Company&query_place_id=ChIJEZi4U8HjDDkRyul3V2h5ouc"}, {"place_id": "ChIJB6AZSUD9DDkRuApv-5TZXZg", "name": "MMI Softwares Pvt. Ltd.", "street": "B-A4, 9/54, Namdhari Chamber, Desh Bandhu Gupta Rd, Block 53, Karol Bagh, New Delhi, Delhi 110005, India", "phone": "+91 99714 76501", "rating": "4.6", "review_count": "", "website": "http://www.mmsoftwares.com/", "latitude": 28.6536804, "longitude": 77.1916753, "maps_url": "https://www.google.com/maps/search/?api=1&query=MMI%20Softwares%20Pvt.%20Ltd.&query_place_id=ChIJB6AZSUD9DDkRuApv-5TZXZg"}, {"place_id": "ChIJFeXlTZkCDTkRNw2aQAO8CNk", "name": "Himalayan IT Solutions | Best Website Designing Company in Delhi | SEO/Digital Marketing Company in Delhi NCR, India", "street": "61/4255, Padam Singh Rd, Block 29, Block 1, Regar Pura, Karol Bagh, Delhi, 110005, India", "phone": "+91 98990 98509", "rating": "3.9", "review_count": "", "website": "http://www.himalayanitsolutions.com/", "latitude": 28.649673999999997, "longitude": 77.186599, "maps_url": "https://www.google.com/maps/search/?api=1&query=Himalayan%20IT%20Solutions%20%7C%20Best%20Website%20Designing%20Company%20in%20Delhi%20%7C%20SEO/Digital%20Marketing%20Company%20in%20Delhi%20NCR%2C%20India&query_place_id=ChIJFeXlTZkCDTkRNw2aQAO8CNk"}, {"place_id": "ChIJtXMHQGj9DDkRRE43pKtyAYM", "name": "Dvayweb Consultancy Services Pvt. Ltd.", "street": "Rani Jhansi Rd, Block E 4, Jhandewalan Extension, Jhandewalan, New Delhi, Delhi 110055, India", "phone": "+91 98730 30060", "rating": "4.6", "review_count": "", "website": "https://dvayweb.com/", "latitude": 28.645454599999997, "longitude": 77.2042455, "maps_url": "https://www.google.com/maps/search/?api=1&query=Dvayweb%20Consultancy%20Services%20Pvt.%20Ltd.&query_place_id=ChIJtXMHQGj9DDkRRE43pKtyAYM"}, {"place_id": "ChIJSy2Jhp4CDTkR_0QSNabY9kM", "name": "Digital Marketing Agency, Software Development Company, SEO Services Company in Delhi", "street": "3rd Floor, 16/448, Block - I, Building Number, Military Rd, Karol Bagh, New Delhi, Delhi 110005, India", "phone": "+91 98183 53030", "rating": "5", "review_count": "", "website": "https://www.micromind.in/", "latitude": 28.655144999999997, "longitude": 77.18114899999999, "maps_url": "https://www.google.com/maps/search/?api=1&query=Digital%20Marketing%20Agency%2C%20Software%20Development%20Company%2C%20SEO%20Services%20Company%20in%20Delhi&query_place_id=ChIJSy2Jhp4CDTkR_0QSNabY9kM"}, {"place_id": "ChIJs-qd8zMDDTkRI8WvMoIh69Y", "name": "Digitally Bird | Best eCommerce Website Design and Development company in Delhi, India", "street": "Block 29, 61/4255, Padam Singh Rd, Block 29, Block 11, Regar Pura, Karol Bagh, Delhi, 110005, India", "phone": "+91 97175 00603", "rating": "5", "review_count": "", "website": "https://www.digitallybird.com/", "latitude": 28.6497952, "longitude": 77.1873057, "maps_url": "https://www.google.com/maps/search/?api=1&query=Digitally%20Bird%20%7C%20Best%20eCommerce%20Website%20Design%20and%20Development%20company%20in%20Delhi%2C%20India&query_place_id=ChIJs-qd8zMDDTkRI8WvMoIh69Y"}, {"place_id": "ChIJVSDU85wCDTkR3TEe80XmjVY", "name": "AI Micro Mind®Technology", "street": "3rd Floor, 16/448, Block I, Building Number, Military Rd, Karol Bagh, New Delhi, Delhi, 110005, India", "phone": "+91 98183 53030", "rating": "4.8", "review_count": "", "website": "http://micromind.in/", "latitude": 28.656936299999998, "longitude": 77.1817737, "maps_url": "https://www.google.com/maps/search/?api=1&query=AI%20Micro%20Mind%C2%AETechnology&query_place_id=ChIJVSDU85wCDTkR3TEe80XmjVY"}, {"place_id": "ChIJ8bD3oe-1bTkRhQOwVrfg-vw", "name": "One Aim IT Solutions", "street": "2/41/2 , 1st Floor, Sadar Bazar , Moradabad Pahari ,TO.Delhi Cantt, Distt:, South West, New Delhi, Delhi 110006, India", "phone": "+91 89552 49714", "rating": "5", "review_count": "", "website": "https://theoneaim.in/", "latitude": 28.6580968, "longitude": 77.2124735, "maps_url": "https://www.google.com/maps/search/?api=1&query=One%20Aim%20IT%20Solutions&query_place_id=ChIJ8bD3oe-1bTkRhQOwVrfg-vw"}, {"place_id": "ChIJ98MlAl8CDTkRQiw9zB220Lc", "name": "Akiko Sherman Infotech Pvt. Ltd.", "street": "2C/2, New Rohtak Rd, Block 2C, Karol Bagh, New Delhi, Delhi, 110005, India", "phone": "+91 11 4141 6847", "rating": "3.6", "review_count": "", "website": "https://www.shermanindia.com/", "latitude": 28.6607833, "longitude": 77.1874157, "maps_url": "https://www.google.com/maps/search/?api=1&query=Akiko%20Sherman%20Infotech%20Pvt.%20Ltd.&query_place_id=ChIJ98MlAl8CDTkRQiw9zB220Lc"}, {"place_id": "ChIJnSUGhMb9DDkR1RSiSe5bP8s", "name": "Scrrum Labs Private Limited", "street": "We-start co-working space, 2E/25, Jhandewalan Extension, Block E 2, Jhandewalan Extension, Karol Bagh, New Delhi, Delhi 110055, India", "phone": "+91 98999 29886", "rating": "4.7", "review_count": "", "website": "", "latitude": 28.6442767, "longitude": 77.2012045, "maps_url": "https://www.google.com/maps/search/?api=1&query=Scrrum%20Labs%20Private%20Limited&query_place_id=ChIJnSUGhMb9DDkR1RSiSe5bP8s"}, {"place_id": "ChIJV4blL5gCDTkRktgeIDWd3T8", "name": "Manning Consulting", "street": "", "phone": "+91 98112 22637", "rating": "4.8", "review_count": "", "website": "http://www.manningconsulting.in/", "latitude": 21.0680074, "longitude": 82.7525294, "maps_url": "https://www.google.com/maps/search/?api=1&query=Manning%20Consulting&query_place_id=ChIJV4blL5gCDTkRktgeIDWd3T8"}, {"place_id": "ChIJVdkZih79DDkR_dClCtK2ZkU", "name": "SoftGiant Technologies - Custom Software Development & Best eCommmerce Development Company in Delhi, India", "street": "T-1871 D, 2/F, Ashok Nagar Uppar Ridge Road Jhandewalan, Karol Bagh, New Delhi, Delhi 110055, India", "phone": "+91 85958 85110", "rating": "5", "review_count": "", "website": "http://www.softgianttech.com/", "latitude": 28.647350699999997, "longitude": 77.2016845, "maps_url": "https://www.google.com/maps/search/?api=1&query=SoftGiant%20Technologies%20-%20Custom%20Software%20Development%20%26%20Best%20eCommmerce%20Development%20Company%20in%20Delhi%2C%20India&query_place_id=ChIJVdkZih79DDkR_dClCtK2ZkU"}, {"place_id": "ChIJFcSNihYDDTkRbgMQW7yRJA0", "name": "Global tech co.", "street": "SHOP NO-10942, 1, Gali No. 4, Karol Bagh West Extension Area, Block 5A, Sat Nagar, Karol Bagh, New Delhi, Delhi, 110005, India", "phone": "+91 88008 48513", "rating": "4.9", "review_count": "", "website": "https://globel-tech-co.grexa.site/", "latitude": 28.6486934, "longitude": 77.18451809999999, "maps_url": "https://www.google.com/maps/search/?api=1&query=Global%20tech%20co.&query_place_id=ChIJFcSNihYDDTkRbgMQW7yRJA0"}, {"place_id": "ChIJ__8vhTQCDTkRUWfmHwih9g0", "name": "Wingify", "street": "KLJ TOWER, North, Netaji Subhash Place, Pitampura, Delhi, 110034, India", "phone": "+91 11 4764 0497", "rating": "4.4", "review_count": "", "website": "https://wingify.com/", "latitude": 28.6911475, "longitude": 77.1509423, "maps_url": "https://www.google.com/maps/search/?api=1&query=Wingify&query_place_id=ChIJ__8vhTQCDTkRUWfmHwih9g0"}, {"place_id": "ChIJ____ewXiDDkRWkRWfPl6bfA", "name": "BNG Infotech Private Limited", "street": "509-511 Gagandeep Building, Rajendra Place, New Delhi, Delhi 110008, India", "phone": "+91 81006 41006", "rating": "4.4", "review_count": "", "website": "https://www.bng.co.in/", "latitude": 28.6439304, "longitude": 77.1772003, "maps_url": "https://www.google.com/maps/search/?api=1&query=BNG%20Infotech%20Private%20Limited&query_place_id=ChIJ____ewXiDDkRWkRWfPl6bfA"}, {"place_id": "ChIJ6fogp5QCDTkRX_8pAuL_gew", "name": "it company", "street": "Block 31/25, Block 31, East Patel Nagar, Patel Nagar, New Delhi, Delhi, 110008, India", "phone": "+91 98189 02645", "rating": "", "review_count": "", "website": "", "latitude": 28.6477211, "longitude": 77.1727298, "maps_url": "https://www.google.com/maps/search/?api=1&query=it%20company&query_place_id=ChIJ6fogp5QCDTkRX_8pAuL_gew"}, {"place_id": "ChIJCdwjeUv9DDkRSs9WJ7tQaSY", "name": "Big Feathers Technology", "street": "8577, New Rohtak Rd, Ratan Nagar, Karol Bagh, Delhi, 110005, India", "phone": "+91 86907 20398", "rating": "4.9", "review_count": "", "website": "https://www.thebigfeathers.com/", "latitude": 28.657151, "longitude": 77.1959542, "maps_url": "https://www.google.com/maps/search/?api=1&query=Big%20Feathers%20Technology&query_place_id=ChIJCdwjeUv9DDkRSs9WJ7tQaSY"}, {"place_id": "ChIJ51AtDZ0DDTkRF6QrEcB_6Ks", "name": "Renovision Automation Services Pvt.Ltd-karol bagh", "street": "16, 8, Arya Samaj Rd, Block 16, WEA, Karol Bagh, New Delhi, Delhi, 110005, India", "phone": "+91 93107 19624", "rating": "3.7", "review_count": "", "website": "http://www.raspl.com/", "latitude": 28.647336499999998, "longitude": 77.1937694, "maps_url": "https://www.google.com/maps/search/?api=1&query=Renovision%20Automation%20Services%20Pvt.Ltd-karol%20bagh&query_place_id=ChIJ51AtDZ0DDTkRF6QrEcB_6Ks"}, {"place_id": "ChIJQ9ayeBL9DDkRwYTi0d6EINU", "name": "UNION GLASS COMPANY", "street": "792 Chowk, Tilak Bazar, Katra Ghel, Khari Baoli, Chandni Chowk, Delhi, 110006, India", "phone": "+91 98115 75263", "rating": "4.5", "review_count": "", "website": "", "latitude": 28.6588967, "longitude": 77.2215078, "maps_url": "https://www.google.com/maps/search/?api=1&query=UNION%20GLASS%20COMPANY&query_place_id=ChIJQ9ayeBL9DDkRwYTi0d6EINU"}, {"place_id": "ChIJO0SbjrQDDTkRRwJcoWg5-ik", "name": "Kohli & Co.", "street": "Prabhat Rd, Block 5C, Karol Bagh, New Delhi, Delhi, 110005, India", "phone": "+91 82877 35178", "rating": "5", "review_count": "", "website": "http://kohli-co.com/", "latitude": 28.660183699999997, "longitude": 77.1923794, "maps_url": "https://www.google.com/maps/search/?api=1&query=Kohli%20%26%20Co.&query_place_id=ChIJO0SbjrQDDTkRRwJcoWg5-ik"}, {"place_id": "ChIJe3palOn9DDkRmNe3MxxK0nI", "name": "SURYA MASALA COMPANY (EKTA SPICES)", "street": "6410, Katra Bariyan, Naya Bans, Fatehpuri, Chandni Chowk, Delhi, 110006, India", "phone": "+91 96547 73357", "rating": "4.9", "review_count": "", "website": "", "latitude": 28.6552097, "longitude": 77.2216329, "maps_url": "https://www.google.com/maps/search/?api=1&query=SURYA%20MASALA%20COMPANY%20%28EKTA%20SPICES%29&query_place_id=ChIJe3palOn9DDkRmNe3MxxK0nI"}, {"place_id": "ChIJEeEztHD9DDkR-3Ga-fthgow", "name": "Mobile Skin Software", "street": "47, Rani Jhansi Rd, Motia Khan, Jhandewalan, New Delhi, Delhi 110055, India", "phone": "+91 95552 63344", "rating": "4.7", "review_count": "", "website": "http://mobileskinsoftware.com/", "latitude": 28.649371199999997, "longitude": 77.2056171, "maps_url": "https://www.google.com/maps/search/?api=1&query=Mobile%20Skin%20Software&query_place_id=ChIJEeEztHD9DDkR-3Ga-fthgow"}, {"place_id": "ChIJCXUND2b9DDkRUKIg_QDxGEM", "name": "Delhi Modi Express Transport Co", "street": "25, Rani Jhansi Road, Ram Kumar Marg, Motia Khan, New Delhi, Delhi 110055, India", "phone": "+91 98112 06706", "rating": "4.2", "review_count": "", "website": "https://www.delhimodi.in/", "latitude": 28.652214299999997, "longitude": 77.2070894, "maps_url": "https://www.google.com/maps/search/?api=1&query=Delhi%20Modi%20Express%20Transport%20Co&query_place_id=ChIJCXUND2b9DDkRUKIg_QDxGEM"}, {"place_id": "ChIJbQ3ir58CDTkR7oaREwH4xZk", "name": "Expert Trading Company", "street": "2273, 69, Abdul Aziz Rd, Block 25A, Naiwala, Karol Bagh, New Delhi, Delhi, 110005, India", "phone": "+91 98100 29670", "rating": "3.8", "review_count": "", "website": "", "latitude": 28.648117499999998, "longitude": 77.19372729999999, "maps_url": "https://www.google.com/maps/search/?api=1&query=Expert%20Trading%20Company&query_place_id=ChIJbQ3ir58CDTkR7oaREwH4xZk"}, {"place_id": "ChIJRaU3o579DDkROpl_DOL9p0s", "name": "Import from China (Pree Import Export Co)", "street": "Mithai Pul, Rui Mandi, Sadar Bazaar, New Delhi, Delhi, 110006, India", "phone": "+91 74054 36196", "rating": "4.8", "review_count": "", "website": "http://www.preeimport.com/", "latitude": 28.6624736, "longitude": 77.2136965, "maps_url": "https://www.google.com/maps/search/?api=1&query=Import%20from%20China%20%28Pree%20Import%20Export%20Co%29&query_place_id=ChIJRaU3o579DDkROpl_DOL9p0s"}, {"place_id": "ChIJcesdOTX9DDkRtlHcx4gT3ds", "name": "Jak Software Pvt Ltd", "street": "52 Janpath, New Delhi, Delhi 110001, India", "phone": "+91 78272 49056", "rating": "4.4", "review_count": "", "website": "http://www.jaksoftware.co.in/", "latitude": 28.627537999999998, "longitude": 77.21878989999999, "maps_url": "https://www.google.com/maps/search/?api=1&query=Jak%20Software%20Pvt%20Ltd&query_place_id=ChIJcesdOTX9DDkRtlHcx4gT3ds"}, {"place_id": "ChIJ7aqqWqz8DDkRgAFAey6rIAo", "name": "𝑨𝑶 𝑺𝒐𝒇𝒕𝒘𝒂𝒓𝒆 𝑺𝒐𝒍𝒖𝒕𝒊𝒐𝒏 Website Designing company-website development company-product promotion and ERP development company", "street": "1B, S-505, School Block, Laxmi Nagar, II, Shakarpur, New Delhi, Delhi, 110092, India", "phone": "+91 11 4260 3444", "rating": "4.8", "review_count": "", "website": "https://aosoftwaresolution.com/", "latitude": 28.6287195, "longitude": 77.2766171, "maps_url": "https://www.google.com/maps/search/?api=1&query=%F0%9D%91%A8%F0%9D%91%B6%20%F0%9D%91%BA%F0%9D%92%90%F0%9D%92%87%F0%9D%92%95%F0%9D%92%98%F0%9D%92%82%F0%9D%92%93%F0%9D%92%86%20%F0%9D%91%BA%F0%9D%92%90%F0%9D%92%8D%F0%9D%92%96%F0%9D%92%95%F0%9D%92%8A%F0%9D%92%90%F0%9D%92%8F%20Website%20Designing%20company-website%20development%20company-product%20promotion%20and%20ERP%20development%20company&query_place_id=ChIJ7aqqWqz8DDkRgAFAey6rIAo"}, {"place_id": "ChIJE_4Tci0dyAYRsVXvsz3K03g", "name": "Asquare Consulting Group", "street": "2745, 2nd Floor, Gali Number 23, Beadonpura, Karol Bagh, Delhi, 110005, India", "phone": "+91 11 4654 2628", "rating": "4.8", "review_count": "", "website": "", "latitude": 28.6516213, "longitude": 77.1919178, "maps_url": "https://www.google.com/maps/search/?api=1&query=Asquare%20Consulting%20Group&query_place_id=ChIJE_4Tci0dyAYRsVXvsz3K03g"}, {"place_id": "ChIJAQDAsHL9DDkRNglClOqAkEM", "name": "IBM TRADING COMPANY.... GOODLUCK HOUSEWARES", "street": "New Market, 5396/ A 1, gupta market gali, Rui Mandi, Sadar Bazaar, New Delhi, Delhi, 110006, India", "phone": "", "rating": "5", "review_count": "", "website": "", "latitude": 28.6598631, "longitude": 77.2149721, "maps_url": "https://www.google.com/maps/search/?api=1&query=IBM%20TRADING%20COMPANY....%20GOODLUCK%20HOUSEWARES&query_place_id=ChIJAQDAsHL9DDkRNglClOqAkEM"}, {"place_id": "ChIJvyvv6ZwCDTkRNT4IC05RZvQ", "name": "I M Enterprises", "street": "Namdhari Chambers, G-15, Desh Bandhu Gupta Rd, Block 56, Karol Bagh, New Delhi, Delhi, 110005, India", "phone": "+91 98100 14287", "rating": "4.4", "review_count": "", "website": "", "latitude": 28.653686099999998, "longitude": 77.19167139999999, "maps_url": "https://www.google.com/maps/search/?api=1&query=I%20M%20Enterprises&query_place_id=ChIJvyvv6ZwCDTkRNT4IC05RZvQ"}, {"place_id": "ChIJf_GPBmf9DDkR-EyK3aivCjA", "name": "ScanBulk Business Solution", "street": "176, 1st floor, Cycle Market, Block E 4, Jhandewalan Extension, Jhandewalan, New Delhi, Delhi 110055, India", "phone": "+91 88793 81599", "rating": "5", "review_count": "", "website": "http://www.scanbulk.co.in//", "latitude": 28.6461734, "longitude": 77.2033424, "maps_url": "https://www.google.com/maps/search/?api=1&query=ScanBulk%20Business%20Solution&query_place_id=ChIJf_GPBmf9DDkR-EyK3aivCjA"}, {"place_id": "ChIJCef7XhT9DDkR3yHHC4Lofpg", "name": "Kalpurja Company", "street": "72, GB Road, Shradhanand Marg, Delhi 6, Chandni Chowk, Delhi, 110006, India", "phone": "", "rating": "4.5", "review_count": "", "website": "http://www.kalpurjacompany.com/", "latitude": 28.650322499999998, "longitude": 77.2209807, "maps_url": "https://www.google.com/maps/search/?api=1&query=Kalpurja%20Company&query_place_id=ChIJCef7XhT9DDkR3yHHC4Lofpg"}, {"place_id": "ChIJd-3rnjD9DDkRC1ouB5NrtvU", "name": "ITI Tools Co (INDIAN TECHNOLOGY CO.)", "street": "3675, Shradhanand Marg, Chabdi Bazar, Ajmeri Gate, New Delhi, Delhi, 110006, India", "phone": "+91 98714 08551", "rating": "3.2", "review_count": "", "website": "", "latitude": 28.648723399999998, "longitude": 77.2218827, "maps_url": "https://www.google.com/maps/search/?api=1&query=ITI%20Tools%20Co%20%28INDIAN%20TECHNOLOGY%20CO.%29&query_place_id=ChIJd-3rnjD9DDkRC1ouB5NrtvU"}, {"place_id": "ChIJEUwFoFYDDTkR42Q8r_BNo3c", "name": "Eagle ace clothing company", "street": "E-16/1176, Tank Rd, near saluja gali gurudwara, Block Number 6, Bapa Nagar, Karol Bagh, New Delhi, Delhi, 110005, India", "phone": "+91 85889 47125", "rating": "5", "review_count": "", "website": "", "latitude": 28.652067199999998, "longitude": 77.182383, "maps_url": "https://www.google.com/maps/search/?api=1&query=Eagle%20ace%20clothing%20company&query_place_id=ChIJEUwFoFYDDTkR42Q8r_BNo3c"}, {"place_id": "ChIJo0TFU3r9DDkRpO6ZlBssh6U", "name": "Prismart Productions", "street": "S.K.Tower, 9988/B-1, Rohtak Rd, Railway Officers Colony, Sarai Rohilla, New Delhi, Delhi, 110005, India", "phone": "+91 85279 96328", "rating": "3.9", "review_count": "", "website": "https://www.prismartstudio.com/", "latitude": 28.663665299999998, "longitude": 77.1827789, "maps_url": "https://www.google.com/maps/search/?api=1&query=Prismart%20Productions&query_place_id=ChIJo0TFU3r9DDkRpO6ZlBssh6U"}, {"place_id": "ChIJ3165gUMCDTkRHl2xEz3JuJM", "name": "Beta Soft Technology", "street": "3933/18, Third Floor, Metro Station, near Kanhiya Nagar, opposite Metro Pillar 224, Kanhiya Nagar, Tri Nagar, Delhi, 110035, India", "phone": "+91 99991 83189", "rating": "4.4", "review_count": "", "website": "https://www.betasofttechnology.com/", "latitude": 28.678439299999997, "longitude": 77.1660351, "maps_url": "https://www.google.com/maps/search/?api=1&query=Beta%20Soft%20Technology&query_place_id=ChIJ3165gUMCDTkRHl2xEz3JuJM"}, {"place_id": "ChIJ____P2f9DDkRK3oP70sP8rA", "name": "KLB Instruments Co. Private Limited", "street": "1E, 17, Link Road, Block E 1, Jhandewalan Extension, Jhandewalan, New Delhi, Delhi 110055, India", "phone": "+91 11 4154 3333", "rating": "4.3", "review_count": "", "website": "https://klb.in/", "latitude": 28.645252, "longitude": 77.20116089999999, "maps_url": "https://www.google.com/maps/search/?api=1&query=KLB%20Instruments%20Co.%20Private%20Limited&query_place_id=ChIJ____P2f9DDkRK3oP70sP8rA"}, {"place_id": "ChIJxQIck4MCDTkRKjv40Ly9L2c", "name": "Atiya Herbs", "street": "21B/6 Basement, New Rohtak Rd, near Liberty Cinema, Block 21 B, Dev Nagar, Karol Bagh, New Delhi, Delhi, 110005, India", "phone": "+91 11 4000 7716", "rating": "3.5", "review_count": "", "website": "http://www.atiyaherbs.com/", "latitude": 28.6598221, "longitude": 77.1885873, "maps_url": "https://www.google.com/maps/search/?api=1&query=Atiya%20Herbs&query_place_id=ChIJxQIck4MCDTkRKjv40Ly9L2c"}, {"place_id": "ChIJl0O_Kun9DDkRRG0USQH2Kuk", "name": "AHLAN TRADER COMPANY", "street": "AHLAN TRADER,BB-115,First Floor Bagrian Basti, Nabi Karim, Paharganj, New Delhi, Delhi 110055, India", "phone": "+91 70422 50150", "rating": "5", "review_count": "", "website": "", "latitude": 28.650358699999998, "longitude": 77.2149998, "maps_url": "https://www.google.com/maps/search/?api=1&query=AHLAN%20TRADER%20COMPANY&query_place_id=ChIJl0O_Kun9DDkRRG0USQH2Kuk"}, {"place_id": "ChIJuyBnjmP9DDkRRLDNseKIcas", "name": "Alpha Advertising co.", "street": "Plot No 1, Abhinash Mansion, Main, Joshi Rd, Karol Bagh, New Delhi, Delhi 110005, India", "phone": "+91 98110 85386", "rating": "5", "review_count": "", "website": "https://www.alphaadvertising.co.in/", "latitude": 28.653791299999998, "longitude": 77.2010801, "maps_url": "https://www.google.com/maps/search/?api=1&query=Alpha%20Advertising%20co.&query_place_id=ChIJuyBnjmP9DDkRRLDNseKIcas"}, {"place_id": "ChIJXTn08c4DDTkRT9BnrXfAETU", "name": "Crocon", "street": "12A/39, 3rd Floor, Saraswati Marg, Block 4, WEA, Karol Bagh, New Delhi, Delhi, 110005, India", "phone": "+91 93153 81913", "rating": "5", "review_count": "", "website": "https://www.theindianhand.com/", "latitude": 28.6478666, "longitude": 77.1873458, "maps_url": "https://www.google.com/maps/search/?api=1&query=Crocon&query_place_id=ChIJXTn08c4DDTkRT9BnrXfAETU"}, {"place_id": "ChIJve_HJ2b9DDkRzJphaUssbtE", "name": "Manu Info Solutions", "street": "51, Rani Jhansi Rd, Motia Khan, Paharganj, New Delhi, Delhi 110055, India", "phone": "+91 87001 32566", "rating": "5", "review_count": "", "website": "http://www.manuinfosolutions.com/", "latitude": 28.6490059, "longitude": 77.2058175, "maps_url": "https://www.google.com/maps/search/?api=1&query=Manu%20Info%20Solutions&query_place_id=ChIJve_HJ2b9DDkRzJphaUssbtE"}, {"place_id": "ChIJAQAAAG_9DDkRBx9VmvyhtcU", "name": "Sushil Trading Company", "street": "4671, B MAHAVIR BAZAR, Cloth Market, Katra Ghel, Khari Baoli, Chandni Chowk, New Delhi, Delhi, 110006, India", "phone": "+91 99535 50208", "rating": "4.6", "review_count": "", "website": "", "latitude": 28.659528299999998, "longitude": 77.2230208, "maps_url": "https://www.google.com/maps/search/?api=1&query=Sushil%20Trading%20Company&query_place_id=ChIJAQAAAG_9DDkRBx9VmvyhtcU"}, {"place_id": "ChIJQU2gj2wDDTkRCtE4pycX5n0", "name": "MARS ACCESSORIES INDIA PRIVATE LIMITED", "street": "5/31, 3rd Floor, Saraswati Marg, Block 5, WEA, Karol Bagh, Delhi, 110005, India", "phone": "+91 87662 67369", "rating": "4.1", "review_count": "", "website": "https://muvit.in/", "latitude": 28.6477078, "longitude": 77.18925829999999, "maps_url": "https://www.google.com/maps/search/?api=1&query=MARS%20ACCESSORIES%20INDIA%20PRIVATE%20LIMITED&query_place_id=ChIJQU2gj2wDDTkRCtE4pycX5n0"}, {"place_id": "ChIJBeA_mXL9DDkRV8aw44epvLE", "name": "Bedi And Company", "street": "Shop No 2745, Chowk Qutub Road, Near Railway Station,Sadar Bazar, Old Delhi, New Delhi, Delhi 110006, India", "phone": "", "rating": "4.5", "review_count": "", "website": "", "latitude": 28.657822, "longitude": 77.21571949999999, "maps_url": "https://www.google.com/maps/search/?api=1&query=Bedi%20And%20Company&query_place_id=ChIJBeA_mXL9DDkRV8aw44epvLE"}, {"place_id": "ChIJjcZpn6UGDTkRPRUJ1Y8OFng", "name": "UniSpark Innovation", "street": "1st Floor, Unispark innovation Pvt. ltd, B-39, Middle Cir, Block B, Connaught Place, New Delhi, Delhi 110001, India", "phone": "+91 88600 77276", "rating": "5", "review_count": "", "website": "https://www.unisparkinnovation.com/", "latitude": 28.633904299999998, "longitude": 77.21771, "maps_url": "https://www.google.com/maps/search/?api=1&query=UniSpark%20Innovation&query_place_id=ChIJjcZpn6UGDTkRPRUJ1Y8OFng"}, {"place_id": "ChIJ5yerH58CDTkRtpzTUg01KdA", "name": "Niva Bupa Health Insurance Company Limited", "street": "No 39, 3rd Floor, Samyak Towers, Pusa Rd, Block 9A, WEA, Karol Bagh, New Delhi, Delhi, 110005, India", "phone": "+91 1800 309 3333", "rating": "3.5", "review_count": "", "website": "https://health-insurance-nearme.nivabupa.com/niva-bupa-health-insurance-company-limited-insurance-company-wea-karol-bagh-new-delhi-200869/Home?utm_source=locator&utm_medium=googleplaces", "latitude": 28.6436247, "longitude": 77.1847748, "maps_url": "https://www.google.com/maps/search/?api=1&query=Niva%20Bupa%20Health%20Insurance%20Company%20Limited&query_place_id=ChIJ5yerH58CDTkRtpzTUg01KdA"}, {"place_id": "ChIJV1VVlS8BDTkRTf1pyX4xjSw", "name": "Gifts & Promotions International", "street": "10954, 1st Floor, Gali No. 5, Block 69D, Dori Walan, Karol Bagh, New Delhi, Delhi, 110005, India", "phone": "+91 78383 20714", "rating": "4.9", "review_count": "", "website": "https://www.allcorporategifts.com/", "latitude": 28.6563682, "longitude": 77.20081189999999, "maps_url": "https://www.google.com/maps/search/?api=1&query=Gifts%20%26%20Promotions%20International&query_place_id=ChIJV1VVlS8BDTkRTf1pyX4xjSw"}, {"place_id": "ChIJ48Zm1_P8DDkRFJuFgn5LWK4", "name": "Shri Tapodhani Aluminium Trading Company", "street": "Xv 2758, Street No. 6, near banke bihari mandir, Bazar Sangatrashan, Chuna Mandi, Paharganj, New Delhi, Delhi 110055, India", "phone": "+91 99110 87778", "rating": "4.8", "review_count": "", "website": "https://tapodhani.com/", "latitude": 28.6435481, "longitude": 77.21105469999999, "maps_url": "https://www.google.com/maps/search/?api=1&query=Shri%20Tapodhani%20Aluminium%20Trading%20Company&query_place_id=ChIJ48Zm1_P8DDkRFJuFgn5LWK4"}, {"place_id": "ChIJp6_DJi39DDkRG-dNCC6XKh4", "name": "PageX Technology ®", "street": "Safar News Lane, Prem Nagar, Block 22, Shakti Nagar, Delhi, 110007, India", "phone": "+91 88826 73977", "rating": "5", "review_count": "", "website": "http://www.pagextechnology.com/", "latitude": 28.6806846, "longitude": 77.1989744, "maps_url": "https://www.google.com/maps/search/?api=1&query=PageX%20Technology%20%C2%AE&query_place_id=ChIJp6_DJi39DDkRG-dNCC6XKh4"}, {"place_id": "ChIJpf__r88EDTkRLb071jNqL4U", "name": "Kitchen Champion Basmati Rice , By Green India Rice Millers and exporters private limited", "street": "2nd floor, Maruti Bhawan Building, 210-11, 2618-19, Naya Bazar, Delhi, New Delhi, Delhi 110006, India", "phone": "+91 95608 42348", "rating": "4.5", "review_count": "", "website": "https://greenindiarice.com/", "latitude": 28.659029, "longitude": 77.219319, "maps_url": "https://www.google.com/maps/search/?api=1&query=Kitchen%20Champion%20Basmati%20Rice%20%2C%20By%20Green%20India%20Rice%20Millers%20and%20exporters%20private%20limited&query_place_id=ChIJpf__r88EDTkRLb071jNqL4U"}, {"place_id": "ChIJCa3hOGj9DDkRpRtdyEoes44", "name": "A S N & COMPANY, Chartered Accountants", "street": "A-209 RG, City Centre, DDA COMMUNITY CENTRE, A-305, A-306, Plot No 4, Desh Bandhu Gupta Rd, adjacent to Novotel Hotel, Paharganj, New Delhi, Delhi 110055, India", "phone": "+91 11 4356 2313", "rating": "4.7", "review_count": "", "website": "http://asnandco.com/", "latitude": 28.646611699999998, "longitude": 77.2077482, "maps_url": "https://www.google.com/maps/search/?api=1&query=A%20S%20N%20%26%20COMPANY%2C%20Chartered%20Accountants&query_place_id=ChIJCa3hOGj9DDkRpRtdyEoes44"}, {"place_id": "ChIJK6kJh4EDDTkRbCZ0HSHv31c", "name": "Onlincer", "street": "", "phone": "", "rating": "5", "review_count": "", "website": "http://www.directappoint.com/", "latitude": 9.374110199999999, "longitude": -74.9524576, "maps_url": "https://www.google.com/maps/search/?api=1&query=Onlincer&query_place_id=ChIJK6kJh4EDDTkRbCZ0HSHv31c"}, {"place_id": "ChIJy7DDiosDDTkRPkiXRAOvmGQ", "name": "FUTURE ENERGY", "street": "2C, 19, New Rohtak Rd, Block 57, Karol Bagh, New Delhi, Delhi, 110005, India", "phone": "+91 98719 67776", "rating": "4.7", "review_count": "", "website": "http://futureenergy.co.in/", "latitude": 28.6547368, "longitude": 77.1996736, "maps_url": "https://www.google.com/maps/search/?api=1&query=FUTURE%20ENERGY&query_place_id=ChIJy7DDiosDDTkRPkiXRAOvmGQ"}, {"place_id": "ChIJn3lmq6T9DDkRuJFJBZmXzf4", "name": "Shri Santoshi Trading | Best Trading & Manufacturing Company in Delhi", "street": "3719,Ground floor, Roshanara Road, Gali Kumharo Wali, near Metro Station Pulbangash, Delhi, 110007, India", "phone": "+91 81786 61637", "rating": "5", "review_count": "", "website": "http://www.shrisantoshitrading.com/", "latitude": 28.666397999999997, "longitude": 77.2073716, "maps_url": "https://www.google.com/maps/search/?api=1&query=Shri%20Santoshi%20Trading%20%7C%20Best%20Trading%20%26%20Manufacturing%20Company%20in%20Delhi&query_place_id=ChIJn3lmq6T9DDkRuJFJBZmXzf4"}, {"place_id": "ChIJsb3kahL9DDkRL6gg6ZvlHaE", "name": "Rajiv Trading Co", "street": "399, Khari Baoli Rd, Katra Pedan, Khari Baoli, Old Delhi, Delhi, 110006, India", "phone": "+91 98688 18111", "rating": "5", "review_count": "", "website": "", "latitude": 28.6573139, "longitude": 77.22196009999999, "maps_url": "https://www.google.com/maps/search/?api=1&query=Rajiv%20Trading%20Co&query_place_id=ChIJsb3kahL9DDkRL6gg6ZvlHaE"}, {"place_id": "ChIJ8WEQONj9DDkRTD63j5K2KVI", "name": "Jai Sidhi Enterprises Pvt. Ltd.", "street": "Building No. 49, 3rd Floor, Rani Jhansi Rd, Bara Hindu Rao, Sadar Bazaar, New Delhi, Delhi, 110006, India", "phone": "+91 98116 54442", "rating": "4.4", "review_count": "", "website": "https://www.jaisidhienterprises.com/home-loan-1", "latitude": 28.662182899999998, "longitude": 77.20718269999999, "maps_url": "https://www.google.com/maps/search/?api=1&query=Jai%20Sidhi%20Enterprises%20Pvt.%20Ltd.&query_place_id=ChIJ8WEQONj9DDkRTD63j5K2KVI"}, {"place_id": "ChIJHy_mJJwCDTkRjjWBA338368", "name": "Lahore Watch Co.", "street": "Shop No. 112, Shop No. 112 113 Ghaffar Market, Block, 113, Ghaffar Market, Block 23, Beadonpura, Karol Bagh, New Delhi, Delhi 110005, India", "phone": "+91 99996 68166", "rating": "4.8", "review_count": "", "website": "http://lahorewatchco.com/", "latitude": 28.649777999999998, "longitude": 77.191687, "maps_url": "https://www.google.com/maps/search/?api=1&query=Lahore%20Watch%20Co.&query_place_id=ChIJHy_mJJwCDTkRjjWBA338368"}, {"place_id": "ChIJV5b4yDX9DDkRdJwaZgRwvK0", "name": "Sterco Digitex Pvt Limited", "street": "2nd Floor, 72, Janpath Rd, Atul Grove Road, Janpath, Connaught Place, New Delhi, Delhi 110001, India", "phone": "+91 120 485 7333", "rating": "4.1", "review_count": "", "website": "https://www.stercodigitex.com/", "latitude": 28.628133, "longitude": 77.21985099999999, "maps_url": "https://www.google.com/maps/search/?api=1&query=Sterco%20Digitex%20Pvt%20Limited&query_place_id=ChIJV5b4yDX9DDkRdJwaZgRwvK0"}, {"place_id": "ChIJ4_QbqvQDDTkRUV17EnOsFkk", "name": "QSpiders Delhi", "street": "No. 8/3, Part, Fourth Floor, Western Extn Karol Bagh Colony, Rajender Nagar Ward, Zone, Karol Bagh, New Delhi, Delhi 110005, India", "phone": "+91 89519 38997", "rating": "4.7", "review_count": "", "website": "https://qspiders.com/", "latitude": 28.645386499999997, "longitude": 77.1922999, "maps_url": "https://www.google.com/maps/search/?api=1&query=QSpiders%20Delhi&query_place_id=ChIJ4_QbqvQDDTkRUV17EnOsFkk"}, {"place_id": "ChIJKbimZH39DDkRYbtIOIRUirU", "name": "Unayur marketing", "street": "M55V+2XJ, New Rohtak Rd, Block 67, Karol Bagh, New Delhi, Delhi, 110005, India", "phone": "+91 11 4950 4100", "rating": "3.4", "review_count": "", "website": "https://www.unayur.com/", "latitude": 28.6575983, "longitude": 77.1948822, "maps_url": "https://www.google.com/maps/search/?api=1&query=Unayur%20marketing&query_place_id=ChIJKbimZH39DDkRYbtIOIRUirU"}, {"place_id": "ChIJC9l7iRH9DDkRjpc4hrKQdzo", "name": "Rama Watch Company", "street": "297, Chandni Chowk Rd, Fatehpuri, Chandni Chowk, New Delhi, Delhi, 110006, India", "phone": "", "rating": "4.1", "review_count": "", "website": "https://ramawatchcompany.co.in/", "latitude": 28.656529, "longitude": 77.223474, "maps_url": "https://www.google.com/maps/search/?api=1&query=Rama%20Watch%20Company&query_place_id=ChIJC9l7iRH9DDkRjpc4hrKQdzo"}, {"place_id": "ChIJZaMa2J4CDTkRBH_8IS-hLxI", "name": "Harish Chandra & Co", "street": "Swastic Bhavan, 13/ 18, Ajmal Khan Rd, Block 13, WEA, Karol Bagh, New Delhi, Delhi, 110005, India", "phone": "+91 11 2572 4566", "rating": "3.8", "review_count": "", "website": "", "latitude": 28.6485083, "longitude": 77.19079239999999, "maps_url": "https://www.google.com/maps/search/?api=1&query=Harish%20Chandra%20%26%20Co&query_place_id=ChIJZaMa2J4CDTkRBH_8IS-hLxI"}, {"place_id": "ChIJX9eDUEX9DDkRoR6efKRhUnw", "name": "Anu & Company", "street": "2nd Floor, 10703, Jhandewalan Rd, Nabi Karim, Paharganj, New Delhi, Delhi, 110055, India", "phone": "+91 87004 80022", "rating": "4.8", "review_count": "", "website": "https://anucompany.in/", "latitude": 28.651619699999998, "longitude": 77.2130291, "maps_url": "https://www.google.com/maps/search/?api=1&query=Anu%20%26%20Company&query_place_id=ChIJX9eDUEX9DDkRoR6efKRhUnw"}, {"place_id": "ChIJi9xqgp4CDTkRrhCdoDBCS5k", "name": "Narang Shoe Company", "street": "Shop No. 28 Gaffar Market, Karol Bagh, New Delhi, Delhi 110005, India", "phone": "+91 98711 76126", "rating": "4.1", "review_count": "", "website": "", "latitude": 28.6493275, "longitude": 77.19111079999999, "maps_url": "https://www.google.com/maps/search/?api=1&query=Narang%20Shoe%20Company&query_place_id=ChIJi9xqgp4CDTkRrhCdoDBCS5k"}, {"place_id": "ChIJ9WQmtZ4CDTkR1WdeOxHFcno", "name": "Galaxy Appliances", "street": "5/2, opposite Suruchi restaurant, Block 5, WEA, Karol Bagh, Delhi, 110005, India", "phone": "+91 98100 08066", "rating": "4.7", "review_count": "", "website": "http://www.indiamart.com/galaxyappliances-Delhi", "latitude": 28.647277, "longitude": 77.188588, "maps_url": "https://www.google.com/maps/search/?api=1&query=Galaxy%20Appliances&query_place_id=ChIJ9WQmtZ4CDTkR1WdeOxHFcno"}, {"place_id": "ChIJUWJcVBX9DDkRFlsTCXnWUi0", "name": "Geeta Marble Company", "street": "7550, J6W9+M4F, Pearey Lal Bhawan, Qutab Rd, Prem Nagar, Ram Nagar, Paharganj, New Delhi, Delhi, 110055, India", "phone": "+91 98100 15799", "rating": "4.8", "review_count": "", "website": "", "latitude": 28.6467945, "longitude": 77.2177787, "maps_url": "https://www.google.com/maps/search/?api=1&query=Geeta%20Marble%20Company&query_place_id=ChIJUWJcVBX9DDkRFlsTCXnWUi0"}, {"place_id": "ChIJpzprTP_9DDkR4U2tSfLEEXQ", "name": "Narayan Trading Co- Best Toys Shop in Sadar Bazar Delhi.", "street": "2nd Floor, Beliram Market, Shop no, 2873/14, Chowk, Teliwara, Sadar Bazaar, Delhi, 110006, India", "phone": "+91 95820 21506", "rating": "4.8", "review_count": "", "website": "", "latitude": 28.6595463, "longitude": 77.21592679999999, "maps_url": "https://www.google.com/maps/search/?api=1&query=Narayan%20Trading%20Co-%20Best%20Toys%20Shop%20in%20Sadar%20Bazar%20Delhi.&query_place_id=ChIJpzprTP_9DDkR4U2tSfLEEXQ"}, {"place_id": "ChIJaSXBoBL9DDkR8o5yVmOvD-w", "name": "Kanpur Delhi Goods Carriers Ltd.", "street": "4110, Naya Bazar Rd, Rui Mandi, Sadar Bazaar, Delhi, 110006, India", "phone": "+91 11 4151 4110", "rating": "3.2", "review_count": "", "website": "http://www.kdgc.in/", "latitude": 28.6600142, "longitude": 77.2182952, "maps_url": "https://www.google.com/maps/search/?api=1&query=Kanpur%20Delhi%20Goods%20Carriers%20Ltd.&query_place_id=ChIJaSXBoBL9DDkR8o5yVmOvD-w"}, {"place_id": "ChIJz_pOD4b9DDkRXClfFZyE_r0", "name": "SJ Security Systems Pvt Ltd", "street": "2705/24, Second Floor, Bank St, Karol Bagh, New Delhi, Delhi 110005, India", "phone": "+91 99100 57500", "rating": "5", "review_count": "", "website": "https://www.sjsecurity.com/", "latitude": 28.6514208, "longitude": 77.1926269, "maps_url": "https://www.google.com/maps/search/?api=1&query=SJ%20Security%20Systems%20Pvt%20Ltd&query_place_id=ChIJz_pOD4b9DDkRXClfFZyE_r0"}, {"place_id": "ChIJgcl_WDj9DDkREvW8YyX1uvk", "name": "ALLIED BOOK COMPANY", "street": "Gokhale Market, F-4, opp. Tis Hazari, Courts, Tis Hazari, Delhi, 110006, India", "phone": "+91 99588 59973", "rating": "4.8", "review_count": "", "website": "https://alliedbookco.in/", "latitude": 28.6654113, "longitude": 77.2207583, "maps_url": "https://www.google.com/maps/search/?api=1&query=ALLIED%20BOOK%20COMPANY&query_place_id=ChIJgcl_WDj9DDkREvW8YyX1uvk"}, {"place_id": "ChIJiwPCn1cDDTkRZReajY3KiX0", "name": "Appfinz Technologies", "street": "Nr Deep Chand Bandhu Hospital, B590 Ground Floor, Bunkar Colony, Phase 4, Ashok Vihar, New Delhi, Delhi 110052, India", "phone": "+91 83407 25097", "rating": "4.8", "review_count": "", "website": "https://www.appfinz.com/", "latitude": 28.682956299999997, "longitude": 77.17736959999999, "maps_url": "https://www.google.com/maps/search/?api=1&query=Appfinz%20Technologies&query_place_id=ChIJiwPCn1cDDTkRZReajY3KiX0"}, {"place_id": "ChIJ57xZTpgCDTkRYjnFNtZRjs8", "name": "Multicolor Steel Pvt Ltd", "street": "White House, 1/18-20, Rani Jhansi Rd, Type 4, Block B, Aram Bagh, Jhandewalan, New Delhi, Delhi 110055, India", "phone": "+91 78273 13233", "rating": "4.2", "review_count": "", "website": "https://www.multicolorsteel.com/", "latitude": 28.6427418, "longitude": 77.20515069999999, "maps_url": "https://www.google.com/maps/search/?api=1&query=Multicolor%20Steel%20Pvt%20Ltd&query_place_id=ChIJ57xZTpgCDTkRYjnFNtZRjs8"}, {"place_id": "ChIJ5REwhnP9DDkRTxH4CuwV5n0", "name": "Fancy Trading Co.", "street": "9648/4, Library Rd, Azad Market, Nawabganj, Tis Hazari, New Delhi, Delhi, 110006, India", "phone": "+91 98100 81381", "rating": "4.1", "review_count": "", "website": "", "latitude": 28.663316799999997, "longitude": 77.2122572, "maps_url": "https://www.google.com/maps/search/?api=1&query=Fancy%20Trading%20Co.&query_place_id=ChIJ5REwhnP9DDkRTxH4CuwV5n0"}, {"place_id": "ChIJG8rmtIz9DDkR1UFG65kfR2Q", "name": "Parnami & co", "street": "5903/7, Ground floor, Shankar Market, Central, Nabi Karim, Paharganj, New Delhi, Delhi, 110055, India", "phone": "+91 98116 06083", "rating": "4.7", "review_count": "", "website": "", "latitude": 28.6525924, "longitude": 77.2136395, "maps_url": "https://www.google.com/maps/search/?api=1&query=Parnami%20%26%20co&query_place_id=ChIJG8rmtIz9DDkR1UFG65kfR2Q"}, {"place_id": "ChIJVVkZANEFDTkREuPMUDxEtVc", "name": "Yogesher India", "street": "2nd Floor, 2E, 8, Jhandewalan Rd, Block E 1, Jhandewalan Extension, Karol Bagh, New Delhi, Delhi 110055, India", "phone": "+91 11 4102 0647", "rating": "3.5", "review_count": "", "website": "https://www.yogesher.com/", "latitude": 28.6449534, "longitude": 77.2012128, "maps_url": "https://www.google.com/maps/search/?api=1&query=Yogesher%20India&query_place_id=ChIJVVkZANEFDTkREuPMUDxEtVc"}, {"place_id": "ChIJq6q2H5wCDTkRppYnUcFbRVo", "name": "Makpower Mobile Accessories Manufacturer Delhi", "street": "1st floor, 5/31, Block 5, WEA, Karol Bagh, New Delhi, Delhi, 110005, India", "phone": "+91 78279 76524", "rating": "4.6", "review_count": "", "website": "https://makpowerindia.com/", "latitude": 28.648004699999998, "longitude": 77.189694, "maps_url": "https://www.google.com/maps/search/?api=1&query=Makpower%20Mobile%20Accessories%20Manufacturer%20Delhi&query_place_id=ChIJq6q2H5wCDTkRppYnUcFbRVo"}, {"place_id": "ChIJbaIAUT77DDkRqTREkokl8Iw", "name": "Arata Universal Co.", "street": "971/6, Motia Khan, Sadar Bazaar, New Delhi, Delhi, 110006, India", "phone": "+91 99994 80416", "rating": "4.5", "review_count": "", "website": "", "latitude": 28.656750499999998, "longitude": 77.2149841, "maps_url": "https://www.google.com/maps/search/?api=1&query=Arata%20Universal%20Co.&query_place_id=ChIJbaIAUT77DDkRqTREkokl8Iw"}, {"place_id": "ChIJM32GX2D9DDkRDTQwGBm5vus", "name": "Sethi Steel Fabricator Safe and Almirah co.", "street": "Shop No. T- 2313, Opp. Federal Bank , Near Hanuman Statue, Faiz Road, Karol Bagh, New Delhi, Delhi 110005, India", "phone": "+91 96501 41432", "rating": "4.4", "review_count": "", "website": "http://www.sethisteelfabricator.com/", "latitude": 28.646075399999997, "longitude": 77.1973336, "maps_url": "https://www.google.com/maps/search/?api=1&query=Sethi%20Steel%20Fabricator%20Safe%20and%20Almirah%20co.&query_place_id=ChIJM32GX2D9DDkRDTQwGBm5vus"}, {"place_id": "ChIJ8WyuOA39DDkRxAqtXCS8M7g", "name": "ATC", "street": "ATC House, 3981-83, Naya Bazar Rd, Chhota Chamarwara, Khari Baoli, Chandni Chowk, New Delhi, Delhi, 110006, India", "phone": "", "rating": "3.7", "review_count": "", "website": "http://www.atcls.net/", "latitude": 28.6588061, "longitude": 77.2186825, "maps_url": "https://www.google.com/maps/search/?api=1&query=ATC&query_place_id=ChIJ8WyuOA39DDkRxAqtXCS8M7g"}, {"place_id": "ChIJ30pGziMTFgQRpUN9k_pVjjQ", "name": "Tech Variant - website design company in delhi & digital Marketing company in delhi", "street": "Gate Number 2, Mandi Metro Station, A-98, near by model town 3, Commercial Complex, Azadpur, Delhi, 110033, India", "phone": "", "rating": "4.7", "review_count": "", "website": "https://techvariant.in/", "latitude": 28.710400999999997, "longitude": 77.1783337, "maps_url": "https://www.google.com/maps/search/?api=1&query=Tech%20Variant%20-%20website%20design%20company%20in%20delhi%20%26%20digital%20Marketing%20company%20in%20delhi&query_place_id=ChIJ30pGziMTFgQRpUN9k_pVjjQ"}, {"place_id": "ChIJRS_wD6HkDDkRZooGNZdgPLg", "name": "Digital Marketing Services India - Online Marketing Agency Delhi", "street": "", "phone": "+91 98993 79529", "rating": "4.5", "review_count": "", "website": "https://digitalmarketingservicesindia.in/", "latitude": 14.157641199999999, "longitude": -71.6028869, "maps_url": "https://www.google.com/maps/search/?api=1&query=Digital%20Marketing%20Services%20India%20-%20Online%20Marketing%20Agency%20Delhi&query_place_id=ChIJRS_wD6HkDDkRZooGNZdgPLg"}, {"place_id": "ChIJ5XAX8V39DDkR4gQP6Af1-9E", "name": "Adio Brand Solutions : Digital Marketing Agency", "street": "2-E, Block E 3, Jhandewalan Extension, Jhandewalan, New Delhi, Delhi 110055, India", "phone": "+91 98995 66665", "rating": "5", "review_count": "", "website": "https://www.adiobrandsolutions.com/", "latitude": 28.6453027, "longitude": 77.2027925, "maps_url": "https://www.google.com/maps/search/?api=1&query=Adio%20Brand%20Solutions%20%3A%20Digital%20Marketing%20Agency&query_place_id=ChIJ5XAX8V39DDkR4gQP6Af1-9E"}, {"place_id": "ChIJ5yN5WdIDDTkRHoyrVMZevAA", "name": "RockMusic", "street": "Patel Plaza, 4/75, Saraswati Marg, Block 4, WEA, Karol Bagh, Delhi, 110005, India", "phone": "", "rating": "5", "review_count": "", "website": "https://www.rockmusic.life/", "latitude": 28.6480203, "longitude": 77.18876569999999, "maps_url": "https://www.google.com/maps/search/?api=1&query=RockMusic&query_place_id=ChIJ5yN5WdIDDTkRHoyrVMZevAA"}, {"place_id": "ChIJ5cmuhRL9DDkReKKJUG8TYys", "name": "Amawat - SFS & Co. - Manufacturer & Retailer of Mukhwas, Mouth Freshener, Aam Papad, Saunf in India", "street": "1868, Kucha Chelan, Naya Bans, Naya Bazar, Khari Baoli, Chandni Chowk, Delhi, 110006, India", "phone": "+91 95996 19091", "rating": "5", "review_count": "", "website": "https://www.amawat.co.in/", "latitude": 28.657425999999997, "longitude": 77.2198828, "maps_url": "https://www.google.com/maps/search/?api=1&query=Amawat%20-%20SFS%20%26%20Co.%20-%20Manufacturer%20%26%20Retailer%20of%20Mukhwas%2C%20Mouth%20Freshener%2C%20Aam%20Papad%2C%20Saunf%20in%20India&query_place_id=ChIJ5cmuhRL9DDkReKKJUG8TYys"}, {"place_id": "ChIJW-zNhA39DDkRgu-9RV8Mk2c", "name": "Suresh Trading Co.", "street": "139, Tilak Bazar, Khari Baoli, Old Delhi, New Delhi, Delhi, 110006, India", "phone": "+91 11 2391 5678", "rating": "5", "review_count": "", "website": "http://www.sureshtrading.in/", "latitude": 28.6584945, "longitude": 77.2207878, "maps_url": "https://www.google.com/maps/search/?api=1&query=Suresh%20Trading%20Co.&query_place_id=ChIJW-zNhA39DDkRgu-9RV8Mk2c"}, {"place_id": "ChIJ5REwhnP9DDkR6h-4XO8EeCE", "name": "Wadhawan Canvas company", "street": "252, Azad Market, Mithai Pul, Teliwara, Sadar Bazaar, New Delhi, Delhi, 110006, India", "phone": "+91 98111 62636", "rating": "4.9", "review_count": "", "website": "http://wadhawancanvas.co.in/", "latitude": 28.662838899999997, "longitude": 77.2139965, "maps_url": "https://www.google.com/maps/search/?api=1&query=Wadhawan%20Canvas%20company&query_place_id=ChIJ5REwhnP9DDkR6h-4XO8EeCE"}, {"place_id": "ChIJcZZw2GP9DDkRo45qdQn9XRs", "name": "BHAMBRI SOLAR PRIVATE LIMITED", "street": "794, Joshi Rd, Block A, Karol Bagh, New Delhi, Delhi, 110005, India", "phone": "+91 11 2354 1114", "rating": "3.8", "review_count": "", "website": "http://www.kingsunsolarproducts.com/", "latitude": 28.650143999999997, "longitude": 77.198095, "maps_url": "https://www.google.com/maps/search/?api=1&query=BHAMBRI%20SOLAR%20PRIVATE%20LIMITED&query_place_id=ChIJcZZw2GP9DDkRo45qdQn9XRs"}, {"place_id": "ChIJ28mlS2b9DDkRXJvKHZO1SbY", "name": "Supervac Industries LLP - Vacuum Pump Oil", "street": "B-21, Desh Bandhu Gupta Rd, Block E, Jhandewalan Extension, Jhandewalan, New Delhi, Delhi 110055, India", "phone": "+91 11 4356 4967", "rating": "4.2", "review_count": "", "website": "https://www.supervacoils.com/", "latitude": 28.647511899999998, "longitude": 77.2049085, "maps_url": "https://www.google.com/maps/search/?api=1&query=Supervac%20Industries%20LLP%20-%20Vacuum%20Pump%20Oil&query_place_id=ChIJ28mlS2b9DDkRXJvKHZO1SbY"}, {"place_id": "ChIJE0TwoGj9DDkRkJq7i9GWxpE", "name": "Xfas Logistics Pvt. Ltd", "street": "75, 1st Floor, Rani Jhansi Rd, Motia Khan, Sadar Bazaar, Delhi, New Delhi, Delhi 110055, India", "phone": "+91 78100 02244", "rating": "2.6", "review_count": "", "website": "http://www.xfas.in/", "latitude": 28.649903, "longitude": 77.2062316, "maps_url": "https://www.google.com/maps/search/?api=1&query=Xfas%20Logistics%20Pvt.%20Ltd&query_place_id=ChIJE0TwoGj9DDkRkJq7i9GWxpE"}, {"place_id": "ChIJGx0Mrjf9DDkRwLZIK37YPfo", "name": "Holidays 2 Cherish Travel Company", "street": "Second floor, 16/10164, Landmark:, Padam Singh Rd, opposite Shastri car Parking entrance, Block 15, WEA, Karol Bagh, New Delhi, Delhi, 110005, India", "phone": "", "rating": "4.7", "review_count": "", "website": "http://www.holidays2cherish.com/", "latitude": 28.647129999999997, "longitude": 77.19254149999999, "maps_url": "https://www.google.com/maps/search/?api=1&query=Holidays%202%20Cherish%20Travel%20Company&query_place_id=ChIJGx0Mrjf9DDkRwLZIK37YPfo"}, {"place_id": "ChIJNzGy7LYDDTkRNXf56mjXolg", "name": "The Creation", "street": "4th Floor, 17, Pusa Rd, Block 8, WEA, Karol Bagh, New Delhi, Delhi, 110005, India", "phone": "+91 98184 05894", "rating": "4.5", "review_count": "", "website": "http://www.thecreation.in/", "latitude": 28.64474, "longitude": 77.191228, "maps_url": "https://www.google.com/maps/search/?api=1&query=The%20Creation&query_place_id=ChIJNzGy7LYDDTkRNXf56mjXolg"}, {"place_id": "ChIJt7QR--b9DDkRFHrGVoPFoqg", "name": "Ram Dev & Company", "street": "135, Khari Baoli Rd, Gadodia Market, Fatehpuri, Chandni Chowk, New Delhi, Delhi, 110006, India", "phone": "+91 98739 30467", "rating": "4.6", "review_count": "", "website": "https://hing.co.in/", "latitude": 28.6568659, "longitude": 77.22164289999999, "maps_url": "https://www.google.com/maps/search/?api=1&query=Ram%20Dev%20%26%20Company&query_place_id=ChIJt7QR--b9DDkRFHrGVoPFoqg"}, {"place_id": "ChIJV9lA-VsZDTkRn2UGejv7_GA", "name": "MobiGarage", "street": "18/23, 2nd Floor, near Southern Hotel,( Above: City Union Bank, Block 69B, WEA, Karol Bagh, Delhi, 110005, India", "phone": "+91 99991 23511", "rating": "4.2", "review_count": "", "website": "https://www.mobigarage.com/", "latitude": 28.657248199999998, "longitude": 77.1977728, "maps_url": "https://www.google.com/maps/search/?api=1&query=MobiGarage&query_place_id=ChIJV9lA-VsZDTkRn2UGejv7_GA"}, {"place_id": "ChIJAQDAsHL9DDkRIVDM37g5JbI", "name": "Dua Optical Company", "street": "1673-1675, Near Novelty Cinema, Shyama Prasad Mukherji Marg, New Delhi, Delhi 110006, India", "phone": "+91 85278 72727", "rating": "4.8", "review_count": "", "website": "", "latitude": 28.661225199999997, "longitude": 77.2209874, "maps_url": "https://www.google.com/maps/search/?api=1&query=Dua%20Optical%20Company&query_place_id=ChIJAQDAsHL9DDkRIVDM37g5JbI"}, {"place_id": "ChIJIzchGRL9DDkR0YE-lehiyZA", "name": "Samridhi Trading Co.", "street": "6523, Khari Baoli Rd, Fatehpuri, Old Delhi, New Delhi, Delhi, 110006, India", "phone": "+91 98115 69008", "rating": "1.8", "review_count": "", "website": "", "latitude": 28.657068499999998, "longitude": 77.2231752, "maps_url": "https://www.google.com/maps/search/?api=1&query=Samridhi%20Trading%20Co.&query_place_id=ChIJIzchGRL9DDkR0YE-lehiyZA"}, {"place_id": "ChIJN65gUXj9DDkRv5z67NS47dA", "name": "North Eastern Carrying Corporation Ltd. (NECC)", "street": "9062/47, Azad Market Rd, Naya Mohalla, Ram Bagh, Sadar Bazaar, Delhi, 110006, India", "phone": "+91 11 2351 7516", "rating": "3.7", "review_count": "", "website": "http://www.neccgroup.com/", "latitude": 28.6651417, "longitude": 77.2060087, "maps_url": "https://www.google.com/maps/search/?api=1&query=North%20Eastern%20Carrying%20Corporation%20Ltd.%20%28NECC%29&query_place_id=ChIJN65gUXj9DDkRv5z67NS47dA"}]