[{"place_id": "ChIJA6KtL5kCDTkR7wFe_OSD2bE", "name": "Omniscient IT Solutions Pvt. Ltd", "street": "4, 28, Saraswati Marg, Block 15A, WEA, Karol Bagh, New Delhi, Delhi, 110005, India", "phone": "+91 98110 27310", "rating": "4.6", "review_count": "", "website": "https://www.omniscientitsolutions.com/", "latitude": 28.646959, "longitude": 77.1882229, "maps_url": "https://www.google.com/maps/search/?api=1&query=Omniscient%20IT%20Solutions%20Pvt.%20Ltd&query_place_id=ChIJA6KtL5kCDTkR7wFe_OSD2bE"}, {"place_id": "ChIJL4BtX1wdDTkRIiNTpELCuuM", "name": "Nobilitas Infotech Pvt. Ltd. - IT Solutions Company", "street": "Padma Tower II, 210, Rajendra Place, New Delhi, Delhi 110005, India", "phone": "+91 84483 84926", "rating": "5", "review_count": "", "website": "https://www.nobilitasinfotech.com/", "latitude": 28.6451836, "longitude": 77.1780375, "maps_url": "https://www.google.com/maps/search/?api=1&query=Nobilitas%20Infotech%20Pvt.%20Ltd.%20-%20IT%20Solutions%20Company&query_place_id=ChIJL4BtX1wdDTkRIiNTpELCuuM"}, {"place_id": "ChIJAQAAQDsDDTkRJlm910wIAhA", "name": "eFacto®️.cloud ERP", "street": "Gagandeep Building, 509-511, Rajendra Place, New Delhi, Delhi 110060, India", "phone": "", "rating": "4.8", "review_count": "", "website": "https://www.efacto.in/", "latitude": 28.643101599999998, "longitude": 77.1783706, "maps_url": "https://www.google.com/maps/search/?api=1&query=eFacto%C2%AE%EF%B8%8F.cloud%20ERP&query_place_id=ChIJAQAAQDsDDTkRJlm910wIAhA"}, {"place_id": "ChIJ____ewXiDDkRWkRWfPl6bfA", "name": "BNG Infotech Private Limited", "street": "509-511 Gagandeep Building, Rajendra Place, New Delhi, Delhi 110008, India", "phone": "+91 81006 41006", "rating": "4.4", "review_count": "", "website": "https://www.bng.co.in/", "latitude": 28.6439304, "longitude": 77.1772003, "maps_url": "https://www.google.com/maps/search/?api=1&query=BNG%20Infotech%20Private%20Limited&query_place_id=ChIJ____ewXiDDkRWkRWfPl6bfA"}, {"place_id": "ChIJH5W-35UCDTkRV4TEq7lGHtE", "name": "Webtel Electrosoft Ltd.", "street": "1st Floor, Rattan Jyoti Building, 110-114, 18, Rajendra Place, New Delhi, Delhi 110008, India", "phone": "+91 11 4505 4000", "rating": "3.9", "review_count": "", "website": "https://webtel.in/", "latitude": 28.644031199999997, "longitude": 77.1772288, "maps_url": "https://www.google.com/maps/search/?api=1&query=Webtel%20Electrosoft%20Ltd.&query_place_id=ChIJH5W-35UCDTkRV4TEq7lGHtE"}, {"place_id": "ChIJFeXlTZkCDTkRNw2aQAO8CNk", "name": "Himalayan IT Solutions | Best Website Designing Company in Delhi | SEO/Digital Marketing Company in Delhi NCR, India", "street": "61/4255, Padam Singh Rd, Block 29, Block 1, Regar Pura, Karol Bagh, Delhi, 110005, India", "phone": "+91 98990 98509", "rating": "3.9", "review_count": "", "website": "http://www.himalayanitsolutions.com/", "latitude": 28.649673999999997, "longitude": 77.186599, "maps_url": "https://www.google.com/maps/search/?api=1&query=Himalayan%20IT%20Solutions%20%7C%20Best%20Website%20Designing%20Company%20in%20Delhi%20%7C%20SEO/Digital%20Marketing%20Company%20in%20Delhi%20NCR%2C%20India&query_place_id=ChIJFeXlTZkCDTkRNw2aQAO8CNk"}, {"place_id": "ChIJUX61TOUCDTkRPmeqyd2Pcps", "name": "IT Solutions & Services (ITSS)", "street": "T–2425 Street Number 21, Baljeet Nagar, West Patel Nagar, New Delhi, Delhi 110008, India", "phone": "+91 88004 19462", "rating": "4.7", "review_count": "", "website": "https://www.itssin.com/", "latitude": 28.6576111, "longitude": 77.160708, "maps_url": "https://www.google.com/maps/search/?api=1&query=IT%20Solutions%20%26%20Services%20%28ITSS%29&query_place_id=ChIJUX61TOUCDTkRPmeqyd2Pcps"}, {"place_id": "ChIJ6fogp5QCDTkRX_8pAuL_gew", "name": "it company", "street": "Block 31/25, Block 31, East Patel Nagar, Patel Nagar, New Delhi, Delhi, 110008, India", "phone": "+91 98189 02645", "rating": "", "review_count": "", "website": "", "latitude": 28.6477211, "longitude": 77.1727298, "maps_url": "https://www.google.com/maps/search/?api=1&query=it%20company&query_place_id=ChIJ6fogp5QCDTkRX_8pAuL_gew"}, {"place_id": "ChIJO4sr49IDDTkRALZaeWsr-oI", "name": "Iraitech | Software Development Company", "street": "Central Square Complex 3, Unit No-1051, 1st Floor, Near Filmistan, DCM chowk, Bara Hindu Rao, Kishan Ganj, Delhi, 110006, India", "phone": "+91 81301 04108", "rating": "4.1", "review_count": "", "website": "https://www.iraitech.com/", "latitude": 28.6631951, "longitude": 77.20308639999999, "maps_url": "https://www.google.com/maps/search/?api=1&query=Iraitech%20%7C%20Software%20Development%20Company&query_place_id=ChIJO4sr49IDDTkRALZaeWsr-oI"}, {"place_id": "ChIJJS2nYJoCDTkR8ZKgzjgdREU", "name": "Payroll Software Companies", "street": "4/28, Ground Floor, Saraswati Marg, W.E.A, Karol Bagh, New Delhi, Delhi 110005, India", "phone": "+91 97111 95490", "rating": "4.3", "review_count": "", "website": "", "latitude": 28.6484551, "longitude": 77.1875826, "maps_url": "https://www.google.com/maps/search/?api=1&query=Payroll%20Software%20Companies&query_place_id=ChIJJS2nYJoCDTkR8ZKgzjgdREU"}, {"place_id": "ChIJ8bD3oe-1bTkRhQOwVrfg-vw", "name": "One Aim IT Solutions", "street": "2/41/2 , 1st Floor, Sadar Bazar , Moradabad Pahari ,TO.Delhi Cantt, Distt:, South West, New Delhi, Delhi 110006, India", "phone": "+91 89552 49714", "rating": "5", "review_count": "", "website": "https://theoneaim.in/", "latitude": 28.6580968, "longitude": 77.2124735, "maps_url": "https://www.google.com/maps/search/?api=1&query=One%20Aim%20IT%20Solutions&query_place_id=ChIJ8bD3oe-1bTkRhQOwVrfg-vw"}, {"place_id": "ChIJuzZ3usj9DDkR5Q91Qz7GlDc", "name": "Busy Infotech Pvt. Ltd.", "street": "3, Rani Jhansi Rd, Block E 4, Jhandewalan Extension, Karol Bagh, New Delhi, Delhi 110055, India", "phone": "+91 11 4096 4096", "rating": "4.6", "review_count": "", "website": "https://busy.in/", "latitude": 28.6454408, "longitude": 77.2042627, "maps_url": "https://www.google.com/maps/search/?api=1&query=Busy%20Infotech%20Pvt.%20Ltd.&query_place_id=ChIJuzZ3usj9DDkR5Q91Qz7GlDc"}, {"place_id": "ChIJuWHhgOADDTkRnxxopj0gupQ", "name": "Accuwisetech IT Solution & Digital Marketing Agency", "street": "Metro Station Patel Nagar, 2/15, station, West Patel Nagar, New Delhi, Delhi, 110008, India", "phone": "", "rating": "4.9", "review_count": "", "website": "https://accuwisetech.com/", "latitude": 28.645363, "longitude": 77.1688322, "maps_url": "https://www.google.com/maps/search/?api=1&query=Accuwisetech%20IT%20Solution%20%26%20Digital%20Marketing%20Agency&query_place_id=ChIJuWHhgOADDTkRnxxopj0gupQ"}, {"place_id": "ChIJSy2Jhp4CDTkR_0QSNabY9kM", "name": "Digital Marketing Agency, Software Development Company, SEO Services Company in Delhi", "street": "3rd Floor, 16/448, Block - I, Building Number, Military Rd, Karol Bagh, New Delhi, Delhi 110005, India", "phone": "+91 98183 53030", "rating": "5", "review_count": "", "website": "https://www.micromind.in/", "latitude": 28.655144999999997, "longitude": 77.18114899999999, "maps_url": "https://www.google.com/maps/search/?api=1&query=Digital%20Marketing%20Agency%2C%20Software%20Development%20Company%2C%20SEO%20Services%20Company%20in%20Delhi&query_place_id=ChIJSy2Jhp4CDTkR_0QSNabY9kM"}, {"place_id": "ChIJVVVl-ZUCDTkRFnU1G79sHbA", "name": "Peritus Exim Pvt Ltd", "street": "1206, 12th Floor, Vikram Tower, Rajendra Place, New Delhi, Delhi, 110060, India", "phone": "+91 11 4130 6047", "rating": "4.4", "review_count": "", "website": "http://www.peritusexim.com/", "latitude": 28.6430568, "longitude": 77.1783918, "maps_url": "https://www.google.com/maps/search/?api=1&query=Peritus%20Exim%20Pvt%20Ltd&query_place_id=ChIJVVVl-ZUCDTkRFnU1G79sHbA"}, {"place_id": "ChIJC3MN3zb9DDkR-JxtEG9cQg0", "name": "I. T. Solutions", "street": "Gate No. 8, A-6, 1st Floor, Inner Circle, Above Post office, near ICICI Bank, Bon Ton and Metro, Connaught Place, New Delhi, Delhi 110001, India", "phone": "+91 11 4152 3242", "rating": "4.9", "review_count": "", "website": "http://www.itsolutioncp.com/", "latitude": 28.6324367, "longitude": 77.2183441, "maps_url": "https://www.google.com/maps/search/?api=1&query=I.%20T.%20Solutions&query_place_id=ChIJC3MN3zb9DDkR-JxtEG9cQg0"}, {"place_id": "ChIJ_yLEwawEDTkRQntrXqPNPK4", "name": "Fortune Makers", "street": "Third Floor, Naivedhiyam 25 / 35, above Naivedhiyam Restaurant, East Patel Nagar, New Delhi, Delhi 110008, India", "phone": "+91 11 4560 8413", "rating": "4.9", "review_count": "", "website": "http://www.fortunemakersindia.in/", "latitude": 28.6445717, "longitude": 77.1765791, "maps_url": "https://www.google.com/maps/search/?api=1&query=Fortune%20Makers&query_place_id=ChIJ_yLEwawEDTkRQntrXqPNPK4"}, {"place_id": "ChIJq6qqGpYCDTkRHwvhtAlOO8k", "name": "TriEdge Solutions Pvt. Ltd.", "street": "403, Prem Sadan, 11, Rajendra Place, New Delhi, Delhi 110008, India", "phone": "+91 97175 44416", "rating": "4.1", "review_count": "", "website": "https://triedge.in/", "latitude": 28.644143999999997, "longitude": 77.17690999999999, "maps_url": "https://www.google.com/maps/search/?api=1&query=TriEdge%20Solutions%20Pvt.%20Ltd.&query_place_id=ChIJq6qqGpYCDTkRHwvhtAlOO8k"}, {"place_id": "ChIJk_BocaADDTkRYDaDPwdQ9HU", "name": "Life Quotes", "street": "34/28, Uttam Singh Narula Marg, Block 11, Old Rajinder Nagar, Rajinder Nagar, New Delhi, Delhi, 110005, India", "phone": "", "rating": "5", "review_count": "", "website": "", "latitude": 28.6423953, "longitude": 77.1817161, "maps_url": "https://www.google.com/maps/search/?api=1&query=Life%20Quotes&query_place_id=ChIJk_BocaADDTkRYDaDPwdQ9HU"}, {"place_id": "ChIJdx_eNWIDDTkRcYhmS8CtwqI", "name": "Aegeus Food Private Limited", "street": "209, second floor, DEEP SHIKHA BUILDING, Rajendra Place, Delhi, New Delhi, Delhi 110008, India", "phone": "+91 98110 36634", "rating": "4.9", "review_count": "", "website": "https://aegeusfood.in/", "latitude": 28.6446866, "longitude": 77.1775404, "maps_url": "https://www.google.com/maps/search/?api=1&query=Aegeus%20Food%20Private%20Limited&query_place_id=ChIJdx_eNWIDDTkRcYhmS8CtwqI"}, {"place_id": "ChIJ-9P3fiYDDTkR5IgZECYlq9k", "name": "BlackZone Technologies Private Limited", "street": "Block 8A, Channa Market, Block 8A, WEA, Karol Bagh, New Delhi, Delhi, 110005, India", "phone": "+91 98119 88088", "rating": "4.9", "review_count": "", "website": "https://www.blackzone.in/", "latitude": 28.6445911, "longitude": 77.1827837, "maps_url": "https://www.google.com/maps/search/?api=1&query=BlackZone%20Technologies%20Private%20Limited&query_place_id=ChIJ-9P3fiYDDTkR5IgZECYlq9k"}, {"place_id": "ChIJx27aG74CDTkRdIGMI-uFLv0", "name": "INDIAN POTASH LIMITED - CORPORATE OFFICE", "street": "J5RG+QCX, Pusa Rd, Block 1, WEA, Karol Bagh, New Delhi, Delhi 110060, India", "phone": "+91 11 2573 2438", "rating": "4.2", "review_count": "", "website": "http://www.indianpotash.org/", "latitude": 28.6419854, "longitude": 77.17612299999999, "maps_url": "https://www.google.com/maps/search/?api=1&query=INDIAN%20POTASH%20LIMITED%20-%20CORPORATE%20OFFICE&query_place_id=ChIJx27aG74CDTkRdIGMI-uFLv0"}, {"place_id": "ChIJR2vd6L0CDTkRJZbwqoUymoU", "name": "Amit Arora", "street": "21 Rajendra Park Second Floor, Rajindra Park Road, Shankar Rd, New Delhi, Delhi 110060, India", "phone": "", "rating": "5", "review_count": "", "website": "", "latitude": 28.6414893, "longitude": 77.17811569999999, "maps_url": "https://www.google.com/maps/search/?api=1&query=Amit%20Arora&query_place_id=ChIJR2vd6L0CDTkRJZbwqoUymoU"}, {"place_id": "ChIJoVTI4pcCDTkRQ5Ei1hvqxiM", "name": "Microgene Diagnostic Systems Private Limited", "street": "806, Vikram Towers, Rajendra Place, New Delhi, Delhi 110060, India", "phone": "+91 11 2575 3260", "rating": "4.5", "review_count": "", "website": "http://www.microgene.in/", "latitude": 28.6429527, "longitude": 77.178523, "maps_url": "https://www.google.com/maps/search/?api=1&query=Microgene%20Diagnostic%20Systems%20Private%20Limited&query_place_id=ChIJoVTI4pcCDTkRQ5Ei1hvqxiM"}, {"place_id": "ChIJq6qqmmPhDDkRgsw34YWYTeA", "name": "Total Solutions Group (A division of Total Business Solutions India Pvt Ltd)", "street": "Lower Ground Floor, 11/5B, Pusa Rd, Block 11, Old Rajinder Nagar, Rajinder Nagar, New Delhi, Delhi, 110005, India", "phone": "+91 99102 68000", "rating": "2.3", "review_count": "", "website": "http://totalsolutions.in/", "latitude": 28.6426545, "longitude": 77.181634, "maps_url": "https://www.google.com/maps/search/?api=1&query=Total%20Solutions%20Group%20%28A%20division%20of%20Total%20Business%20Solutions%20India%20Pvt%20Ltd%29&query_place_id=ChIJq6qqmmPhDDkRgsw34YWYTeA"}, {"place_id": "ChIJz9bYFOwCDTkREj8LirH5MbU", "name": "Astrokidz Inc", "street": "gate no 4, metro station, Ashoka chambers, Plot no B5,flat, A10, Pusa Rd, near Rajindra place, Rajendra Park, Delhi 110060, India", "phone": "+91 80 4803 4014", "rating": "4.1", "review_count": "", "website": "https://www.astrokidz.net/", "latitude": 28.641913199999998, "longitude": 77.177094, "maps_url": "https://www.google.com/maps/search/?api=1&query=Astrokidz%20Inc&query_place_id=ChIJz9bYFOwCDTkREj8LirH5MbU"}, {"place_id": "ChIJ4ShVir0CDTkR1ihrSFHdrsA", "name": "Borar & Company (CA Firm)", "street": "Aman Chamber, 202A, 47/22, New, Old Rajinder Nagar, Rajinder Nagar, New Delhi, Delhi 110060, India", "phone": "+91 11 4704 9931", "rating": "4.5", "review_count": "", "website": "", "latitude": 28.6424484, "longitude": 77.1788979, "maps_url": "https://www.google.com/maps/search/?api=1&query=Borar%20%26%20Company%20%28CA%20Firm%29&query_place_id=ChIJ4ShVir0CDTkR1ihrSFHdrsA"}, {"place_id": "ChIJseweCJ8DDTkRGNh-jQYsi_o", "name": "White Tech Climbing Holds Volume Holds Speed Climbing Holds Rappling Gloves | Manufacturer", "street": "Rajendra Bhawan, 143, Rajendra Place, New Delhi, Delhi 110008, India", "phone": "", "rating": "3.3", "review_count": "", "website": "http://whitetech.in/", "latitude": 28.643364599999998, "longitude": 77.1779257, "maps_url": "https://www.google.com/maps/search/?api=1&query=White%20Tech%20Climbing%20Holds%20Volume%20Holds%20Speed%20Climbing%20Holds%20Rappling%20Gloves%20%7C%20Manufacturer&query_place_id=ChIJseweCJ8DDTkRGNh-jQYsi_o"}, {"place_id": "ChIJuWf1lb0CDTkRnYv2kmu7sc8", "name": "TrainingYA - Python, Data Science, Tableau & Analytics Training Institute In Delhi/NCR", "street": "lower Ground Floor, 39/20, Block 39, Old Rajinder Nagar, Rajinder Nagar, New Delhi, Delhi, 110060, India", "phone": "+91 73030 66379", "rating": "4.7", "review_count": "", "website": "https://www.trainingya.com/data-science-training-in-delhi/", "latitude": 28.641201, "longitude": 77.17898699999999, "maps_url": "https://www.google.com/maps/search/?api=1&query=TrainingYA%20-%20Python%2C%20Data%20Science%2C%20Tableau%20%26%20Analytics%20Training%20Institute%20In%20Delhi/NCR&query_place_id=ChIJuWf1lb0CDTkRnYv2kmu7sc8"}, {"place_id": "ChIJR2HE5JcCDTkRXgEsG8zrmsQ", "name": "VIGASA INDUSTRIES PVT LTD", "street": "Floor 47-B, Ramlila Ground, Pusa Rd, Block 9A, WEA, Karol Bagh, New Delhi, Delhi, 110005, India", "phone": "+91 98219 04750", "rating": "4", "review_count": "", "website": "", "latitude": 28.6437347, "longitude": 77.1824054, "maps_url": "https://www.google.com/maps/search/?api=1&query=VIGASA%20INDUSTRIES%20PVT%20LTD&query_place_id=ChIJR2HE5JcCDTkRXgEsG8zrmsQ"}, {"place_id": "ChIJVVVVBZYCDTkRazuvO7SJLMs", "name": "Website Designing & Bulk SMS Service in Delhi", "street": "Dharamdas Shastri Marg, Radha Soami Satsang, Prasad Nagar, Karol Bagh, New Delhi, Delhi 110060, India", "phone": "+91 98108 16633", "rating": "3.8", "review_count": "", "website": "", "latitude": 28.6424557, "longitude": 77.1780824, "maps_url": "https://www.google.com/maps/search/?api=1&query=Website%20Designing%20%26%20Bulk%20SMS%20Service%20in%20Delhi&query_place_id=ChIJVVVVBZYCDTkRazuvO7SJLMs"}, {"place_id": "ChIJOZd2wWIDDTkRMdyNCdCtCIQ", "name": "Groot Infotech", "street": "Padma Tower II, 502, Rajendra Place, New Delhi, Delhi 110005, India", "phone": "+91 85273 53508", "rating": "", "review_count": "", "website": "https://www.grootinfotech.com/", "latitude": 28.6451836, "longitude": 77.1780375, "maps_url": "https://www.google.com/maps/search/?api=1&query=Groot%20Infotech&query_place_id=ChIJOZd2wWIDDTkRMdyNCdCtCIQ"}, {"place_id": "ChIJl5geAqLjDDkRGQx9atNSvyg", "name": "It Softtech - Website Designing and Development Company in Delhi, India", "street": "149, Ring Rd, opp. Maharani Bagh, Kilokri, Phase 1, Hari Nagar Ashram, New Delhi, Delhi 110014, India", "phone": "+91 98100 56177", "rating": "5", "review_count": "", "website": "", "latitude": 28.5763395, "longitude": 77.2640869, "maps_url": "https://www.google.com/maps/search/?api=1&query=It%20Softtech%20-%20Website%20Designing%20and%20Development%20Company%20in%20Delhi%2C%20India&query_place_id=ChIJl5geAqLjDDkRGQx9atNSvyg"}, {"place_id": "ChIJRaWq-70CDTkR5nU3eIw3IE8", "name": "Alstone Textiles (India) Limited", "street": "203 Aman Chamber, Pusa Road, Rajendra Place Metro Station, New Delhi, Delhi 110060, India", "phone": "+91 11 4747 6072", "rating": "4.1", "review_count": "", "website": "https://www.alstonetextiles.in/", "latitude": 28.641968499999997, "longitude": 77.1779217, "maps_url": "https://www.google.com/maps/search/?api=1&query=Alstone%20Textiles%20%28India%29%20Limited&query_place_id=ChIJRaWq-70CDTkR5nU3eIw3IE8"}, {"place_id": "ChIJZXn5ROUdDTkRY0MobWZWItA", "name": "Recruitic Resources", "street": "DEEP SHIKHA BUILDING, 210, Rajendra Place, New Delhi, Delhi 110008, India", "phone": "+91 98994 43114", "rating": "4.9", "review_count": "", "website": "", "latitude": 28.644690399999998, "longitude": 77.1774578, "maps_url": "https://www.google.com/maps/search/?api=1&query=Recruitic%20Resources&query_place_id=ChIJZXn5ROUdDTkRY0MobWZWItA"}, {"place_id": "ChIJW4Yuir0CDTkRTUBY1I4qENg", "name": "StrategIQ Consultants", "street": "3rd Floor, 47/12, Old Rajinder Nagar, Rajinder Nagar, New Delhi, Delhi 110060, India", "phone": "", "rating": "4.1", "review_count": "", "website": "https://strategiqconsultants.com/", "latitude": 28.642582299999997, "longitude": 77.1788632, "maps_url": "https://www.google.com/maps/search/?api=1&query=StrategIQ%20Consultants&query_place_id=ChIJW4Yuir0CDTkRTUBY1I4qENg"}, {"place_id": "ChIJKxVFie8CDTkRgHo0tL5qAh8", "name": "Alpha kkc Logistics India Private Limited", "street": "Unit No - 402 & 403, 4th Floor, 12, Rajendra Place, New Delhi, Delhi 110008, India", "phone": "+91 11 4135 5555", "rating": "3.8", "review_count": "", "website": "http://www.alphakkclogistics.com/", "latitude": 28.644040999999998, "longitude": 77.17752639999999, "maps_url": "https://www.google.com/maps/search/?api=1&query=Alpha%20kkc%20Logistics%20India%20Private%20Limited&query_place_id=ChIJKxVFie8CDTkRgHo0tL5qAh8"}, {"place_id": "ChIJp2F4Xr0CDTkRDmw_MX31S90", "name": "SMC Global Securities Limited", "street": "No 11/6B, Param Tower, Pusa Rd, Block 11, Old Rajinder Nagar, Rajinder Nagar, New Delhi, Delhi, 110005, India", "phone": "+91 96191 75026", "rating": "4.4", "review_count": "", "website": "https://store.smctradeonline.com/smc-global-securities-limited-stock-broker-pusa-road-new-delhi-108495/Home?utm_source=locator&utm_medium=googleplaces", "latitude": 28.642654999999998, "longitude": 77.1813336, "maps_url": "https://www.google.com/maps/search/?api=1&query=SMC%20Global%20Securities%20Limited&query_place_id=ChIJp2F4Xr0CDTkRDmw_MX31S90"}, {"place_id": "ChIJS20_ZZYCDTkRJng7v0b2iVI", "name": "KMK Event Management Limited", "street": "S/20-22,Hog Market, Adjacent To Prabhat Kiran Building, Rajendra Place, New Delhi, Delhi 110005, India", "phone": "+91 97113 03359", "rating": "3.3", "review_count": "", "website": "http://www.kmklimited.com/", "latitude": 28.6448438, "longitude": 77.17806929999999, "maps_url": "https://www.google.com/maps/search/?api=1&query=KMK%20Event%20Management%20Limited&query_place_id=ChIJS20_ZZYCDTkRJng7v0b2iVI"}, {"place_id": "ChIJsbTOYIwDDTkRysiL_5wubJQ", "name": "Encore Creations Pvt. Ltd.", "street": "2nd Floor, 208, Sethi Bhawan, Encore Creations Pvt. Ltd, Rajendra Place, New Delhi, Delhi 110008, India", "phone": "+91 99992 17653", "rating": "5", "review_count": "", "website": "https://www.encorecreations.in/", "latitude": 28.643973199999998, "longitude": 77.1768155, "maps_url": "https://www.google.com/maps/search/?api=1&query=Encore%20Creations%20Pvt.%20Ltd.&query_place_id=ChIJsbTOYIwDDTkRysiL_5wubJQ"}, {"place_id": "ChIJZQAA8JYCDTkR2rpJg_dc5Bk", "name": "N.D Enterprises E&C - Overseas Manpower Consultants in India ( For Jobs in Europe & Gulf-Middle East )", "street": "10th, Floor, Hemkunt House Building, near Metro Station-Rajendra Place, Rajinder Nagar, New Delhi, Delhi 110060, India", "phone": "+91 11 4506 3555", "rating": "4.3", "review_count": "", "website": "http://ndenterprisesindia.com/", "latitude": 28.6424557, "longitude": 77.1780824, "maps_url": "https://www.google.com/maps/search/?api=1&query=N.D%20Enterprises%20E%26C%20-%20Overseas%20Manpower%20Consultants%20in%20India%20%28%20For%20Jobs%20in%20Europe%20%26%20Gulf-Middle%20East%20%29&query_place_id=ChIJZQAA8JYCDTkR2rpJg_dc5Bk"}, {"place_id": "ChIJtb8H8ZQDDTkRWktsrTLXOOU", "name": "OneNDF", "street": "Gagandeep Building, C/o Devick Biz Solutions Pvt Ltd, Rajendra Place, New Delhi, Delhi 110008, India", "phone": "+91 72900 41855", "rating": "4.8", "review_count": "", "website": "https://www.onendf.com/", "latitude": 28.644040999999998, "longitude": 77.17752639999999, "maps_url": "https://www.google.com/maps/search/?api=1&query=OneNDF&query_place_id=ChIJtb8H8ZQDDTkRWktsrTLXOOU"}, {"place_id": "ChIJLVnw9VEDDTkRdzopP3BUxD0", "name": "AARTHI SCANS & LABS | PUSA ROAD | DIAGNOSTIC CENTRE", "street": "Metro Pillar No 127, 11-B/1, Pusa Rd, Block 11, Old Rajinder Nagar, Karol Bagh, Delhi, 110005, India", "phone": "+91 76394 76394", "rating": "4.5", "review_count": "", "website": "http://www.aarthiscan.com/", "latitude": 28.643006999999997, "longitude": 77.1831716, "maps_url": "https://www.google.com/maps/search/?api=1&query=AARTHI%20SCANS%20%26%20LABS%20%7C%20PUSA%20ROAD%20%7C%20DIAGNOSTIC%20CENTRE&query_place_id=ChIJLVnw9VEDDTkRdzopP3BUxD0"}, {"place_id": "ChIJwyQKYZUCDTkRvSrq2MXGne4", "name": "Blue Dart Express Limited", "street": "Plot No, 10A, Rajendra Place, New Delhi, Delhi 110008, India", "phone": "", "rating": "2.7", "review_count": "", "website": "https://www.bluedart.com/", "latitude": 28.643606799999997, "longitude": 77.176214, "maps_url": "https://www.google.com/maps/search/?api=1&query=Blue%20Dart%20Express%20Limited&query_place_id=ChIJwyQKYZUCDTkRvSrq2MXGne4"}, {"place_id": "ChIJu--eB5YCDTkRq6ROFv18T3g", "name": "Tradebulls Securities (P) Limited", "street": "4th Floor, Metro Station, 10B, Pusa Rd, opposite Siddharth Hotel, near Rajendra Place, Block A, Rajendra Park, Rajendra Place, Delhi, New Delhi, Delhi 110060, India", "phone": "+91 11 4800 9200", "rating": "3.1", "review_count": "", "website": "https://www.tradebulls.in/", "latitude": 28.6419253, "longitude": 77.1762853, "maps_url": "https://www.google.com/maps/search/?api=1&query=Tradebulls%20Securities%20%28P%29%20Limited&query_place_id=ChIJu--eB5YCDTkRq6ROFv18T3g"}, {"place_id": "ChIJd-3rnjD9DDkRl57EhpQsBF8", "name": "Mega Grain Trading Company Private Limited", "street": "402, Rajendra Place, New Delhi, Delhi 110060, India", "phone": "+91 11 2571 9896", "rating": "5", "review_count": "", "website": "https://www.megagrain.com/", "latitude": 28.6439639, "longitude": 77.1783969, "maps_url": "https://www.google.com/maps/search/?api=1&query=Mega%20Grain%20Trading%20Company%20Private%20Limited&query_place_id=ChIJd-3rnjD9DDkRl57EhpQsBF8"}, {"place_id": "ChIJt9QSSle9o0gRbNz8sCVY5os", "name": "Urban Cabin Cowork: Pusa Road, New Delhi - Coworking Space", "street": "11B/8, Pusa Rd, Block 11, Old Rajinder Nagar, Rajinder Nagar, Delhi, 110005, India", "phone": "+91 80 6906 9498", "rating": "4.9", "review_count": "", "website": "https://urbancabincowork.com/", "latitude": 28.6426187, "longitude": 77.180998, "maps_url": "https://www.google.com/maps/search/?api=1&query=Urban%20Cabin%20Cowork%3A%20Pusa%20Road%2C%20New%20Delhi%20-%20Coworking%20Space&query_place_id=ChIJt9QSSle9o0gRbNz8sCVY5os"}, {"place_id": "ChIJb5BxaQD9DDkRfCNOcPvMCPM", "name": "Sloshout - Head Office", "street": "4th Floor, 11B, 8, Pusa Rd, Block 11, Old Rajinder Nagar, Rajinder Nagar, New Delhi, Delhi, 110005, India", "phone": "", "rating": "2.6", "review_count": "", "website": "http://www.sloshout.com/", "latitude": 28.642529, "longitude": 77.1809285, "maps_url": "https://www.google.com/maps/search/?api=1&query=Sloshout%20-%20Head%20Office&query_place_id=ChIJb5BxaQD9DDkRfCNOcPvMCPM"}, {"place_id": "ChIJW6eh6m4DDTkR_X3yTQcdTPI", "name": "Magicine Pharma | Cancer Medicine Manufacturer in India | Cancer Medicine Supplier in India", "street": "Gagandeep Building, Office No.2 Ground Floor, Govind Lal Sikka Marg, Rajendra Place, New Delhi, Delhi 110060, India", "phone": "+91 93191 13130", "rating": "4.8", "review_count": "", "website": "http://magicinepharma.com/", "latitude": 28.642034, "longitude": 77.177189, "maps_url": "https://www.google.com/maps/search/?api=1&query=Magicine%20Pharma%20%7C%20Cancer%20Medicine%20Manufacturer%20in%20India%20%7C%20Cancer%20Medicine%20Supplier%20in%20India&query_place_id=ChIJW6eh6m4DDTkR_X3yTQcdTPI"}, {"place_id": "ChIJK-JMhy8DDTkRAJyZ8etXxj4", "name": "Harvest Success Academy", "street": "25/35 second floor east patel nagar, above navedayam restaurent, Delhi 110008, India", "phone": "+91 90823 42339", "rating": "4.6", "review_count": "", "website": "https://www.harvestyourself.com/", "latitude": 28.6436674, "longitude": 77.1760181, "maps_url": "https://www.google.com/maps/search/?api=1&query=Harvest%20Success%20Academy&query_place_id=ChIJK-JMhy8DDTkRAJyZ8etXxj4"}, {"place_id": "ChIJP1Ba9r0CDTkRDTto7eLeLd0", "name": "PCG Grading", "street": "Rajindera Place, 39/7, L.G. Floor, near Metro Station-Rajendra Place, Old Rajinder Nagar, New Delhi, Delhi 110060, India", "phone": "", "rating": "3.9", "review_count": "", "website": "http://pcggrading.in/", "latitude": 28.641803699999997, "longitude": 77.1793434, "maps_url": "https://www.google.com/maps/search/?api=1&query=PCG%20Grading&query_place_id=ChIJP1Ba9r0CDTkRDTto7eLeLd0"}, {"place_id": "ChIJAQAAAKMCDTkRHHLxK-01g-g", "name": "DMK Associates", "street": "31/36, Basement, Old Rajinder Nagar, New Delhi, Delhi 110060, India", "phone": "+91 11 4243 2721", "rating": "4.6", "review_count": "", "website": "http://dmkassociates.in/", "latitude": 28.641632899999998, "longitude": 77.1824979, "maps_url": "https://www.google.com/maps/search/?api=1&query=DMK%20Associates&query_place_id=ChIJAQAAAKMCDTkRHHLxK-01g-g"}, {"place_id": "ChIJcb-YD7YDDTkRO2FRUhVZ4u0", "name": "RKFMA Productions Private Limited", "street": "8A/8, W.E.A, Karol Bagh Behind MTNL Telephone Exchange on Pusa Road, Ganga Mandir Marg, New Delhi, Delhi 110005, India", "phone": "+91 93122 37583", "rating": "4.9", "review_count": "", "website": "http://www.rkfmaproductions.com/", "latitude": 28.644204, "longitude": 77.1821667, "maps_url": "https://www.google.com/maps/search/?api=1&query=RKFMA%20Productions%20Private%20Limited&query_place_id=ChIJcb-YD7YDDTkRO2FRUhVZ4u0"}, {"place_id": "ChIJ____P9XjDDkRimMe9S_u9XY", "name": "Ceasefire Industries Limited", "street": "1/117, Shankar Rd, Prasad Nagar, Old Rajinder Nagar, Karol Bagh, New Delhi, Delhi, 110005, India", "phone": "+91 95406 66666", "rating": "3.8", "review_count": "", "website": "https://www.ceasefire.in/", "latitude": 28.6447433, "longitude": 77.17952009999999, "maps_url": "https://www.google.com/maps/search/?api=1&query=Ceasefire%20Industries%20Limited&query_place_id=ChIJ____P9XjDDkRimMe9S_u9XY"}, {"place_id": "ChIJoS3RAkUDDTkRPPEFyJTMbQs", "name": "SPG & Associates- Company Secretaries", "street": "10th Floor, Vikram Towers, 1001, Rajendra Place, New Delhi, Delhi 110060, India", "phone": "+91 99683 00649", "rating": "4.8", "review_count": "", "website": "http://www.spgindia.co.in/", "latitude": 28.6429525, "longitude": 77.1784464, "maps_url": "https://www.google.com/maps/search/?api=1&query=SPG%20%26%20Associates-%20Company%20Secretaries&query_place_id=ChIJoS3RAkUDDTkRPPEFyJTMbQs"}, {"place_id": "ChIJwY2Lhr0CDTkRBvjLhvvWl_Q", "name": "SMC Real Estate Advisors Pvt. Ltd", "street": "3rd Floor, 11/5B, Pusa Rd, opposite Metro Pillar Number 132, Block 11, Old Rajinder Nagar, Rajinder Nagar, New Delhi, Delhi, 110005, India", "phone": "+91 81301 15544", "rating": "4.1", "review_count": "", "website": "https://www.smcrealty.com/", "latitude": 28.6426402, "longitude": 77.18167749999999, "maps_url": "https://www.google.com/maps/search/?api=1&query=SMC%20Real%20Estate%20Advisors%20Pvt.%20Ltd&query_place_id=ChIJwY2Lhr0CDTkRBvjLhvvWl_Q"}, {"place_id": "ChIJJ4zYXb0CDTkRLAYOj59xcFI", "name": "GenuineMark", "street": "Lower Ground Floor, 11/ 5B, Pusa Rd, Block 11, Old Rajinder Nagar, Rajinder Nagar, Delhi, 110005, India", "phone": "+91 81309 35159", "rating": "5", "review_count": "", "website": "http://www.genuinemark.org/", "latitude": 28.642587, "longitude": 77.18168709999999, "maps_url": "https://www.google.com/maps/search/?api=1&query=GenuineMark&query_place_id=ChIJJ4zYXb0CDTkRLAYOj59xcFI"}, {"place_id": "ChIJu1vR2o8DDTkRXGIq9RsCaKI", "name": "Balaji construction group", "street": "11/6, Basement, Office No.:-02, Shanti Chamber ,Pusa Road In front of metro piller no, 133, Rajendra Place, New Delhi, Delhi 110005, India", "phone": "", "rating": "1.6", "review_count": "", "website": "", "latitude": 28.642553399999997, "longitude": 77.18169759999999, "maps_url": "https://www.google.com/maps/search/?api=1&query=Balaji%20construction%20group&query_place_id=ChIJu1vR2o8DDTkRXGIq9RsCaKI"}, {"place_id": "ChIJpbHmFYICDTkRl9JDmzJ_Zeo", "name": "Bluecrane interiors", "street": "6A/43, Block 8A, WEA, Karol Bagh, New Delhi, Delhi, 110005, India", "phone": "+91 98919 76821", "rating": "4.8", "review_count": "", "website": "", "latitude": 28.6447959, "longitude": 77.1821671, "maps_url": "https://www.google.com/maps/search/?api=1&query=Bluecrane%20interiors&query_place_id=ChIJpbHmFYICDTkRl9JDmzJ_Zeo"}, {"place_id": "ChIJdWpzbYADDTkR7kTmLcwWyNM", "name": "Synergy Capital Tech Pvt Ltd", "street": "26/33, Block 26, East Patel Nagar, Patel Nagar, New Delhi, Delhi 110008, India", "phone": "+91 98116 31447", "rating": "5", "review_count": "", "website": "https://synergycapitaltech.com/", "latitude": 28.644112, "longitude": 77.176135, "maps_url": "https://www.google.com/maps/search/?api=1&query=Synergy%20Capital%20Tech%20Pvt%20Ltd&query_place_id=ChIJdWpzbYADDTkR7kTmLcwWyNM"}, {"place_id": "ChIJ0f0_Xr0CDTkRqtm0pmp47u4", "name": "Auxilo Finserve Pvt Ltd", "street": "4th floor, Prem Dohil Sadan, Rajendra Place, New Delhi, Delhi 110008, India", "phone": "", "rating": "4.6", "review_count": "", "website": "https://www.auxilo.com/", "latitude": 28.644011, "longitude": 77.1768888, "maps_url": "https://www.google.com/maps/search/?api=1&query=Auxilo%20Finserve%20Pvt%20Ltd&query_place_id=ChIJ0f0_Xr0CDTkRqtm0pmp47u4"}, {"place_id": "ChIJMXG_8qr9DDkR6bZrRFpoq6o", "name": "Mountmonks Adventures", "street": "OFFICE NO : 307, Kirti Mahal, Rajendra Place, Delhi, New Delhi, Delhi 110060, India", "phone": "", "rating": "4.3", "review_count": "", "website": "http://www.mountmonks.com/", "latitude": 28.643027, "longitude": 77.17812169999999, "maps_url": "https://www.google.com/maps/search/?api=1&query=Mountmonks%20Adventures&query_place_id=ChIJMXG_8qr9DDkR6bZrRFpoq6o"}, {"place_id": "ChIJJ1taMi0FDTkRtEyy1B5WnDU", "name": "Master Brains", "street": "303, Prabhat Kiran Building, 17, Rajendra Place, New Delhi, Delhi 110060, India", "phone": "+91 85958 67402", "rating": "4.9", "review_count": "", "website": "https://masterbrains.co.in/", "latitude": 28.6439639, "longitude": 77.1783969, "maps_url": "https://www.google.com/maps/search/?api=1&query=Master%20Brains&query_place_id=ChIJJ1taMi0FDTkRtEyy1B5WnDU"}, {"place_id": "ChIJTdhDHb4CDTkR4UXhjRM04vo", "name": "Astrabit Technology", "street": "J5RG+WHQ, Pusa Rd, Radha Soami Satsang, Rajendra Place, Delhi, New Delhi, Delhi 110060, India", "phone": "", "rating": "", "review_count": "", "website": "", "latitude": 28.6423253, "longitude": 77.1764795, "maps_url": "https://www.google.com/maps/search/?api=1&query=Astrabit%20Technology&query_place_id=ChIJTdhDHb4CDTkR4UXhjRM04vo"}, {"place_id": "ChIJkaxppnIDDTkRiQ0HI-GrAGM", "name": "Arka Fincap Ltd.", "street": "Property No. B-36, Third Floor, Front Side, Pusa Rd, School Marg, Block 11, Old Rajinder Nagar, Rajinder Nagar, New Delhi, Delhi, 110005, India", "phone": "+91 22 4047 1000", "rating": "4.3", "review_count": "", "website": "https://www.arkafincap.com/", "latitude": 28.643021599999997, "longitude": 77.1837248, "maps_url": "https://www.google.com/maps/search/?api=1&query=Arka%20Fincap%20Ltd.&query_place_id=ChIJkaxppnIDDTkRiQ0HI-GrAGM"}, {"place_id": "ChIJ8a_p8JUCDTkRqOxYArtahdE", "name": "Fortune Tours And Expo Private Limited", "street": "402, Vikram Towers, Rajendra Place, New Delhi, Delhi 110008, India", "phone": "+91 11 2574 3399", "rating": "4.4", "review_count": "", "website": "http://www.fortunetours.net/", "latitude": 28.642841599999997, "longitude": 77.1764683, "maps_url": "https://www.google.com/maps/search/?api=1&query=Fortune%20Tours%20And%20Expo%20Private%20Limited&query_place_id=ChIJ8a_p8JUCDTkRqOxYArtahdE"}, {"place_id": "ChIJbbB_ro8DDTkRMgWwO6fgn98", "name": "Shree Balaji Projects (MBA, BBA, PHD etc: Assignments, Projects, Dissertations, Thesis, Turnitin Plagiarism Report)", "street": "Channa Market, Block 8A, WEA, Karol Bagh, Delhi, 110005, India", "phone": "+91 87505 15050", "rating": "4.6", "review_count": "", "website": "http://www.shreebalajiprojects.com/", "latitude": 28.6445719, "longitude": 77.18264239999999, "maps_url": "https://www.google.com/maps/search/?api=1&query=Shree%20Balaji%20Projects%20%28MBA%2C%20BBA%2C%20PHD%20etc%3A%20Assignments%2C%20Projects%2C%20Dissertations%2C%20Thesis%2C%20Turnitin%20Plagiarism%20Report%29&query_place_id=ChIJbbB_ro8DDTkRMgWwO6fgn98"}, {"place_id": "ChIJcXKWhCcFDTkRNEVFKwsKsds", "name": "LSONIC INDUSTRIES PVT. LTD.", "street": "Rajendra Place, New Delhi, Delhi 110008, India", "phone": "", "rating": "4.2", "review_count": "", "website": "http://lsonicindustries.com/", "latitude": 28.6432944, "longitude": 77.1779949, "maps_url": "https://www.google.com/maps/search/?api=1&query=LSONIC%20INDUSTRIES%20PVT.%20LTD.&query_place_id=ChIJcXKWhCcFDTkRNEVFKwsKsds"}, {"place_id": "ChIJVVXljJYCDTkRilIfEDKAhb8", "name": "Auxin Recruitment Consultants", "street": "5th Floor, Hemkunt Tower, 508, Rajendra Place, New Delhi, Delhi 110060, India", "phone": "+91 98716 19649", "rating": "4.4", "review_count": "", "website": "", "latitude": 28.642688, "longitude": 77.1797954, "maps_url": "https://www.google.com/maps/search/?api=1&query=Auxin%20Recruitment%20Consultants&query_place_id=ChIJVVXljJYCDTkRilIfEDKAhb8"}, {"place_id": "ChIJW00PGoQdDTkRp79iJ2EhL78", "name": "ElectriVa", "street": "Vikram Towers, 206-207, Rajendra Place, New Delhi, Delhi 110060, India", "phone": "+91 1800 833 0809", "rating": "5", "review_count": "", "website": "http://electriva.in/", "latitude": 28.6430714, "longitude": 77.1784224, "maps_url": "https://www.google.com/maps/search/?api=1&query=ElectriVa&query_place_id=ChIJW00PGoQdDTkRp79iJ2EhL78"}, {"place_id": "ChIJVVVVBZYCDTkR69euHm7t3Ok", "name": "Arechar Healthcare LLP", "street": "No 08, Ground Floor, Rajendra Place, New Delhi, Delhi 110008, India", "phone": "+91 96431 43104", "rating": "5", "review_count": "", "website": "https://www.arechar.in/", "latitude": 28.643302499999997, "longitude": 77.1779954, "maps_url": "https://www.google.com/maps/search/?api=1&query=Arechar%20Healthcare%20LLP&query_place_id=ChIJVVVVBZYCDTkR69euHm7t3Ok"}, {"place_id": "ChIJK0smOrQDDTkRKk_icEcCs10", "name": "Broki Services Private Limited", "street": "Rattan Jyoti Building, G-1/18, 18, Rajendra Place, New Delhi, Delhi 110008, India", "phone": "+91 96435 31845", "rating": "5", "review_count": "", "website": "http://broki.in/", "latitude": 28.644031199999997, "longitude": 77.1772288, "maps_url": "https://www.google.com/maps/search/?api=1&query=Broki%20Services%20Private%20Limited&query_place_id=ChIJK0smOrQDDTkRKk_icEcCs10"}, {"place_id": "ChIJz3xlu24DDTkRpDwhGrGvI2s", "name": "Rivosaa Travels (A Unit Of Ezoom Infotech Pvt. Ltd.)", "street": "Padma Tower-2, 608, Rajendra Place, New Delhi, Delhi 110008, India", "phone": "", "rating": "4.8", "review_count": "", "website": "https://www.rivosaa.com/", "latitude": 28.645003199999998, "longitude": 77.17779039999999, "maps_url": "https://www.google.com/maps/search/?api=1&query=Rivosaa%20Travels%20%28A%20Unit%20Of%20Ezoom%20Infotech%20Pvt.%20Ltd.%29&query_place_id=ChIJz3xlu24DDTkRpDwhGrGvI2s"}, {"place_id": "ChIJK1sGdCsDDTkRm8MmaGenarE", "name": "Urban Money - Delhi", "street": "Gate Number 4, Metro Station, 3-B, 4th Floor, Pusa Rd, near Rajendra Place, Rajendra Park, New Delhi, Delhi 110060, India", "phone": "+91 82878 60740", "rating": "4.4", "review_count": "", "website": "https://www.urbanmoney.com/", "latitude": 28.6421295, "longitude": 77.1764692, "maps_url": "https://www.google.com/maps/search/?api=1&query=Urban%20Money%20-%20Delhi&query_place_id=ChIJK1sGdCsDDTkRm8MmaGenarE"}, {"place_id": "ChIJOXjV-5UCDTkRn4hoGe--DU4", "name": "Meteors Immigration Consultancy", "street": "202, 17, Rajendra Place, New Delhi, Delhi 110060, India", "phone": "+91 11 4573 3662", "rating": "3.8", "review_count": "", "website": "", "latitude": 28.6439639, "longitude": 77.1783969, "maps_url": "https://www.google.com/maps/search/?api=1&query=Meteors%20Immigration%20Consultancy&query_place_id=ChIJOXjV-5UCDTkRn4hoGe--DU4"}, {"place_id": "ChIJ_9hFWb0CDTkRuPEtro9WIFA", "name": "Tata AIA Life Insurance Co.Ltd.", "street": "Floor Tower B, 11/5, Gali Number 2, Block 11, Old Rajinder Nagar, Prem Nagar, New Delhi, Delhi, 110005, India", "phone": "+91 11 6666 0000", "rating": "3.7", "review_count": "", "website": "http://www.tataaia.com/", "latitude": 28.6426284, "longitude": 77.1819987, "maps_url": "https://www.google.com/maps/search/?api=1&query=Tata%20AIA%20Life%20Insurance%20Co.Ltd.&query_place_id=ChIJ_9hFWb0CDTkRuPEtro9WIFA"}, {"place_id": "ChIJn3lQ_CMDDTkRnejnmlbJHrA", "name": "HKS Manpower India Private Limited", "street": "1st Floor, 39/34, Old Rajinder Nagar, Rajinder Nagar, New Delhi, Delhi, 110005, India", "phone": "+91 93114 54311", "rating": "5", "review_count": "", "website": "http://www.hksmanpower.com/", "latitude": 28.642011699999998, "longitude": 77.18162769999999, "maps_url": "https://www.google.com/maps/search/?api=1&query=HKS%20Manpower%20India%20Private%20Limited&query_place_id=ChIJn3lQ_CMDDTkRnejnmlbJHrA"}, {"place_id": "ChIJMxPsdJYCDTkRRUR83vLisvA", "name": "Rajendra Watches", "street": "Office number 204, Tower 12, Govind Lal Sikka Marg, Rajendra Place, Delhi, New Delhi, Delhi 110008, India", "phone": "+91 70119 26019", "rating": "3.7", "review_count": "", "website": "", "latitude": 28.644040999999998, "longitude": 77.17752639999999, "maps_url": "https://www.google.com/maps/search/?api=1&query=Rajendra%20Watches&query_place_id=ChIJMxPsdJYCDTkRRUR83vLisvA"}, {"place_id": "ChIJAydAqWwDDTkRQGWK5NeHZSU", "name": "DIGIGRAM VENTURES PRIVATE LIMITED", "street": "no 06, Block 28, Old Rajinder Nagar, New Friends Colony, New Delhi, Delhi, 110060, India", "phone": "", "rating": "5", "review_count": "", "website": "http://www.digigram.tech/", "latitude": 28.6412205, "longitude": 77.1825606, "maps_url": "https://www.google.com/maps/search/?api=1&query=DIGIGRAM%20VENTURES%20PRIVATE%20LIMITED&query_place_id=ChIJAydAqWwDDTkRQGWK5NeHZSU"}, {"place_id": "ChIJM9r7u0r9DDkRiUvt7zjjpRM", "name": "IT Executive vivek", "street": "22, Vijay Ghat, Raj Ghat, New Delhi, Delhi, 110006, India", "phone": "", "rating": "", "review_count": "", "website": "https://itexecuitive.com/", "latitude": 28.6584512, "longitude": 77.2449233, "maps_url": "https://www.google.com/maps/search/?api=1&query=IT%20Executive%20vivek&query_place_id=ChIJM9r7u0r9DDkRiUvt7zjjpRM"}]