{"timestamp": 1773730800.24517, "keyword": "IT company", "location": "delhi", "cell_idx": 296, "results": [{"place_id": "0x390ce36576bd9599:0x5f20b8da5923d9f4", "name": "Software and Studio", "category": "Software company", "street": "Gargi College Lane", "city": "23, Siri Fort Rd", "phone": "08920850757", "website": "https://www.softwareandstudio.in/", "rating": 4.7, "review_count": "", "latitude": 28.554875799999998, "longitude": 77.2250122, "maps_url": "https://www.google.com/maps/place/?q=place_id:0x390ce36576bd9599:0x5f20b8da5923d9f4"}, {"place_id": "0x390ce24203181c59:0xacabe4bd56a7fe87", "name": "Compro Technologies", "category": "Software company", "street": "4 Lsc", "city": "Khel Gaon Marg", "phone": "01142011900", "website": "http://www.comprotechnologies.com/", "rating": 4.4, "review_count": "", "latitude": 28.560684499999997, "longitude": 77.218222, "maps_url": "https://www.google.com/maps/place/?q=place_id:0x390ce24203181c59:0xacabe4bd56a7fe87"}, {"place_id": "0x390ce3c153b89811:0xe7a279685777e9ca", "name": "IT Company", "category": "Automation company", "street": "A-14", "city": "near iskcon temple", "phone": "", "website": "http://www.opuswiz.com/", "rating": 3, "review_count": "", "latitude": 28.557167, "longitude": 77.25424819999999, "maps_url": "https://www.google.com/maps/place/?q=place_id:0x390ce3c153b89811:0xe7a279685777e9ca"}, {"place_id": "0x390ce35c9796f211:0xf946b6a7bd5de87", "name": "Mooze Tech Private Limited", "category": "Software company", "street": "S/F", "city": "Masjid Moth", "phone": "02143299690", "website": "https://www.moozetech.com/", "rating": 5, "review_count": "", "latitude": 28.5634527, "longitude": 77.2200486, "maps_url": "https://www.google.com/maps/place/?q=place_id:0x390ce35c9796f211:0xf946b6a7bd5de87"}, {"place_id": "0x390ce458d0000001:0xf2123bd299ec4501", "name": "IT Company India", "category": "Software company", "street": "D56", "city": "D Block, Sector 10", "phone": "09999244854", "website": "https://www.itcompanyindia.in/", "rating": 4.7, "review_count": "", "latitude": 28.589917699999997, "longitude": 77.3351153, "maps_url": "https://www.google.com/maps/place/?q=place_id:0x390ce458d0000001:0xf2123bd299ec4501"}, {"place_id": "0x390ce21425118e25:0x70fb9d80e6685fad", "name": "Ananta Business Services", "category": "Software company", "street": "125, South", "city": "Shahpur Jat, Siri Fort", "phone": "09289371171", "website": "http://www.absite.in/", "rating": 4.7, "review_count": "", "latitude": 28.5490721, "longitude": 77.2159506, "maps_url": "https://www.google.com/maps/place/?q=place_id:0x390ce21425118e25:0x70fb9d80e6685fad"}, {"place_id": "0x390ce1597b5509e5:0xfd8209b937b44d3c", "name": "IT Solutions India Private Limited", "category": "Software company", "street": "D-88/5", "city": "Pocket D, Okhla Phase I, Okhla Industrial Estate", "phone": "09810017429", "website": "https://www.itsipl.com/", "rating": 4.2, "review_count": "", "latitude": 28.520146, "longitude": 77.280431, "maps_url": "https://www.google.com/maps/place/?q=place_id:0x390ce1597b5509e5:0xfd8209b937b44d3c"}, {"place_id": "0x39f89c0fb3b411eb:0xbe473f977e9b7558", "name": "Kbeatech - Digital Solutions Company", "category": "Software company", "street": "1893, 1st Floor", "city": "Uday Chand Marg", "phone": "", "website": "https://kbeatech.in/", "rating": 4.9, "review_count": "", "latitude": 28.571338299999997, "longitude": 77.2228884, "maps_url": "https://www.google.com/maps/place/?q=place_id:0x39f89c0fb3b411eb:0xbe473f977e9b7558"}, {"place_id": "0x390ce3c7b85554e5:0x34e439c15e247631", "name": "HAUT IT Solutions Pvt. Ltd", "category": "Software company", "street": "390", "city": "Sant Nagar, East of Kailash", "phone": "09934753003", "website": "http://www.hautitsolutions.com/", "rating": 4.3, "review_count": "", "latitude": 28.554910099999997, "longitude": 77.25111249999999, "maps_url": "https://www.google.com/maps/place/?q=place_id:0x390ce3c7b85554e5:0x34e439c15e247631"}, {"place_id": "0x390ce3d606c913ef:0xd246bd5631eb2cad", "name": "Delvetech", "category": "Software company", "street": "87A/1, 3rd Floor, Opp. Block N-115, G.K-1, Near Moolchand Merto", "city": "Block B, Zamrudpur, Greater Kailash", "phone": "09873895154", "website": "http://www.delvetech.co.in/", "rating": 4.1, "review_count": "", "latitude": 28.5570597, "longitude": 77.2356981, "maps_url": "https://www.google.com/maps/place/?q=place_id:0x390ce3d606c913ef:0xd246bd5631eb2cad"}, {"place_id": "0x390ce2e52043e633:0x3ed44d79ea4bd91c", "name": "Wirecto", "category": "Software company", "street": "Triloki Colony", "city": "C-49", "phone": "09716670074", "website": "https://wirecto.app/", "rating": 5, "review_count": "", "latitude": 28.575404799999998, "longitude": 77.2250054, "maps_url": "https://www.google.com/maps/place/?q=place_id:0x390ce2e52043e633:0x3ed44d79ea4bd91c"}, {"place_id": "0x390ce38f903de9fd:0x60b75e3dc7d3fb1b", "name": "iTech Mission Private Limited (iTM)", "category": "Software company", "street": "4th Floor, Saira Tower", "city": "Gulmohar Commercial Complex", "phone": "", "website": "http://www.itechmission.org/", "rating": 5, "review_count": "", "latitude": 28.557895499999997, "longitude": 77.20812099999999, "maps_url": "https://www.google.com/maps/place/?q=place_id:0x390ce38f903de9fd:0x60b75e3dc7d3fb1b"}, {"place_id": "0x390ce2463eaaaaab:0x899f56cbccf20999", "name": "Zion Computers Private Limited", "category": "Computer support and services", "street": "B-19", "city": "near Sadiq Nagar", "phone": "01126250102", "website": "https://ziongroup.com/", "rating": 4.9, "review_count": "", "latitude": 28.559464, "longitude": 77.2273141, "maps_url": "https://www.google.com/maps/place/?q=place_id:0x390ce2463eaaaaab:0x899f56cbccf20999"}, {"place_id": "0x390ce3b48e27a563:0x4ec8ae3c524366b", "name": "iSOFT INDIA TECHNOLOGIES", "category": "Software company", "street": "E-168|169, Amar Colony, Lajpat Nagar", "city": "New Delhi, Delhi 110024", "phone": "09717978320", "website": "", "rating": 4.9, "review_count": "", "latitude": 28.5657368, "longitude": 77.23946029999999, "maps_url": "https://www.google.com/maps/place/?q=place_id:0x390ce3b48e27a563:0x4ec8ae3c524366b"}, {"place_id": "0x390ce3094f4a9af1:0xdc21c66946b829ad", "name": "BAUDHYANTRAM IT Solutions | Website Designing | Web Development | Software Company in Delhi", "category": "Software company", "street": "H82 2nd Floor", "city": "opposite Bengali Sweet Center", "phone": "07900899996", "website": "http://www.baudhyantram.in/", "rating": 4.8, "review_count": "", "latitude": 28.5695803, "longitude": 77.221047, "maps_url": "https://www.google.com/maps/place/?q=place_id:0x390ce3094f4a9af1:0xdc21c66946b829ad"}, {"place_id": "0x390ce242fb06489f:0xd1f68f207b81ef17", "name": "sGate Tech Solutions Pvt. Ltd.", "category": "Software company", "street": "South Ex. Tower", "city": "309-310, Masjid Moth Rd", "phone": "08724010101", "website": "https://www.sgate.in/", "rating": 4.5, "review_count": "", "latitude": 28.563666299999998, "longitude": 77.2199878, "maps_url": "https://www.google.com/maps/place/?q=place_id:0x390ce242fb06489f:0xd1f68f207b81ef17"}, {"place_id": "0x390d1967b79264cf:0x7254a971d39717d6", "name": "Favcy Venture Builders", "category": "Software company", "street": "5th Floor", "city": "Archana Complex", "phone": "", "website": "http://favcy.com/", "rating": 4.7, "review_count": "", "latitude": 28.553845499999998, "longitude": 77.23135789999999, "maps_url": "https://www.google.com/maps/place/?q=place_id:0x390d1967b79264cf:0x7254a971d39717d6"}, {"place_id": "0x390ce2305c00002d:0x9f7efbacdc0d8271", "name": "ICO WebTech Pvt. Ltd. - Website Designing Company in Delhi", "category": "Website designer", "street": "J E 5, Ground Floor, Khirki Extension, Malviya Nagar", "city": "New Delhi, Delhi 110017", "phone": "08447380262", "website": "https://www.icowebsolutions.com/", "rating": 4.6, "review_count": "", "latitude": 28.535594, "longitude": 77.21577099999999, "maps_url": "https://www.google.com/maps/place/?q=place_id:0x390ce2305c00002d:0x9f7efbacdc0d8271"}, {"place_id": "0x390cdc0f63124a9d:0x12f491680556571d", "name": "Creation and Development (CAD) - Digital Marketing Agency", "category": "Software company", "street": "Suite - 301, 3rd floor", "city": "Plaza -1", "phone": "08802960996", "website": "https://creationanddevelopment.com/", "rating": 5, "review_count": "", "latitude": 28.564223199999997, "longitude": 77.2196822, "maps_url": "https://www.google.com/maps/place/?q=place_id:0x390cdc0f63124a9d:0x12f491680556571d"}, {"place_id": "0x390ce25e81555555:0xf93f773552127f47", "name": "SANEKT SOFTWARE SOLUTION", "category": "Software company", "street": "Top floor", "city": "H 11", "phone": "01141589565", "website": "http://sanekt.com/", "rating": 5, "review_count": "", "latitude": 28.571361, "longitude": 77.221733, "maps_url": "https://www.google.com/maps/place/?q=place_id:0x390ce25e81555555:0xf93f773552127f47"}, {"place_id": "0x390ce1fb44618b65:0x8e06b2a6128352d1", "name": "Acropolis Infotech - Delhi Office", "category": "Software company", "street": "metro station gate", "city": "55, 2nd Floor, Lane 2", "phone": "09999876593", "website": "https://www.acropolisinfotech.com/", "rating": 4.6, "review_count": "", "latitude": 28.518907, "longitude": 77.2015435, "maps_url": "https://www.google.com/maps/place/?q=place_id:0x390ce1fb44618b65:0x8e06b2a6128352d1"}, {"place_id": "0x390d1d86a4f12173:0x3a6b42ea6f4b8260", "name": "Softvanz Technologies Private Limited", "category": "Software company", "street": "Somdutt Chamber 1", "city": "BT-22/9", "phone": "", "website": "https://softvanz.com/", "rating": 5, "review_count": "", "latitude": 28.567948899999998, "longitude": 77.1889269, "maps_url": "https://www.google.com/maps/place/?q=place_id:0x390d1d86a4f12173:0x3a6b42ea6f4b8260"}, {"place_id": "0x390ce31a134804c3:0x1efe0384e9410898", "name": "CINCHIS DIGITAL INDIA PVT. LTD.", "category": "Computer support and services", "street": "Hemkunt Chambers", "city": "Nehru Place", "phone": "09667339664", "website": "https://cinchis.com/", "rating": 4.9, "review_count": "", "latitude": 28.547605299999997, "longitude": 77.25241419999999, "maps_url": "https://www.google.com/maps/place/?q=place_id:0x390ce31a134804c3:0x1efe0384e9410898"}, {"place_id": "0x4ebf586dbe4d7c09:0x968455c83bf5226c", "name": "Anchor IT Solutions- App Development | Website Development | Digital Marketing", "category": "Software company", "street": "4", "city": "Vinoba Puri, Lajpat Nagar II, Lajpat Nagar", "phone": "07678658584", "website": "", "rating": 4.8, "review_count": "", "latitude": 28.566371399999998, "longitude": 77.2486924, "maps_url": "https://www.google.com/maps/place/?q=place_id:0x4ebf586dbe4d7c09:0x968455c83bf5226c"}, {"place_id": "0x390ce26df476d441:0xcfb0968999210114", "name": "Capricot Technologies Private Limited", "category": "Software company", "street": "Third Floor, Plot # 19-20, Oriental House Yusuf Sarai Community Center", "city": "New Delhi, Delhi 110049", "phone": "09312810051", "website": "https://arkance.world/in-en/", "rating": 4.6, "review_count": "", "latitude": 28.557845999999998, "longitude": 77.20790699999999, "maps_url": "https://www.google.com/maps/place/?q=place_id:0x390ce26df476d441:0xcfb0968999210114"}, {"place_id": "0x390ce242f9a4a027:0xb1f2b4656ab9d166", "name": "Metasoft IT Systems Pvt Ltd", "category": "Software company", "street": "South Extension Plaza 2", "city": "401 402, Guneet Kashyap Marg Rd", "phone": "09910975699", "website": "http://www.metasoft.co.in/", "rating": "", "review_count": "", "latitude": 28.5636208, "longitude": 77.2198183, "maps_url": "https://www.google.com/maps/place/?q=place_id:0x390ce242f9a4a027:0xb1f2b4656ab9d166"}, {"place_id": "0x390ce226100110ef:0xe529d399458dbf03", "name": "First IT", "category": "Software company", "street": "S/F 776-A", "city": "Chirag Dilli", "phone": "", "website": "https://www.firstit.in/", "rating": 5, "review_count": "", "latitude": 28.5376318, "longitude": 77.2282863, "maps_url": "https://www.google.com/maps/place/?q=place_id:0x390ce226100110ef:0xe529d399458dbf03"}, {"place_id": "0x390ce5fdcc79e755:0x309ce99251b84ef6", "name": "Optyminds IT Solutions - Top AI and IT company I Best Digital agency in Noida | Delhi NCR | India", "category": "Software company", "street": "1st Floor", "city": "B-70", "phone": "08929075975", "website": "https://optyminds.com/", "rating": 4.9, "review_count": "", "latitude": 28.584679599999998, "longitude": 77.3135042, "maps_url": "https://www.google.com/maps/place/?q=place_id:0x390ce5fdcc79e755:0x309ce99251b84ef6"}, {"place_id": "0x390ce3b7c0000001:0x46ddd80ee502d937", "name": "Amtrak Technologies Private Limited", "category": "Computer support and services", "street": "6, Community Centre", "city": "East of Kailash", "phone": "01126448000", "website": "https://amtrak.co.in/", "rating": 4.4, "review_count": "", "latitude": 28.558434899999998, "longitude": 77.2463302, "maps_url": "https://www.google.com/maps/place/?q=place_id:0x390ce3b7c0000001:0x46ddd80ee502d937"}, {"place_id": "0x390ce3c8e5555555:0xc908f703f65324ea", "name": "Vinayak Compserve Pvt.Ltd", "category": "Computer service", "street": "220", "city": "Sant Nagar, East of Kailash", "phone": "01126430397", "website": "https://vinayakit.com/", "rating": 3.7, "review_count": "", "latitude": 28.5536721, "longitude": 77.2494229, "maps_url": "https://www.google.com/maps/place/?q=place_id:0x390ce3c8e5555555:0xc908f703f65324ea"}, {"place_id": "0x390cfd309eebed77:0xf47bee595f075e26", "name": "Asfera Technologies Private Limited | Dialer Software Company", "category": "Software company", "street": "59/1", "city": "Saroj Tower, Office No:- 15", "phone": "09066677770", "website": "https://www.asfera.in/", "rating": 4.6, "review_count": "", "latitude": 28.540130599999998, "longitude": 77.2619868, "maps_url": "https://www.google.com/maps/place/?q=place_id:0x390cfd309eebed77:0xf47bee595f075e26"}, {"place_id": "0x390ce3860c81c723:0xc5f50e43c0a86a3e", "name": "Nextr Technology", "category": "Software company", "street": "2nd Floor", "city": "1483/A-1", "phone": "09911751575", "website": "http://www.nextr.in/", "rating": 4.9, "review_count": "", "latitude": 28.574374, "longitude": 77.224284, "maps_url": "https://www.google.com/maps/place/?q=place_id:0x390ce3860c81c723:0xc5f50e43c0a86a3e"}, {"place_id": "0x390ce3cfe91504eb:0x55346c5c499223d7", "name": "CCS Computers Private Limited", "category": "Computer support and services", "street": "2nd-3rd Floor Skipper House", "city": "Nehru Place", "phone": "01126463959", "website": "http://www.ccscomputers.co.in/", "rating": 4, "review_count": "", "latitude": 28.550090599999997, "longitude": 77.2537834, "maps_url": "https://www.google.com/maps/place/?q=place_id:0x390ce3cfe91504eb:0x55346c5c499223d7"}, {"place_id": "0x390ce3423e7de399:0x4f1d6da1ccc7fc78", "name": "BrainyDX", "category": "Software company", "street": "125, Second Floor", "city": "Shahpur Jat, Siri Fort", "phone": "08826941455", "website": "https://www.brainydx.com/", "rating": 4.1, "review_count": "", "latitude": 28.5490677, "longitude": 77.2159996, "maps_url": "https://www.google.com/maps/place/?q=place_id:0x390ce3423e7de399:0x4f1d6da1ccc7fc78"}, {"place_id": "0x390d1df079759d1f:0x8bfa70033f6c672a", "name": "NR Technoserve Pvt. Ltd.", "category": "Software company", "street": "133, Katwaria Sarai", "city": "Phase-2, Qutab Institutional Area", "phone": "07289096762", "website": "http://www.nrtechnoserve.co.in/", "rating": 4.4, "review_count": "", "latitude": 28.5413306, "longitude": 77.18495519999999, "maps_url": "https://www.google.com/maps/place/?q=place_id:0x390d1df079759d1f:0x8bfa70033f6c672a"}, {"place_id": "0x390ce3c50d455555:0x625e4cf2def0b6ac", "name": "Infonative Solutions Limited", "category": "Computer support and services", "street": "107, 108", "city": "DLF South Court", "phone": "08448141818", "website": "https://infonative.net/", "rating": 4.7, "review_count": "", "latitude": 28.5274255, "longitude": 77.2209031, "maps_url": "https://www.google.com/maps/place/?q=place_id:0x390ce3c50d455555:0x625e4cf2def0b6ac"}, {"place_id": "0x390d02994de5e515:0xd908bc03409a0d37", "name": "Himalayan IT Solutions | Best Website Designing Company in Delhi | SEO/Digital Marketing Company in Delhi NCR, India", "category": "Software company", "street": "61/4255, Padam Singh Rd", "city": "Block 29, Block 1, Regar Pura, Karol Bagh", "phone": "09899098509", "website": "http://www.himalayanitsolutions.com/", "rating": 3.9, "review_count": "", "latitude": 28.649673999999997, "longitude": 77.186599, "maps_url": "https://www.google.com/maps/place/?q=place_id:0x390d02994de5e515:0xd908bc03409a0d37"}, {"place_id": "0x390ce24216964c5d:0xc9e228c6a9ed2bad", "name": "Digitally Next", "category": "Marketing agency", "street": "Business India Complex", "city": "adjacent to August Kranti Marg", "phone": "09810409943", "website": "https://digitallynext.com/", "rating": 4.2, "review_count": "", "latitude": 28.561497199999998, "longitude": 77.2188097, "maps_url": "https://www.google.com/maps/place/?q=place_id:0x390ce24216964c5d:0xc9e228c6a9ed2bad"}, {"place_id": "0x390ce3932eaaaaab:0xb308d9aae0d93852", "name": "Al Hadaf Technologies\u2013 ERP, CRM, HRM, Hospital, School, Billing Software Development Company in Delhi NCR", "category": "Software company", "street": "96, Gate No-2", "city": "opp. Escort Hospital", "phone": "08586972994", "website": "https://www.alhadaftech.com/", "rating": 4.9, "review_count": "", "latitude": 28.5562397, "longitude": 77.2762099, "maps_url": "https://www.google.com/maps/place/?q=place_id:0x390ce3932eaaaaab:0xb308d9aae0d93852"}, {"place_id": "0x2a72b8b69d7b6493:0x11251466d4d34cac", "name": "WebZonal IT Company", "category": "Website designer", "street": "Wz-258/2-3, D Block Rd", "city": "Khazan Basti, Nangal Raya, Janakpuri", "phone": "09811170903", "website": "http://webzonal.com/", "rating": 5, "review_count": "", "latitude": 28.6122102, "longitude": 77.11159549999999, "maps_url": "https://www.google.com/maps/place/?q=place_id:0x2a72b8b69d7b6493:0x11251466d4d34cac"}, {"place_id": "0x390ce1656fbb7b65:0x7f0e4b2c21935a5c", "name": "Lynkit Solutions Pvt. Ltd.", "category": "Software company", "street": "246", "city": "Block A, Okhla Phase I, Okhla Industrial Estate", "phone": "01140824028", "website": "http://www.lynkit.in/", "rating": 4.3, "review_count": "", "latitude": 28.5254729, "longitude": 77.2754985, "maps_url": "https://www.google.com/maps/place/?q=place_id:0x390ce1656fbb7b65:0x7f0e4b2c21935a5c"}, {"place_id": "0x390ce25e35e99b33:0xf443abe69b4e8fcc", "name": "Synapse Valuetech Private Limited", "category": "Software company", "street": "Lower Ground Floor", "city": "221", "phone": "01146628882", "website": "https://www.synapsevaluetech.com/", "rating": 4.3, "review_count": "", "latitude": 28.558165, "longitude": 77.2592385, "maps_url": "https://www.google.com/maps/place/?q=place_id:0x390ce25e35e99b33:0xf443abe69b4e8fcc"}, {"place_id": "0x390ce26dc4d4ba2d:0x9486a6d620e379f9", "name": "Akal Information Systems Ltd.", "category": "Software company", "street": "Tower J, World Trade Center", "city": "103", "phone": "01146503545", "website": "https://www.akalinfo.com/", "rating": 3.9, "review_count": "", "latitude": 28.567935499999997, "longitude": 77.1923202, "maps_url": "https://www.google.com/maps/place/?q=place_id:0x390ce26dc4d4ba2d:0x9486a6d620e379f9"}, {"place_id": "0x390feda4c4f56aed:0x2277b287e38fc0ec", "name": "Dizivan IT Solutions Pvt Ltd- App Development & Digital Marketing Company", "category": "Software company", "street": "near Metro Station New Ashok Nagar", "city": "Block B, New Ashok Nagar", "phone": "09142092979", "website": "https://dizivan.com/", "rating": 5, "review_count": "", "latitude": 28.5891575, "longitude": 77.3020624, "maps_url": "https://www.google.com/maps/place/?q=place_id:0x390feda4c4f56aed:0x2277b287e38fc0ec"}, {"place_id": "0x390ce23eeab015ab:0x92d6a7e8dbc46e1a", "name": "Odyssey Website Development Company", "category": "Website designer", "street": "B-59", "city": "Block B, Soami Nagar South, Soami Nagar", "phone": "09654486464", "website": "http://odysseyin.com/?utm_source=GMB&utm_medium=Organic&utm_term=Odyssey&utm_content=Listing&utm_campaign=GMB1", "rating": 3.6, "review_count": "", "latitude": 28.541823599999997, "longitude": 77.2262008, "maps_url": "https://www.google.com/maps/place/?q=place_id:0x390ce23eeab015ab:0x92d6a7e8dbc46e1a"}, {"place_id": "0x390d1f5abfb25fe1:0x7d9c4d5e159f2955", "name": "Jaimru Technology Pvt Ltd", "category": "Software company", "street": "WARD NO. 2", "city": "Plot No. 178 M 33 A/1", "phone": "07838153420", "website": "https://www.jaimru.com/", "rating": 4.9, "review_count": "", "latitude": 28.524347499999998, "longitude": 77.1731889, "maps_url": "https://www.google.com/maps/place/?q=place_id:0x390d1f5abfb25fe1:0x7d9c4d5e159f2955"}, {"place_id": "0x390ce45a25555555:0x83a27490bba534a7", "name": "Parangat Technologies", "category": "Software company", "street": "", "city": "", "phone": "08700213345", "website": "https://www.parangat.com/", "rating": 4.1, "review_count": "", "latitude": 9.374110199999999, "longitude": -74.9524576, "maps_url": "https://www.google.com/maps/place/?q=place_id:0x390ce45a25555555:0x83a27490bba534a7"}, {"place_id": "0x390ce3c577996141:0x6f0e309d0c4c2de1", "name": "Eagle Information Systems Pvt. Ltd.", "category": "Computer support and services", "street": "Madhuban Building", "city": "705", "phone": "09818188012", "website": "http://www.eagle.in/", "rating": 4.5, "review_count": "", "latitude": 28.5486501, "longitude": 77.2520914, "maps_url": "https://www.google.com/maps/place/?q=place_id:0x390ce3c577996141:0x6f0e309d0c4c2de1"}, {"place_id": "0x390ce3ea3fb39ced:0x8b9f74c98dfbe23e", "name": "StudioKrew : Game development company and App Development Studio India", "category": "Software company", "street": "2, Shambhu Dayal Marg", "city": "opp. Okhla Phase 3", "phone": "08826617711", "website": "https://studiokrew.com/", "rating": 4.4, "review_count": "", "latitude": 28.554599999999997, "longitude": 77.265056, "maps_url": "https://www.google.com/maps/place/?q=place_id:0x390ce3ea3fb39ced:0x8b9f74c98dfbe23e"}, {"place_id": "0x390ce456aaaaaaab:0x6e4e087895622564", "name": "Klasiinn", "category": "Software company", "street": "E-506, Inder Mohan Bhardwaj Marg", "city": "Block E, Greater Kailash II, Greater Kailash", "phone": "07827882870", "website": "http://klasiinn.in/", "rating": 5, "review_count": "", "latitude": 28.5358657, "longitude": 77.2384798, "maps_url": "https://www.google.com/maps/place/?q=place_id:0x390ce456aaaaaaab:0x6e4e087895622564"}, {"place_id": "0x390ce45bcd61048f:0x5f6a5602f4155df7", "name": "JK Technosoft Limited", "category": "Software company", "street": "F", "city": "3", "phone": "01204606300", "website": "https://jktech.com/", "rating": 4.2, "review_count": "", "latitude": 28.5802509, "longitude": 77.31793329999999, "maps_url": "https://www.google.com/maps/place/?q=place_id:0x390ce45bcd61048f:0x5f6a5602f4155df7"}, {"place_id": "0x390ce3001bfd51c7:0x43ad1c18c320f5e6", "name": "APPSYFY IT SOLUTIONS PVT LTD", "category": "Software company", "street": "211, Okhla Phase 3 Rd", "city": "Okhla Phase III, Okhla Industrial Estate", "phone": "", "website": "https://appsyfy.com/", "rating": 5, "review_count": "", "latitude": 28.5484191, "longitude": 77.27131729999999, "maps_url": "https://www.google.com/maps/place/?q=place_id:0x390ce3001bfd51c7:0x43ad1c18c320f5e6"}, {"place_id": "0x390ce3b23a1ad57f:0xa5e3b2963fa92d78", "name": "Movee Merchant - Video Production Company and Corporate Film Makers", "category": "Video production service", "street": "271", "city": "South Extension, Masjid Moth Village", "phone": "08377085770", "website": "http://www.moveemerchant.com/", "rating": 4.9, "review_count": "", "latitude": 28.561701099999997, "longitude": 77.2197229, "maps_url": "https://www.google.com/maps/place/?q=place_id:0x390ce3b23a1ad57f:0xa5e3b2963fa92d78"}, {"place_id": "0x390ce3ed50712e4f:0xc576b836f883d069", "name": "SB Constructions", "category": "Real Estate Builders & Construction Company", "street": "B-215", "city": "Block B, Greater Kailash I, Greater Kailash", "phone": "", "website": "http://www.sbconstruct.co.in/", "rating": 4.8, "review_count": "", "latitude": 28.5548543, "longitude": 77.2309396, "maps_url": "https://www.google.com/maps/place/?q=place_id:0x390ce3ed50712e4f:0xc576b836f883d069"}, {"place_id": "0x390ce2098ee42fdd:0xd553596ffc95e8f8", "name": "Obbserv", "category": "Internet marketing service", "street": "6th Floor", "city": "Archana Arcade", "phone": "07340061399", "website": "https://www.obbserv.com/?utm_source=Local&utm_medium=GMB&utm_campaign=Delhi", "rating": 4.8, "review_count": "", "latitude": 28.5538331, "longitude": 77.2311481, "maps_url": "https://www.google.com/maps/place/?q=place_id:0x390ce2098ee42fdd:0xd553596ffc95e8f8"}, {"place_id": "0x390ce3dee7c3502d:0xfc5f2c815b86da49", "name": "Code & Kraft - Web Development & Digital Marketing Agency", "category": "Website designer", "street": "Greater Kailash-1, Block B, Greater Kailash I, Greater Kailash", "city": "New Delhi, Delhi 110048", "phone": "07827111033", "website": "https://codeandkraft.com/", "rating": 5, "review_count": "", "latitude": 28.556379699999997, "longitude": 77.2326027, "maps_url": "https://www.google.com/maps/place/?q=place_id:0x390ce3dee7c3502d:0xfc5f2c815b86da49"}, {"place_id": "0x390cdda0937a36df:0x350a8716d5f40b92", "name": "VS Square Info Solutions", "category": "Computer support and services", "street": "Govardhan Building", "city": "Nehru Place", "phone": "09319173336", "website": "http://www.vssquareinfo.com/", "rating": 4.9, "review_count": "", "latitude": 28.5490526, "longitude": 77.251606, "maps_url": "https://www.google.com/maps/place/?q=place_id:0x390cdda0937a36df:0x350a8716d5f40b92"}, {"place_id": "0x390ce1e92eec0d49:0x8b4c598e70e40b8", "name": "Kito Infocom Pvt. Ltd", "category": "Internet marketing service", "street": "2nd Floor", "city": "B-38", "phone": "08826845665", "website": "https://kitoinfocom.com/", "rating": 4.6, "review_count": "", "latitude": 28.5302415, "longitude": 77.2719123, "maps_url": "https://www.google.com/maps/place/?q=place_id:0x390ce1e92eec0d49:0x8b4c598e70e40b8"}, {"place_id": "0x390d1ed3c6e9f579:0x322eccdb00f350d2", "name": "Techjockey", "category": "Software company", "street": "Ground floor, Habitat India", "city": "C-3", "phone": "01142213003", "website": "https://www.techjockey.com/", "rating": 4, "review_count": "", "latitude": 28.536615299999998, "longitude": 77.1902978, "maps_url": "https://www.google.com/maps/place/?q=place_id:0x390d1ed3c6e9f579:0x322eccdb00f350d2"}, {"place_id": "0x390ce2380e5f3f1f:0xc6a6beca3450475f", "name": "Regional Remote Sensing Center North", "category": "Corporate office", "street": "plot no 7, planning centre area", "city": "Sadiq Nagar", "phone": "", "website": "", "rating": 4.8, "review_count": "", "latitude": 28.555009199999997, "longitude": 77.2280492, "maps_url": "https://www.google.com/maps/place/?q=place_id:0x390ce2380e5f3f1f:0xc6a6beca3450475f"}, {"place_id": "0x390ce340b27bc093:0xc927e8fe50cf47f5", "name": "Ghar point (A house renting company)", "category": "Real estate consultant", "street": "B 272", "city": "Block B, Greater Kailash I, Greater Kailash", "phone": "09599685158", "website": "", "rating": 4.8, "review_count": "", "latitude": 28.556379699999997, "longitude": 77.2326027, "maps_url": "https://www.google.com/maps/place/?q=place_id:0x390ce340b27bc093:0xc927e8fe50cf47f5"}, {"place_id": "0x390ce3b5e9981665:0x6ed3916f90d5be3c", "name": "Netsoft Consulting Services", "category": "Information services", "street": "24, IInd Floor, Community Center, East Of Kailash", "city": "behind Sapna Cinema", "phone": "01145330000", "website": "https://netsoftit.com/contact-us/", "rating": 3.5, "review_count": "", "latitude": 28.5583678, "longitude": 77.24568579999999, "maps_url": "https://www.google.com/maps/place/?q=place_id:0x390ce3b5e9981665:0x6ed3916f90d5be3c"}, {"place_id": "0x390ce39a24b89521:0x6e886c5e28fd05a9", "name": "Cloude Data Delhi | Best Cloud Service Provider company in India", "category": "Web hosting company", "street": "First Floor", "city": "A 212, Okhla Phase 3 Rd", "phone": "08882353612", "website": "https://cloudedata.com/", "rating": 4.4, "review_count": "", "latitude": 28.548515, "longitude": 77.2712834, "maps_url": "https://www.google.com/maps/place/?q=place_id:0x390ce39a24b89521:0x6e886c5e28fd05a9"}, {"place_id": "0x390ce31f8414d201:0xd94fa7c34d7873a2", "name": "Bhardwaj And Company (Steel Shuttering and Scaffolding Material Supplier)", "category": "Construction equipment supplier", "street": "85-A , Ground Floor", "city": "Bhardwaj Plaza", "phone": "09811109106", "website": "http://bhardwajandcompany.com/", "rating": 4.9, "review_count": "", "latitude": 28.557116399999998, "longitude": 77.23596979999999, "maps_url": "https://www.google.com/maps/place/?q=place_id:0x390ce31f8414d201:0xd94fa7c34d7873a2"}, {"place_id": "0x390ce19d6aaaaaab:0x322f66cd91e8f6cd", "name": "Vikas Gupta Web Developer", "category": "Website designer", "street": "A-454 Dakshinpuri", "city": "New Delhi, Delhi 110062", "phone": "09643269244", "website": "https://itcrafterhub.com/website-developer-delhi/", "rating": 5, "review_count": "", "latitude": 28.522017599999998, "longitude": 77.2366923, "maps_url": "https://www.google.com/maps/place/?q=place_id:0x390ce19d6aaaaaab:0x322f66cd91e8f6cd"}, {"place_id": "0x390ce1cf9c1186ab:0x4316416396a6335c", "name": "Acclefina Advisory Services Private Limited", "category": "Corporate office", "street": "#58", "city": "Madangir", "phone": "09090797465", "website": "", "rating": 5, "review_count": "", "latitude": 28.5555909, "longitude": 77.21583989999999, "maps_url": "https://www.google.com/maps/place/?q=place_id:0x390ce1cf9c1186ab:0x4316416396a6335c"}, {"place_id": "0x390ce38ec685f549:0xd847560d9c00da78", "name": "Namaste India Tours", "category": "Tour operator", "street": "A-2/A", "city": "3rd, floor", "phone": "09810157433", "website": "http://www.namasteindiatours.com/", "rating": 4.6, "review_count": "", "latitude": 28.559110099999998, "longitude": 77.22742699999999, "maps_url": "https://www.google.com/maps/place/?q=place_id:0x390ce38ec685f549:0xd847560d9c00da78"}, {"place_id": "0x390ce35595f71271:0x4341d129c60d30d", "name": "Corporate Investigations India Pvt Ltd -Background Verification services in India", "category": "Corporate office", "street": "J-27, Zamrudpur", "city": "Kailash Colony", "phone": "07982797109", "website": "https://www.corporateinvestigationsindia.com/", "rating": 4.5, "review_count": "", "latitude": 28.5559744, "longitude": 77.2389614, "maps_url": "https://www.google.com/maps/place/?q=place_id:0x390ce35595f71271:0x4341d129c60d30d"}, {"place_id": "0x390ce100f5e94809:0xd78d6863269ad2a1", "name": "Taom Solutions", "category": "Software company", "street": "E- 44/3 Ground Floor", "city": "F Block, Pocket X, Okhla Phase II, Okhla Industrial Estate", "phone": "", "website": "https://www.taomsolutions.com/", "rating": 5, "review_count": "", "latitude": 28.535762799999997, "longitude": 77.2764329, "maps_url": "https://www.google.com/maps/place/?q=place_id:0x390ce100f5e94809:0xd78d6863269ad2a1"}, {"place_id": "0x390ce459e2a3a42f:0xdda2e042090c2c72", "name": "InfiCare Technologies Pvt. Ltd", "category": "Software company", "street": "D-92 Second/Third floor", "city": "Sector 2", "phone": "09711265591", "website": "http://www.inficaretech.com/", "rating": 3.9, "review_count": "", "latitude": 28.582936099999998, "longitude": 77.3175146, "maps_url": "https://www.google.com/maps/place/?q=place_id:0x390ce459e2a3a42f:0xdda2e042090c2c72"}, {"place_id": "0x390ce2160c350ae7:0x769ee9e445eca4d6", "name": "The Sports Company", "category": "Corporate office", "street": "141-A, Fourth Floor", "city": "Shahpur Jat, Siri Fort", "phone": "09821384210", "website": "http://tscglobal.in/", "rating": 4.8, "review_count": "", "latitude": 28.548057999999997, "longitude": 77.216359, "maps_url": "https://www.google.com/maps/place/?q=place_id:0x390ce2160c350ae7:0x769ee9e445eca4d6"}, {"place_id": "0x390ce1b2621f2cc3:0x391213443086322d", "name": "DreamCos Beauty Private Limited", "category": "Import export company", "street": "Bluebells school international", "city": "89A/3, Zamrudpur", "phone": "09811750191", "website": "http://dreamcosbeauty.com/", "rating": 4, "review_count": "", "latitude": 28.557123599999997, "longitude": 77.2369741, "maps_url": "https://www.google.com/maps/place/?q=place_id:0x390ce1b2621f2cc3:0x391213443086322d"}, {"place_id": "0xa3f7b500ba6bee9b:0xbf6f44de92b28de", "name": "Yuvocreations Private Limited ( \u092f\u0941\u0935\u094b\u0915\u094d\u0930\u093f\u090f\u0936\u0928\u094d\u0938 \u092a\u094d\u0930\u093e\u0907\u0935\u0947\u091f \u0932\u093f\u092e\u093f\u091f\u0947\u0921 ) - Website Designing & Digital Marketing Agency", "category": "Software company", "street": "Lane no.4", "city": "Khasra no. 258, Westend Marg", "phone": "07042123166", "website": "https://yuvocreations.com/", "rating": 5, "review_count": "", "latitude": 28.5169774, "longitude": 77.19925789999999, "maps_url": "https://www.google.com/maps/place/?q=place_id:0xa3f7b500ba6bee9b:0xbf6f44de92b28de"}, {"place_id": "0x390ce1be2d2a7377:0x5020cce4790298e1", "name": "AJWA KAIF PVT LTD", "category": "Computer support and services", "street": "Ground Floor", "city": "Khirki Vill", "phone": "01142502100", "website": "https://www.ajwakaif.com/", "rating": 5, "review_count": "", "latitude": 28.5309287, "longitude": 77.2194186, "maps_url": "https://www.google.com/maps/place/?q=place_id:0x390ce1be2d2a7377:0x5020cce4790298e1"}, {"place_id": "0x390ce39a3aaaaaef:0xca57821ce7ee09b0", "name": "Smart IT Technologies", "category": "Website designer", "street": "Saroj Sadan", "city": "100", "phone": "08840274824", "website": "https://smartittechnologies.com/", "rating": 5, "review_count": "", "latitude": 28.5697218, "longitude": 77.2680354, "maps_url": "https://www.google.com/maps/place/?q=place_id:0x390ce39a3aaaaaef:0xca57821ce7ee09b0"}, {"place_id": "0x390ce2432b6bb4ef:0x958eaff0cb0f8f3d", "name": "AaOne Group", "category": "Real Estate Builders & Construction Company", "street": "South Extension II, Block B", "city": "New Delhi, Delhi 110049", "phone": "08588831915", "website": "https://www.aaonegroup.com/", "rating": 4.7, "review_count": "", "latitude": 28.566106899999998, "longitude": 77.2168405, "maps_url": "https://www.google.com/maps/place/?q=place_id:0x390ce2432b6bb4ef:0x958eaff0cb0f8f3d"}, {"place_id": "0x390ce10972701b43:0x88fbfcfafdaf00f3", "name": "SearchingYard Group Corporate HQ", "category": "Software company", "street": "Tower 1st Floor, A", "city": "Nagpal Business", "phone": "", "website": "http://www.searchingyard.com/", "rating": 1.7, "review_count": "", "latitude": 28.538387699999998, "longitude": 77.27080029999999, "maps_url": "https://www.google.com/maps/place/?q=place_id:0x390ce10972701b43:0x88fbfcfafdaf00f3"}, {"place_id": "0x390ce246254d6ec7:0xa2a01d504b488907", "name": "RNK Sun Systems Pvt.Ltd.", "category": "Electronics store", "street": "A", "city": "C20", "phone": "01126264040", "website": "http://rnksunsystems.com/", "rating": 4.5, "review_count": "", "latitude": 28.5594881, "longitude": 77.2279372, "maps_url": "https://www.google.com/maps/place/?q=place_id:0x390ce246254d6ec7:0xa2a01d504b488907"}, {"place_id": "0xd1516b679f60d2f:0x9458c47d907b59a8", "name": "MarkTech Company", "category": "Marketing agency", "street": "INA, Laxmi Bai Nagar", "city": "New Delhi, Delhi 110023", "phone": "08527880385", "website": "https://markteches.com/", "rating": 3.9, "review_count": "", "latitude": 28.5754463, "longitude": 77.2077127, "maps_url": "https://www.google.com/maps/place/?q=place_id:0xd1516b679f60d2f:0x9458c47d907b59a8"}, {"place_id": "0x390cfd3237f2f5df:0x6cdb60c44fa89d02", "name": "Agriculture Insurance Company of India Limited", "category": "Corporate office", "street": "Office Block 1", "city": "Plate B & C, 5th Floor", "phone": "01124604444", "website": "https://www.aicofindia.com/", "rating": 4.3, "review_count": "", "latitude": 28.5697726, "longitude": 77.2126467, "maps_url": "https://www.google.com/maps/place/?q=place_id:0x390cfd3237f2f5df:0x6cdb60c44fa89d02"}, {"place_id": "0x390ce3a840ea11c1:0xdf76e01fa07971ea", "name": "Camsol Advisory | Best Online CA Services in Delhi | Company Registration Services", "category": "Accounting firm", "street": "Basement, N Block", "city": "N-22, Guru Ravidas Marg", "phone": "09873895537", "website": "https://camsoladvisory.com/", "rating": 4.9, "review_count": "", "latitude": 28.537281, "longitude": 77.2591806, "maps_url": "https://www.google.com/maps/place/?q=place_id:0x390ce3a840ea11c1:0xdf76e01fa07971ea"}, {"place_id": "0x390ce2380821a1ef:0x604103ccf751b793", "name": "DOS ISRO New Office - Antariksh Bhawan", "category": "Research institute", "street": "Dos Isro New Office", "city": "3079, Josip Broz Tito Marg", "phone": "08022172294", "website": "", "rating": 4.6, "review_count": "", "latitude": 28.554902799999997, "longitude": 77.2281491, "maps_url": "https://www.google.com/maps/place/?q=place_id:0x390ce2380821a1ef:0x604103ccf751b793"}, {"place_id": "0x390ce32f7f91b893:0xf7c2be7eb729f502", "name": "Digital marketing Company, website Designing Company ( Logo Designing Company ) ( Online Marketplace )", "category": "Website designer", "street": "120-G", "city": "Hari Nagar Ashram", "phone": "08920138925", "website": "https://royalcruiselimos.com/", "rating": 5, "review_count": "", "latitude": 28.5718902, "longitude": 77.2559809, "maps_url": "https://www.google.com/maps/place/?q=place_id:0x390ce32f7f91b893:0xf7c2be7eb729f502"}, {"place_id": "0x390ce3c273658277:0x5e5150780f1ea710", "name": "CPC Construction Group", "category": "Real Estate Builders & Construction Company", "street": "Office No-A 126", "city": "Second Floor", "phone": "09433554363", "website": "", "rating": 4.6, "review_count": "", "latitude": 28.5502164, "longitude": 77.2397968, "maps_url": "https://www.google.com/maps/place/?q=place_id:0x390ce3c273658277:0x5e5150780f1ea710"}, {"place_id": "0x390ce25f6e3d2b9d:0x57f3a0fc9725f59b", "name": "YATRA POINT TOURISM COMPANY INDIA", "category": "Travel agency", "street": "OFFICE NO-7", "city": "BULDING NO N-1, LGF", "phone": "08860016982", "website": "", "rating": 4.9, "review_count": "", "latitude": 28.574078, "longitude": 77.219089, "maps_url": "https://www.google.com/maps/place/?q=place_id:0x390ce25f6e3d2b9d:0x57f3a0fc9725f59b"}, {"place_id": "0x390ce3d82638c87d:0x84ec7902a74bc08f", "name": "HP India Optical Media & Memory Company | Importer, Distributor, Dealer, Supplier | CD, DVD, Bluray, Pendrive, SSD, Writer", "category": "Computer Hardware Company", "street": "K20A", "city": "Kalkaji Extension, Kalkaji", "phone": "08750093366", "website": "http://hpopticalmedia.com/", "rating": 4.9, "review_count": "", "latitude": 28.5427657, "longitude": 77.2531463, "maps_url": "https://www.google.com/maps/place/?q=place_id:0x390ce3d82638c87d:0x84ec7902a74bc08f"}, {"place_id": "0x390ce58a455977a3:0x9601ae6014b5be9e", "name": "Suraj Air Conditioning Solutions", "category": "Air conditioning repair service", "street": "Sector 3, Sadiq Nagar", "city": "New Delhi, Delhi 110049", "phone": "07678391388", "website": "https://www.surajairconditioningsolutions.info/home", "rating": 4.7, "review_count": "", "latitude": 28.555203799999997, "longitude": 77.2266532, "maps_url": "https://www.google.com/maps/place/?q=place_id:0x390ce58a455977a3:0x9601ae6014b5be9e"}, {"place_id": "0x390ce39307063999:0xb115a5e9663792f0", "name": "Eagle Hunter Solutions Limited", "category": "Security guard service", "street": "61, Kalu Sarai Rd, Sarvpriya vihar", "city": "61, Kalu Sarai Rd", "phone": "01140748000", "website": "https://eaglehuntersgroup.com/", "rating": 4, "review_count": "", "latitude": 28.542211499999997, "longitude": 77.2036753, "maps_url": "https://www.google.com/maps/place/?q=place_id:0x390ce39307063999:0xb115a5e9663792f0"}, {"place_id": "0x390ce3ca02c212bf:0x831590e44471eedc", "name": "SANKET GARG & COMPANY", "category": "Accounting firm", "street": "No. 10", "city": "216-B/1 Basement Gautam Nagar", "phone": "09810577298", "website": "http://casanketgargindia.co.in/", "rating": 5, "review_count": "", "latitude": 28.5607808, "longitude": 77.21212799999999, "maps_url": "https://www.google.com/maps/place/?q=place_id:0x390ce3ca02c212bf:0x831590e44471eedc"}, {"place_id": "0x390ce3945f68da39:0xab1775d3bfd9bb05", "name": "\ud835\udc0f\ud835\udc14\ud835\udc0d\ud835\udc08\ud835\udc00 \ud835\udc13\ud835\udc11\ud835\udc15\ud835\udc0b\ud835\udc04\ud835\udc19 \ud835\udc08\ud835\udc0d\ud835\udc03\ud835\udc08\ud835\udc00 - Luxury car rentals in Delhi", "category": "Corporate office", "street": "M- 2", "city": "Greater Kailash-1, M Block, Greater Kailash I, Greater Kailash", "phone": "09999919396", "website": "https://www.trvlez.in/", "rating": 5, "review_count": "", "latitude": 28.550003699999998, "longitude": 77.2338099, "maps_url": "https://www.google.com/maps/place/?q=place_id:0x390ce3945f68da39:0xab1775d3bfd9bb05"}, {"place_id": "0x390ce3083df185df:0xcff0bc07ace98fca", "name": "Dwitty & Company", "category": "Website designer", "street": "B-109", "city": "Block D, Jangpura B", "phone": "07011273521", "website": "", "rating": 5, "review_count": "", "latitude": 28.581945599999997, "longitude": 77.2534653, "maps_url": "https://www.google.com/maps/place/?q=place_id:0x390ce3083df185df:0xcff0bc07ace98fca"}, {"place_id": "0x390ce15795555555:0x9bb8a801d00d7573", "name": "DreamSoft Infotech - Website Development Company in India", "category": "Software company", "street": "A-75 Third Floor", "city": "A Block, Sector 5", "phone": "01204380622", "website": "https://dreamsoftinfotech.com/", "rating": 3.4, "review_count": "", "latitude": 28.591018899999998, "longitude": 77.32201529999999, "maps_url": "https://www.google.com/maps/place/?q=place_id:0x390ce15795555555:0x9bb8a801d00d7573"}, {"place_id": "0x390ce383cbe684f9:0x6df322cd06395a6c", "name": "Level Up The Photo Video Company | Corporate & Healthcare Video Production | Photography & Live Streaming Services", "category": "Video production service", "street": "C - 546", "city": "Block C, Defence Colony", "phone": "09718979770", "website": "http://www.leveluppvc.com/", "rating": 5, "review_count": "", "latitude": 28.5670589, "longitude": 77.23005069999999, "maps_url": "https://www.google.com/maps/place/?q=place_id:0x390ce383cbe684f9:0x6df322cd06395a6c"}, {"place_id": "0x390ce39d936b3e73:0x7322566a7104ffd3", "name": "Utsao - Corporate & Business Gifts", "category": "Corporate gift supplier", "street": "S/F1", "city": "Bhaskar Bhavan", "phone": "09289738874", "website": "https://utsao.com/", "rating": 4.7, "review_count": "", "latitude": 28.570666, "longitude": 77.2222604, "maps_url": "https://www.google.com/maps/place/?q=place_id:0x390ce39d936b3e73:0x7322566a7104ffd3"}, {"place_id": "0x390ce3fa30cb5c19:0xc2b9c3fe8db1dd54", "name": "KIREN SMART SERVICES", "category": "Software company", "street": "D-196, New", "city": "G/F, Lajpat Nagar I, Lajpat Nagar", "phone": "09873907360", "website": "https://kirensmartservices.com/", "rating": 4.1, "review_count": "", "latitude": 28.5785903, "longitude": 77.2423422, "maps_url": "https://www.google.com/maps/place/?q=place_id:0x390ce3fa30cb5c19:0xc2b9c3fe8db1dd54"}, {"place_id": "0x390ce3633ca0a6cd:0x5e09349e46941ff9", "name": "IEDRA Org", "category": "Association / Organization", "street": "C-2&3", "city": "Kanu chambers", "phone": "", "website": "https://www.iedra.org/", "rating": 5, "review_count": "", "latitude": 28.5555867, "longitude": 77.2255594, "maps_url": "https://www.google.com/maps/place/?q=place_id:0x390ce3633ca0a6cd:0x5e09349e46941ff9"}, {"place_id": "0x390ce3ad1110066f:0x6b379fb5729821ac", "name": "Tssg-Tech", "category": "Website designer", "street": "Block B, Kalkaji", "city": "New Delhi, Delhi, 110019", "phone": "09599669486", "website": "https://tssgtech.info/", "rating": 5, "review_count": "", "latitude": 28.541919399999998, "longitude": 77.2523604, "maps_url": "https://www.google.com/maps/place/?q=place_id:0x390ce3ad1110066f:0x6b379fb5729821ac"}, {"place_id": "0x390ce3ad5f45af7b:0xc1a937329b5d9ba8", "name": "TraqCheck", "category": "Software company", "street": "", "city": "", "phone": "", "website": "http://traqcheck.com/", "rating": 4.2, "review_count": "", "latitude": 21.0680074, "longitude": 82.7525294, "maps_url": "https://www.google.com/maps/place/?q=place_id:0x390ce3ad5f45af7b:0xc1a937329b5d9ba8"}, {"place_id": "0x390ce331a640d3ed:0xa09bb920ed6fe7cf", "name": "Zen Business Centre - Coworking Space in Delhi | Conference Rooms in Delhi | Custom Office Space | Private Office Space", "category": "Business center", "street": "D65", "city": "Block D, Defence Colony", "phone": "09810699990", "website": "https://zenbusinesscentre.com/", "rating": 4.5, "review_count": "", "latitude": 28.5668828, "longitude": 77.2333155, "maps_url": "https://www.google.com/maps/place/?q=place_id:0x390ce331a640d3ed:0xa09bb920ed6fe7cf"}, {"place_id": "0x390ce3c41d2460f7:0x177b4d048d517885", "name": "VIRENDER FRUIT SHOP", "category": "Print shop", "street": "SHOP NO 1", "city": "Type 2", "phone": "09718665482", "website": "", "rating": 5, "review_count": "", "latitude": 28.558521799999998, "longitude": 77.2278742, "maps_url": "https://www.google.com/maps/place/?q=place_id:0x390ce3c41d2460f7:0x177b4d048d517885"}]}