[{"place_id": "ChIJc-QFLnQSbQQRAu_8xjqxZFI", "name": "Info Tech India", "street": "KAILASH BUILDING, 1212, KG Marg, Barakhamba, New Delhi, Delhi 110001, India", "phone": "", "rating": "5", "review_count": "", "website": "https://infotechindia.in/", "latitude": 28.629473299999997, "longitude": 77.22220159999999, "maps_url": "https://www.google.com/maps/search/?api=1&query=Info%20Tech%20India&query_place_id=ChIJc-QFLnQSbQQRAu_8xjqxZFI"}, {"place_id": "ChIJExoZbgP9DDkRd2Q8vmEWFgc", "name": "Posistrength Software Solution Pvt.Ltd.", "street": "Workingdom,E-13/29, First Floor, Harsha Bhawan, Inner Circle, Block E, Connaught Place, New Delhi, Delhi 110001, India", "phone": "+91 89832 05821", "rating": "4.9", "review_count": "", "website": "https://www.posistrength.com/", "latitude": 28.6326204, "longitude": 77.22187869999999, "maps_url": "https://www.google.com/maps/search/?api=1&query=Posistrength%20Software%20Solution%20Pvt.Ltd.&query_place_id=ChIJExoZbgP9DDkRd2Q8vmEWFgc"}, {"place_id": "ChIJC3MN3zb9DDkR-JxtEG9cQg0", "name": "I. T. Solutions", "street": "Gate No. 8, A-6, 1st Floor, Inner Circle, Above Post office, near ICICI Bank, Bon Ton and Metro, Connaught Place, New Delhi, Delhi 110001, India", "phone": "+91 11 4152 3242", "rating": "4.9", "review_count": "", "website": "http://www.itsolutioncp.com/", "latitude": 28.6324367, "longitude": 77.2183441, "maps_url": "https://www.google.com/maps/search/?api=1&query=I.%20T.%20Solutions&query_place_id=ChIJC3MN3zb9DDkR-JxtEG9cQg0"}, {"place_id": "ChIJlaY7HUv9DDkRXE7f2ZAgbLE", "name": "Infocera IT", "street": "First Floor, Block-L, L29 - L34, Block L, Connaught Place, New Delhi, Delhi 110001, India", "phone": "", "rating": "4.7", "review_count": "", "website": "https://infocera.in/", "latitude": 28.634275499999998, "longitude": 77.2217273, "maps_url": "https://www.google.com/maps/search/?api=1&query=Infocera%20IT&query_place_id=ChIJlaY7HUv9DDkRXE7f2ZAgbLE"}, {"place_id": "ChIJY05MZjb9DDkRTiB7cFBD48w", "name": "DataSlexIndia | On-Demand Software Development Company", "street": "210,211,212 BMC House, N1, Middle Cir, Connaught Place, New Delhi, Delhi 110001, India", "phone": "+91 11 2484 5172", "rating": "5", "review_count": "", "website": "https://dataslexindia.com/", "latitude": 28.630570499999997, "longitude": 77.2198088, "maps_url": "https://www.google.com/maps/search/?api=1&query=DataSlexIndia%20%7C%20On-Demand%20Software%20Development%20Company&query_place_id=ChIJY05MZjb9DDkRTiB7cFBD48w"}, {"place_id": "ChIJcesdOTX9DDkRtlHcx4gT3ds", "name": "Jak Software Pvt Ltd", "street": "52 Janpath, New Delhi, Delhi 110001, India", "phone": "+91 78272 49056", "rating": "4.4", "review_count": "", "website": "http://www.jaksoftware.co.in/", "latitude": 28.627537999999998, "longitude": 77.21878989999999, "maps_url": "https://www.google.com/maps/search/?api=1&query=Jak%20Software%20Pvt%20Ltd&query_place_id=ChIJcesdOTX9DDkRtlHcx4gT3ds"}, {"place_id": "ChIJLXrkS8z9DDkRIXIDU_ojar0", "name": "Web Players Technology- Website Designing Company in Central Delhi - Landing Page Designing Company in Delhi", "street": "CP N-12 UPPER GROUND FLOOR MUNSI LAL BUILDING, Connaught Cir, OPPOSITE KFC, Connaught Place, New Delhi, Delhi 110001, India", "phone": "+91 97172 92583", "rating": "5", "review_count": "", "website": "https://www.web-players.co.in/", "latitude": 28.6315566, "longitude": 77.22262119999999, "maps_url": "https://www.google.com/maps/search/?api=1&query=Web%20Players%20Technology-%20Website%20Designing%20Company%20in%20Central%20Delhi%20-%20Landing%20Page%20Designing%20Company%20in%20Delhi&query_place_id=ChIJLXrkS8z9DDkRIXIDU_ojar0"}, {"place_id": "ChIJSclvODL9DDkRYyaAVInQcz0", "name": "Alliancef Cyber & Web Technologies Pvt. Ltd.", "street": "Vijaya Building, 811, 8th Floor, Barakhamba Rd, New Delhi, Delhi 110001, India", "phone": "+91 93502 54293", "rating": "5", "review_count": "", "website": "https://www.alliancef.com/", "latitude": 28.628895699999998, "longitude": 77.2252187, "maps_url": "https://www.google.com/maps/search/?api=1&query=Alliancef%20Cyber%20%26%20Web%20Technologies%20Pvt.%20Ltd.&query_place_id=ChIJSclvODL9DDkRYyaAVInQcz0"}, {"place_id": "ChIJUSK0voT9DDkR2KhgDWo4qmc", "name": "Pinakinvox Private Limited", "street": "5th Floor, Wing-A, Barakhamba Rd, Barakhamba, New Delhi, Delhi 110001, India", "phone": "+91 93103 96182", "rating": "5", "review_count": "", "website": "https://pinakinvox.com/", "latitude": 28.6304491, "longitude": 77.2226405, "maps_url": "https://www.google.com/maps/search/?api=1&query=Pinakinvox%20Private%20Limited&query_place_id=ChIJUSK0voT9DDkR2KhgDWo4qmc"}, {"place_id": "ChIJUTjmTlX9DDkRFs7kNi7bKuo", "name": "Globe Alley Tech. - Software Development Company", "street": "J6JG+6RW, 119, Fire Brigade Lane, Connaught Place, New Delhi, Delhi 110001, India", "phone": "+91 99107 10140", "rating": "4.9", "review_count": "", "website": "http://globealley.us/", "latitude": 28.6306084, "longitude": 77.22708829999999, "maps_url": "https://www.google.com/maps/search/?api=1&query=Globe%20Alley%20Tech.%20-%20Software%20Development%20Company&query_place_id=ChIJUTjmTlX9DDkRFs7kNi7bKuo"}, {"place_id": "ChIJ1ez2rFT9DDkR1-YUDO0KbiY", "name": "Arsenal Infosolutions Pvt. Ltd", "street": "Kailash Building, 1005 & 1006, KG Marg, Barakhamba, New Delhi, Delhi 110001, India", "phone": "+91 11 4110 1571", "rating": "4.7", "review_count": "", "website": "https://arsenalinfosolutions.com/", "latitude": 28.629385799999998, "longitude": 77.2223423, "maps_url": "https://www.google.com/maps/search/?api=1&query=Arsenal%20Infosolutions%20Pvt.%20Ltd&query_place_id=ChIJ1ez2rFT9DDkR1-YUDO0KbiY"}, {"place_id": "ChIJZbFt6FH9DDkROB8cWxYquJY", "name": "Tech Learnit", "street": "1st Floor, Hamilton House, Block A, Connaught Place, New Delhi, Delhi 110001, India", "phone": "+91 80870 53668", "rating": "5", "review_count": "", "website": "https://www.techlearnit.com/", "latitude": 28.632013099999998, "longitude": 77.2178718, "maps_url": "https://www.google.com/maps/search/?api=1&query=Tech%20Learnit&query_place_id=ChIJZbFt6FH9DDkROB8cWxYquJY"}, {"place_id": "ChIJvf5v2kn9DDkRRLj0BpQjUPs", "name": "Asian infotech", "street": "J6J8+XMH, Connaught Cir, P-25, Connaught Place, New Delhi, Delhi 110001, India", "phone": "+91 98100 57894", "rating": "3.6", "review_count": "", "website": "", "latitude": 28.6324489, "longitude": 77.2167425, "maps_url": "https://www.google.com/maps/search/?api=1&query=Asian%20infotech&query_place_id=ChIJvf5v2kn9DDkRRLj0BpQjUPs"}, {"place_id": "ChIJt1WsJQD9DDkRC_QeektzPUo", "name": "Prettify Creative | Software Development Company in Delhi | Logo Design Company in Delhi | Web Design Company in Delhi", "street": "7th Floor, 704, Atul Grove Road, Janpath, Prettify Creative, New Delhi, Delhi 110001, India", "phone": "+91 79851 91906", "rating": "4.9", "review_count": "", "website": "https://www.prettifycreative.com/?utm_source=google&utm_medium=gbp", "latitude": 28.627264699999998, "longitude": 77.22103469999999, "maps_url": "https://www.google.com/maps/search/?api=1&query=Prettify%20Creative%20%7C%20Software%20Development%20Company%20in%20Delhi%20%7C%20Logo%20Design%20Company%20in%20Delhi%20%7C%20Web%20Design%20Company%20in%20Delhi&query_place_id=ChIJt1WsJQD9DDkRC_QeektzPUo"}, {"place_id": "ChIJp2QZy6PhDDkRo4MA8enlBaI", "name": "Highlex Technologies", "street": "1st Floor, Krishna Park, D-300, Connaught Place, New Delhi, Delhi 110001, India", "phone": "+91 85868 53031", "rating": "5", "review_count": "", "website": "https://highlex.in/", "latitude": 28.632742999999998, "longitude": 77.219597, "maps_url": "https://www.google.com/maps/search/?api=1&query=Highlex%20Technologies&query_place_id=ChIJp2QZy6PhDDkRo4MA8enlBaI"}, {"place_id": "ChIJO4sr49IDDTkRALZaeWsr-oI", "name": "Iraitech | Software Development Company", "street": "Central Square Complex 3, Unit No-1051, 1st Floor, Near Filmistan, DCM chowk, Bara Hindu Rao, Kishan Ganj, Delhi, 110006, India", "phone": "+91 81301 04108", "rating": "4.1", "review_count": "", "website": "https://www.iraitech.com/", "latitude": 28.6631951, "longitude": 77.20308639999999, "maps_url": "https://www.google.com/maps/search/?api=1&query=Iraitech%20%7C%20Software%20Development%20Company&query_place_id=ChIJO4sr49IDDTkRALZaeWsr-oI"}, {"place_id": "ChIJVVWlCEr9DDkRCLb_F_qQkck", "name": "Source2T Private Ltd.", "street": "Level 3B, DLF Building, Sansad Marg, Janpath, Connaught Place, New Delhi, Delhi 110001, India", "phone": "+91 78274 81181", "rating": "5", "review_count": "", "website": "http://source2t.com/", "latitude": 28.6283221, "longitude": 77.21720789999999, "maps_url": "https://www.google.com/maps/search/?api=1&query=Source2T%20Private%20Ltd.&query_place_id=ChIJVVWlCEr9DDkRCLb_F_qQkck"}, {"place_id": "ChIJAcBttzb9DDkRCoEeuTPCXmg", "name": "Telepie Technology", "street": "5TH FLOOR, Wing-A, Statesman House, Barakhamba Rd, Barakhamba, New Delhi, Delhi 110001, India", "phone": "+91 83686 15329", "rating": "5", "review_count": "", "website": "http://telepie.com/", "latitude": 28.630822199999997, "longitude": 77.2226395, "maps_url": "https://www.google.com/maps/search/?api=1&query=Telepie%20Technology&query_place_id=ChIJAcBttzb9DDkRCoEeuTPCXmg"}, {"place_id": "ChIJjTW40FvjDDkRMg33-9y4UpM", "name": "Asia Tech World", "street": "LB 15 ANSAL BHAWAN, KG Marg, Connaught Place, New Delhi, Delhi 110001, India", "phone": "+91 84470 19449", "rating": "5", "review_count": "", "website": "https://www.asiatechworld.in/", "latitude": 28.6228566, "longitude": 77.2253927, "maps_url": "https://www.google.com/maps/search/?api=1&query=Asia%20Tech%20World&query_place_id=ChIJjTW40FvjDDkRMg33-9y4UpM"}, {"place_id": "ChIJjeJIYfv9DDkRW6JxZ0ugd-A", "name": "Alliancef Global | Mobile App Development | eCommerce Website Design and Development company in Delhi, India", "street": "8th Floor, Vijaya Building, 811, Barakhamba Rd, Todermal Road Area, Mandi House, New Delhi, Delhi 110001, India", "phone": "+91 95821 99196", "rating": "5", "review_count": "", "website": "https://alliancef.global/", "latitude": 28.628632099999997, "longitude": 77.2269889, "maps_url": "https://www.google.com/maps/search/?api=1&query=Alliancef%20Global%20%7C%20Mobile%20App%20Development%20%7C%20eCommerce%20Website%20Design%20and%20Development%20company%20in%20Delhi%2C%20India&query_place_id=ChIJjeJIYfv9DDkRW6JxZ0ugd-A"}, {"place_id": "ChIJV5b4yDX9DDkRdJwaZgRwvK0", "name": "Sterco Digitex Pvt Limited", "street": "2nd Floor, 72, Janpath Rd, Atul Grove Road, Janpath, Connaught Place, New Delhi, Delhi 110001, India", "phone": "+91 120 485 7333", "rating": "4.1", "review_count": "", "website": "https://www.stercodigitex.com/", "latitude": 28.628133, "longitude": 77.21985099999999, "maps_url": "https://www.google.com/maps/search/?api=1&query=Sterco%20Digitex%20Pvt%20Limited&query_place_id=ChIJV5b4yDX9DDkRdJwaZgRwvK0"}, {"place_id": "ChIJeRY9stf9DDkRYAKRJFhxaHY", "name": "Tally Experts", "street": "Statesman House, 4th, Barakhamba Rd, Connaught Lane, Barakhamba, New Delhi, Delhi 110001, India", "phone": "+91 92110 44269", "rating": "4.8", "review_count": "", "website": "https://tallyexperts.co.in/", "latitude": 28.6308044, "longitude": 77.22262529999999, "maps_url": "https://www.google.com/maps/search/?api=1&query=Tally%20Experts&query_place_id=ChIJeRY9stf9DDkRYAKRJFhxaHY"}, {"place_id": "ChIJt6MkQB_9DDkR2R74KHwN6Vc", "name": "Startupvisors", "street": "5th Floor, Wing-A, Statesman House, Startupvisors, AltF Statesman House, Barakhamba Rd, Connaught Place, New Delhi, Delhi 110001, India", "phone": "+91 82858 44875", "rating": "4.9", "review_count": "", "website": "http://www.startupvisors.com/", "latitude": 28.630803999999998, "longitude": 77.222625, "maps_url": "https://www.google.com/maps/search/?api=1&query=Startupvisors&query_place_id=ChIJt6MkQB_9DDkR2R74KHwN6Vc"}, {"place_id": "ChIJ8Ys1siUCDTkRgUaQzYhM_KY", "name": "SETINDIABIZ", "street": "2nd Floor, Regal Building, Innov8 CP2, 44, Backary Portion, Connaught Place, New Delhi, Delhi 110001, India", "phone": "+91 98996 00605", "rating": "4.7", "review_count": "", "website": "https://www.setindiabiz.com/", "latitude": 28.6311227, "longitude": 77.216672, "maps_url": "https://www.google.com/maps/search/?api=1&query=SETINDIABIZ&query_place_id=ChIJ8Ys1siUCDTkRgUaQzYhM_KY"}, {"place_id": "ChIJGawlns_P6EsRNuNQrmA54cA", "name": "Delhi Legal Company", "street": "4th floor, E Block, Innov8 Workspaces India Limited, Harsha Bhawan, 13/29, Connaught Place, New Delhi, Delhi 110001, India", "phone": "", "rating": "5", "review_count": "", "website": "https://www.delhilegalcompany.com/", "latitude": 28.632317, "longitude": 77.2216952, "maps_url": "https://www.google.com/maps/search/?api=1&query=Delhi%20Legal%20Company&query_place_id=ChIJGawlns_P6EsRNuNQrmA54cA"}, {"place_id": "ChIJXS2oHyP9DDkRNgKrkCiqcww", "name": "Altima Global", "street": "4th Floor, Statesman House Building, Barakhamba Road, Connaught Place, New Delhi, Delhi 110001, India", "phone": "+91 98104 46932", "rating": "4.9", "review_count": "", "website": "http://www.altimaglobal.com/", "latitude": 28.6308591, "longitude": 77.2217521, "maps_url": "https://www.google.com/maps/search/?api=1&query=Altima%20Global&query_place_id=ChIJXS2oHyP9DDkRNgKrkCiqcww"}, {"place_id": "ChIJv04fTwv9DDkRZLTIFH6rqEI", "name": "Socio Konnect Digital Media Co.", "street": "2nd floor, The National Council of YMCAs of India, 1, Jai Singh Marg, Hanuman Road Area, Connaught Place, New Delhi, Delhi 110001, India", "phone": "+91 99907 11785", "rating": "4.9", "review_count": "", "website": "http://sociokonnect.com/", "latitude": 28.626143799999998, "longitude": 77.2113311, "maps_url": "https://www.google.com/maps/search/?api=1&query=Socio%20Konnect%20Digital%20Media%20Co.&query_place_id=ChIJv04fTwv9DDkRZLTIFH6rqEI"}, {"place_id": "ChIJQ20KLJ39DDkRBtjOr7WTP-o", "name": "Teasoft Corporation", "street": "Market, Block F, Connaught Place, Delhi, New Delhi, Delhi 110001, India", "phone": "", "rating": "5", "review_count": "", "website": "", "latitude": 28.631121399999998, "longitude": 77.217388, "maps_url": "https://www.google.com/maps/search/?api=1&query=Teasoft%20Corporation&query_place_id=ChIJQ20KLJ39DDkRBtjOr7WTP-o"}, {"place_id": "ChIJ9aF3zD7BwjsRqtR_ycLqUCA", "name": "ICT Circle", "street": "G 36 Second Floor, Block G, Connaught Place, New Delhi, Delhi 110001, India", "phone": "+91 556687933", "rating": "5", "review_count": "", "website": "", "latitude": 28.6330812, "longitude": 77.216946, "maps_url": "https://www.google.com/maps/search/?api=1&query=ICT%20Circle&query_place_id=ChIJ9aF3zD7BwjsRqtR_ycLqUCA"}, {"place_id": "ChIJNcNQ44T9DDkRp_jUCsRaGZk", "name": "Trice Web Solutions", "street": "41, Hanuman Rd, near Rajiv Chowk, Hanuman Road Area, Connaught Place, New Delhi, Delhi 110001, India", "phone": "+91 99995 85483", "rating": "5", "review_count": "", "website": "https://www.tricewebsolutions.com/", "latitude": 28.6287205, "longitude": 77.2148038, "maps_url": "https://www.google.com/maps/search/?api=1&query=Trice%20Web%20Solutions&query_place_id=ChIJNcNQ44T9DDkRp_jUCsRaGZk"}, {"place_id": "ChIJhUCqHTT9DDkRHwAHPq-bgrw", "name": "Consulting Rooms Private Limited", "street": "26, KG Marg, Connaught Place, New Delhi, Delhi 110001, India", "phone": "", "rating": "1.2", "review_count": "", "website": "", "latitude": 28.6294132, "longitude": 77.22236629999999, "maps_url": "https://www.google.com/maps/search/?api=1&query=Consulting%20Rooms%20Private%20Limited&query_place_id=ChIJhUCqHTT9DDkRHwAHPq-bgrw"}, {"place_id": "ChIJZ_6VJIj9DDkRTeAXXnZ7aoo", "name": "Enira Consulting", "street": "11, Atul Grove Rd, Atul Grove Road, Janpath, Connaught Place, New Delhi, Delhi 110001, India", "phone": "+91 76984 04062", "rating": "5", "review_count": "", "website": "https://enira.co.in/", "latitude": 28.6269203, "longitude": 77.22147869999999, "maps_url": "https://www.google.com/maps/search/?api=1&query=Enira%20Consulting&query_place_id=ChIJZ_6VJIj9DDkRTeAXXnZ7aoo"}, {"place_id": "ChIJV7Tarzf9DDkRNuotI7eyjrc", "name": "Apar Industries Limited", "street": "House N Block 306, BMC, 07, Middle Cir, Connaught Place, New Delhi, Delhi 110001, India", "phone": "+91 11 4152 3320", "rating": "4.8", "review_count": "", "website": "http://www.apar.com/", "latitude": 28.630993999999998, "longitude": 77.2213057, "maps_url": "https://www.google.com/maps/search/?api=1&query=Apar%20Industries%20Limited&query_place_id=ChIJV7Tarzf9DDkRNuotI7eyjrc"}, {"place_id": "ChIJ-w8Djjb9DDkR-OYkuB0eelc", "name": "Flyleaf Digitech International Private Limited", "street": "No-24 5, Connaught Cir, Atul Grove Road, Janpath, Connaught Place, New Delhi, Delhi 110001, India", "phone": "", "rating": "5", "review_count": "", "website": "", "latitude": 28.6296951, "longitude": 77.22045039999999, "maps_url": "https://www.google.com/maps/search/?api=1&query=Flyleaf%20Digitech%20International%20Private%20Limited&query_place_id=ChIJ-w8Djjb9DDkR-OYkuB0eelc"}, {"place_id": "ChIJwQuVsDb9DDkRboW31hMj5nA", "name": "Avanta Business Centre", "street": "Statesman House, 402, Barakhamba Rd, Barakhamba, New Delhi, Delhi 110001, India", "phone": "+91 11 3044 6402", "rating": "4.8", "review_count": "", "website": "https://www.avanta.co.in/business-centre/connaught-place-delhi?utm_source=GMB-CP&utm_medium=gmb&utm_id=cpstatesman", "latitude": 28.630816099999997, "longitude": 77.2226072, "maps_url": "https://www.google.com/maps/search/?api=1&query=Avanta%20Business%20Centre&query_place_id=ChIJwQuVsDb9DDkRboW31hMj5nA"}, {"place_id": "ChIJzcDfPDT9DDkRM6DvlGRKscA", "name": "Parnika Commercial & Estates Pvt. Ltd.", "street": "D-64, 6th Floor, Himalaya House 23, K.G. Marg, New Delhi, Delhi 110001, India", "phone": "+91 11 2335 6422", "rating": "4", "review_count": "", "website": "https://parnikacommercial.co.in/", "latitude": 28.6281148, "longitude": 77.2216092, "maps_url": "https://www.google.com/maps/search/?api=1&query=Parnika%20Commercial%20%26%20Estates%20Pvt.%20Ltd.&query_place_id=ChIJzcDfPDT9DDkRM6DvlGRKscA"}, {"place_id": "ChIJZ9IIoz_9DDkR0OfeidWuuXg", "name": "Avasant", "street": "509, Statesman House, Barakhamba Rd, New Delhi, Delhi 110001, India", "phone": "", "rating": "4.3", "review_count": "", "website": "http://www.avasant.com/", "latitude": 28.6304049, "longitude": 77.2224908, "maps_url": "https://www.google.com/maps/search/?api=1&query=Avasant&query_place_id=ChIJZ9IIoz_9DDkR0OfeidWuuXg"}, {"place_id": "ChIJAQAAEGriDDkRgzc9FZkR-1o", "name": "Primus Partners Private Limited", "street": "15, Tolstoy Rd, Atul Grove Road, Janpath, Connaught Place, New Delhi, Delhi 110001, India", "phone": "", "rating": "4.5", "review_count": "", "website": "http://primuspartners.in/", "latitude": 28.6268428, "longitude": 77.2208155, "maps_url": "https://www.google.com/maps/search/?api=1&query=Primus%20Partners%20Private%20Limited&query_place_id=ChIJAQAAEGriDDkRgzc9FZkR-1o"}, {"place_id": "ChIJN4BLWwn9DDkR_NhOquc5-yA", "name": "Write For Us Technology", "street": "Connaught Place, New Delhi, Delhi 110001, India", "phone": "", "rating": "4.3", "review_count": "", "website": "https://www.writeforustechnology.com/", "latitude": 28.632755699999997, "longitude": 77.2196957, "maps_url": "https://www.google.com/maps/search/?api=1&query=Write%20For%20Us%20Technology&query_place_id=ChIJN4BLWwn9DDkR_NhOquc5-yA"}, {"place_id": "ChIJZZx9lkv9DDkRbTP-zMuUcpQ", "name": "AVGC India", "street": "Gate 1, YMCA Tourist Hostel Complex, 5th Floor, Office No. 563, 564, 566, Jai Singh Marg, Connaught Place, New Delhi, Delhi 110001, India", "phone": "+91 89564 27340", "rating": "4.8", "review_count": "", "website": "http://avgcindia.com/", "latitude": 28.626860999999998, "longitude": 77.21303449999999, "maps_url": "https://www.google.com/maps/search/?api=1&query=AVGC%20India&query_place_id=ChIJZZx9lkv9DDkRbTP-zMuUcpQ"}, {"place_id": "ChIJ6TAm8JX9DDkRO6RqbMiTaB4", "name": "Samsung India Electronics Pvt. Ltd.", "street": "DLF Building, Sansad Marg, Janpath, Connaught Place, New Delhi, Delhi 110001, India", "phone": "+91 1800 5726 7864", "rating": "1.9", "review_count": "", "website": "https://www.samsung.com/in/about-us/company-info/", "latitude": 28.628408699999998, "longitude": 77.2172073, "maps_url": "https://www.google.com/maps/search/?api=1&query=Samsung%20India%20Electronics%20Pvt.%20Ltd.&query_place_id=ChIJ6TAm8JX9DDkRO6RqbMiTaB4"}, {"place_id": "ChIJb4d1rE79DDkR0GA5YcLB0gI", "name": "Traverse Strategy Consultants", "street": "Regus Business Center, Suite No. O-06 & 07 (LGF), Shivaji Stadium Metro Station, Airport Express Line, New Delhi, Delhi 110001, India", "phone": "+91 11 6679 7776", "rating": "4.9", "review_count": "", "website": "http://tstratco.com/", "latitude": 28.628899099999998, "longitude": 77.21151689999999, "maps_url": "https://www.google.com/maps/search/?api=1&query=Traverse%20Strategy%20Consultants&query_place_id=ChIJb4d1rE79DDkR0GA5YcLB0gI"}, {"place_id": "ChIJR2oQkEHjDDkR3AYA8p_4enM", "name": "Bizzcration", "street": "Hanuman Road Area, Connaught Place, New Delhi, Delhi 110001, India", "phone": "+91 97184 89489", "rating": "5", "review_count": "", "website": "", "latitude": 28.629645, "longitude": 77.216589, "maps_url": "https://www.google.com/maps/search/?api=1&query=Bizzcration&query_place_id=ChIJR2oQkEHjDDkR3AYA8p_4enM"}, {"place_id": "ChIJ__9vPzT9DDkR_2AyjbJpOEU", "name": "Wind World India Power Development Private Limited", "street": "7th Floor, HIMALAYA HOUSE, A-71, 23, KG Marg, Connaught Place, New Delhi, Delhi 110001, India", "phone": "+91 11 4117 4444", "rating": "2.4", "review_count": "", "website": "http://wwipdpl.com/", "latitude": 28.6281148, "longitude": 77.2216092, "maps_url": "https://www.google.com/maps/search/?api=1&query=Wind%20World%20India%20Power%20Development%20Private%20Limited&query_place_id=ChIJ__9vPzT9DDkR_2AyjbJpOEU"}, {"place_id": "ChIJOTXqVjT9DDkR6fdYcSbeV3o", "name": "Puri Constructions Pvt. Ltd.", "street": "4-7B, Ground Floor, Tolstoy House 15 & 17, Tolstoy Rd, Connaught Place, New Delhi, Delhi 110001, India", "phone": "+91 1800 123 6244", "rating": "3.8", "review_count": "", "website": "http://www.puriconstructions.com/", "latitude": 28.626822999999998, "longitude": 77.220863, "maps_url": "https://www.google.com/maps/search/?api=1&query=Puri%20Constructions%20Pvt.%20Ltd.&query_place_id=ChIJOTXqVjT9DDkR6fdYcSbeV3o"}, {"place_id": "ChIJwZZpiOv9DDkR07j8SIvjDIQ", "name": "Mise En Place- Best Digital Marketing Company in Delhi", "street": "4th Floor, Statesman House, Barakhamba Rd, Barakhamba, New Delhi, Delhi 110001, India", "phone": "+91 95608 91635", "rating": "4.8", "review_count": "", "website": "https://www.mise-en-place.co/services/?utm_source=GMB&utm_medium=gmb&utm_campaign=GMB", "latitude": 28.630408499999998, "longitude": 77.2226422, "maps_url": "https://www.google.com/maps/search/?api=1&query=Mise%20En%20Place-%20Best%20Digital%20Marketing%20Company%20in%20Delhi&query_place_id=ChIJwZZpiOv9DDkR07j8SIvjDIQ"}, {"place_id": "ChIJXztuxUn9DDkRkPzO2FdWpRo", "name": "Vixel Business Solutions LLP", "street": "44, Regal Building, Hanuman Road Area, Connaught Place, New Delhi, Delhi 110001, India", "phone": "+91 72481 71879", "rating": "3.9", "review_count": "", "website": "https://vixelbiz.com/", "latitude": 28.630747699999997, "longitude": 77.2165581, "maps_url": "https://www.google.com/maps/search/?api=1&query=Vixel%20Business%20Solutions%20LLP&query_place_id=ChIJXztuxUn9DDkRkPzO2FdWpRo"}, {"place_id": "ChIJ_wV9nnn9DDkRM-PlUl-ynUc", "name": "Staunch Eventz Pvt Ltd", "street": "Third Floor, Property Number 44, Regal Building, Hanuman Road Area, Connaught Place, New Delhi, Delhi 110001, India", "phone": "+91 98186 06462", "rating": "4.6", "review_count": "", "website": "http://www.stauncheventz.in/", "latitude": 28.630747699999997, "longitude": 77.2165581, "maps_url": "https://www.google.com/maps/search/?api=1&query=Staunch%20Eventz%20Pvt%20Ltd&query_place_id=ChIJ_wV9nnn9DDkRM-PlUl-ynUc"}, {"place_id": "ChIJ3_tG5zb9DDkRZXVaS7JYy8A", "name": "Audo Viso Private Limited", "street": "2nd Floor, E-48, Connaught Place, New Delhi, Delhi 110001, India", "phone": "+91 11 2341 3315", "rating": "3.9", "review_count": "", "website": "http://audoviso.com/", "latitude": 28.6320168, "longitude": 77.2217802, "maps_url": "https://www.google.com/maps/search/?api=1&query=Audo%20Viso%20Private%20Limited&query_place_id=ChIJ3_tG5zb9DDkRZXVaS7JYy8A"}, {"place_id": "ChIJKePFfkz9DDkRmFAhOsFo2fU", "name": "GSK", "street": "Gate no. 5, Bharat Yuvak Bhavan, 1, Jai Singh Marg, Hanuman Road Area, Connaught Place, New Delhi, Delhi 110001, India", "phone": "+91 22 2495 9595", "rating": "4.1", "review_count": "", "website": "http://www.gsk-india.com/", "latitude": 28.626122499999997, "longitude": 77.2113055, "maps_url": "https://www.google.com/maps/search/?api=1&query=GSK&query_place_id=ChIJKePFfkz9DDkRmFAhOsFo2fU"}, {"place_id": "ChIJN-48-TT9DDkRLO7cibQiafQ", "name": "Agriculture Today Group", "street": "Naurang House, B Wing, KG Marg, Atul Grove Road, Janpath, Connaught Place, New Delhi, Delhi 110001, India", "phone": "+91 11 4150 1465", "rating": "2.8", "review_count": "", "website": "http://www.agriculturetoday.in/", "latitude": 28.627758999999998, "longitude": 77.2219231, "maps_url": "https://www.google.com/maps/search/?api=1&query=Agriculture%20Today%20Group&query_place_id=ChIJN-48-TT9DDkRLO7cibQiafQ"}, {"place_id": "ChIJVVXFITf9DDkRiUoDCIGR2eE", "name": "Sharks Fund", "street": "Harsha Bhawan, E-13/29, 1st floor, Connaught Place, New Delhi, Delhi 110001, India", "phone": "", "rating": "4.8", "review_count": "", "website": "http://thesharksfund.com/", "latitude": 28.6326204, "longitude": 77.22187869999999, "maps_url": "https://www.google.com/maps/search/?api=1&query=Sharks%20Fund&query_place_id=ChIJVVXFITf9DDkRiUoDCIGR2eE"}, {"place_id": "ChIJWaL2QTT9DDkRRGr0KTKcyuo", "name": "SRC Cyber Solutions LLP", "street": "602, NAURANG HOUSE, 21, KG Marg, Atul Grove Road, Janpath, Connaught Place, New Delhi, Delhi 110001, India", "phone": "+91 120 232 0960", "rating": "5", "review_count": "", "website": "http://srccybersolutions.com/", "latitude": 28.6277705, "longitude": 77.2217526, "maps_url": "https://www.google.com/maps/search/?api=1&query=SRC%20Cyber%20Solutions%20LLP&query_place_id=ChIJWaL2QTT9DDkRRGr0KTKcyuo"}, {"place_id": "ChIJw6YKOeH9DDkR3gerYHDsBRM", "name": "Future World", "street": "No G, 54, Radial Rd Number 2, near lords of drink, Block G, Connaught Place, New Delhi, Delhi 110001, India", "phone": "+91 88008 44522", "rating": "4.4", "review_count": "", "website": "https://stores.futureworldindia.in/future-world-apple-authorised-reseller-authorised-service-provider-connaught-place-g54-electronics-retail-and-repair-shop-connaught-place-new-delhi-198541/Home?utm_source=locator&utm_medium=googleplaces", "latitude": 28.631739099999997, "longitude": 77.2169804, "maps_url": "https://www.google.com/maps/search/?api=1&query=Future%20World&query_place_id=ChIJw6YKOeH9DDkR3gerYHDsBRM"}, {"place_id": "ChIJF-ok20n9DDkRj6FhZUiSfXI", "name": "Advance Services for Social & Administrative Reforms (ASSAR)", "street": "3rd Floor, 44, Regal Building, beside Ease of Doing Business, Hanuman Road Area, Connaught Place, New Delhi, Delhi 110001, India", "phone": "+91 11 4105 9899", "rating": "4.7", "review_count": "", "website": "http://assar.in/", "latitude": 28.6306726, "longitude": 77.21648929999999, "maps_url": "https://www.google.com/maps/search/?api=1&query=Advance%20Services%20for%20Social%20%26%20Administrative%20Reforms%20%28ASSAR%29&query_place_id=ChIJF-ok20n9DDkRj6FhZUiSfXI"}, {"place_id": "ChIJz0OX7Ws0QAERU4NyZHJeGTk", "name": "Uniquetech Services Pvt Ltd", "street": "Avanta Business Centre 402, Statesman House, Barakhamba, New Delhi, Delhi 110001, India", "phone": "+91 78892 09761", "rating": "5", "review_count": "", "website": "", "latitude": 28.6304166, "longitude": 77.222651, "maps_url": "https://www.google.com/maps/search/?api=1&query=Uniquetech%20Services%20Pvt%20Ltd&query_place_id=ChIJz0OX7Ws0QAERU4NyZHJeGTk"}, {"place_id": "ChIJmRSDHTT9DDkRuTPt42sTDJg", "name": "Falcon Exhibitions Pvt Ltd", "street": "1207 26 Kailash, KG Marg, Barakhamba, New Delhi, Delhi 110001, India", "phone": "+91 98100 05547", "rating": "4.3", "review_count": "", "website": "http://www.falconfirst.com/", "latitude": 28.629536899999998, "longitude": 77.2223563, "maps_url": "https://www.google.com/maps/search/?api=1&query=Falcon%20Exhibitions%20Pvt%20Ltd&query_place_id=ChIJmRSDHTT9DDkRuTPt42sTDJg"}, {"place_id": "ChIJT4RW10vhDDkRxPr2ozxZvJo", "name": "Gyanwave", "street": "2nd Floor, Regal Building, Innov8, 44, Connaught Place, New Delhi, Delhi 110001, India", "phone": "+91 92125 23252", "rating": "4.5", "review_count": "", "website": "https://gyanwave.com/", "latitude": 28.630569299999998, "longitude": 77.2172975, "maps_url": "https://www.google.com/maps/search/?api=1&query=Gyanwave&query_place_id=ChIJT4RW10vhDDkRxPr2ozxZvJo"}, {"place_id": "ChIJzyN-MJX9DDkRw-i-5-VtNY0", "name": "Earth Lingua Private Limited", "street": "N-101, Munshilal Building, Middle Cir, Block N, Connaught Place, New Delhi, Delhi 110001, India", "phone": "+91 87574 84521", "rating": "4.8", "review_count": "", "website": "http://www.earthlingua.com/", "latitude": 28.6306841, "longitude": 77.2207263, "maps_url": "https://www.google.com/maps/search/?api=1&query=Earth%20Lingua%20Private%20Limited&query_place_id=ChIJzyN-MJX9DDkRw-i-5-VtNY0"}, {"place_id": "ChIJV1QVDzT9DDkRbOOHT1odTtk", "name": "Morepen Laboratories Limited", "street": "508-510, Antriksh Bhawan, 22 K. G. Marg, New Delhi, Delhi 110001, India", "phone": "+91 11 6632 0248", "rating": "2.9", "review_count": "", "website": "http://www.morepen.com/", "latitude": 28.6286913, "longitude": 77.2229566, "maps_url": "https://www.google.com/maps/search/?api=1&query=Morepen%20Laboratories%20Limited&query_place_id=ChIJV1QVDzT9DDkRbOOHT1odTtk"}, {"place_id": "ChIJTT6krjX9DDkR4THQEE0RsCc", "name": "Pyarelal Building", "street": "42, Janpath Rd, Atul Grove Road, Janpath, Connaught Place, New Delhi, Delhi 110001, India", "phone": "+91 11 2396 9914", "rating": "3.9", "review_count": "", "website": "", "latitude": 28.626564799999997, "longitude": 77.2196549, "maps_url": "https://www.google.com/maps/search/?api=1&query=Pyarelal%20Building&query_place_id=ChIJTT6krjX9DDkR4THQEE0RsCc"}, {"place_id": "ChIJRdvWYd4DDTkRzGUZOmtO8KY", "name": "3 Idiots Communication", "street": "121, Scindia House, Atul Grove Road, Janpath, Connaught Place, New Delhi, Delhi 110001, India", "phone": "+91 99990 36203", "rating": "5", "review_count": "", "website": "https://3idiotscommunication.com/", "latitude": 28.628951899999997, "longitude": 77.2202442, "maps_url": "https://www.google.com/maps/search/?api=1&query=3%20Idiots%20Communication&query_place_id=ChIJRdvWYd4DDTkRzGUZOmtO8KY"}, {"place_id": "ChIJDUosUkYFDTkRTO7uTicaC0w", "name": "Freaky SEO - SEO Freelancer Delhi", "street": "Building, 2nd Floor, Regal, 69, Connaught Cir, Hanuman Road Area, Connaught Place, New Delhi, Delhi 110001, India", "phone": "+91 80761 80923", "rating": "5", "review_count": "", "website": "https://freakyseo.com/seo-freelancer-delhi/?utm_source=google&utm_medium=map&utm_campaign=gmb_click", "latitude": 28.630855, "longitude": 77.216934, "maps_url": "https://www.google.com/maps/search/?api=1&query=Freaky%20SEO%20-%20SEO%20Freelancer%20Delhi&query_place_id=ChIJDUosUkYFDTkRTO7uTicaC0w"}, {"place_id": "ChIJizZcE__9DDkRvg6oPe_0Zt4", "name": "USD Merchant", "street": "8, DLF Building, Sansad Marg, Janpath, Connaught Place, New Delhi, Delhi 110001, India", "phone": "+91 88690 49310", "rating": "5", "review_count": "", "website": "http://www.usdmerchant.com/", "latitude": 28.6284608, "longitude": 77.2172528, "maps_url": "https://www.google.com/maps/search/?api=1&query=USD%20Merchant&query_place_id=ChIJizZcE__9DDkRvg6oPe_0Zt4"}, {"place_id": "ChIJWaL2QTT9DDkRToA6cWme5lY", "name": "myDesk Coworking Space, Connaught Place", "street": "311, Third Floor, B Block, NAURANG HOUSE, 21, KG Marg, Atul Grove Road, Janpath, Connaught Place, New Delhi, Delhi 110001, India", "phone": "+91 98999 90277", "rating": "4.3", "review_count": "", "website": "http://www.mydesk.work/", "latitude": 28.6276762, "longitude": 77.2217019, "maps_url": "https://www.google.com/maps/search/?api=1&query=myDesk%20Coworking%20Space%2C%20Connaught%20Place&query_place_id=ChIJWaL2QTT9DDkRToA6cWme5lY"}, {"place_id": "ChIJLQT6z9z9DDkROwXM9VBT15s", "name": "The Bivouac", "street": "9 A, 3rd Floor, Phelps Building, Connaught Place, New Delhi, Delhi 110001, India", "phone": "+91 98184 51948", "rating": "4.9", "review_count": "", "website": "http://thebiv.co.in/", "latitude": 28.6325202, "longitude": 77.2174586, "maps_url": "https://www.google.com/maps/search/?api=1&query=The%20Bivouac&query_place_id=ChIJLQT6z9z9DDkROwXM9VBT15s"}, {"place_id": "ChIJv0cN2RH9DDkR3vv4eqRbmkc", "name": "Nukleus Coworking Space in Delhi - Connaught Place, Regal Building", "street": "Regal Building, 69, Connaught Cir, Hanuman Road Area, Connaught Place, New Delhi, Delhi 110001, India", "phone": "+91 163 255 0734", "rating": "4.8", "review_count": "", "website": "https://www.nukleus.work/", "latitude": 28.631135399999998, "longitude": 77.2166336, "maps_url": "https://www.google.com/maps/search/?api=1&query=Nukleus%20Coworking%20Space%20in%20Delhi%20-%20Connaught%20Place%2C%20Regal%20Building&query_place_id=ChIJv0cN2RH9DDkR3vv4eqRbmkc"}, {"place_id": "ChIJg8Ngx3cDDTkRHHev96K8vd4", "name": "Sumitech India", "street": "D9, LALITA BLOCK, Shastri Nagar, New Delhi, Delhi 110001, India", "phone": "+91 82877 73617", "rating": "5", "review_count": "", "website": "https://sumitechengineers.com/", "latitude": 28.6304663, "longitude": 77.22284119999999, "maps_url": "https://www.google.com/maps/search/?api=1&query=Sumitech%20India&query_place_id=ChIJg8Ngx3cDDTkRHHev96K8vd4"}, {"place_id": "ChIJ0wOvyCb9DDkR7kjgTmZ-q24", "name": "Qonaq Health and Wellness - Medical Tourism Company", "street": "2nd Floor, Property No. 44, QONAQ Health and Wellness Pvt Ltd, Regal Building, Hanuman Road Area, Connaught Place, New Delhi, Delhi 110001, India", "phone": "+91 70428 00891", "rating": "5", "review_count": "", "website": "https://www.qonaqhealth.com/", "latitude": 28.6306726, "longitude": 77.21648929999999, "maps_url": "https://www.google.com/maps/search/?api=1&query=Qonaq%20Health%20and%20Wellness%20-%20Medical%20Tourism%20Company&query_place_id=ChIJ0wOvyCb9DDkR7kjgTmZ-q24"}, {"place_id": "ChIJ30RusDb9DDkR_HhV-3rfDV4", "name": "Neugene International Inc", "street": "4th floor, Statesman House, Barakhamba Rd, Connaught Place, New Delhi, Delhi 110001, India", "phone": "", "rating": "4.5", "review_count": "", "website": "https://www.neugeneinc.com/", "latitude": 28.6307992, "longitude": 77.22262549999999, "maps_url": "https://www.google.com/maps/search/?api=1&query=Neugene%20International%20Inc&query_place_id=ChIJ30RusDb9DDkR_HhV-3rfDV4"}, {"place_id": "ChIJ7aB2zzX9DDkRLCz0qzA0h-k", "name": "RNM India", "street": "4, 80, Janpath Rd, Atul Grove Road, Janpath, Connaught Place, New Delhi, Delhi 110001, India", "phone": "+91 11 4319 2000", "rating": "3.9", "review_count": "", "website": "http://www.rnm.in/", "latitude": 28.6284632, "longitude": 77.2198494, "maps_url": "https://www.google.com/maps/search/?api=1&query=RNM%20India&query_place_id=ChIJ7aB2zzX9DDkRLCz0qzA0h-k"}, {"place_id": "ChIJbWpAL8wPDTkRNEXcAZbDVyk", "name": "Chartered Accountant", "street": "Palika Bazar, Connaught Place, New Delhi, Delhi 110001, India", "phone": "", "rating": "4.9", "review_count": "", "website": "", "latitude": 28.6308889, "longitude": 77.2180834, "maps_url": "https://www.google.com/maps/search/?api=1&query=Chartered%20Accountant&query_place_id=ChIJbWpAL8wPDTkRNEXcAZbDVyk"}, {"place_id": "ChIJX1GC_dD9DDkRE5K3fPS1ioA", "name": "The Executive Centre - TEC DLF Centre", "street": "DLF Building, Level 3B & 8, Sansad Marg, Connaught Place, New Delhi, Delhi 110001, India", "phone": "+91 11 6128 9000", "rating": "4.5", "review_count": "", "website": "https://www.executivecentre.com/en-in/office-space/tec-dlf-centre/?utm_campaign=gmb-listing", "latitude": 28.6283221, "longitude": 77.21720789999999, "maps_url": "https://www.google.com/maps/search/?api=1&query=The%20Executive%20Centre%20-%20TEC%20DLF%20Centre&query_place_id=ChIJX1GC_dD9DDkRE5K3fPS1ioA"}, {"place_id": "ChIJxaiNctgBDTkRWpuGHNvyRnI", "name": "General medicine therapeutics pvt ltd", "street": "Dlf centre level-3B, Sansad Marg, Connaught Place, New Delhi, Delhi 110001, India", "phone": "+91 98100 80463", "rating": "5", "review_count": "", "website": "http://gmtherapeutics.com/", "latitude": 28.6283221, "longitude": 77.21720789999999, "maps_url": "https://www.google.com/maps/search/?api=1&query=General%20medicine%20therapeutics%20pvt%20ltd&query_place_id=ChIJxaiNctgBDTkRWpuGHNvyRnI"}, {"place_id": "ChIJ_ZSfHTf9DDkRETYDFJeAJ-4", "name": "Lalvis International", "street": "C 25/13,Near PVR Plaza, Connaught Place, New Delhi, Delhi 110001, India", "phone": "+91 98993 76973", "rating": "4.5", "review_count": "", "website": "", "latitude": 28.632399399999997, "longitude": 77.22139279999999, "maps_url": "https://www.google.com/maps/search/?api=1&query=Lalvis%20International&query_place_id=ChIJ_ZSfHTf9DDkRETYDFJeAJ-4"}, {"place_id": "ChIJaZ7erzf9DDkRIRnRZKSAOM4", "name": "National Insurance Co Ltd D.O-IV", "street": "1st Floor, BMC House, N-1, Connaught Place, Delhi, 110001, India", "phone": "", "rating": "3.4", "review_count": "", "website": "", "latitude": 28.631309599999998, "longitude": 77.2215348, "maps_url": "https://www.google.com/maps/search/?api=1&query=National%20Insurance%20Co%20Ltd%20D.O-IV&query_place_id=ChIJaZ7erzf9DDkRIRnRZKSAOM4"}, {"place_id": "ChIJgz2SVjT9DDkRbE6oZbtlZsk", "name": "LexOrbis", "street": "709/ 710, Tolstoy House, 15-17, Tolstoy Marg, Near Star Union Dai-Chi, New Delhi, Delhi 110001, India", "phone": "+91 11 2371 6565", "rating": "4.4", "review_count": "", "website": "https://www.lexorbis.com/", "latitude": 28.626792, "longitude": 77.220827, "maps_url": "https://www.google.com/maps/search/?api=1&query=LexOrbis&query_place_id=ChIJgz2SVjT9DDkRbE6oZbtlZsk"}, {"place_id": "ChIJV7Tarzf9DDkR27rvEujLehQ", "name": "Dr Morepen Limited", "street": "Hanuman Road Area, Connaught Place, New Delhi, Delhi 110001, India", "phone": "+91 11 2331 6033", "rating": "2.5", "review_count": "", "website": "http://www.morepen.com/", "latitude": 28.631451199999997, "longitude": 77.2166673, "maps_url": "https://www.google.com/maps/search/?api=1&query=Dr%20Morepen%20Limited&query_place_id=ChIJV7Tarzf9DDkR27rvEujLehQ"}, {"place_id": "ChIJb1pVesAnYqERaoqYTqc3bv0", "name": "Nukkad Natak & Event Company", "street": "Babar Rd, near shree ram centre, Connaught Place, New Delhi, Delhi 110001, India", "phone": "", "rating": "4.7", "review_count": "", "website": "https://all-india-nukkad-event.grexa.site/", "latitude": 28.632856, "longitude": 77.2194683, "maps_url": "https://www.google.com/maps/search/?api=1&query=Nukkad%20Natak%20%26%20Event%20Company&query_place_id=ChIJb1pVesAnYqERaoqYTqc3bv0"}, {"place_id": "ChIJFeeyhBMDDTkRJY9FkaxSSbY", "name": "Kytero Immigration - Best Canada Immigration Consultants", "street": "4A- 4th floor, Vandana Building, Atul Grove Road, Janpath, Connaught Place, New Delhi, Delhi 110001, India", "phone": "+91 97008 93893", "rating": "4.6", "review_count": "93", "website": "https://www.kytero.com/", "latitude": 28.626585499999997, "longitude": 77.2216136, "maps_url": "https://www.google.com/maps/search/?api=1&query=Kytero%20Immigration%20-%20Best%20Canada%20Immigration%20Consultants&query_place_id=ChIJFeeyhBMDDTkRJY9FkaxSSbY"}, {"place_id": "ChIJDXBTkX_9DDkRDYMbPvQIBZM", "name": "The Delhi Safe Deposit Co. Ltd.", "street": "86, Janpath Rd, Atul Grove Road, Janpath, HC Mathur Lane, New Delhi, Delhi 110001, India", "phone": "+91 11 4358 0400", "rating": "4.5", "review_count": "", "website": "http://www.dsdgroup.co.in/", "latitude": 28.628907599999998, "longitude": 77.2198365, "maps_url": "https://www.google.com/maps/search/?api=1&query=The%20Delhi%20Safe%20Deposit%20Co.%20Ltd.&query_place_id=ChIJDXBTkX_9DDkRDYMbPvQIBZM"}, {"place_id": "ChIJX-4P2s_9DDkRuWWQ-RMI-i4", "name": "SP Helping Hand Private Limited", "street": "L-31-32 & 51-52, Hanuman Road Area, Connaught Place, New Delhi, Delhi 110001, India", "phone": "", "rating": "5", "review_count": "", "website": "http://www.sphelpinghand.in/", "latitude": 28.630420299999997, "longitude": 77.21772159999999, "maps_url": "https://www.google.com/maps/search/?api=1&query=SP%20Helping%20Hand%20Private%20Limited&query_place_id=ChIJX-4P2s_9DDkRuWWQ-RMI-i4"}, {"place_id": "ChIJ7RxJscgEDTkRddWJAM_edL0", "name": "India Travel & Tourism Institute I.T.T.I", "street": "Gate No: 6, Metro Station, 1202, 12th Floor, New Delhi House, near Barakhamba Road, Connaught Place, New Delhi, Delhi 110001, India", "phone": "", "rating": "4.8", "review_count": "", "website": "https://www.traveltourismacademy.com/", "latitude": 28.629860299999997, "longitude": 77.2229918, "maps_url": "https://www.google.com/maps/search/?api=1&query=India%20Travel%20%26%20Tourism%20Institute%20I.T.T.I&query_place_id=ChIJ7RxJscgEDTkRddWJAM_edL0"}, {"place_id": "ChIJ45Nu6Tb9DDkRWkw4YlQ4ApE", "name": "DLF Sales Office", "street": "206 BMC House, N1 Connaught Place, Middle Circle, New Delhi, Delhi 110001, India", "phone": "+91 11 2331 2223", "rating": "4.1", "review_count": "", "website": "https://www.itplinfra.com/", "latitude": 28.631356999999998, "longitude": 77.221594, "maps_url": "https://www.google.com/maps/search/?api=1&query=DLF%20Sales%20Office&query_place_id=ChIJ45Nu6Tb9DDkRWkw4YlQ4ApE"}, {"place_id": "ChIJv7-8QDH9DDkRxIFCO0CKV28", "name": "Mittal Teas", "street": "GF-6 New Delhi House, 27, Barakhamba Road, New Delhi, Delhi 110001, India", "phone": "+91 11 4152 0402", "rating": "4.9", "review_count": "", "website": "http://mittalteas.com/", "latitude": 28.6302542, "longitude": 77.2230932, "maps_url": "https://www.google.com/maps/search/?api=1&query=Mittal%20Teas&query_place_id=ChIJv7-8QDH9DDkRxIFCO0CKV28"}, {"place_id": "ChIJNbohDzb9DDkRxewGKL8-UFA", "name": "The New India Assurance Company Ltd", "street": "E -9, connaught Place, New Delhi, Delhi 110001, India", "phone": "+91 1800 209 1415", "rating": "3.4", "review_count": "", "website": "http://www.newindia.co.in/index.aspx", "latitude": 28.633089599999998, "longitude": 77.22199619999999, "maps_url": "https://www.google.com/maps/search/?api=1&query=The%20New%20India%20Assurance%20Company%20Ltd&query_place_id=ChIJNbohDzb9DDkRxewGKL8-UFA"}, {"place_id": "ChIJhagbhOX9DDkRPU3CM9nL8i4", "name": "Landkhoj - Real Estate Company in Delhi", "street": "First Floor, Scindia House, 5, Connaught Place, New Delhi, Delhi 110001, India", "phone": "", "rating": "5", "review_count": "", "website": "https://www.landkhoj.com/", "latitude": 28.629751, "longitude": 77.2204167, "maps_url": "https://www.google.com/maps/search/?api=1&query=Landkhoj%20-%20Real%20Estate%20Company%20in%20Delhi&query_place_id=ChIJhagbhOX9DDkRPU3CM9nL8i4"}, {"place_id": "ChIJIVO3Nnr9DDkRw3wQkfKjiu4", "name": "Search Nation - SEO Agency Delhi", "street": "2nd Floor, Regal Building, 69, Connaught Cir, Hanuman Road Area, Connaught Place, New Delhi, Delhi 110001, India", "phone": "+91 85888 26583", "rating": "5", "review_count": "", "website": "https://www.searchnation.co/", "latitude": 28.630855, "longitude": 77.216934, "maps_url": "https://www.google.com/maps/search/?api=1&query=Search%20Nation%20-%20SEO%20Agency%20Delhi&query_place_id=ChIJIVO3Nnr9DDkRw3wQkfKjiu4"}, {"place_id": "ChIJgSF5Yjb9DDkRjmphAzXebBY", "name": "FLYP - myHQ Coworking N Block CP", "street": "N - 57, Connaught Cir, Block N, Connaught Place, New Delhi, Delhi 110001, India", "phone": "", "rating": "4.1", "review_count": "", "website": "https://myhq.in/coworking-space/flyp-cafe?utm_source=Google&utm_campaign=GoogleBusiness", "latitude": 28.6302834, "longitude": 77.2205468, "maps_url": "https://www.google.com/maps/search/?api=1&query=FLYP%20-%20myHQ%20Coworking%20N%20Block%20CP&query_place_id=ChIJgSF5Yjb9DDkRjmphAzXebBY"}, {"place_id": "ChIJf5orOl3lDDkRDJVEPP3Q3dA", "name": "Circle Point Homes Realtors", "street": "2nd floor, Regal Building, Innov8 CP2, 44, Backary Portion, New Delhi, Delhi 110001, India", "phone": "+91 99714 53207", "rating": "4.8", "review_count": "", "website": "http://www.cphomes.in/", "latitude": 28.6306726, "longitude": 77.21648929999999, "maps_url": "https://www.google.com/maps/search/?api=1&query=Circle%20Point%20Homes%20Realtors&query_place_id=ChIJf5orOl3lDDkRDJVEPP3Q3dA"}, {"place_id": "ChIJV79i20n9DDkR0bVgVONQ0jg", "name": "StartUp TRU", "street": "", "phone": "+91 98119 49919", "rating": "4", "review_count": "", "website": "https://www.startuptru.com/", "latitude": 37.610319, "longitude": -39.2735501, "maps_url": "https://www.google.com/maps/search/?api=1&query=StartUp%20TRU&query_place_id=ChIJV79i20n9DDkR0bVgVONQ0jg"}, {"place_id": "ChIJj_zKuzP9DDkRHj_Isd9ANu0", "name": "Concept Agrotech Consultants Ltd", "street": "Naurang House, B Wing, KG Marg, Atul Grove Road, Janpath, Connaught Place, New Delhi, Delhi 110001, India", "phone": "+91 11 2373 1129", "rating": "2.3", "review_count": "", "website": "https://www.cacl.in/", "latitude": 28.6277705, "longitude": 77.2217526, "maps_url": "https://www.google.com/maps/search/?api=1&query=Concept%20Agrotech%20Consultants%20Ltd&query_place_id=ChIJj_zKuzP9DDkRHj_Isd9ANu0"}, {"place_id": "ChIJb1uP7vPhDDkRETuFLrMndCI", "name": "Top Real Estate Developers in Delhi NCR", "street": "12th Floor, Himalaya House, 23 Kasturba Gandhi Marg,, New Delhi, Delhi 110001, India", "phone": "+91 92660 10101", "rating": "4", "review_count": "", "website": "http://www.mghousing.com/", "latitude": 28.628048399999997, "longitude": 77.2217383, "maps_url": "https://www.google.com/maps/search/?api=1&query=Top%20Real%20Estate%20Developers%20in%20Delhi%20NCR&query_place_id=ChIJb1uP7vPhDDkRETuFLrMndCI"}, {"place_id": "ChIJ3_XyNzL9DDkRqHWhn3COVKk", "name": "Express Builders", "street": "810, Surya Kiran Building, Kasturba Gandhi Marg, Connaught Place, New Delhi, Delhi 110001, India", "phone": "+91 92500 69999", "rating": "3.9", "review_count": "", "website": "https://www.expressbuildersltd.com/", "latitude": 28.627395999999997, "longitude": 77.222278, "maps_url": "https://www.google.com/maps/search/?api=1&query=Express%20Builders&query_place_id=ChIJ3_XyNzL9DDkRqHWhn3COVKk"}, {"place_id": "ChIJTbuhojb9DDkR_rj_whv0ed4", "name": "Miric Biotech", "street": "New Delhi House, 105, 27, Barakhamba Rd, Connaught Place, New Delhi, Delhi 110001, India", "phone": "+91 11 4777 5700", "rating": "3.1", "review_count": "", "website": "", "latitude": 28.629832999999998, "longitude": 77.223041, "maps_url": "https://www.google.com/maps/search/?api=1&query=Miric%20Biotech&query_place_id=ChIJTbuhojb9DDkR_rj_whv0ed4"}]