{"timestamp": 1773729173.5716114, "keyword": "IT company", "location": "delhi", "cell_idx": 49, "results": [{"place_id": "0x390ce17b94309bbf:0x2a7be4bbd23e8470", "name": "Nexinfotech", "category": "Software company", "street": "Gali No. 5", "city": "Block J 1, Devli, Sangam Vihar", "phone": "09319089231", "website": "https://nexinfotech.com/", "rating": 5, "review_count": "", "latitude": 28.4901479, "longitude": 77.2463212, "maps_url": "https://www.google.com/maps/place/?q=place_id:0x390ce17b94309bbf:0x2a7be4bbd23e8470"}, {"place_id": "0x390ce1a80c4becd1:0xcb8a503f62161432", "name": "Computer Network Solutions", "category": "Computer service", "street": "K-I D59, Gali Number 18", "city": "near HANUMAN MANDIR", "phone": "09810459177", "website": "https://computernstechnology.blogspot.com/", "rating": 4.9, "review_count": "", "latitude": 28.493691199999997, "longitude": 77.2492716, "maps_url": "https://www.google.com/maps/place/?q=place_id:0x390ce1a80c4becd1:0xcb8a503f62161432"}, {"place_id": "0x390ce1597b5509e5:0xfd8209b937b44d3c", "name": "IT Solutions India Private Limited", "category": "Software company", "street": "D-88/5", "city": "Pocket D, Okhla Phase I, Okhla Industrial Estate", "phone": "09810017429", "website": "https://www.itsipl.com/", "rating": 4.2, "review_count": "", "latitude": 28.520146, "longitude": 77.280431, "maps_url": "https://www.google.com/maps/place/?q=place_id:0x390ce1597b5509e5:0xfd8209b937b44d3c"}, {"place_id": "0x8d1367491c694315:0xb6e1626c69d891d2", "name": "WebGridSolution - Software Development Digital Marketing Company", "category": "Software company", "street": "G-12/188", "city": "Talimabad, Sangam Vihar", "phone": "", "website": "https://webgridsolution.com/", "rating": 4.8, "review_count": "", "latitude": 28.506943099999997, "longitude": 77.2507213, "maps_url": "https://www.google.com/maps/place/?q=place_id:0x8d1367491c694315:0xb6e1626c69d891d2"}, {"place_id": "0x390ce458d0000001:0xf2123bd299ec4501", "name": "IT Company India", "category": "Software company", "street": "D56", "city": "D Block, Sector 10", "phone": "09999244854", "website": "https://www.itcompanyindia.in/", "rating": 4.7, "review_count": "", "latitude": 28.589917699999997, "longitude": 77.3351153, "maps_url": "https://www.google.com/maps/place/?q=place_id:0x390ce458d0000001:0xf2123bd299ec4501"}, {"place_id": "0x390ce1aa4d34fe37:0x451d1679345c6df6", "name": "Matrix Solution Group", "category": "Computer Hardware Company", "street": "G-2nd 18/11", "city": "near Tiranga Chowk Road", "phone": "09599014461", "website": "https://www.matrixsolutiongroup.com/", "rating": 4.6, "review_count": "", "latitude": 28.5005962, "longitude": 77.2478308, "maps_url": "https://www.google.com/maps/place/?q=place_id:0x390ce1aa4d34fe37:0x451d1679345c6df6"}, {"place_id": "0x390ce3c153b89811:0xe7a279685777e9ca", "name": "IT Company", "category": "Automation company", "street": "A-14", "city": "near iskcon temple", "phone": "", "website": "http://www.opuswiz.com/", "rating": 3, "review_count": "", "latitude": 28.557167, "longitude": 77.25424819999999, "maps_url": "https://www.google.com/maps/place/?q=place_id:0x390ce3c153b89811:0xe7a279685777e9ca"}, {"place_id": "0x390ce11068dacbdd:0xac4070cb73f9c1b1", "name": "Reedham It solutions pvt ltd", "category": "Software company", "street": "1297B, H 16 Rd", "city": "Block G 1, Talimabad, Sangam Vihar", "phone": "01146012950", "website": "http://reedhamitsolution.com/", "rating": 5, "review_count": "", "latitude": 28.5017906, "longitude": 77.25404069999999, "maps_url": "https://www.google.com/maps/place/?q=place_id:0x390ce11068dacbdd:0xac4070cb73f9c1b1"}, {"place_id": "0x390ce1a20e94f69d:0xf6c5af89da672917", "name": "Code IT Solutions", "category": "Software company", "street": "E45", "city": "Krishna Park Colony, Khanpur", "phone": "07992249312", "website": "http://codeitsolutionshub.com/", "rating": 4.9, "review_count": "", "latitude": 28.509770999999997, "longitude": 77.23377169999999, "maps_url": "https://www.google.com/maps/place/?q=place_id:0x390ce1a20e94f69d:0xf6c5af89da672917"}, {"place_id": "0x390ce3da3f68853d:0xcd720b2a87c87b08", "name": "E Pixel Services", "category": "Software company", "street": "Sangam vihar", "city": "Block L, Devli, Sangam Vihar", "phone": "", "website": "http://www.epixelservices.com/", "rating": 4.8, "review_count": "", "latitude": 28.4979901, "longitude": 77.2339501, "maps_url": "https://www.google.com/maps/place/?q=place_id:0x390ce3da3f68853d:0xcd720b2a87c87b08"}, {"place_id": "0x390ce1fb44618b65:0x8e06b2a6128352d1", "name": "Acropolis Infotech - Delhi Office", "category": "Software company", "street": "metro station gate", "city": "55, 2nd Floor, Lane 2", "phone": "09999876593", "website": "https://www.acropolisinfotech.com/", "rating": 4.6, "review_count": "", "latitude": 28.518907, "longitude": 77.2015435, "maps_url": "https://www.google.com/maps/place/?q=place_id:0x390ce1fb44618b65:0x8e06b2a6128352d1"}, {"place_id": "0x390ce1a84c6a05c3:0x7e192e6d8b97061d", "name": "A-TECH INDIA", "category": "Business management consultant", "street": "B -539, Public Schools Rd", "city": "Block B, Devli, Sangam Vihar", "phone": "08527298902", "website": "http://atechindia.in/", "rating": 5, "review_count": "", "latitude": 28.5021427, "longitude": 77.2406735, "maps_url": "https://www.google.com/maps/place/?q=place_id:0x390ce1a84c6a05c3:0x7e192e6d8b97061d"}, {"place_id": "0x390ce112b8e7842f:0xf52e5dae570a739f", "name": "Alex IT Solutions", "category": "Computer support and services", "street": "C-1st/479, Gali No. 6", "city": "near Sehrawat Gas Agency", "phone": "07042556210", "website": "", "rating": 4.4, "review_count": "", "latitude": 28.500353099999998, "longitude": 77.2379811, "maps_url": "https://www.google.com/maps/place/?q=place_id:0x390ce112b8e7842f:0xf52e5dae570a739f"}, {"place_id": "0x390ce16f2b115b83:0x79437f7fb13f5e2e", "name": "VAYUN INFOTECH", "category": "Computer support and services", "street": "H.no. - 1252", "city": "I-Block, Block J 2, Devli, Sangam Vihar", "phone": "", "website": "https://www.vayuninfotech.com/", "rating": "", "review_count": "", "latitude": 28.493042, "longitude": 77.24821899999999, "maps_url": "https://www.google.com/maps/place/?q=place_id:0x390ce16f2b115b83:0x79437f7fb13f5e2e"}, {"place_id": "0x390cefdcd70b1b4b:0xef72aa58bfc41075", "name": "Devkant Infotech Solutions | Software Company in Noida | Top IT Company In Noida", "category": "Software company", "street": "office No. A", "city": "1601 Nx One T3 Gaur Chowk", "phone": "07428685050", "website": "https://dkinfotech.in/", "rating": 4.9, "review_count": "", "latitude": 28.601201399999997, "longitude": 77.4323665, "maps_url": "https://www.google.com/maps/place/?q=place_id:0x390cefdcd70b1b4b:0xef72aa58bfc41075"}, {"place_id": "0x390ce30f4c4ed777:0x3a7c5e032ce51ce5", "name": "Appextech Software Solutions", "category": "Software company", "street": "Second Floor", "city": "Mohan Cooperative Industrial Estate", "phone": "09911432451", "website": "https://www.appextech.com/", "rating": 4.9, "review_count": "", "latitude": 28.502260099999997, "longitude": 77.28519, "maps_url": "https://www.google.com/maps/place/?q=place_id:0x390ce30f4c4ed777:0x3a7c5e032ce51ce5"}, {"place_id": "0x390ce1ce534cb1e5:0x39fe77c42bc52616", "name": "ITeSolution- Odoo ERP , Mobile/Web Application Development Software Company in Noida, Delhi NCR India.", "category": "Software company", "street": "RZ60/9", "city": "T/F, Tughlakabad Extension, Tughlakabad", "phone": "09889294124", "website": "https://www.itesolution.co.in/", "rating": 4.9, "review_count": "", "latitude": 28.520523899999997, "longitude": 77.2570535, "maps_url": "https://www.google.com/maps/place/?q=place_id:0x390ce1ce534cb1e5:0x39fe77c42bc52616"}, {"place_id": "0x390ce5fdcc79e755:0x309ce99251b84ef6", "name": "Optyminds IT Solutions - Top AI and IT company I Best Digital agency in Noida | Delhi NCR | India", "category": "Software company", "street": "1st Floor", "city": "B-70", "phone": "08929075975", "website": "https://optyminds.com/", "rating": 4.9, "review_count": "", "latitude": 28.584679599999998, "longitude": 77.3135042, "maps_url": "https://www.google.com/maps/place/?q=place_id:0x390ce5fdcc79e755:0x309ce99251b84ef6"}, {"place_id": "0x390ce7b62827897b:0xf9c64750fed6eeef", "name": "Connect Infosoft Technologies Pvt.Ltd-Mobile and Software Application Development Company", "category": "Software company", "street": "Plot No.598", "city": "near Community Center", "phone": "", "website": "https://www.connectinfosoft.com/", "rating": 4.6, "review_count": "", "latitude": 28.451022599999998, "longitude": 77.29805, "maps_url": "https://www.google.com/maps/place/?q=place_id:0x390ce7b62827897b:0xf9c64750fed6eeef"}, {"place_id": "0x390ce18e402306b5:0x9dbfaada227164c4", "name": "Vijprat Tech Private Limited", "category": "Software company", "street": "Sangam Vihar", "city": "Block D, Hamdard Nagar", "phone": "08565013979", "website": "https://www.vijprat.com/", "rating": 4.8, "review_count": "", "latitude": 28.5153091, "longitude": 77.2498549, "maps_url": "https://www.google.com/maps/place/?q=place_id:0x390ce18e402306b5:0x9dbfaada227164c4"}, {"place_id": "0x390ce14c2e74d0c3:0x66d18bd7f06cde65", "name": "OUTWARE IT SOLUTION PVT LTD", "category": "Corporate office", "street": "D Block, Krishna Park Colony, Jawahar Park, Khanpur", "city": "New Delhi, Delhi 110080", "phone": "", "website": "https://outwareit.com/", "rating": 5, "review_count": "", "latitude": 28.5076923, "longitude": 77.23223589999999, "maps_url": "https://www.google.com/maps/place/?q=place_id:0x390ce14c2e74d0c3:0x66d18bd7f06cde65"}, {"place_id": "0x390ce1d73c888e6f:0x679aac9b7129eb22", "name": "Webgram it Solution", "category": "Website designer", "street": "Block C, Devli, Sangam Vihar", "city": "New Delhi, Delhi 110080", "phone": "07551120242", "website": "https://webgramitsolution.com/", "rating": 4.8, "review_count": "", "latitude": 28.498291299999998, "longitude": 77.23990909999999, "maps_url": "https://www.google.com/maps/place/?q=place_id:0x390ce1d73c888e6f:0x679aac9b7129eb22"}, {"place_id": "0x390ce2305c00002d:0x9f7efbacdc0d8271", "name": "ICO WebTech Pvt. Ltd. - Website Designing Company in Delhi", "category": "Website designer", "street": "J E 5, Ground Floor, Khirki Extension, Malviya Nagar", "city": "New Delhi, Delhi 110017", "phone": "08447380262", "website": "https://www.icowebsolutions.com/", "rating": 4.6, "review_count": "", "latitude": 28.535594, "longitude": 77.21577099999999, "maps_url": "https://www.google.com/maps/place/?q=place_id:0x390ce2305c00002d:0x9f7efbacdc0d8271"}, {"place_id": "0x390ce6cf6c89da1b:0x65c494efea23f742", "name": "Web Development Company | Danip Technologies", "category": "Software company", "street": "91 Springboard", "city": "B1/H3", "phone": "", "website": "http://www.daniptechnologies.com/", "rating": 3.5, "review_count": "", "latitude": 28.516938399999997, "longitude": 77.2949711, "maps_url": "https://www.google.com/maps/place/?q=place_id:0x390ce6cf6c89da1b:0x65c494efea23f742"}, {"place_id": "0x390cfd309eebed77:0xf47bee595f075e26", "name": "Asfera Technologies Private Limited | Dialer Software Company", "category": "Software company", "street": "59/1", "city": "Saroj Tower, Office No:- 15", "phone": "09066677770", "website": "https://www.asfera.in/", "rating": 4.6, "review_count": "", "latitude": 28.540130599999998, "longitude": 77.2619868, "maps_url": "https://www.google.com/maps/place/?q=place_id:0x390cfd309eebed77:0xf47bee595f075e26"}, {"place_id": "0x390ce1656fbb7b65:0x7f0e4b2c21935a5c", "name": "Lynkit Solutions Pvt. Ltd.", "category": "Software company", "street": "246", "city": "Block A, Okhla Phase I, Okhla Industrial Estate", "phone": "01140824028", "website": "http://www.lynkit.in/", "rating": 4.3, "review_count": "", "latitude": 28.5254729, "longitude": 77.2754985, "maps_url": "https://www.google.com/maps/place/?q=place_id:0x390ce1656fbb7b65:0x7f0e4b2c21935a5c"}, {"place_id": "0x390cddf536e5435d:0x7effb233335fc345", "name": "Minerva Technology Solutions Ltd.", "category": "Software company", "street": "Unit # 5 & 6", "city": "US Complex", "phone": "01140792600", "website": "http://www.minerva.in/", "rating": 4.5, "review_count": "", "latitude": 28.538679, "longitude": 77.2821338, "maps_url": "https://www.google.com/maps/place/?q=place_id:0x390cddf536e5435d:0x7effb233335fc345"}, {"place_id": "0x390ce3656d0315e1:0xd5bfe1a2a2869d6f", "name": "InnoSewa", "category": "Software company", "street": "D-1/52B", "city": "Block D, Sangam Vihar", "phone": "07011307359", "website": "https://innosewa.com/", "rating": 5, "review_count": "", "latitude": 28.5082408, "longitude": 77.2443978, "maps_url": "https://www.google.com/maps/place/?q=place_id:0x390ce3656d0315e1:0xd5bfe1a2a2869d6f"}, {"place_id": "0x390ce198ef877ab9:0x7a18a39d0d4b426", "name": "PRIYA TECHNOLOGY", "category": "Software company", "street": "45, Devli Rd", "city": "Khanpur Extension, Khanpur", "phone": "09718501851", "website": "", "rating": 4, "review_count": "", "latitude": 28.5133838, "longitude": 77.2337356, "maps_url": "https://www.google.com/maps/place/?q=place_id:0x390ce198ef877ab9:0x7a18a39d0d4b426"}, {"place_id": "0x390ce44609d8fd9b:0x9c680f27679610f6", "name": "Crestech Software", "category": "Software company", "street": "Plot No. D, Vyapar Marg", "city": "D Block, Sector 2", "phone": "08826666755", "website": "https://www.crestechsoftware.com/", "rating": 3.6, "review_count": "", "latitude": 28.5836924, "longitude": 77.3166213, "maps_url": "https://www.google.com/maps/place/?q=place_id:0x390ce44609d8fd9b:0x9c680f27679610f6"}, {"place_id": "0x88baf45c59fc8417:0xb82cdb242dbab0fa", "name": "Marketing Agency Indiaa - best digital marketing agency in delhi", "category": "Website designer", "street": "Number- 393", "city": "J-2/House", "phone": "07678541983", "website": "https://marketingagencyindiaa.com/", "rating": 4.9, "review_count": "", "latitude": 28.4901657, "longitude": 77.244557, "maps_url": "https://www.google.com/maps/place/?q=place_id:0x88baf45c59fc8417:0xb82cdb242dbab0fa"}, {"place_id": "0x390ce7146b71d1dd:0xb2d3ca4087acbcab", "name": "Vartulz Technologies Pvt Ltd", "category": "Software company", "street": "2nd Floor", "city": "SSR Corporate Park", "phone": "01294319393", "website": "http://www.vartulz.com/", "rating": 4.3, "review_count": "", "latitude": 28.4588382, "longitude": 77.3061747, "maps_url": "https://www.google.com/maps/place/?q=place_id:0x390ce7146b71d1dd:0xb2d3ca4087acbcab"}, {"place_id": "0x390ce137736852e9:0x7fe34ee47ed93a72", "name": "Pothera ERP Software for Manufacturing Company", "category": "Software company", "street": "Basement A-283, Near TATA Showroom Okhla Phase 1, New Delhi", "city": "Delhi, 110020", "phone": "", "website": "http://pothera.com/", "rating": 5, "review_count": "", "latitude": 28.525357099999997, "longitude": 77.27710809999999, "maps_url": "https://www.google.com/maps/place/?q=place_id:0x390ce137736852e9:0x7fe34ee47ed93a72"}, {"place_id": "0x390ce19def47dcdb:0x559511e0f84263c7", "name": "EzeeOnline", "category": "Software company", "street": "A166, Devli Rd", "city": "near Sainik Farm", "phone": "08882505020", "website": "https://www.ezeeonline.in/", "rating": 5, "review_count": "", "latitude": 28.5059188, "longitude": 77.23209489999999, "maps_url": "https://www.google.com/maps/place/?q=place_id:0x390ce19def47dcdb:0x559511e0f84263c7"}, {"place_id": "0x390ce3f8f4aa824f:0x11711854f86aeab0", "name": "Mindsmiratus Technologies Pvt Ltd", "category": "Software company", "street": "A-263, 1st Floor", "city": "Mindsmiratus Technologies Pvt Ltd", "phone": "01144786201", "website": "https://www.mindsmiratus.com/?utm_source=google&utm_medium=organic&utm_campaign=gmb", "rating": 4.9, "review_count": "", "latitude": 28.5017362, "longitude": 77.28707539999999, "maps_url": "https://www.google.com/maps/place/?q=place_id:0x390ce3f8f4aa824f:0x11711854f86aeab0"}, {"place_id": "0x390ce73da5555555:0x8bd0d137166f54a5", "name": "Welt Code Web | website design company in faridabad | Application development company in faridabad |", "category": "Software company", "street": "367, 2nd floor Nearest", "city": "Metro Station Sarai", "phone": "", "website": "https://weltcodeweb.in/", "rating": 5, "review_count": "", "latitude": 28.4791347, "longitude": 77.30731329999999, "maps_url": "https://www.google.com/maps/place/?q=place_id:0x390ce73da5555555:0x8bd0d137166f54a5"}, {"place_id": "0x2a72b8b69d7b6493:0x11251466d4d34cac", "name": "WebZonal IT Company", "category": "Website designer", "street": "Wz-258/2-3, D Block Rd", "city": "Khazan Basti, Nangal Raya, Janakpuri", "phone": "09811170903", "website": "http://webzonal.com/", "rating": 5, "review_count": "", "latitude": 28.6122102, "longitude": 77.11159549999999, "maps_url": "https://www.google.com/maps/place/?q=place_id:0x2a72b8b69d7b6493:0x11251466d4d34cac"}, {"place_id": "0x2c4196429b2d31f7:0x41a75c70381ce64e", "name": "AI CONSTRUCTION GROUP PVT LTD", "category": "Electrician", "street": "", "city": "", "phone": "08595976480", "website": "https://aiconstructiongrouppvtltd1.odoo.com/", "rating": 5, "review_count": "", "latitude": 28.4771997, "longitude": 77.1817374, "maps_url": "https://www.google.com/maps/place/?q=place_id:0x2c4196429b2d31f7:0x41a75c70381ce64e"}, {"place_id": "0x390ce3c50d455555:0x625e4cf2def0b6ac", "name": "Infonative Solutions Limited", "category": "Computer support and services", "street": "107, 108", "city": "DLF South Court", "phone": "08448141818", "website": "https://infonative.net/", "rating": 4.7, "review_count": "", "latitude": 28.5274255, "longitude": 77.2209031, "maps_url": "https://www.google.com/maps/place/?q=place_id:0x390ce3c50d455555:0x625e4cf2def0b6ac"}, {"place_id": "0x4215c6da63b4b82f:0x794ba814a6ada964", "name": "Asha Tech | Website Design, App Development & IT Solutions Delhi", "category": "Software company", "street": "no 2", "city": "195, Lane No. 1", "phone": "07531080874", "website": "https://ashatech.co.in/", "rating": 4.7, "review_count": "", "latitude": 28.519994099999998, "longitude": 77.2008791, "maps_url": "https://www.google.com/maps/place/?q=place_id:0x4215c6da63b4b82f:0x794ba814a6ada964"}, {"place_id": "0x390ce167a2fe2113:0x680ab5f778d97d4c", "name": "Digital Multi Solutions - Best CCTV Camera installation & Repair Service in Delhi", "category": "Security system installation service", "street": "F2, 873", "city": "A", "phone": "09599327317", "website": "https://digitalmultisolutions.com/", "rating": 5, "review_count": "", "latitude": 28.499465599999997, "longitude": 77.2420319, "maps_url": "https://www.google.com/maps/place/?q=place_id:0x390ce167a2fe2113:0x680ab5f778d97d4c"}, {"place_id": "0x390d1e2895a5a193:0xc8a11377898c5b0f", "name": "GALAXY IT CORPORATION", "category": "Computer service", "street": "B-6, Annexe", "city": "Shivalik Colony, Malviya Nagar", "phone": "09990560588", "website": "http://www.galaxyitcorp.in/", "rating": 5, "review_count": "", "latitude": 28.533527, "longitude": 77.206172, "maps_url": "https://www.google.com/maps/place/?q=place_id:0x390d1e2895a5a193:0xc8a11377898c5b0f"}, {"place_id": "0x390feda4c4f56aed:0x2277b287e38fc0ec", "name": "Dizivan IT Solutions Pvt Ltd- App Development & Digital Marketing Company", "category": "Software company", "street": "near Metro Station New Ashok Nagar", "city": "Block B, New Ashok Nagar", "phone": "09142092979", "website": "https://dizivan.com/", "rating": 5, "review_count": "", "latitude": 28.5891575, "longitude": 77.3020624, "maps_url": "https://www.google.com/maps/place/?q=place_id:0x390feda4c4f56aed:0x2277b287e38fc0ec"}, {"place_id": "0x2af2d75c7bf84603:0x184d197137886fe2", "name": "AZYRON TECH", "category": "Software company", "street": "G-12/509", "city": "Block G, Talimabad, Sangam Vihar", "phone": "", "website": "https://www.azyrontech.in/", "rating": 5, "review_count": "", "latitude": 28.5044048, "longitude": 77.2550619, "maps_url": "https://www.google.com/maps/place/?q=place_id:0x2af2d75c7bf84603:0x184d197137886fe2"}, {"place_id": "0x390ce3003fffffe3:0x1dd892a28603e769", "name": "Corporate Infotech Pvt Ltd.", "category": "Software company", "street": "E-81", "city": "E Block, Sector 6", "phone": "1800116474", "website": "https://cipl.org.in/", "rating": 4.4, "review_count": "", "latitude": 28.5937284, "longitude": 77.3206974, "maps_url": "https://www.google.com/maps/place/?q=place_id:0x390ce3003fffffe3:0x1dd892a28603e769"}, {"place_id": "0x390ceff83aedd47f:0x89726b809101c15d", "name": "InfoAxon Technologies", "category": "Software company", "street": "08th Floor Plot No 15", "city": "Tradex Tower", "phone": "01204798900", "website": "http://www.infoaxon.com/", "rating": 3.8, "review_count": "", "latitude": 28.544279699999997, "longitude": 77.3310236, "maps_url": "https://www.google.com/maps/place/?q=place_id:0x390ceff83aedd47f:0x89726b809101c15d"}, {"place_id": "0x390ce3c5130e43f3:0xce85951ee98d424e", "name": "MODI INFOSOL PVT. LTD.", "category": "Manufacturer", "street": "OFFICE # 168", "city": "D Block, Pocket D, Okhla Phase I, Okhla Industrial Estate", "phone": "01140746900", "website": "http://www.modiithub.com/", "rating": 3.6, "review_count": "", "latitude": 28.5209118, "longitude": 77.2783556, "maps_url": "https://www.google.com/maps/place/?q=place_id:0x390ce3c5130e43f3:0xce85951ee98d424e"}, {"place_id": "0x390cdbee7f2ec8eb:0xfd740c0f6d86727f", "name": "Mobilise App Lab Limited", "category": "Software company", "street": "Plot no. 62", "city": "B HSIIDC, Sector 31", "phone": "09599194330", "website": "https://mobilise.co.in/", "rating": 4.8, "review_count": "", "latitude": 28.4431501, "longitude": 77.31191369999999, "maps_url": "https://www.google.com/maps/place/?q=place_id:0x390cdbee7f2ec8eb:0xfd740c0f6d86727f"}, {"place_id": "0x390ce3932eaaaaab:0xb308d9aae0d93852", "name": "Al Hadaf Technologies\u2013 ERP, CRM, HRM, Hospital, School, Billing Software Development Company in Delhi NCR", "category": "Software company", "street": "96, Gate No-2", "city": "opp. Escort Hospital", "phone": "08586972994", "website": "https://www.alhadaftech.com/", "rating": 4.9, "review_count": "", "latitude": 28.5562397, "longitude": 77.2762099, "maps_url": "https://www.google.com/maps/place/?q=place_id:0x390ce3932eaaaaab:0xb308d9aae0d93852"}, {"place_id": "0x390ce45c5408040d:0xf772aea3645608d1", "name": "KritiKal Solutions", "category": "Software company", "street": "4th floor", "city": "Smartworks Corporate Park Maple Towers", "phone": "01206926600", "website": "https://kritikalsolutions.com/", "rating": 4.2, "review_count": "", "latitude": 28.548471, "longitude": 77.332223, "maps_url": "https://www.google.com/maps/place/?q=place_id:0x390ce45c5408040d:0xf772aea3645608d1"}, {"place_id": "0x390ce7f2f3828439:0xcac105243099edc3", "name": "Approzo Tech Private Limited", "category": "Website designer", "street": "B-2/11", "city": "Block B, Block E, Mohan Cooperative Industrial Estate, Badarpur", "phone": "", "website": "https://www.approzo.com/", "rating": 5, "review_count": "", "latitude": 28.4928682, "longitude": 77.301136, "maps_url": "https://www.google.com/maps/place/?q=place_id:0x390ce7f2f3828439:0xcac105243099edc3"}, {"place_id": "0x390ce17b01e1a187:0x586fa6002747476d", "name": "OneTap AI Solutions", "category": "Software company", "street": "FIRST FLOOR", "city": "HOLI CHOWK", "phone": "07859935902", "website": "https://onetapaisolutions.com/", "rating": 5, "review_count": "", "latitude": 28.5011396, "longitude": 77.2343595, "maps_url": "https://www.google.com/maps/place/?q=place_id:0x390ce17b01e1a187:0x586fa6002747476d"}, {"place_id": "0x390ce14ee7712b09:0x16f1e425f9106ad", "name": "Royal Datamatics Limited", "category": "Software company", "street": "Shop No", "city": "DSIDC", "phone": "01145751500", "website": "http://www.rdpl.com/", "rating": 4, "review_count": "", "latitude": 28.521658, "longitude": 77.278385, "maps_url": "https://www.google.com/maps/place/?q=place_id:0x390ce14ee7712b09:0x16f1e425f9106ad"}, {"place_id": "0x390ce3cfe91504eb:0x55346c5c499223d7", "name": "CCS Computers Private Limited", "category": "Computer support and services", "street": "2nd-3rd Floor Skipper House", "city": "Nehru Place", "phone": "01126463959", "website": "http://www.ccscomputers.co.in/", "rating": 4, "review_count": "", "latitude": 28.550090599999997, "longitude": 77.2537834, "maps_url": "https://www.google.com/maps/place/?q=place_id:0x390ce3cfe91504eb:0x55346c5c499223d7"}, {"place_id": "0x390ce45bcd61048f:0x5f6a5602f4155df7", "name": "JK Technosoft Limited", "category": "Software company", "street": "F", "city": "3", "phone": "01204606300", "website": "https://jktech.com/", "rating": 4.2, "review_count": "", "latitude": 28.5802509, "longitude": 77.31793329999999, "maps_url": "https://www.google.com/maps/place/?q=place_id:0x390ce45bcd61048f:0x5f6a5602f4155df7"}, {"place_id": "0x390d1f5abfb25fe1:0x7d9c4d5e159f2955", "name": "Jaimru Technology Pvt Ltd", "category": "Software company", "street": "WARD NO. 2", "city": "Plot No. 178 M 33 A/1", "phone": "07838153420", "website": "https://www.jaimru.com/", "rating": 4.9, "review_count": "", "latitude": 28.524347499999998, "longitude": 77.1731889, "maps_url": "https://www.google.com/maps/place/?q=place_id:0x390d1f5abfb25fe1:0x7d9c4d5e159f2955"}, {"place_id": "0x390ce1b9de54d101:0xc5184256693b27dd", "name": "LCK Technologies - Website designing development company South Delhi", "category": "Website designer", "street": "439 1st floor", "city": "438", "phone": "09891337955", "website": "https://lckdigitalmedia.in/", "rating": 4.9, "review_count": "", "latitude": 28.5089698, "longitude": 77.20114769999999, "maps_url": "https://www.google.com/maps/place/?q=place_id:0x390ce1b9de54d101:0xc5184256693b27dd"}, {"place_id": "0x390ce1e92eec0d49:0x8b4c598e70e40b8", "name": "Kito Infocom Pvt. Ltd", "category": "Internet marketing service", "street": "2nd Floor", "city": "B-38", "phone": "08826845665", "website": "https://kitoinfocom.com/", "rating": 4.6, "review_count": "", "latitude": 28.5302415, "longitude": 77.2719123, "maps_url": "https://www.google.com/maps/place/?q=place_id:0x390ce1e92eec0d49:0x8b4c598e70e40b8"}, {"place_id": "0x390ce14e51285585:0x752c7988212c07f5", "name": "Acro Engineering Company Headquarters", "category": "Computer Hardware Company", "street": "Z", "city": "43, Okhla Phase II", "phone": "09910038574", "website": "https://www.acrotechindia.com/", "rating": 3.8, "review_count": "", "latitude": 28.541295599999998, "longitude": 77.27866139999999, "maps_url": "https://www.google.com/maps/place/?q=place_id:0x390ce14e51285585:0x752c7988212c07f5"}, {"place_id": "0x390ce1ee44aaecf1:0xce685772d82d4ae8", "name": "Ahad Steel Works Delhi (Rolling Gate / Window, Porta Cabin, Cinema Screen Frame, Auditorium Manufacturers)", "category": "Steel fabricator", "street": "block 1407", "city": "L2", "phone": "08076686788", "website": "", "rating": 5, "review_count": "", "latitude": 28.4926304, "longitude": 77.2446279, "maps_url": "https://www.google.com/maps/place/?q=place_id:0x390ce1ee44aaecf1:0xce685772d82d4ae8"}, {"place_id": "0x390ce1361c1d0ec9:0xaf1e699c9ad610ca", "name": "VIRMANI SOFTWARE & HARDWARE SOLUTION", "category": "Computer Hardware Company", "street": "F1/67", "city": "Block F 2, Sangam Vihar", "phone": "", "website": "", "rating": 5, "review_count": "", "latitude": 28.502211499999998, "longitude": 77.2441462, "maps_url": "https://www.google.com/maps/place/?q=place_id:0x390ce1361c1d0ec9:0xaf1e699c9ad610ca"}, {"place_id": "0x390ce3001bfd51c7:0x43ad1c18c320f5e6", "name": "APPSYFY IT SOLUTIONS PVT LTD", "category": "Software company", "street": "211, Okhla Phase 3 Rd", "city": "Okhla Phase III, Okhla Industrial Estate", "phone": "", "website": "https://appsyfy.com/", "rating": 5, "review_count": "", "latitude": 28.5484191, "longitude": 77.27131729999999, "maps_url": "https://www.google.com/maps/place/?q=place_id:0x390ce3001bfd51c7:0x43ad1c18c320f5e6"}, {"place_id": "0x390ce3d606c913ef:0xd246bd5631eb2cad", "name": "Delvetech", "category": "Software company", "street": "87A/1, 3rd Floor, Opp. Block N-115, G.K-1, Near Moolchand Merto", "city": "Block B, Zamrudpur, Greater Kailash", "phone": "09873895154", "website": "http://www.delvetech.co.in/", "rating": 4.1, "review_count": "", "latitude": 28.5570597, "longitude": 77.2356981, "maps_url": "https://www.google.com/maps/place/?q=place_id:0x390ce3d606c913ef:0xd246bd5631eb2cad"}, {"place_id": "0x390ce15e3e0af063:0x278728c362df0caf", "name": "A S IT Solution", "category": "Computer support and services", "street": "Gali No -14", "city": "H. No. - 1252", "phone": "09315394784", "website": "", "rating": "", "review_count": "", "latitude": 28.4930372, "longitude": 77.24820869999999, "maps_url": "https://www.google.com/maps/place/?q=place_id:0x390ce15e3e0af063:0x278728c362df0caf"}, {"place_id": "0x390ce1f99938a4bf:0x94440b5e8f9049d7", "name": "Silk Circuit Solutions", "category": "Solar Energy Company", "street": "K-1", "city": "100/18-B", "phone": "", "website": "", "rating": 5, "review_count": "", "latitude": 28.4977232, "longitude": 77.2526663, "maps_url": "https://www.google.com/maps/place/?q=place_id:0x390ce1f99938a4bf:0x94440b5e8f9049d7"}, {"place_id": "0x390ce717a54f6be5:0xfa8bf740df0be516", "name": "Hannovit", "category": "Software company", "street": "1351, FF", "city": "Ashoka Enclave Part II, Sector 37", "phone": "06356635655", "website": "http://hannovit.com/", "rating": 4.4, "review_count": "", "latitude": 28.4809862, "longitude": 77.31166329999999, "maps_url": "https://www.google.com/maps/place/?q=place_id:0x390ce717a54f6be5:0xfa8bf740df0be516"}, {"place_id": "0x390ce19d6aaaaaab:0x322f66cd91e8f6cd", "name": "Vikas Gupta Web Developer", "category": "Website designer", "street": "A-454 Dakshinpuri", "city": "New Delhi, Delhi 110062", "phone": "09643269244", "website": "https://itcrafterhub.com/website-developer-delhi/", "rating": 5, "review_count": "", "latitude": 28.522017599999998, "longitude": 77.2366923, "maps_url": "https://www.google.com/maps/place/?q=place_id:0x390ce19d6aaaaaab:0x322f66cd91e8f6cd"}, {"place_id": "0x390ce1d984eccd6d:0x690ab7b06376459a", "name": "Kbrosis Technologies", "category": "Computer support and services", "street": "", "city": "", "phone": "08929290447", "website": "http://kbrosistechnologies.com/", "rating": 5, "review_count": "", "latitude": 21.0680074, "longitude": 82.7525294, "maps_url": "https://www.google.com/maps/place/?q=place_id:0x390ce1d984eccd6d:0x690ab7b06376459a"}, {"place_id": "0x390ce10f5dd49499:0x241afe1b51070b4c", "name": "NEW SANGAM INDUSTRIES", "category": "Safety equipment supplier", "street": "GF 598, Street Number 7", "city": "Block J 2, Block I 2, Sangam Vihar", "phone": "08287658854", "website": "http://www.sangamindustries.co.in/", "rating": 4.8, "review_count": "", "latitude": 28.492708699999998, "longitude": 77.24573889999999, "maps_url": "https://www.google.com/maps/place/?q=place_id:0x390ce10f5dd49499:0x241afe1b51070b4c"}, {"place_id": "0x390ce1817179b973:0xc5fc1d2384c91114", "name": "AM INSTITUTE OF COMPUTER & EDUCATION (AMICE)", "category": "Education center", "street": "Building No.2", "city": "Block J2B", "phone": "09717473902", "website": "https://shorturl.at/b1ZsT", "rating": 5, "review_count": "", "latitude": 28.4904497, "longitude": 77.2451166, "maps_url": "https://www.google.com/maps/place/?q=place_id:0x390ce1817179b973:0xc5fc1d2384c91114"}, {"place_id": "0x390ce18325e56bed:0x9b5150c1ad42ff14", "name": "MSB Web Services", "category": "Software company", "street": "F", "city": "1B", "phone": "09818476105", "website": "https://www.msbwebs.com/", "rating": 5, "review_count": "", "latitude": 28.502231199999997, "longitude": 77.2427198, "maps_url": "https://www.google.com/maps/place/?q=place_id:0x390ce18325e56bed:0x9b5150c1ad42ff14"}, {"place_id": "0x390ce25e35e99b33:0xf443abe69b4e8fcc", "name": "Synapse Valuetech Private Limited", "category": "Software company", "street": "Lower Ground Floor", "city": "221", "phone": "01146628882", "website": "https://www.synapsevaluetech.com/", "rating": 4.3, "review_count": "", "latitude": 28.558165, "longitude": 77.2592385, "maps_url": "https://www.google.com/maps/place/?q=place_id:0x390ce25e35e99b33:0xf443abe69b4e8fcc"}, {"place_id": "0xac8c05a3301b61af:0x4a1c42ce4683b649", "name": "Ashwat Infotech - On Demand Laptops, Desktops & IT Services in Delhi NCR", "category": "Computer support and services", "street": "", "city": "", "phone": "08700633645", "website": "https://ashwat.in/", "rating": 5, "review_count": "", "latitude": 28.587393499999997, "longitude": 77.17272439999999, "maps_url": "https://www.google.com/maps/place/?q=place_id:0xac8c05a3301b61af:0x4a1c42ce4683b649"}, {"place_id": "0x390ce6db6cf32775:0x65f3101fb04f909c", "name": "Thaver Tech Pvt. Ltd.", "category": "Software company", "street": "A 1524", "city": "Greenfields, Sector 43", "phone": "09289816699", "website": "https://www.thavertech.com/", "rating": 4.4, "review_count": "", "latitude": 28.464767499999997, "longitude": 77.3008876, "maps_url": "https://www.google.com/maps/place/?q=place_id:0x390ce6db6cf32775:0x65f3101fb04f909c"}, {"place_id": "0x390ce728291846e3:0x47f7bdb929af8a16", "name": "ABHIPRIYA GROUP (APG)", "category": "Corporate office", "street": "A 6", "city": "A block, Dayal Bagh Rd", "phone": "09015063439", "website": "http://www.abhipriya.in/", "rating": 4.9, "review_count": "", "latitude": 28.4934726, "longitude": 77.2994703, "maps_url": "https://www.google.com/maps/place/?q=place_id:0x390ce728291846e3:0x47f7bdb929af8a16"}, {"place_id": "0x390d1e186527b451:0x3d552630d3703e21", "name": "Inca Infotech Technologies Pvt Ltd", "category": "Computer support and services", "street": "D-23/405, UGF", "city": "100 Feet Rd", "phone": "18008891907", "website": "https://www.incainfotech.com/", "rating": 3.6, "review_count": "", "latitude": 28.506226899999998, "longitude": 77.1850521, "maps_url": "https://www.google.com/maps/place/?q=place_id:0x390d1e186527b451:0x3d552630d3703e21"}, {"place_id": "0x390ce1ab73f2db27:0x56f5a12df7ea77f0", "name": "DP Global Solution", "category": "Computer support and services", "street": "House no 2076(A) block I street no 26", "city": "Ratiya Marg", "phone": "07217647211", "website": "", "rating": 4.5, "review_count": "", "latitude": 28.495486, "longitude": 77.2515727, "maps_url": "https://www.google.com/maps/place/?q=place_id:0x390ce1ab73f2db27:0x56f5a12df7ea77f0"}, {"place_id": "0x390d1fb9b19cd7d7:0x2febfba590f33428", "name": "Corapana Technologies - Mobile App Development and Web Design Development Company Delhi", "category": "Software company", "street": "Ground floor", "city": "D-23", "phone": "08295242621", "website": "https://corapana.com/", "rating": 4.8, "review_count": "", "latitude": 28.496378999999997, "longitude": 77.17898, "maps_url": "https://www.google.com/maps/place/?q=place_id:0x390d1fb9b19cd7d7:0x2febfba590f33428"}, {"place_id": "0x390ce3c572a9ee5f:0xd4ddf520fbbd12dc", "name": "Vectrae Infotech", "category": "Corporate office", "street": "B-1 Extension", "city": "A-16", "phone": "01140590964", "website": "http://www.vectrae.com/", "rating": 4.6, "review_count": "", "latitude": 28.5068442, "longitude": 77.2986782, "maps_url": "https://www.google.com/maps/place/?q=place_id:0x390ce3c572a9ee5f:0xd4ddf520fbbd12dc"}, {"place_id": "0x390ce74f02f86777:0xd12c1da50395cf75", "name": "Techinfy Solutions Pvt. Ltd.", "category": "Corporate office", "street": "B-697, Mall Road", "city": "Greenfield Rd", "phone": "", "website": "http://www.techinfy.in/", "rating": 4.4, "review_count": "", "latitude": 28.4622343, "longitude": 77.297635, "maps_url": "https://www.google.com/maps/place/?q=place_id:0x390ce74f02f86777:0xd12c1da50395cf75"}, {"place_id": "0x390ce456aaaaaaab:0x6e4e087895622564", "name": "Klasiinn", "category": "Software company", "street": "E-506, Inder Mohan Bhardwaj Marg", "city": "Block E, Greater Kailash II, Greater Kailash", "phone": "07827882870", "website": "http://klasiinn.in/", "rating": 5, "review_count": "", "latitude": 28.5358657, "longitude": 77.2384798, "maps_url": "https://www.google.com/maps/place/?q=place_id:0x390ce456aaaaaaab:0x6e4e087895622564"}, {"place_id": "0x390ce196e61df7f3:0xedb8f1af808c8874", "name": "Best Digital Marketing Company in Kalkaji - HitupSolutions", "category": "Software company", "street": "1343, Street No. 13", "city": "Govindpuri", "phone": "07983772834", "website": "https://hitupsolutions.com/", "rating": 4.9, "review_count": "", "latitude": 28.5323982, "longitude": 77.2634478, "maps_url": "https://www.google.com/maps/place/?q=place_id:0x390ce196e61df7f3:0xedb8f1af808c8874"}, {"place_id": "0x390ce36d8ce5d215:0x34a758640aa4cff7", "name": "Steel fabricator", "category": "Steel fabricator", "street": "H17 232 A ratiya Marg", "city": "Hanuman Mandir Marg", "phone": "09990330987", "website": "", "rating": 5, "review_count": "", "latitude": 28.495022, "longitude": 77.24491499999999, "maps_url": "https://www.google.com/maps/place/?q=place_id:0x390ce36d8ce5d215:0x34a758640aa4cff7"}, {"place_id": "0x390ce44efef427e7:0x4d0a10522519f65e", "name": "Omnie Solutions (I) Pvt Ltd", "category": "Software company", "street": "D-108", "city": "Sector 2, D Block, Sector 2", "phone": "09266754671", "website": "https://www.omniesolutions.com/", "rating": 3.4, "review_count": "", "latitude": 28.583485, "longitude": 77.316155, "maps_url": "https://www.google.com/maps/place/?q=place_id:0x390ce44efef427e7:0x4d0a10522519f65e"}, {"place_id": "0x390ce12dde00fc81:0x59f31abcf7bfb639", "name": "Dream solution studio - best architecture | interior designer | turnkey solution", "category": "Architecture firm", "street": "Block-I, Gali no. 4, house no-34A, Floor", "city": "Gali No. 1", "phone": "09910952809", "website": "", "rating": 5, "review_count": "", "latitude": 28.4968512, "longitude": 77.2457737, "maps_url": "https://www.google.com/maps/place/?q=place_id:0x390ce12dde00fc81:0x59f31abcf7bfb639"}, {"place_id": "0x390ce1bef0c8c071:0xb0a64e46c6405fc6", "name": "Tech rise dynamics", "category": "Website designer", "street": "293, Lane-2, Westend Marg", "city": "near Saket Metro Station", "phone": "08750557052", "website": "https://www.techrisedynamics.com/", "rating": 5, "review_count": "", "latitude": 28.5177321, "longitude": 77.1986237, "maps_url": "https://www.google.com/maps/place/?q=place_id:0x390ce1bef0c8c071:0xb0a64e46c6405fc6"}, {"place_id": "0x390ce3c577996141:0x6f0e309d0c4c2de1", "name": "Eagle Information Systems Pvt. Ltd.", "category": "Computer support and services", "street": "Madhuban Building", "city": "705", "phone": "09818188012", "website": "http://www.eagle.in/", "rating": 4.5, "review_count": "", "latitude": 28.5486501, "longitude": 77.2520914, "maps_url": "https://www.google.com/maps/place/?q=place_id:0x390ce3c577996141:0x6f0e309d0c4c2de1"}, {"place_id": "0x390ce23eeab015ab:0x92d6a7e8dbc46e1a", "name": "Odyssey Website Development Company", "category": "Website designer", "street": "B-59", "city": "Block B, Soami Nagar South, Soami Nagar", "phone": "09654486464", "website": "http://odysseyin.com/?utm_source=GMB&utm_medium=Organic&utm_term=Odyssey&utm_content=Listing&utm_campaign=GMB1", "rating": 3.6, "review_count": "", "latitude": 28.541823599999997, "longitude": 77.2262008, "maps_url": "https://www.google.com/maps/place/?q=place_id:0x390ce23eeab015ab:0x92d6a7e8dbc46e1a"}, {"place_id": "0x390ce1fb6d6fa48f:0x8be9b07790f41251", "name": "The Wellingston Company", "category": "Corporate office", "street": "K-2nd, 555", "city": "Bandh Rd", "phone": "09716881871", "website": "http://www.wellingston.com/", "rating": 5, "review_count": "", "latitude": 28.4954108, "longitude": 77.2369391, "maps_url": "https://www.google.com/maps/place/?q=place_id:0x390ce1fb6d6fa48f:0x8be9b07790f41251"}, {"place_id": "0xa3f7b500ba6bee9b:0xbf6f44de92b28de", "name": "Yuvocreations Private Limited ( \u092f\u0941\u0935\u094b\u0915\u094d\u0930\u093f\u090f\u0936\u0928\u094d\u0938 \u092a\u094d\u0930\u093e\u0907\u0935\u0947\u091f \u0932\u093f\u092e\u093f\u091f\u0947\u0921 ) - Website Designing & Digital Marketing Agency", "category": "Software company", "street": "Lane no.4", "city": "Khasra no. 258, Westend Marg", "phone": "07042123166", "website": "https://yuvocreations.com/", "rating": 5, "review_count": "", "latitude": 28.5169774, "longitude": 77.19925789999999, "maps_url": "https://www.google.com/maps/place/?q=place_id:0xa3f7b500ba6bee9b:0xbf6f44de92b28de"}, {"place_id": "0x390ce100f5e94809:0xd78d6863269ad2a1", "name": "Taom Solutions", "category": "Software company", "street": "E- 44/3 Ground Floor", "city": "F Block, Pocket X, Okhla Phase II, Okhla Industrial Estate", "phone": "", "website": "https://www.taomsolutions.com/", "rating": 5, "review_count": "", "latitude": 28.535762799999997, "longitude": 77.2764329, "maps_url": "https://www.google.com/maps/place/?q=place_id:0x390ce100f5e94809:0xd78d6863269ad2a1"}, {"place_id": "0x390ce1e507220a51:0xfe74ede7645b1fd1", "name": "Yash Infinite Solutions Private Limited", "category": "Software company", "street": "South of Saket", "city": "B-39, IGNOU Rd", "phone": "09810464978", "website": "", "rating": 4, "review_count": "", "latitude": 28.5157003, "longitude": 77.2033136, "maps_url": "https://www.google.com/maps/place/?q=place_id:0x390ce1e507220a51:0xfe74ede7645b1fd1"}, {"place_id": "0x390ce39a24b89521:0x6e886c5e28fd05a9", "name": "Cloude Data Delhi | Best Cloud Service Provider company in India", "category": "Web hosting company", "street": "First Floor", "city": "A 212, Okhla Phase 3 Rd", "phone": "08882353612", "website": "https://cloudedata.com/", "rating": 4.4, "review_count": "", "latitude": 28.548515, "longitude": 77.2712834, "maps_url": "https://www.google.com/maps/place/?q=place_id:0x390ce39a24b89521:0x6e886c5e28fd05a9"}, {"place_id": "0x390ce72695555555:0xd75d8672c9cf4a03", "name": "SNeT Labs Pvt Ltd", "category": "Software company", "street": "IHDP Business Park", "city": "Noida-Greater Noida Expy", "phone": "", "website": "http://snetlabs.com/", "rating": 5, "review_count": "", "latitude": 28.5344402, "longitude": 77.3474012, "maps_url": "https://www.google.com/maps/place/?q=place_id:0x390ce72695555555:0xd75d8672c9cf4a03"}, {"place_id": "0x390ce3ffe4d01b19:0xe0931b3dea29cf15", "name": "Buzytech : Web Development & Digital Marketing Company", "category": "Marketing agency", "street": "US Complex", "city": "204", "phone": "09810748731", "website": "http://www.buzytech.com/", "rating": 4.2, "review_count": "", "latitude": 28.538573, "longitude": 77.2826166, "maps_url": "https://www.google.com/maps/place/?q=place_id:0x390ce3ffe4d01b19:0xe0931b3dea29cf15"}, {"place_id": "0x2c4e8a4f0540d6eb:0x2ddc5cfde96ced91", "name": "Unbox Studio | Creative & Digital Marketing Agency", "category": "Website designer", "street": "", "city": "", "phone": "09711707513", "website": "https://unboxstudio.info/", "rating": 5, "review_count": "", "latitude": 27.06468, "longitude": 77.99250119999999, "maps_url": "https://www.google.com/maps/place/?q=place_id:0x2c4e8a4f0540d6eb:0x2ddc5cfde96ced91"}, {"place_id": "0x390ce6d3e47c8b7f:0xde66622f445f3384", "name": "IZS Technocrats Private LTD", "category": "Website designer", "street": "GA - 56", "city": "Badarpur, Pul Pehladpur", "phone": "08882171675", "website": "", "rating": 5, "review_count": "", "latitude": 28.5012157, "longitude": 77.29197429999999, "maps_url": "https://www.google.com/maps/place/?q=place_id:0x390ce6d3e47c8b7f:0xde66622f445f3384"}, {"place_id": "0x390ce19295b87577:0x893eed38fdb3f553", "name": "Sarvajan Hitay co-op thrift & Credit Society", "category": "Computer support and services", "street": "F-3", "city": "813B", "phone": "09667804495", "website": "", "rating": 5, "review_count": "", "latitude": 28.4984081, "longitude": 77.2397919, "maps_url": "https://www.google.com/maps/place/?q=place_id:0x390ce19295b87577:0x893eed38fdb3f553"}, {"place_id": "0x390ce459e2a3a42f:0xdda2e042090c2c72", "name": "InfiCare Technologies Pvt. Ltd", "category": "Software company", "street": "D-92 Second/Third floor", "city": "Sector 2", "phone": "09711265591", "website": "http://www.inficaretech.com/", "rating": 3.9, "review_count": "", "latitude": 28.582936099999998, "longitude": 77.3175146, "maps_url": "https://www.google.com/maps/place/?q=place_id:0x390ce459e2a3a42f:0xdda2e042090c2c72"}, {"place_id": "0x390ce79bc42119f7:0x8e84afbd0124a50", "name": "ABHIPRIYA GLOBAL PRIVATE LIMITED, CHARGER MANUFACTURER , POWER BANK MANUFACTURER, MOBILE ACCESSORIES SELLER, CORPORATE", "category": "Electronics Company", "street": "Shubham Shopping Complex ,Surajkund raoad SEC-39 charmwood village", "city": "Eros Garden", "phone": "09891293215", "website": "http://www.abhipriya.in/", "rating": 4.8, "review_count": "", "latitude": 28.494059999999998, "longitude": 77.2934767, "maps_url": "https://www.google.com/maps/place/?q=place_id:0x390ce79bc42119f7:0x8e84afbd0124a50"}]}