{"timestamp": 1773735154.6938596, "keyword": "IT company", "location": "Indore", "cell_idx": 209, "results": [{"place_id": "0x3963179ba819d679:0x97d67928bba81e05", "name": "ITGeeks Technologies Pvt. Ltd.", "category": "Software company", "street": "ITGeeks Technologies Pvt. Ltd", "city": "02, Yamuna nagar", "phone": "09179880603", "website": "http://www.itgeeks.com/", "rating": 4.6, "review_count": "", "latitude": 22.9538781, "longitude": 76.03808699999999, "maps_url": "https://www.google.com/maps/place/?q=place_id:0x3963179ba819d679:0x97d67928bba81e05"}, {"place_id": "0x3963179ca584a047:0xba87fc574f813753", "name": "Xlligent Softwares Pvt Ltd", "category": "Software company", "street": "111", "city": "near front of DCB Bank", "phone": "06261900209", "website": "https://www.xlligent-softwares.com/", "rating": 4.9, "review_count": "", "latitude": 22.9666632, "longitude": 76.0492101, "maps_url": "https://www.google.com/maps/place/?q=place_id:0x3963179ca584a047:0xba87fc574f813753"}, {"place_id": "0x39631780e5eb3c53:0xfc15871ccdfd3ccb", "name": "PebblePot Technologies Private Limited", "category": "Software company", "street": "04 Harshal Manglik Bhawan", "city": "AB Rd", "phone": "07898661161", "website": "https://www.pebblepot.in/", "rating": 4.7, "review_count": "", "latitude": 22.966351799999998, "longitude": 76.0499313, "maps_url": "https://www.google.com/maps/place/?q=place_id:0x39631780e5eb3c53:0xfc15871ccdfd3ccb"}, {"place_id": "0x396317edff48b3f5:0xc5c058b66ca61b0c", "name": "OminiFlow Enterprises - WhatsApp Api Provider, ChatBot, RealState lead Automation, Business Growth", "category": "Software company", "street": "18", "city": "Kalani Bagh, Tarani Colony, Pachunkar Colony, Ram Nagar", "phone": "09755332357", "website": "", "rating": 4.9, "review_count": "", "latitude": 22.962981799999998, "longitude": 76.0456596, "maps_url": "https://www.google.com/maps/place/?q=place_id:0x396317edff48b3f5:0xc5c058b66ca61b0c"}, {"place_id": "0x39631772fb57fa4d:0x1aeaaccddfab1b64", "name": "ITWEBINFO", "category": "Software company", "street": "103", "city": "Shivaji Nagar, Moti Bunglow", "phone": "07582995555", "website": "http://itwebinfo.com/", "rating": 5, "review_count": "", "latitude": 22.9710605, "longitude": 76.0480532, "maps_url": "https://www.google.com/maps/place/?q=place_id:0x39631772fb57fa4d:0x1aeaaccddfab1b64"}, {"place_id": "0x396302b379920c87:0xae77c7696c44f45c", "name": "JTG_TECHNOLAB", "category": "Software company", "street": "40, Karoli nagar", "city": "near Kela Mata temple", "phone": "07974666953", "website": "https://jtgtechnolab.com/", "rating": 5, "review_count": "", "latitude": 22.9583767, "longitude": 76.0352805, "maps_url": "https://www.google.com/maps/place/?q=place_id:0x396302b379920c87:0xae77c7696c44f45c"}, {"place_id": "0x3963171787e17b59:0x307a92533e921d11", "name": "Edithtech Softwares", "category": "Software company", "street": "44", "city": "Shourya Complex", "phone": "09109260321", "website": "https://edithtechsoftwares.com/", "rating": 4.8, "review_count": "", "latitude": 22.9547074, "longitude": 76.0365456, "maps_url": "https://www.google.com/maps/place/?q=place_id:0x3963171787e17b59:0x307a92533e921d11"}, {"place_id": "0x396317c3b78fb617:0xcad69c162e743e9", "name": "Farflung Technologies Pvt ltd", "category": "Software company", "street": "3 A", "city": "Pachunkar Colony, Panchsheel Nagar", "phone": "", "website": "https://farflungtechnologies.com/", "rating": 5, "review_count": "", "latitude": 22.9624773, "longitude": 76.0426938, "maps_url": "https://www.google.com/maps/place/?q=place_id:0x396317c3b78fb617:0xcad69c162e743e9"}, {"place_id": "0x39631792ea7d9083:0xc90228718db1b1af", "name": "Sypnosis Technologies - IT Company.", "category": "Software company", "street": "2nd Floor", "city": "10", "phone": "09039239604", "website": "https://sypnosistechnologies.com/", "rating": "", "review_count": "", "latitude": 22.955443499999998, "longitude": 76.0369978, "maps_url": "https://www.google.com/maps/place/?q=place_id:0x39631792ea7d9083:0xc90228718db1b1af"}, {"place_id": "0x3963178ff220a477:0x1f25eae0f1ef5a7d", "name": "Himanshu Softtech", "category": "Software company", "street": "4-A , agroha nagar , AB road", "city": "Dewas, Madhya Pradesh 455001", "phone": "09425919122", "website": "http://www.himanshusofttech.com/", "rating": 4.7, "review_count": "", "latitude": 22.9619793, "longitude": 76.0464191, "maps_url": "https://www.google.com/maps/place/?q=place_id:0x3963178ff220a477:0x1f25eae0f1ef5a7d"}, {"place_id": "0x396317226b2c42df:0x47098e396f961017", "name": "Expound Coderz Private Limited", "category": "Software company", "street": "267", "city": "Ram Nagar Extension, Mishrilal Nagar, Ganga Nagar", "phone": "07415752727", "website": "https://expoundcoderz.com/", "rating": 4.8, "review_count": "", "latitude": 22.9577816, "longitude": 76.0379663, "maps_url": "https://www.google.com/maps/place/?q=place_id:0x396317226b2c42df:0x47098e396f961017"}, {"place_id": "0x3963178ff220a477:0x51910ecd6deaed53", "name": "Cyber Elite Pvt Ltd.", "category": "Software company", "street": "226 LIG", "city": "Jawahar Nagar, Gomti Nagar", "phone": "07089899090", "website": "https://cyberelite.in/", "rating": 4.2, "review_count": "", "latitude": 22.953131199999998, "longitude": 76.0426221, "maps_url": "https://www.google.com/maps/place/?q=place_id:0x3963178ff220a477:0x51910ecd6deaed53"}, {"place_id": "0x3963172b725b9649:0xca9958ddaa36af60", "name": "PixelNX", "category": "Software company", "street": "03", "city": "Bhartiya Grah Nirman Colony, Shivaji Nagar, Moti Bunglow", "phone": "09685829300", "website": "http://www.pixelnx.com/", "rating": 4.6, "review_count": "", "latitude": 22.967811299999997, "longitude": 76.0457447, "maps_url": "https://www.google.com/maps/place/?q=place_id:0x3963172b725b9649:0xca9958ddaa36af60"}, {"place_id": "0x39631736a0f7d871:0xf0f334accf365a3a", "name": "Ayat infotech", "category": "Software company", "street": "51", "city": "Anand nagar, Itawa", "phone": "09589981295", "website": "http://ayatinfotech.com/", "rating": 5, "review_count": "", "latitude": 22.9726128, "longitude": 76.05058269999999, "maps_url": "https://www.google.com/maps/place/?q=place_id:0x39631736a0f7d871:0xf0f334accf365a3a"}, {"place_id": "0x39630239f26f44ff:0x9990e42765534532", "name": "Hybrid Infotech Pvt Ltd", "category": "Software company", "street": "Forest colony, Shivaji Nagar, Moti Bunglow", "city": "Dewas, Madhya Pradesh 455001", "phone": "09993031042", "website": "http://hybridinfotech.com/", "rating": 5, "review_count": "", "latitude": 22.9662243, "longitude": 76.0484005, "maps_url": "https://www.google.com/maps/place/?q=place_id:0x39630239f26f44ff:0x9990e42765534532"}, {"place_id": "0x3963177600d4efb5:0x33c81c908e54629c", "name": "Soham Web Solution - Web Development Company", "category": "Software company", "street": "Chamunda Complex", "city": "12, Civil Line", "phone": "07748018188", "website": "http://sohamsolution.com/", "rating": 4, "review_count": "", "latitude": 22.9648902, "longitude": 76.0480299, "maps_url": "https://www.google.com/maps/place/?q=place_id:0x3963177600d4efb5:0x33c81c908e54629c"}, {"place_id": "0x396317db662392a1:0xf724452f8057917", "name": "Evolve WebInfo Pvt.Ltd.", "category": "Software company", "street": "2nd Floor, Dewas Central, 314", "city": "AB Rd", "phone": "09926877335", "website": "http://evolvewebinfo.in/", "rating": 4.9, "review_count": "", "latitude": 22.9566475, "longitude": 76.0369968, "maps_url": "https://www.google.com/maps/place/?q=place_id:0x396317db662392a1:0xf724452f8057917"}, {"place_id": "0x3963177f0bb72c01:0x7dc0fc1caf36fcb", "name": "Adroit Technosoft", "category": "Software company", "street": "2nd floor, sri sawariya complex", "city": "AB Rd", "phone": "09713000193", "website": "https://adroittechnosoft.in/", "rating": 4.3, "review_count": "", "latitude": 22.9666878, "longitude": 76.0494731, "maps_url": "https://www.google.com/maps/place/?q=place_id:0x3963177f0bb72c01:0x7dc0fc1caf36fcb"}, {"place_id": "0x39631781f7b0a2a7:0xe3e4f6269a463f9d", "name": "Hostihelp", "category": "Software company", "street": "237 SunCity 1", "city": "AB Rd", "phone": "09755688860", "website": "http://hostihelpservices.epizy.com/", "rating": 4.9, "review_count": "", "latitude": 22.9460408, "longitude": 76.02948649999999, "maps_url": "https://www.google.com/maps/place/?q=place_id:0x39631781f7b0a2a7:0xe3e4f6269a463f9d"}, {"place_id": "0x3963173c14b63e79:0x65b66e0752b01a8c", "name": "Techconqueror \u2013 Software & IT Services", "category": "Software company", "street": "528 EWS", "city": "Mukherjee Nagar, Anukul Nagar", "phone": "08982396663", "website": "https://techconqueror.com/", "rating": 4.9, "review_count": "", "latitude": 22.971609599999997, "longitude": 76.0386747, "maps_url": "https://www.google.com/maps/place/?q=place_id:0x3963173c14b63e79:0x65b66e0752b01a8c"}, {"place_id": "0x39633b8a3ef8c70b:0xd1cb95ce99e396eb", "name": "Panchal Rolling Shutter", "category": "Iron works", "street": "Ward No. 11", "city": "00", "phone": "07828421416", "website": "", "rating": 5, "review_count": "", "latitude": 23.0288069, "longitude": 76.23105149999999, "maps_url": "https://www.google.com/maps/place/?q=place_id:0x39633b8a3ef8c70b:0xd1cb95ce99e396eb"}, {"place_id": "0x396317745f3b0dad:0x2026d44c9c4f16dd", "name": "Netvertix Technologies", "category": "Software company", "street": "Padam Mohan Colony", "city": "8/2, BNP Rd", "phone": "09131332762", "website": "https://netvertixtechnologies.com/", "rating": 5, "review_count": "", "latitude": 22.9788064, "longitude": 76.0552076, "maps_url": "https://www.google.com/maps/place/?q=place_id:0x396317745f3b0dad:0x2026d44c9c4f16dd"}, {"place_id": "0x39633ba22e2a38ff:0xe29f1572a822b5c1", "name": "Shree Shyam M P Online", "category": "Computer support and services", "street": "Bus Stend", "city": "Bhorasa", "phone": "09109045590", "website": "", "rating": 5, "review_count": "", "latitude": 22.9934106, "longitude": 76.20503599999999, "maps_url": "https://www.google.com/maps/place/?q=place_id:0x39633ba22e2a38ff:0xe29f1572a822b5c1"}, {"place_id": "0x3963179aa37da85d:0x9ad74f985a500d01", "name": "Webstrot Technology", "category": "Software company", "street": "3rd Floor", "city": "Rathor Tower", "phone": "08827113366", "website": "https://www.webstrot.com/", "rating": 4.9, "review_count": "", "latitude": 22.960082, "longitude": 76.04385529999999, "maps_url": "https://www.google.com/maps/place/?q=place_id:0x3963179aa37da85d:0x9ad74f985a500d01"}, {"place_id": "0x390ce458d0000001:0xf2123bd299ec4501", "name": "IT Company India", "category": "Software company", "street": "D56", "city": "D Block, Sector 10", "phone": "09999244854", "website": "https://www.itcompanyindia.in/", "rating": 4.7, "review_count": "", "latitude": 28.589917699999997, "longitude": 77.3351153, "maps_url": "https://www.google.com/maps/place/?q=place_id:0x390ce458d0000001:0xf2123bd299ec4501"}, {"place_id": "0x396317fb8085a529:0x6218c068e21409af", "name": "Caplers Solutions Dewas", "category": "Software company", "street": "Station Rd", "city": "in front of 52 Dukaan", "phone": "07415119928", "website": "https://caplers.com/", "rating": 5, "review_count": "", "latitude": 22.9715527, "longitude": 76.0550499, "maps_url": "https://www.google.com/maps/place/?q=place_id:0x396317fb8085a529:0x6218c068e21409af"}, {"place_id": "0x39631799f8c1f06d:0x3502fd7aa55ee5ed", "name": "Vatsalya Expert Solutions", "category": "Software company", "street": "bhosle colony, Vatsalya Bhawan", "city": "75", "phone": "08889993179", "website": "https://vatsalyaexpertsolutions.in/", "rating": 4.9, "review_count": "", "latitude": 22.9799872, "longitude": 76.0553815, "maps_url": "https://www.google.com/maps/place/?q=place_id:0x39631799f8c1f06d:0x3502fd7aa55ee5ed"}, {"place_id": "0x396317edb498db2d:0x820ff94014864b5b", "name": "Active Now Tech", "category": "Software company", "street": "Mahalaxmi Nagar", "city": "09", "phone": "08839779337", "website": "https://activenow.in/", "rating": 5, "review_count": "", "latitude": 22.9575802, "longitude": 76.0409086, "maps_url": "https://www.google.com/maps/place/?q=place_id:0x396317edb498db2d:0x820ff94014864b5b"}, {"place_id": "0x396317f6bce105ad:0x1b97ddd1edb96f8a", "name": "TechMac Digital Solutions", "category": "Software company", "street": "05 M.I.G, Ujjain Rd", "city": "near Water Tank", "phone": "08982878781", "website": "https://techmacdigital.com/", "rating": 4.7, "review_count": "", "latitude": 22.977732099999997, "longitude": 76.0322268, "maps_url": "https://www.google.com/maps/place/?q=place_id:0x396317f6bce105ad:0x1b97ddd1edb96f8a"}, {"place_id": "0x396331a75833fd13:0xfc74c10abca6dae6", "name": "Larsen and Toubro (L&T)", "category": "Real Estate Builders & Construction Company", "street": "X7PH+7F7", "city": "Kumardi, Madhya Pradesh 455115", "phone": "", "website": "https://www.larsentoubro.com/", "rating": 4.2, "review_count": "", "latitude": 22.9856686, "longitude": 76.278671, "maps_url": "https://www.google.com/maps/place/?q=place_id:0x396331a75833fd13:0xfc74c10abca6dae6"}, {"place_id": "0x3963179e783f3caf:0x370c4af9c04c7225", "name": "Satisfaction Web Solution Pvt. Ltd", "category": "Software company", "street": "146 Alkapuri", "city": "behind Shri Munisuvrat Swami Shwetambar Jain Mandir Dewas", "phone": "09826073695", "website": "http://www.satisfactionwebsolution.com/", "rating": 4.4, "review_count": "", "latitude": 22.967319, "longitude": 76.0412837, "maps_url": "https://www.google.com/maps/place/?q=place_id:0x3963179e783f3caf:0x370c4af9c04c7225"}, {"place_id": "0x39633cc859d66b57:0xa5314ac94ec16e0a", "name": "Mita India Pvt Ltd Dewas", "category": "Auto parts manufacturer", "street": "X592+MX5", "city": "Khatamba, Madhya Pradesh 455115", "phone": "09868656580", "website": "http://imo.im/", "rating": 4, "review_count": "", "latitude": 22.969127, "longitude": 76.152496, "maps_url": "https://www.google.com/maps/place/?q=place_id:0x39633cc859d66b57:0xa5314ac94ec16e0a"}, {"place_id": "0x3963179b47845d21:0x3c484352310d1dfd", "name": "Projection (Training & Placement Company)", "category": "Software Training Institute", "street": "05, Shayam Plaza, Patwardhan marg, Just", "city": "behind Grace Church", "phone": "09617569993", "website": "https://www.projectiononline.com/", "rating": 4.7, "review_count": "", "latitude": 22.967597899999998, "longitude": 76.050913, "maps_url": "https://www.google.com/maps/place/?q=place_id:0x3963179b47845d21:0x3c484352310d1dfd"}, {"place_id": "0x3963179e5a662b61:0x1c73df34266e678a", "name": "Infybright Tech Solution", "category": "Computer support and services", "street": "145 A, AB Rd", "city": "Kalani Bagh, Gomti Nagar", "phone": "", "website": "http://infybright.com/", "rating": 5, "review_count": "", "latitude": 22.957948899999998, "longitude": 76.0431546, "maps_url": "https://www.google.com/maps/place/?q=place_id:0x3963179e5a662b61:0x1c73df34266e678a"}, {"place_id": "0x396317d794e16759:0x4060a0afc2cc5781", "name": "Webniya Infotech", "category": "Software company", "street": "", "city": "", "phone": "", "website": "https://www.webniya.tech/", "rating": 5, "review_count": "", "latitude": 21.0680074, "longitude": 82.7525294, "maps_url": "https://www.google.com/maps/place/?q=place_id:0x396317d794e16759:0x4060a0afc2cc5781"}, {"place_id": "0x396317170221cccd:0xdc916aeffd9100ea", "name": "Webaashi Technologies", "category": "Software company", "street": "C 82, AB Rd", "city": "Kalani Bagh, Agroha Nagar, Gomti Nagar", "phone": "", "website": "http://webaashi.com/", "rating": 4.9, "review_count": "", "latitude": 22.9586091, "longitude": 76.0484482, "maps_url": "https://www.google.com/maps/place/?q=place_id:0x396317170221cccd:0xdc916aeffd9100ea"}, {"place_id": "0x396317929f6eb6ff:0xd309788e3f800c63", "name": "Lumic technologies", "category": "Software company", "street": "28, Sardar Patel Marg", "city": "Sutar Bakhal, Old Town, Gomti Nagar", "phone": "07804920240", "website": "http://www.lumicsoft.com/", "rating": "", "review_count": "", "latitude": 22.9654703, "longitude": 76.0527128, "maps_url": "https://www.google.com/maps/place/?q=place_id:0x396317929f6eb6ff:0xd309788e3f800c63"}, {"place_id": "0x396317b120185c53:0x7cd8635d2217321", "name": "Sanoh India Private Limited", "category": "Automation company", "street": "Sti Sanoh India Ltd", "city": "\u0930\u094b\u0921 \u0938\u094d\u091f\u0940\u0932 \u091f\u094d\u092f\u0942\u092c \u0930\u094b\u0921", "phone": "", "website": "", "rating": 4.1, "review_count": "", "latitude": 22.989034999999998, "longitude": 76.0551809, "maps_url": "https://www.google.com/maps/place/?q=place_id:0x396317b120185c53:0x7cd8635d2217321"}, {"place_id": "0x6cfaa7c055002bd5:0x9543a5812d93766", "name": "Updevix \u2013 Web & App Development Company", "category": "Software company", "street": "software Employment Ofiice", "city": "1st floor, Updevix \u2013 Web & App Development Company", "phone": "", "website": "https://www.updevix.com/", "rating": 5, "review_count": "", "latitude": 22.967655699999998, "longitude": 76.0543464, "maps_url": "https://www.google.com/maps/place/?q=place_id:0x6cfaa7c055002bd5:0x9543a5812d93766"}, {"place_id": "0x287cf0225a1c0f9:0x78c06e25e68f9246", "name": "Ivision Systech Private Limited", "category": "Design engineer", "street": "412", "city": "E.W.S., Mukherjee Nagar, Raja Ram Nagar", "phone": "08269897542", "website": "https://www.ivisionsystech.com/", "rating": 5, "review_count": "", "latitude": 22.9665379, "longitude": 76.0391159, "maps_url": "https://www.google.com/maps/place/?q=place_id:0x287cf0225a1c0f9:0x78c06e25e68f9246"}, {"place_id": "0x396317594649ba3f:0xf9ac1b62632d3d19", "name": "Krishnakriti ventures LLP", "category": "Computer support and services", "street": "85", "city": "Madhuban Colony, Adarsh Nagar, Itawa", "phone": "", "website": "https://krishnakriti.co.in/", "rating": 5, "review_count": "", "latitude": 22.9782786, "longitude": 76.070239, "maps_url": "https://www.google.com/maps/place/?q=place_id:0x396317594649ba3f:0xf9ac1b62632d3d19"}, {"place_id": "0x2d1fb13b66f9b3b9:0xd8d6782015bc63e4", "name": "Dharmdesigner IT Services", "category": "Internet marketing service", "street": "Silver Park", "city": "Balaji Nagar", "phone": "08120348239", "website": "https://dharmdesigner.com/", "rating": 5, "review_count": "", "latitude": 22.947556799999997, "longitude": 76.05479059999999, "maps_url": "https://www.google.com/maps/place/?q=place_id:0x2d1fb13b66f9b3b9:0xd8d6782015bc63e4"}, {"place_id": "0x39633bfe77281545:0xdddff53f28c3ac2", "name": "33/132 KV Siemens Gamesa Substation Fatanpur", "category": "Corporate office", "street": "25PV+XWG", "city": "Budasi, Madhya Pradesh 455115", "phone": "", "website": "", "rating": 4.3, "review_count": "", "latitude": 23.0374496, "longitude": 76.1948251, "maps_url": "https://www.google.com/maps/place/?q=place_id:0x39633bfe77281545:0xdddff53f28c3ac2"}, {"place_id": "0x39633b0049bd1135:0xa64213d1c9ea6456", "name": "Vaishnavi Tant House", "category": "Tent House Supplier", "street": "Kulala, Madhya Pradesh 455115", "city": "", "phone": "", "website": "", "rating": 5, "review_count": "", "latitude": 23.016408, "longitude": 76.2250461, "maps_url": "https://www.google.com/maps/place/?q=place_id:0x39633b0049bd1135:0xa64213d1c9ea6456"}, {"place_id": "0x3962fdc27594b36f:0xf1f29e4d59089c17", "name": "Rubik Corner IT Services and Consultants", "category": "Website designer", "street": "5/1 Ramchandra Nagar Extension", "city": "Madhya Pradesh 455001", "phone": "09691665576", "website": "", "rating": 5, "review_count": "", "latitude": 22.945536999999998, "longitude": 76.0402613, "maps_url": "https://www.google.com/maps/place/?q=place_id:0x3962fdc27594b36f:0xf1f29e4d59089c17"}, {"place_id": "0x3963170002e423fd:0x2845c60d9661c0f7", "name": "Adiyogi Enterprises", "category": "Computer service", "street": "Maina Shree Complex", "city": "AB Rd", "phone": "09926677787", "website": "", "rating": 5, "review_count": "", "latitude": 22.9637322, "longitude": 76.0473047, "maps_url": "https://www.google.com/maps/place/?q=place_id:0x3963170002e423fd:0x2845c60d9661c0f7"}, {"place_id": "0x3be7c21b5901e181:0x7fe794585addc1f6", "name": "Smartinfologiks - Software Development Company in India | IT Solutions", "category": "Software company", "street": "Hilton Center", "city": "514", "phone": "07400064691", "website": "https://www.smartinfologiks.com/", "rating": 4.6, "review_count": "", "latitude": 19.0139592, "longitude": 73.0382705, "maps_url": "https://www.google.com/maps/place/?q=place_id:0x3be7c21b5901e181:0x7fe794585addc1f6"}, {"place_id": "0x396317cb7c6c3d3b:0x9f2bbbfa9937c9b", "name": "SOMTARA Infotech", "category": "Software company", "street": "TARA KUNJ 205", "city": "opp. Escort Junior College", "phone": "", "website": "https://www.somtarainfotech.com/", "rating": "", "review_count": "", "latitude": 22.954623599999998, "longitude": 76.0349313, "maps_url": "https://www.google.com/maps/place/?q=place_id:0x396317cb7c6c3d3b:0x9f2bbbfa9937c9b"}, {"place_id": "0x3bc2becdc35b6937:0x515ac559c349eee3", "name": "Thinkitive Technologies Private Limited", "category": "Software company", "street": "4th Floor", "city": "ABIL IMPERIAL COMMERCIAL SPACES", "phone": "08956467327", "website": "https://www.thinkitive.com/", "rating": 3.9, "review_count": "", "latitude": 18.5563888, "longitude": 73.7729748, "maps_url": "https://www.google.com/maps/place/?q=place_id:0x3bc2becdc35b6937:0x515ac559c349eee3"}, {"place_id": "0x396319c8c2d58ded:0xfc9bf8b2d14e3cda", "name": "Surlon Precision Solutions India Limited", "category": "Manufacturer", "street": "Industrial Area No.2", "city": "Dewas, Madhya Pradesh 455001", "phone": "07272258373", "website": "http://www.tataprecision.com/", "rating": 4.4, "review_count": "", "latitude": 22.933703599999998, "longitude": 76.021577, "maps_url": "https://www.google.com/maps/place/?q=place_id:0x396319c8c2d58ded:0xfc9bf8b2d14e3cda"}, {"place_id": "0x396318244daf11b5:0xc4a7dcfa7008013d", "name": "Bappa Creation India : Video Advertising Company", "category": "Video production service", "street": "Balgarh, balaji nagar, Industrial Area No.2, Dewas, Madhya Pradesh 455111", "city": "Dewas, Madhya Pradesh 455001", "phone": "08602895443", "website": "https://bappacreationindia.wixsite.com/bappacreationindia", "rating": 5, "review_count": "", "latitude": 22.9429922, "longitude": 76.05390899999999, "maps_url": "https://www.google.com/maps/place/?q=place_id:0x396318244daf11b5:0xc4a7dcfa7008013d"}, {"place_id": "0x39633b07c0063e97:0x1f44402008a280a7", "name": "Sanvi Industry", "category": "Manufacturer", "street": "Khonpeerpipliya", "city": "Bhonrasa, Madhya Pradesh 455115", "phone": "09669999711", "website": "", "rating": 5, "review_count": "", "latitude": 22.9830723, "longitude": 76.2447413, "maps_url": "https://www.google.com/maps/place/?q=place_id:0x39633b07c0063e97:0x1f44402008a280a7"}, {"place_id": "0x396319e7b24e0b9d:0x3e56ec0df631cef1", "name": "Vippy Industries Limited", "category": "Food Processing Company", "street": "28, AB Rd", "city": "Industrial Area No. 1", "phone": "07272258545", "website": "http://www.vippysoya.com/", "rating": 3.8, "review_count": "", "latitude": 22.9384363, "longitude": 76.0143614, "maps_url": "https://www.google.com/maps/place/?q=place_id:0x396319e7b24e0b9d:0x3e56ec0df631cef1"}, {"place_id": "0x3963194c0a91d77d:0xc0227c345ba30719", "name": "Gabriel India Limited", "category": "Corporate office", "street": "Industrial Area No.2", "city": "Dewas, Madhya Pradesh 455001", "phone": "", "website": "", "rating": 4.1, "review_count": "", "latitude": 22.929257399999997, "longitude": 76.0389397, "maps_url": "https://www.google.com/maps/place/?q=place_id:0x3963194c0a91d77d:0xc0227c345ba30719"}, {"place_id": "0x396319e550167c0f:0xc21ae8f7a537ddd9", "name": "Win Infotech Software Solutions", "category": "Financial consultant", "street": "14", "city": "Labour Colony, Balaji Nagar", "phone": "09179298291", "website": "https://wininfotech.in/", "rating": 5, "review_count": "", "latitude": 22.947784, "longitude": 76.050197, "maps_url": "https://www.google.com/maps/place/?q=place_id:0x396319e550167c0f:0xc21ae8f7a537ddd9"}, {"place_id": "0x396317d7b9fce5ed:0x76f34aad91692f9e", "name": "Cyber Veins", "category": "Software company", "street": "", "city": "", "phone": "08085747661", "website": "http://cyber-veins.in/", "rating": 5, "review_count": "", "latitude": 14.157641199999999, "longitude": -16.7424939, "maps_url": "https://www.google.com/maps/place/?q=place_id:0x396317d7b9fce5ed:0x76f34aad91692f9e"}, {"place_id": "0x3963173647bb8e3d:0x61da9f1d94156c82", "name": "Dmgenix \u2014 Registered Startup India", "category": "Software company", "street": "Office Add 183", "city": "Alkapuri Rd", "phone": "08959498718", "website": "https://dmgenix.com/", "rating": 5, "review_count": "", "latitude": 22.9685728, "longitude": 76.03925269999999, "maps_url": "https://www.google.com/maps/place/?q=place_id:0x3963173647bb8e3d:0x61da9f1d94156c82"}, {"place_id": "0x3963170d63cf0f6b:0xa071a4f09875f22e", "name": "Punyai Group", "category": "Software company", "street": "", "city": "", "phone": "", "website": "http://bit.ly/2S6gV7Y", "rating": 5, "review_count": "", "latitude": 20.2162413, "longitude": 76.1931778, "maps_url": "https://www.google.com/maps/place/?q=place_id:0x3963170d63cf0f6b:0xa071a4f09875f22e"}, {"place_id": "0x39633d3037096f77:0xc2faa50a9a4ce05", "name": "John Deere Dewas Works", "category": "Manufacturer", "street": "Indore - Bhopal Rd", "city": "Khatamba, Madhya Pradesh 455001", "phone": "18002095310", "website": "http://www.deere.co.in/", "rating": 4.5, "review_count": "", "latitude": 22.966046799999997, "longitude": 76.1191446, "maps_url": "https://www.google.com/maps/place/?q=place_id:0x39633d3037096f77:0xc2faa50a9a4ce05"}, {"place_id": "0x3963178ffffffffd:0xcb341924a729e52", "name": "Giraffe Storage Solution", "category": "Manufacturer", "street": "B,C, D1&9E Industrial Area", "city": "10", "phone": "09993590431", "website": "https://www.giraffestorage.com/", "rating": 4.7, "review_count": "", "latitude": 22.9647808, "longitude": 76.04814449999999, "maps_url": "https://www.google.com/maps/place/?q=place_id:0x3963178ffffffffd:0xcb341924a729e52"}, {"place_id": "0x39633dd87a992c97:0x9887307f61b3f714", "name": "Laxmi Solvex Pvt. Ltd.", "category": "Corporate office", "street": "village durgapura", "city": "Sia, Madhya Pradesh 455001", "phone": "", "website": "", "rating": 4.6, "review_count": "", "latitude": 23.0184701, "longitude": 76.1130862, "maps_url": "https://www.google.com/maps/place/?q=place_id:0x39633dd87a992c97:0x9887307f61b3f714"}, {"place_id": "0x39633169377e3415:0x4e183019ba666ea1", "name": "CSC CCTV SOLOSIONS", "category": "Computer support and services", "street": "MG Rd", "city": "near by Sawariya Dham Colony", "phone": "09827311706", "website": "", "rating": 5, "review_count": "", "latitude": 22.9776111, "longitude": 76.33625219999999, "maps_url": "https://www.google.com/maps/place/?q=place_id:0x39633169377e3415:0x4e183019ba666ea1"}, {"place_id": "0x396319e845555555:0x1b3842080da83c8a", "name": "Dewas Metal Sections Ltd.", "category": "Manufacturer", "street": "W2C5+HGF", "city": "AB Rd", "phone": "08435501485", "website": "https://www.dmsl.co.in/", "rating": 4.4, "review_count": "", "latitude": 22.9224118, "longitude": 76.0073221, "maps_url": "https://www.google.com/maps/place/?q=place_id:0x396319e845555555:0x1b3842080da83c8a"}, {"place_id": "0x39631783ab28463d:0x47360e8151298220", "name": "Malwas Axiom Build Tech pvt. Ltd.", "category": "Architect", "street": "malwa shenai Complex", "city": "630/13, AB Rd", "phone": "09179999337", "website": "", "rating": 4.8, "review_count": "", "latitude": 22.9581523, "longitude": 76.04200569999999, "maps_url": "https://www.google.com/maps/place/?q=place_id:0x39631783ab28463d:0x47360e8151298220"}, {"place_id": "0x39631708d5d6fd53:0x6cf93c0e550356c9", "name": "Sharda Associates Engineers and Architect", "category": "Corporate office", "street": "MR-3", "city": "67 Balaji Dham, Balgarh Rd", "phone": "09584292171", "website": "", "rating": 4.9, "review_count": "", "latitude": 22.9471267, "longitude": 76.0373015, "maps_url": "https://www.google.com/maps/place/?q=place_id:0x39631708d5d6fd53:0x6cf93c0e550356c9"}, {"place_id": "0x39631782a9679ba9:0xf1599ba222c300e5", "name": "Keval Kevara Business Consultant", "category": "Business management consultant", "street": "81-82", "city": "Seth Miksilal Nagar, Mishrilal Nagar, Square", "phone": "09589034537", "website": "https://www.badabusiness.com/digitaldukan/BIKK009122", "rating": 5, "review_count": "", "latitude": 22.9549733, "longitude": 76.0390682, "maps_url": "https://www.google.com/maps/place/?q=place_id:0x39631782a9679ba9:0xf1599ba222c300e5"}, {"place_id": "0x396317b791f9f921:0xaa9d68312ca2f97b", "name": "Robopie Inc.", "category": "Research and product development", "street": "48/A", "city": "near The Guardian School", "phone": "09479561907", "website": "https://www.robopie.in/", "rating": "", "review_count": "", "latitude": 22.9586862, "longitude": 76.0394522, "maps_url": "https://www.google.com/maps/place/?q=place_id:0x396317b791f9f921:0xaa9d68312ca2f97b"}, {"place_id": "0x39633db45bfd17a9:0x4308fafcc8e3d7a5", "name": "Coram Chromewell India Pvt. Ltd", "category": "Manufacturer", "street": "108/1/2, Amarpura", "city": "Road", "phone": "08124023766", "website": "http://www.coramgroup.com/eng/News/CORAM-CHROMEWELL-INDIA-PVT.-LTD", "rating": 4.9, "review_count": "", "latitude": 22.9806036, "longitude": 76.1294152, "maps_url": "https://www.google.com/maps/place/?q=place_id:0x39633db45bfd17a9:0x4308fafcc8e3d7a5"}, {"place_id": "0x3963172e8a8361c5:0xd183a76387b929aa", "name": "Urbanizer Clothing Co.", "category": "Manufacturer", "street": "Suncity 1", "city": "183, AB Rd", "phone": "09755688860", "website": "https://www.urbanizer.in/", "rating": 5, "review_count": "", "latitude": 22.9471591, "longitude": 76.0294474, "maps_url": "https://www.google.com/maps/place/?q=place_id:0x3963172e8a8361c5:0xd183a76387b929aa"}, {"place_id": "0x3962578f392034bb:0xce07ed72e2db8009", "name": "Endo India Par Formulations Private Limited", "category": "Pharmaceutical company", "street": "W2JH+CM4", "city": "Indore-SEZ", "phone": "", "website": "https://www.parpharm.com/", "rating": 4.7, "review_count": "", "latitude": 22.931010699999998, "longitude": 76.029202, "maps_url": "https://www.google.com/maps/place/?q=place_id:0x3962578f392034bb:0xce07ed72e2db8009"}, {"place_id": "0x3963172bd349136d:0x1b734e3eb8f2ff47", "name": "Horizon Solar", "category": "Solar Energy Company", "street": "143", "city": "Ram Nagar Extension, Tilak Nagar, Ram Nagar", "phone": "07387378997", "website": "", "rating": 5, "review_count": "", "latitude": 22.9588827, "longitude": 76.04140269999999, "maps_url": "https://www.google.com/maps/place/?q=place_id:0x3963172bd349136d:0x1b734e3eb8f2ff47"}, {"place_id": "0x396323d083de3151:0x9c2e0f26db50caf5", "name": "Jan Sewa Kendr", "category": "Computer support and services", "street": "Shop No. 2 Megic Stend Kankund Kankund", "city": "Dewas, Madhya Pradesh 455001", "phone": "09770804882", "website": "", "rating": 4.8, "review_count": "", "latitude": 22.9405847, "longitude": 76.1500439, "maps_url": "https://www.google.com/maps/place/?q=place_id:0x396323d083de3151:0x9c2e0f26db50caf5"}, {"place_id": "0x396317f7dfd73b93:0x8da54c23289a9544", "name": "Sunpower", "category": "Solar Energy Company", "street": "60 ews", "city": "New Mukherjee Nagar, Anukul Nagar", "phone": "", "website": "", "rating": 5, "review_count": "", "latitude": 22.9703311, "longitude": 76.037122, "maps_url": "https://www.google.com/maps/place/?q=place_id:0x396317f7dfd73b93:0x8da54c23289a9544"}, {"place_id": "0x39632f1c873da0ad:0x38ab122bbae0109f", "name": "Shree Mahakal Online service point", "category": "Computer support and services", "street": "Dewas Road Sanwer", "city": "Sonkatch, Madhya Pradesh 455118", "phone": "09691706700", "website": "", "rating": 5, "review_count": "", "latitude": 22.975994999999998, "longitude": 76.340406, "maps_url": "https://www.google.com/maps/place/?q=place_id:0x39632f1c873da0ad:0x38ab122bbae0109f"}, {"place_id": "0x3963313830b1ed07:0xb0e8f5a07bcd982a", "name": "KALISINDH PROJECT OFFICE", "category": "Corporate office", "street": "X8HM+Q6W", "city": "Sanwer, Madhya Pradesh 455118", "phone": "", "website": "", "rating": 5, "review_count": "", "latitude": 22.9794907, "longitude": 76.3330934, "maps_url": "https://www.google.com/maps/place/?q=place_id:0x3963313830b1ed07:0xb0e8f5a07bcd982a"}, {"place_id": "0x6b406bef7cd437b1:0x28334f0b498e4068", "name": "Triangle Solar Energy Dewas", "category": "Solar Energy Company", "street": "41B", "city": "Vikas Nagar, Ramchandra Nagar, Gomti Nagar", "phone": "09977667330", "website": "https://sites.google.com/view/triangleenterprises/home", "rating": 4.8, "review_count": "", "latitude": 22.9479908, "longitude": 76.038437, "maps_url": "https://www.google.com/maps/place/?q=place_id:0x6b406bef7cd437b1:0x28334f0b498e4068"}, {"place_id": "0x39633d83d240440d:0xdecd7c670e50b817", "name": "Anik Milk Products Pvt. Ltd.", "category": "Dairy Products Supplier", "street": "233R+JRR", "city": "Sia, Madhya Pradesh 455001", "phone": "", "website": "http://www.anikdairy.com/", "rating": 4.5, "review_count": "", "latitude": 23.0041099, "longitude": 76.0920281, "maps_url": "https://www.google.com/maps/place/?q=place_id:0x39633d83d240440d:0xdecd7c670e50b817"}, {"place_id": "0x396319dd15118047:0x3ebaca68feb4ac70", "name": "Tata International Limited", "category": "Manufacturer", "street": "AB Rd", "city": "Industrial Area No. 1", "phone": "", "website": "http://www.tatainternational.com/", "rating": 4.5, "review_count": "", "latitude": 22.9374239, "longitude": 76.0174308, "maps_url": "https://www.google.com/maps/place/?q=place_id:0x396319dd15118047:0x3ebaca68feb4ac70"}, {"place_id": "0x809349dea9785ffd:0x2ed132381ec0aab", "name": "BuySellCompass It Software Company", "category": "Software Training Institute", "street": "", "city": "", "phone": "", "website": "", "rating": "", "review_count": "", "latitude": 21.0680074, "longitude": 82.7525294, "maps_url": "https://www.google.com/maps/place/?q=place_id:0x809349dea9785ffd:0x2ed132381ec0aab"}, {"place_id": "0x39633b63327af477:0xc4f087db4f165ad6", "name": "Tyagi Industry dewas M.P.", "category": "Farmers' market", "street": "Indore - Bhopal Rd", "city": "Sonkatch, Madhya Pradesh 455115", "phone": "09907483113", "website": "", "rating": 4.2, "review_count": "", "latitude": 22.9775732, "longitude": 76.2373901, "maps_url": "https://www.google.com/maps/place/?q=place_id:0x39633b63327af477:0xc4f087db4f165ad6"}, {"place_id": "0x396317904a94f707:0xc1d2b7473f420122", "name": "Ravi Electricals solar solutions", "category": "Solar Energy Company", "street": "Infront of rajmal pannalal shop", "city": "55, MG Rd", "phone": "09425047580", "website": "http://www.ravisolarenergy.in/", "rating": 4.7, "review_count": "", "latitude": 22.964137899999997, "longitude": 76.05348459999999, "maps_url": "https://www.google.com/maps/place/?q=place_id:0x396317904a94f707:0xc1d2b7473f420122"}, {"place_id": "0x39633d73728d10c3:0x4037a40b2efa28e9", "name": "Steel silo", "category": "Logistics service", "street": "Unnamed Road", "city": "Durgapura, Madhya Pradesh 455001", "phone": "", "website": "", "rating": 4, "review_count": "", "latitude": 23.0193177, "longitude": 76.1245777, "maps_url": "https://www.google.com/maps/place/?q=place_id:0x39633d73728d10c3:0x4037a40b2efa28e9"}, {"place_id": "0x396339cafd10cba1:0x3bea388d91580f7a", "name": "FOUJI ONLINE SERVICES", "category": "Business banking service", "street": "TEHSIL CHOURAHA", "city": "Tonk Khurd, Madhya Pradesh 455116", "phone": "07582878267", "website": "https://chat.whatsapp.com/CojIBicPadF856UTZai1PY", "rating": 5, "review_count": "", "latitude": 23.0966234, "longitude": 76.22073739999999, "maps_url": "https://www.google.com/maps/place/?q=place_id:0x396339cafd10cba1:0x3bea388d91580f7a"}, {"place_id": "0x3963179b198afb39:0x746bcc2c170e99cd", "name": "Docxhub", "category": "Software company", "street": "5-A Kothi Road", "city": "opposite to khedapati International hotel", "phone": "08269034006", "website": "https://docxhub.in/", "rating": 4, "review_count": "", "latitude": 22.9655179, "longitude": 76.04609479999999, "maps_url": "https://www.google.com/maps/place/?q=place_id:0x3963179b198afb39:0x746bcc2c170e99cd"}, {"place_id": "0x3963179b199ebc09:0x19d986d195a033c1", "name": "Ntier Solutions", "category": "Software company", "street": "Daya Shree Complex", "city": "AB Rd", "phone": "09893776747", "website": "http://www.outputwebtech.com/", "rating": "", "review_count": "", "latitude": 22.960306499999998, "longitude": 76.0439695, "maps_url": "https://www.google.com/maps/place/?q=place_id:0x3963179b199ebc09:0x19d986d195a033c1"}, {"place_id": "0x396317bd43c6cae9:0x93e7d2a1d33dd13f", "name": "Anahcra Infotech Private Limited", "category": "Marketing agency", "street": "81, Khari Bawadi Road", "city": "Old Town, Hanuman Bakhal", "phone": "07987071323", "website": "", "rating": 5, "review_count": "", "latitude": 22.9622605, "longitude": 76.0569897, "maps_url": "https://www.google.com/maps/place/?q=place_id:0x396317bd43c6cae9:0x93e7d2a1d33dd13f"}, {"place_id": "0x396317becb467b3d:0xe1967e6a5b52b65f", "name": "Zeeshan Ahmed", "category": "Software company", "street": "37, Indira Nagar", "city": "BNP Rd", "phone": "", "website": "https://www.zeeshanahmed.in/", "rating": 3, "review_count": "", "latitude": 22.9803754, "longitude": 76.0583609, "maps_url": "https://www.google.com/maps/place/?q=place_id:0x396317becb467b3d:0xe1967e6a5b52b65f"}, {"place_id": "0x3963175dbfbef98b:0x5ddd1ccdfba37de0", "name": "Trushja Softech", "category": "Software company", "street": "in front of Sharda Mata Mandir", "city": "Chamunda Kunj Colony, Mishrilal Nagar, Ganga Nagar", "phone": "07771094445", "website": "http://trushjasoftech.in/", "rating": "", "review_count": "", "latitude": 22.9539071, "longitude": 76.0376828, "maps_url": "https://www.google.com/maps/place/?q=place_id:0x3963175dbfbef98b:0x5ddd1ccdfba37de0"}, {"place_id": "0x396317a49f3919dd:0x71cc474768e7fa4b", "name": "Kirloskar Brothers Limited", "category": "Manufacturer", "street": "X2HX+PHF", "city": "Station Rd", "phone": "07272227397", "website": "https://www.kirloskarpumps.com/", "rating": 4.1, "review_count": "", "latitude": 22.9793044, "longitude": 76.0489221, "maps_url": "https://www.google.com/maps/place/?q=place_id:0x396317a49f3919dd:0x71cc474768e7fa4b"}, {"place_id": "0x39632f73839dc7f9:0x4d9b01eff3cfa23f", "name": "Mp Online", "category": "Computer support and services", "street": "MG Rd", "city": "near Kalisinfh Reaver", "phone": "07225859112", "website": "", "rating": "", "review_count": "", "latitude": 22.9748329, "longitude": 76.33962559999999, "maps_url": "https://www.google.com/maps/place/?q=place_id:0x39632f73839dc7f9:0x4d9b01eff3cfa23f"}, {"place_id": "0x3963178617e9f813:0x28416f9515be3caf", "name": "Service Chuno", "category": "Marketing agency", "street": "38/1", "city": "38/1", "phone": "06267605079", "website": "", "rating": 4.2, "review_count": "", "latitude": 22.9692358, "longitude": 76.0391796, "maps_url": "https://www.google.com/maps/place/?q=place_id:0x3963178617e9f813:0x28416f9515be3caf"}, {"place_id": "0x39633f8fe62504cd:0x26761fd00a2e2ac7", "name": "Jai Shree Mahankal Online", "category": "Computer support and services", "street": "Hatai Chok", "city": "Choudhary Colony", "phone": "09685410592", "website": "", "rating": "", "review_count": "", "latitude": 23.0647532, "longitude": 76.1770205, "maps_url": "https://www.google.com/maps/place/?q=place_id:0x39633f8fe62504cd:0x26761fd00a2e2ac7"}, {"place_id": "0x3963178c45180d57:0x12d4efa96fae4e31", "name": "My Digital Hub | Digital Marketing Agency Dewas", "category": "Internet marketing service", "street": "3rd floor", "city": "11, AB Rd", "phone": "07440461569", "website": "", "rating": 4, "review_count": "", "latitude": 22.9599199, "longitude": 76.0435969, "maps_url": "https://www.google.com/maps/place/?q=place_id:0x3963178c45180d57:0x12d4efa96fae4e31"}]}