[{"place_id": "ChIJA6KtL5kCDTkR7wFe_OSD2bE", "name": "Omniscient IT Solutions Pvt. Ltd", "street": "4, 28, Saraswati Marg, Block 15A, WEA, Karol Bagh, New Delhi, Delhi, 110005, India", "phone": "+91 98110 27310", "rating": "4.6", "review_count": "", "website": "https://www.omniscientitsolutions.com/", "latitude": 28.646959, "longitude": 77.1882229, "maps_url": "https://www.google.com/maps/search/?api=1&query=Omniscient%20IT%20Solutions%20Pvt.%20Ltd&query_place_id=ChIJA6KtL5kCDTkR7wFe_OSD2bE"}, {"place_id": "ChIJFeXlTZkCDTkRNw2aQAO8CNk", "name": "Himalayan IT Solutions | Best Website Designing Company in Delhi | SEO/Digital Marketing Company in Delhi NCR, India", "street": "61/4255, Padam Singh Rd, Block 29, Block 1, Regar Pura, Karol Bagh, Delhi, 110005, India", "phone": "+91 98990 98509", "rating": "3.9", "review_count": "", "website": "http://www.himalayanitsolutions.com/", "latitude": 28.649673999999997, "longitude": 77.186599, "maps_url": "https://www.google.com/maps/search/?api=1&query=Himalayan%20IT%20Solutions%20%7C%20Best%20Website%20Designing%20Company%20in%20Delhi%20%7C%20SEO/Digital%20Marketing%20Company%20in%20Delhi%20NCR%2C%20India&query_place_id=ChIJFeXlTZkCDTkRNw2aQAO8CNk"}, {"place_id": "ChIJPR796sD9DDkRLo5M9V9l1nA", "name": "Binarysoft Technologies (We bring IT)", "street": "1st Floor, 1626/33, Block 27F, Naiwala, Karol Bagh, Delhi, 110005, India", "phone": "+91 92054 71661", "rating": "5", "review_count": "", "website": "http://www.binarysoft.com/", "latitude": 28.647633, "longitude": 77.19496199999999, "maps_url": "https://www.google.com/maps/search/?api=1&query=Binarysoft%20Technologies%20%28We%20bring%20IT%29&query_place_id=ChIJPR796sD9DDkRLo5M9V9l1nA"}, {"place_id": "ChIJL4BtX1wdDTkRIiNTpELCuuM", "name": "Nobilitas Infotech Pvt. Ltd. - IT Solutions Company", "street": "Padma Tower II, 210, Rajendra Place, New Delhi, Delhi 110005, India", "phone": "+91 84483 84926", "rating": "5", "review_count": "", "website": "https://www.nobilitasinfotech.com/", "latitude": 28.6451836, "longitude": 77.1780375, "maps_url": "https://www.google.com/maps/search/?api=1&query=Nobilitas%20Infotech%20Pvt.%20Ltd.%20-%20IT%20Solutions%20Company&query_place_id=ChIJL4BtX1wdDTkRIiNTpELCuuM"}, {"place_id": "ChIJL955hJYCDTkREqQASrd_gPQ", "name": "Tick Softwares Ltd.", "street": "1207, Pragati Tower, 26, Prasad Nagar, Rajendra Place, New Delhi, Delhi, 110008, India", "phone": "+91 75330 16990", "rating": "4.5", "review_count": "", "website": "http://ticksoftwares.in/", "latitude": 28.645996, "longitude": 77.1773839, "maps_url": "https://www.google.com/maps/search/?api=1&query=Tick%20Softwares%20Ltd.&query_place_id=ChIJL955hJYCDTkREqQASrd_gPQ"}, {"place_id": "ChIJ____ewXiDDkRWkRWfPl6bfA", "name": "BNG Infotech Private Limited", "street": "509-511 Gagandeep Building, Rajendra Place, New Delhi, Delhi 110008, India", "phone": "+91 81006 41006", "rating": "4.4", "review_count": "", "website": "https://www.bng.co.in/", "latitude": 28.6439304, "longitude": 77.1772003, "maps_url": "https://www.google.com/maps/search/?api=1&query=BNG%20Infotech%20Private%20Limited&query_place_id=ChIJ____ewXiDDkRWkRWfPl6bfA"}, {"place_id": "ChIJVdkZih79DDkR_dClCtK2ZkU", "name": "SoftGiant Technologies - Custom Software Development & Best eCommmerce Development Company in Delhi, India", "street": "T-1871 D, 2/F, Ashok Nagar Uppar Ridge Road Jhandewalan, Karol Bagh, New Delhi, Delhi 110055, India", "phone": "+91 85958 85110", "rating": "5", "review_count": "", "website": "http://www.softgianttech.com/", "latitude": 28.647350699999997, "longitude": 77.2016845, "maps_url": "https://www.google.com/maps/search/?api=1&query=SoftGiant%20Technologies%20-%20Custom%20Software%20Development%20%26%20Best%20eCommmerce%20Development%20Company%20in%20Delhi%2C%20India&query_place_id=ChIJVdkZih79DDkR_dClCtK2ZkU"}, {"place_id": "ChIJtXMHQGj9DDkRRE43pKtyAYM", "name": "Dvayweb Consultancy Services Pvt. Ltd.", "street": "Rani Jhansi Rd, Block E 4, Jhandewalan Extension, Jhandewalan, New Delhi, Delhi 110055, India", "phone": "+91 98730 30060", "rating": "4.6", "review_count": "", "website": "https://dvayweb.com/", "latitude": 28.645454599999997, "longitude": 77.2042455, "maps_url": "https://www.google.com/maps/search/?api=1&query=Dvayweb%20Consultancy%20Services%20Pvt.%20Ltd.&query_place_id=ChIJtXMHQGj9DDkRRE43pKtyAYM"}, {"place_id": "ChIJ____75YCDTkRjLFp7iFxdWw", "name": "Saraswati Accountants Software Pvt. Ltd. |Tally Prime | Tally Cloud | Tally Renewal | Tally Customization & Training|", "street": "Tower-4, Vikrant, 807, 8th, Rajendra Place, New Delhi, Delhi 110008, India", "phone": "+91 11 4766 0000", "rating": "4.9", "review_count": "", "website": "http://www.saraswatiaccountants.com/", "latitude": 28.6458658, "longitude": 77.177678, "maps_url": "https://www.google.com/maps/search/?api=1&query=Saraswati%20Accountants%20Software%20Pvt.%20Ltd.%20%7CTally%20Prime%20%7C%20Tally%20Cloud%20%7C%20Tally%20Renewal%20%7C%20Tally%20Customization%20%26%20Training%7C&query_place_id=ChIJ____75YCDTkRjLFp7iFxdWw"}, {"place_id": "ChIJUX61TOUCDTkRPmeqyd2Pcps", "name": "IT Solutions & Services (ITSS)", "street": "T–2425 Street Number 21, Baljeet Nagar, West Patel Nagar, New Delhi, Delhi 110008, India", "phone": "+91 88004 19462", "rating": "4.7", "review_count": "", "website": "https://www.itssin.com/", "latitude": 28.6576111, "longitude": 77.160708, "maps_url": "https://www.google.com/maps/search/?api=1&query=IT%20Solutions%20%26%20Services%20%28ITSS%29&query_place_id=ChIJUX61TOUCDTkRPmeqyd2Pcps"}, {"place_id": "ChIJ6fogp5QCDTkRX_8pAuL_gew", "name": "it company", "street": "Block 31/25, Block 31, East Patel Nagar, Patel Nagar, New Delhi, Delhi, 110008, India", "phone": "+91 98189 02645", "rating": "", "review_count": "", "website": "", "latitude": 28.6477211, "longitude": 77.1727298, "maps_url": "https://www.google.com/maps/search/?api=1&query=it%20company&query_place_id=ChIJ6fogp5QCDTkRX_8pAuL_gew"}, {"place_id": "ChIJzRqnjpYCDTkRkI9ORTiyouY", "name": "Ascomp Technologies Pvt. Ltd.", "street": "1203, Padma Tower 1,, 5, Rajendra Place,, Prasad Nagar, Karol Bagh, New Delhi, Delhi 110005, India", "phone": "+91 11 4393 0000", "rating": "3.2", "review_count": "", "website": "http://www.ascomp.com/", "latitude": 28.6458937, "longitude": 77.1782388, "maps_url": "https://www.google.com/maps/search/?api=1&query=Ascomp%20Technologies%20Pvt.%20Ltd.&query_place_id=ChIJzRqnjpYCDTkRkI9ORTiyouY"}, {"place_id": "ChIJnSUGhMb9DDkR1RSiSe5bP8s", "name": "Scrrum Labs Private Limited", "street": "We-start co-working space, 2E/25, Jhandewalan Extension, Block E 2, Jhandewalan Extension, Karol Bagh, New Delhi, Delhi 110055, India", "phone": "+91 98999 29886", "rating": "4.7", "review_count": "", "website": "", "latitude": 28.6442767, "longitude": 77.2012045, "maps_url": "https://www.google.com/maps/search/?api=1&query=Scrrum%20Labs%20Private%20Limited&query_place_id=ChIJnSUGhMb9DDkR1RSiSe5bP8s"}, {"place_id": "ChIJmehuOv8DDTkRExCAn5zYVfM", "name": "Esafe Hi-Tech Solutions Pvt. Ltd.", "street": "4/52 , 3rd Floor, Shankar Road, Old Rajinder Nagar, New Delhi, Delhi 110060, India", "phone": "+91 88000 15155", "rating": "5", "review_count": "", "website": "https://esafesolutions.org/", "latitude": 28.6378399, "longitude": 77.1810955, "maps_url": "https://www.google.com/maps/search/?api=1&query=Esafe%20Hi-Tech%20Solutions%20Pvt.%20Ltd.&query_place_id=ChIJmehuOv8DDTkRExCAn5zYVfM"}, {"place_id": "ChIJVSDU85wCDTkR3TEe80XmjVY", "name": "AI Micro Mind®Technology", "street": "3rd Floor, 16/448, Block I, Building Number, Military Rd, Karol Bagh, New Delhi, Delhi, 110005, India", "phone": "+91 98183 53030", "rating": "4.8", "review_count": "", "website": "http://micromind.in/", "latitude": 28.656936299999998, "longitude": 77.1817737, "maps_url": "https://www.google.com/maps/search/?api=1&query=AI%20Micro%20Mind%C2%AETechnology&query_place_id=ChIJVSDU85wCDTkR3TEe80XmjVY"}, {"place_id": "ChIJFcSNihYDDTkRbgMQW7yRJA0", "name": "Global tech co.", "street": "SHOP NO-10942, 1, Gali No. 4, Karol Bagh West Extension Area, Block 5A, Sat Nagar, Karol Bagh, New Delhi, Delhi, 110005, India", "phone": "+91 88008 48513", "rating": "4.9", "review_count": "", "website": "https://globel-tech-co.grexa.site/", "latitude": 28.6486934, "longitude": 77.18451809999999, "maps_url": "https://www.google.com/maps/search/?api=1&query=Global%20tech%20co.&query_place_id=ChIJFcSNihYDDTkRbgMQW7yRJA0"}, {"place_id": "ChIJ63KKlqQCDTkRqPofyw9JaEA", "name": "Shavsi Global Services", "street": "2/59 Basment, Rajinder Nagar, Delhi, 110060, India", "phone": "+91 98738 23236", "rating": "4.7", "review_count": "", "website": "http://www.shavsiglobalservices.com/", "latitude": 28.6364731, "longitude": 77.1846157, "maps_url": "https://www.google.com/maps/search/?api=1&query=Shavsi%20Global%20Services&query_place_id=ChIJ63KKlqQCDTkRqPofyw9JaEA"}, {"place_id": "ChIJs-qd8zMDDTkRI8WvMoIh69Y", "name": "Digitally Bird | Best eCommerce Website Design and Development company in Delhi, India", "street": "Block 29, 61/4255, Padam Singh Rd, Block 29, Block 11, Regar Pura, Karol Bagh, Delhi, 110005, India", "phone": "+91 97175 00603", "rating": "5", "review_count": "", "website": "https://www.digitallybird.com/", "latitude": 28.6497952, "longitude": 77.1873057, "maps_url": "https://www.google.com/maps/search/?api=1&query=Digitally%20Bird%20%7C%20Best%20eCommerce%20Website%20Design%20and%20Development%20company%20in%20Delhi%2C%20India&query_place_id=ChIJs-qd8zMDDTkRI8WvMoIh69Y"}, {"place_id": "ChIJc80Hk_0DDTkRzeDGAgk6Ino", "name": "Web Cloud Technology", "street": "3A/74 W.E.A, Sat Nagar, Karol Bagh, New Delhi, Delhi 110005, India", "phone": "+91 88823 24811", "rating": "4.4", "review_count": "", "website": "https://webcloudtechnology.in/", "latitude": 28.6465632, "longitude": 77.1824149, "maps_url": "https://www.google.com/maps/search/?api=1&query=Web%20Cloud%20Technology&query_place_id=ChIJc80Hk_0DDTkRzeDGAgk6Ino"}, {"place_id": "ChIJSy2Jhp4CDTkR_0QSNabY9kM", "name": "Digital Marketing Agency, Software Development Company, SEO Services Company in Delhi", "street": "3rd Floor, 16/448, Block - I, Building Number, Military Rd, Karol Bagh, New Delhi, Delhi 110005, India", "phone": "+91 98183 53030", "rating": "5", "review_count": "", "website": "https://www.micromind.in/", "latitude": 28.655144999999997, "longitude": 77.18114899999999, "maps_url": "https://www.google.com/maps/search/?api=1&query=Digital%20Marketing%20Agency%2C%20Software%20Development%20Company%2C%20SEO%20Services%20Company%20in%20Delhi&query_place_id=ChIJSy2Jhp4CDTkR_0QSNabY9kM"}, {"place_id": "ChIJEeEztHD9DDkR-3Ga-fthgow", "name": "Mobile Skin Software", "street": "47, Rani Jhansi Rd, Motia Khan, Jhandewalan, New Delhi, Delhi 110055, India", "phone": "+91 95552 63344", "rating": "4.7", "review_count": "", "website": "http://mobileskinsoftware.com/", "latitude": 28.649371199999997, "longitude": 77.2056171, "maps_url": "https://www.google.com/maps/search/?api=1&query=Mobile%20Skin%20Software&query_place_id=ChIJEeEztHD9DDkR-3Ga-fthgow"}, {"place_id": "ChIJEZi4U8HjDDkRyul3V2h5ouc", "name": "IT Company", "street": "A-14, near iskcon temple, Block A, APB Garhi, Vasant Vihar, New Delhi, Delhi 110065, India", "phone": "", "rating": "3", "review_count": "", "website": "http://www.opuswiz.com/", "latitude": 28.557167, "longitude": 77.25424819999999, "maps_url": "https://www.google.com/maps/search/?api=1&query=IT%20Company&query_place_id=ChIJEZi4U8HjDDkRyul3V2h5ouc"}, {"place_id": "ChIJVVVl-ZUCDTkRFnU1G79sHbA", "name": "Peritus Exim Pvt Ltd", "street": "1206, 12th Floor, Vikram Tower, Rajendra Place, New Delhi, Delhi, 110060, India", "phone": "+91 11 4130 6047", "rating": "4.4", "review_count": "", "website": "http://www.peritusexim.com/", "latitude": 28.6430568, "longitude": 77.1783918, "maps_url": "https://www.google.com/maps/search/?api=1&query=Peritus%20Exim%20Pvt%20Ltd&query_place_id=ChIJVVVl-ZUCDTkRFnU1G79sHbA"}, {"place_id": "ChIJDyqA4pwCDTkR4LNbv90XL60", "name": "SELECTIVE GLOBAL SEARCH PRIVATE LIMITED", "street": "5TH FLOOR, Padma Tower 1, Unit 501-504, Prasad Nagar, Rajendra Place, New Delhi, Delhi, 110005, India", "phone": "+91 70425 99002", "rating": "4.7", "review_count": "", "website": "http://www.selectiveglobalsearch.com/", "latitude": 28.6458129, "longitude": 77.1782757, "maps_url": "https://www.google.com/maps/search/?api=1&query=SELECTIVE%20GLOBAL%20SEARCH%20PRIVATE%20LIMITED&query_place_id=ChIJDyqA4pwCDTkR4LNbv90XL60"}, {"place_id": "ChIJve_HJ2b9DDkRzJphaUssbtE", "name": "Manu Info Solutions", "street": "51, Rani Jhansi Rd, Motia Khan, Paharganj, New Delhi, Delhi 110055, India", "phone": "+91 87001 32566", "rating": "5", "review_count": "", "website": "http://www.manuinfosolutions.com/", "latitude": 28.6490059, "longitude": 77.2058175, "maps_url": "https://www.google.com/maps/search/?api=1&query=Manu%20Info%20Solutions&query_place_id=ChIJve_HJ2b9DDkRzJphaUssbtE"}, {"place_id": "ChIJUzCnx8kFDTkRzXhond83eM0", "name": "Bestal HR Pvt Ltd", "street": "Gopala Tower, 9J & 9G, opposite to NABARD Towers, Prasad Nagar, Rajendra Place, Delhi, 110008, India", "phone": "+91 99717 79076", "rating": "4.8", "review_count": "", "website": "https://bestalhr.com/", "latitude": 28.645955299999997, "longitude": 77.1774873, "maps_url": "https://www.google.com/maps/search/?api=1&query=Bestal%20HR%20Pvt%20Ltd&query_place_id=ChIJUzCnx8kFDTkRzXhond83eM0"}, {"place_id": "ChIJy-UhwpkCDTkRkwvSJRT5zF4", "name": "Ravindra-Freelance Website developer/designer in Delhi India", "street": "604, Gali Keth Wali, Sangath Rashan Bazar, Paharganj, New Delhi, Delhi 110005, India", "phone": "+91 82728 58141", "rating": "4.7", "review_count": "", "website": "https://netcreator.co.in/website-design-development.php", "latitude": 28.6474174, "longitude": 77.184084, "maps_url": "https://www.google.com/maps/search/?api=1&query=Ravindra-Freelance%20Website%20developer/designer%20in%20Delhi%20India&query_place_id=ChIJy-UhwpkCDTkRkwvSJRT5zF4"}, {"place_id": "ChIJ____XIT9DDkRTh0Zai1y3yg", "name": "Holy-Land Marketing", "street": "D, 154, Rajender Nagar, New Rajinder Nagar, New Delhi, Delhi 110060, India", "phone": "+91 11 4125 5444", "rating": "4.8", "review_count": "", "website": "https://www.holylandgroup.org/", "latitude": 28.637186099999997, "longitude": 77.1819719, "maps_url": "https://www.google.com/maps/search/?api=1&query=Holy-Land%20Marketing&query_place_id=ChIJ____XIT9DDkRTh0Zai1y3yg"}, {"place_id": "ChIJ51AtDZ0DDTkRF6QrEcB_6Ks", "name": "Renovision Automation Services Pvt.Ltd-karol bagh", "street": "16, 8, Arya Samaj Rd, Block 16, WEA, Karol Bagh, New Delhi, Delhi, 110005, India", "phone": "+91 93107 19624", "rating": "3.7", "review_count": "", "website": "http://www.raspl.com/", "latitude": 28.647336499999998, "longitude": 77.1937694, "maps_url": "https://www.google.com/maps/search/?api=1&query=Renovision%20Automation%20Services%20Pvt.Ltd-karol%20bagh&query_place_id=ChIJ51AtDZ0DDTkRF6QrEcB_6Ks"}, {"place_id": "ChIJ0Ql-EWL9DDkRWb24ujA3NdY", "name": "Web Design, Digital Marketing, Software & Mobile App Development.", "street": "", "phone": "", "rating": "3.7", "review_count": "", "website": "", "latitude": 28.692404999999997, "longitude": 77.090042, "maps_url": "https://www.google.com/maps/search/?api=1&query=Web%20Design%2C%20Digital%20Marketing%2C%20Software%20%26%20Mobile%20App%20Development.&query_place_id=ChIJ0Ql-EWL9DDkRWb24ujA3NdY"}, {"place_id": "ChIJV4blL5gCDTkRktgeIDWd3T8", "name": "Manning Consulting", "street": "", "phone": "+91 98112 22637", "rating": "4.8", "review_count": "", "website": "http://www.manningconsulting.in/", "latitude": 21.0680074, "longitude": 82.7525294, "maps_url": "https://www.google.com/maps/search/?api=1&query=Manning%20Consulting&query_place_id=ChIJV4blL5gCDTkRktgeIDWd3T8"}, {"place_id": "ChIJ_4BfnR8DDTkRFCoWp3KElfA", "name": "GREEN FUTURE PRIVATE LIMITED", "street": "507, 26, Rajendra Place, Delhi, 110008, India", "phone": "+91 98105 58695", "rating": "4.5", "review_count": "", "website": "http://www.greenfuturemill.com/", "latitude": 28.6458554, "longitude": 77.17758429999999, "maps_url": "https://www.google.com/maps/search/?api=1&query=GREEN%20FUTURE%20PRIVATE%20LIMITED&query_place_id=ChIJ_4BfnR8DDTkRFCoWp3KElfA"}, {"place_id": "ChIJ3165gUMCDTkRHl2xEz3JuJM", "name": "Beta Soft Technology", "street": "3933/18, Third Floor, Metro Station, near Kanhiya Nagar, opposite Metro Pillar 224, Kanhiya Nagar, Tri Nagar, Delhi, 110035, India", "phone": "+91 99991 83189", "rating": "4.4", "review_count": "", "website": "https://www.betasofttechnology.com/", "latitude": 28.678439299999997, "longitude": 77.1660351, "maps_url": "https://www.google.com/maps/search/?api=1&query=Beta%20Soft%20Technology&query_place_id=ChIJ3165gUMCDTkRHl2xEz3JuJM"}, {"place_id": "ChIJDSmBfV0EDTkR_UoO0pAlp5M", "name": "Supertech Equipments Pvt Ltd(CANON Premium Partner)", "street": "E-10 & E-6, LGF,DDA MARKET, New Rajinder Nagar, New Delhi, Delhi 110060, India", "phone": "+91 85959 52131", "rating": "4.8", "review_count": "", "website": "http://www.indiamart.com/supertechequipmentpvtltd/", "latitude": 28.6363362, "longitude": 77.17785289999999, "maps_url": "https://www.google.com/maps/search/?api=1&query=Supertech%20Equipments%20Pvt%20Ltd%28CANON%20Premium%20Partner%29&query_place_id=ChIJDSmBfV0EDTkR_UoO0pAlp5M"}, {"place_id": "ChIJl1XknesCDTkRCAvQm0XALHc", "name": "WebzPapa - SEO Company in Delhi I SEO Services Agency in Delhi", "street": "Gate no 6, Building - O, 4th Floor, South Patel Nagar Near Patel Nagar Metro Station, New Delhi, Delhi 110008, India", "phone": "+91 99539 93944", "rating": "4.7", "review_count": "", "website": "https://webzpapa.com/seo-company-delhi.html", "latitude": 28.6450192, "longitude": 77.1688623, "maps_url": "https://www.google.com/maps/search/?api=1&query=WebzPapa%20-%20SEO%20Company%20in%20Delhi%20I%20SEO%20Services%20Agency%20in%20Delhi&query_place_id=ChIJl1XknesCDTkRCAvQm0XALHc"}, {"place_id": "ChIJ4ShVir0CDTkR1ihrSFHdrsA", "name": "Borar & Company (CA Firm)", "street": "Aman Chamber, 202A, 47/22, New, Old Rajinder Nagar, Rajinder Nagar, New Delhi, Delhi 110060, India", "phone": "+91 11 4704 9931", "rating": "4.5", "review_count": "", "website": "", "latitude": 28.6424484, "longitude": 77.1788979, "maps_url": "https://www.google.com/maps/search/?api=1&query=Borar%20%26%20Company%20%28CA%20Firm%29&query_place_id=ChIJ4ShVir0CDTkR1ihrSFHdrsA"}, {"place_id": "ChIJAQAwfZYCDTkRrZHXwR51e2k", "name": "HBS SYSTEMS PRIVATE LIMITED", "street": "107-108, PADMA TOWER II 22, Rajendra Place, New Delhi, Delhi 110008, India", "phone": "+91 11 2576 7117", "rating": "3.5", "review_count": "", "website": "http://hbsindia.com/", "latitude": 28.6451836, "longitude": 77.1780375, "maps_url": "https://www.google.com/maps/search/?api=1&query=HBS%20SYSTEMS%20PRIVATE%20LIMITED&query_place_id=ChIJAQAwfZYCDTkRrZHXwR51e2k"}, {"place_id": "ChIJiwPCn1cDDTkRZReajY3KiX0", "name": "Appfinz Technologies", "street": "Nr Deep Chand Bandhu Hospital, B590 Ground Floor, Bunkar Colony, Phase 4, Ashok Vihar, New Delhi, Delhi 110052, India", "phone": "+91 83407 25097", "rating": "4.8", "review_count": "", "website": "https://www.appfinz.com/", "latitude": 28.682956299999997, "longitude": 77.17736959999999, "maps_url": "https://www.google.com/maps/search/?api=1&query=Appfinz%20Technologies&query_place_id=ChIJiwPCn1cDDTkRZReajY3KiX0"}, {"place_id": "ChIJE_4Tci0dyAYRsVXvsz3K03g", "name": "Asquare Consulting Group", "street": "2745, 2nd Floor, Gali Number 23, Beadonpura, Karol Bagh, Delhi, 110005, India", "phone": "+91 11 4654 2628", "rating": "4.8", "review_count": "", "website": "", "latitude": 28.6516213, "longitude": 77.1919178, "maps_url": "https://www.google.com/maps/search/?api=1&query=Asquare%20Consulting%20Group&query_place_id=ChIJE_4Tci0dyAYRsVXvsz3K03g"}, {"place_id": "ChIJf_GPBmf9DDkR-EyK3aivCjA", "name": "ScanBulk Business Solution", "street": "176, 1st floor, Cycle Market, Block E 4, Jhandewalan Extension, Jhandewalan, New Delhi, Delhi 110055, India", "phone": "+91 88793 81599", "rating": "5", "review_count": "", "website": "http://www.scanbulk.co.in//", "latitude": 28.6461734, "longitude": 77.2033424, "maps_url": "https://www.google.com/maps/search/?api=1&query=ScanBulk%20Business%20Solution&query_place_id=ChIJf_GPBmf9DDkR-EyK3aivCjA"}, {"place_id": "ChIJ4_QbqvQDDTkRUV17EnOsFkk", "name": "QSpiders Delhi", "street": "No. 8/3, Part, Fourth Floor, Western Extn Karol Bagh Colony, Rajender Nagar Ward, Zone, Karol Bagh, New Delhi, Delhi 110005, India", "phone": "+91 89519 38997", "rating": "4.7", "review_count": "", "website": "https://qspiders.com/", "latitude": 28.645386499999997, "longitude": 77.1922999, "maps_url": "https://www.google.com/maps/search/?api=1&query=QSpiders%20Delhi&query_place_id=ChIJ4_QbqvQDDTkRUV17EnOsFkk"}, {"place_id": "ChIJ__8vhTQCDTkRUWfmHwih9g0", "name": "Wingify", "street": "KLJ TOWER, North, Netaji Subhash Place, Pitampura, Delhi, 110034, India", "phone": "+91 11 4764 0497", "rating": "4.4", "review_count": "", "website": "https://wingify.com/", "latitude": 28.6911475, "longitude": 77.1509423, "maps_url": "https://www.google.com/maps/search/?api=1&query=Wingify&query_place_id=ChIJ__8vhTQCDTkRUWfmHwih9g0"}, {"place_id": "ChIJCZvSauwCDTkRNtRdydTbMv4", "name": "Healthwatch Telediagnostics Pvt. Ltd.", "street": "#26/1, CHC House, East Patel Nagar, New Delhi, Delhi 110008, India", "phone": "+91 99992 22554", "rating": "4.9", "review_count": "", "website": "https://www.chchealthwatch.com/", "latitude": 28.6448371, "longitude": 77.17479279999999, "maps_url": "https://www.google.com/maps/search/?api=1&query=Healthwatch%20Telediagnostics%20Pvt.%20Ltd.&query_place_id=ChIJCZvSauwCDTkRNtRdydTbMv4"}, {"place_id": "ChIJQU2gj2wDDTkRCtE4pycX5n0", "name": "MARS ACCESSORIES INDIA PRIVATE LIMITED", "street": "5/31, 3rd Floor, Saraswati Marg, Block 5, WEA, Karol Bagh, Delhi, 110005, India", "phone": "+91 87662 67369", "rating": "4.1", "review_count": "", "website": "https://muvit.in/", "latitude": 28.6477078, "longitude": 77.18925829999999, "maps_url": "https://www.google.com/maps/search/?api=1&query=MARS%20ACCESSORIES%20INDIA%20PRIVATE%20LIMITED&query_place_id=ChIJQU2gj2wDDTkRCtE4pycX5n0"}, {"place_id": "ChIJ____75YCDTkR6fojxbF2rCA", "name": "Easy Source HR Solutions Pvt. Ltd.", "street": "3C&D, Gopala Tower, Pusa Rd, Prasad Nagar, Rajendra Place, New Delhi, Delhi 110008, India", "phone": "", "rating": "3.7", "review_count": "", "website": "https://www.easysourceindia.com/", "latitude": 28.645730699999998, "longitude": 77.1773712, "maps_url": "https://www.google.com/maps/search/?api=1&query=Easy%20Source%20HR%20Solutions%20Pvt.%20Ltd.&query_place_id=ChIJ____75YCDTkR6fojxbF2rCA"}, {"place_id": "ChIJq6q2H5wCDTkRppYnUcFbRVo", "name": "Makpower Mobile Accessories Manufacturer Delhi", "street": "1st floor, 5/31, Block 5, WEA, Karol Bagh, New Delhi, Delhi, 110005, India", "phone": "+91 78279 76524", "rating": "4.6", "review_count": "", "website": "https://makpowerindia.com/", "latitude": 28.648004699999998, "longitude": 77.189694, "maps_url": "https://www.google.com/maps/search/?api=1&query=Makpower%20Mobile%20Accessories%20Manufacturer%20Delhi&query_place_id=ChIJq6q2H5wCDTkRppYnUcFbRVo"}, {"place_id": "ChIJXTn08c4DDTkRT9BnrXfAETU", "name": "Crocon", "street": "12A/39, 3rd Floor, Saraswati Marg, Block 4, WEA, Karol Bagh, New Delhi, Delhi, 110005, India", "phone": "+91 93153 81913", "rating": "5", "review_count": "", "website": "https://www.theindianhand.com/", "latitude": 28.6478666, "longitude": 77.1873458, "maps_url": "https://www.google.com/maps/search/?api=1&query=Crocon&query_place_id=ChIJXTn08c4DDTkRT9BnrXfAETU"}, {"place_id": "ChIJ2R1uyJUDDTkRxBkDXQkEius", "name": "HAE Digital Marketing Company", "street": "505, 5th Floor, Padma Tower II, Rajendra Place, New Delhi, Delhi 110005, India", "phone": "+91 92897 65898", "rating": "4.9", "review_count": "", "website": "https://www.haedigital.com/", "latitude": 28.6451836, "longitude": 77.1780375, "maps_url": "https://www.google.com/maps/search/?api=1&query=HAE%20Digital%20Marketing%20Company&query_place_id=ChIJ2R1uyJUDDTkRxBkDXQkEius"}, {"place_id": "ChIJOZd2wWIDDTkRMdyNCdCtCIQ", "name": "Groot Infotech", "street": "Padma Tower II, 502, Rajendra Place, New Delhi, Delhi 110005, India", "phone": "+91 85273 53508", "rating": "", "review_count": "", "website": "https://www.grootinfotech.com/", "latitude": 28.6451836, "longitude": 77.1780375, "maps_url": "https://www.google.com/maps/search/?api=1&query=Groot%20Infotech&query_place_id=ChIJOZd2wWIDDTkRMdyNCdCtCIQ"}, {"place_id": "ChIJE9NL9GD9DDkRaQa6HLygtd4", "name": "Vertex Fincorp Pvt Ltd", "street": "Number 3, Faiz Rd, Sewak Chember, Block 49A, Naiwala, Karol Bagh, New Delhi, Delhi, 110005, India", "phone": "", "rating": "4.8", "review_count": "", "website": "", "latitude": 28.648685399999998, "longitude": 77.19842109999999, "maps_url": "https://www.google.com/maps/search/?api=1&query=Vertex%20Fincorp%20Pvt%20Ltd&query_place_id=ChIJE9NL9GD9DDkRaQa6HLygtd4"}, {"place_id": "ChIJWwWxD-sCDTkRjTu134yah5c", "name": "infotech Solution", "street": "2, 15, Patel Rd, Block 2, East Patel Nagar, Patel Nagar, New Delhi, Delhi 110008, India", "phone": "+91 83779 66458", "rating": "2.6", "review_count": "", "website": "", "latitude": 28.6455329, "longitude": 77.1685655, "maps_url": "https://www.google.com/maps/search/?api=1&query=infotech%20Solution&query_place_id=ChIJWwWxD-sCDTkRjTu134yah5c"}, {"place_id": "ChIJcesdOTX9DDkRtlHcx4gT3ds", "name": "Jak Software Pvt Ltd", "street": "52 Janpath, New Delhi, Delhi 110001, India", "phone": "+91 78272 49056", "rating": "4.4", "review_count": "", "website": "http://www.jaksoftware.co.in/", "latitude": 28.627537999999998, "longitude": 77.21878989999999, "maps_url": "https://www.google.com/maps/search/?api=1&query=Jak%20Software%20Pvt%20Ltd&query_place_id=ChIJcesdOTX9DDkRtlHcx4gT3ds"}, {"place_id": "ChIJz_pOD4b9DDkRXClfFZyE_r0", "name": "SJ Security Systems Pvt Ltd", "street": "2705/24, Second Floor, Bank St, Karol Bagh, New Delhi, Delhi 110005, India", "phone": "+91 99100 57500", "rating": "5", "review_count": "", "website": "https://www.sjsecurity.com/", "latitude": 28.6514208, "longitude": 77.1926269, "maps_url": "https://www.google.com/maps/search/?api=1&query=SJ%20Security%20Systems%20Pvt%20Ltd&query_place_id=ChIJz_pOD4b9DDkRXClfFZyE_r0"}, {"place_id": "ChIJQ5K8ZuADDTkRe4l1tHsQXP4", "name": "Neha R Gupta & Co.", "street": "1108, 11th floor, Pragati Tower, Rajendra Place, New Delhi, Delhi 110008, India", "phone": "+91 85959 17721", "rating": "4.8", "review_count": "", "website": "", "latitude": 28.6457469, "longitude": 77.1776534, "maps_url": "https://www.google.com/maps/search/?api=1&query=Neha%20R%20Gupta%20%26%20Co.&query_place_id=ChIJQ5K8ZuADDTkRe4l1tHsQXP4"}, {"place_id": "ChIJVVkZANEFDTkREuPMUDxEtVc", "name": "Yogesher India", "street": "2nd Floor, 2E, 8, Jhandewalan Rd, Block E 1, Jhandewalan Extension, Karol Bagh, New Delhi, Delhi 110055, India", "phone": "+91 11 4102 0647", "rating": "3.5", "review_count": "", "website": "https://www.yogesher.com/", "latitude": 28.6449534, "longitude": 77.2012128, "maps_url": "https://www.google.com/maps/search/?api=1&query=Yogesher%20India&query_place_id=ChIJVVkZANEFDTkREuPMUDxEtVc"}, {"place_id": "ChIJQ_Ay-1cCDTkRh2gFa2VBF0Y", "name": "Adventure Gears - Office", "street": "7th Floor, Padma Tower II, 701-710, Rajendra Place, New Delhi, Delhi 110005, India", "phone": "+91 11 4987 9350", "rating": "4.5", "review_count": "", "website": "https://www.adventuregears.com/", "latitude": 28.6451836, "longitude": 77.1780376, "maps_url": "https://www.google.com/maps/search/?api=1&query=Adventure%20Gears%20-%20Office&query_place_id=ChIJQ_Ay-1cCDTkRh2gFa2VBF0Y"}, {"place_id": "ChIJ__-_ygYDDTkRxM3tDYC0pJ8", "name": "Weblink.In Pvt. Ltd.", "street": "Metro Station Kirti Nagar, 33 & 33A, Rama Rd, near Kirti Nagar, Karampura Industrial Area, Najafgarh Road Industrial Area, New Delhi, Delhi, 110015, India", "phone": "+91 11 4142 8131", "rating": "4.4", "review_count": "", "website": "https://www.weblink.in/", "latitude": 28.6601586, "longitude": 77.1515378, "maps_url": "https://www.google.com/maps/search/?api=1&query=Weblink.In%20Pvt.%20Ltd.&query_place_id=ChIJ__-_ygYDDTkRxM3tDYC0pJ8"}, {"place_id": "ChIJ5XAX8V39DDkR4gQP6Af1-9E", "name": "Adio Brand Solutions : Digital Marketing Agency", "street": "2-E, Block E 3, Jhandewalan Extension, Jhandewalan, New Delhi, Delhi 110055, India", "phone": "+91 98995 66665", "rating": "5", "review_count": "", "website": "https://www.adiobrandsolutions.com/", "latitude": 28.6453027, "longitude": 77.2027925, "maps_url": "https://www.google.com/maps/search/?api=1&query=Adio%20Brand%20Solutions%20%3A%20Digital%20Marketing%20Agency&query_place_id=ChIJ5XAX8V39DDkR4gQP6Af1-9E"}, {"place_id": "ChIJNzGy7LYDDTkRNXf56mjXolg", "name": "The Creation", "street": "4th Floor, 17, Pusa Rd, Block 8, WEA, Karol Bagh, New Delhi, Delhi, 110005, India", "phone": "+91 98184 05894", "rating": "4.5", "review_count": "", "website": "http://www.thecreation.in/", "latitude": 28.64474, "longitude": 77.191228, "maps_url": "https://www.google.com/maps/search/?api=1&query=The%20Creation&query_place_id=ChIJNzGy7LYDDTkRNXf56mjXolg"}, {"place_id": "ChIJ6wQV6c_jDDkRnCCfvuxyEqo", "name": "TalentPro India - Payroll, Compliance & Staffing service provider in Delhi", "street": "8th Floor, Padma Tower II, 803, 804, Rajendra Place, New Delhi, Delhi 110005, India", "phone": "+91 1800 103 5642", "rating": "4", "review_count": "", "website": "https://www.talentproindia.com/hr-services-delhi", "latitude": 28.6453678, "longitude": 77.17797949999999, "maps_url": "https://www.google.com/maps/search/?api=1&query=TalentPro%20India%20-%20Payroll%2C%20Compliance%20%26%20Staffing%20service%20provider%20in%20Delhi&query_place_id=ChIJ6wQV6c_jDDkRnCCfvuxyEqo"}, {"place_id": "ChIJp2QZy6PhDDkRo4MA8enlBaI", "name": "Highlex Technologies", "street": "1st Floor, Krishna Park, D-300, Connaught Place, New Delhi, Delhi 110001, India", "phone": "+91 85868 53031", "rating": "5", "review_count": "", "website": "https://highlex.in/", "latitude": 28.632742999999998, "longitude": 77.219597, "maps_url": "https://www.google.com/maps/search/?api=1&query=Highlex%20Technologies&query_place_id=ChIJp2QZy6PhDDkRo4MA8enlBaI"}, {"place_id": "ChIJ23F4xzb9DDkR6oiWoTSG1iY", "name": "NTT DATA Payment Services India", "street": "Second Floor, Daftar Coworks : 23, 1-E, near Videocon Tower, Jhandewalan Extension, New Delhi, Delhi 110055, India", "phone": "+91 22 6807 4100", "rating": "1.3", "review_count": "", "website": "http://in.nttdatapay.com/", "latitude": 28.645186, "longitude": 77.20287979999999, "maps_url": "https://www.google.com/maps/search/?api=1&query=NTT%20DATA%20Payment%20Services%20India&query_place_id=ChIJ23F4xzb9DDkR6oiWoTSG1iY"}, {"place_id": "ChIJ7zX5Sd0DDTkRX1edCdDGywg", "name": "Intelenet Technologies", "street": "Office no.16A/19, 2nd Floor Office No F, 5, Ajmal Khan Rd, Karol Bagh, New Delhi, Delhi 110005, India", "phone": "", "rating": "1.4", "review_count": "", "website": "", "latitude": 28.6449258, "longitude": 77.18827859999999, "maps_url": "https://www.google.com/maps/search/?api=1&query=Intelenet%20Technologies&query_place_id=ChIJ7zX5Sd0DDTkRX1edCdDGywg"}, {"place_id": "ChIJK6kJh4EDDTkRbCZ0HSHv31c", "name": "Onlincer", "street": "", "phone": "", "rating": "5", "review_count": "", "website": "http://www.directappoint.com/", "latitude": 9.374110199999999, "longitude": -74.9524576, "maps_url": "https://www.google.com/maps/search/?api=1&query=Onlincer&query_place_id=ChIJK6kJh4EDDTkRbCZ0HSHv31c"}, {"place_id": "ChIJOWiTFrwCDTkRZzZamyx0GeM", "name": "Redefine Marcom Pvt Ltd", "street": "584, near Saraswati Park, Pocket H, Rajender Nagar Part 1, New Rajinder Nagar, New Delhi, Delhi 110060, India", "phone": "+91 88000 99587", "rating": "4.3", "review_count": "", "website": "http://www.redefine.in/", "latitude": 28.63505, "longitude": 77.1793185, "maps_url": "https://www.google.com/maps/search/?api=1&query=Redefine%20Marcom%20Pvt%20Ltd&query_place_id=ChIJOWiTFrwCDTkRZzZamyx0GeM"}, {"place_id": "ChIJEUwFoFYDDTkR42Q8r_BNo3c", "name": "Eagle ace clothing company", "street": "E-16/1176, Tank Rd, near saluja gali gurudwara, Block Number 6, Bapa Nagar, Karol Bagh, New Delhi, Delhi, 110005, India", "phone": "+91 85889 47125", "rating": "5", "review_count": "", "website": "", "latitude": 28.652067199999998, "longitude": 77.182383, "maps_url": "https://www.google.com/maps/search/?api=1&query=Eagle%20ace%20clothing%20company&query_place_id=ChIJEUwFoFYDDTkR42Q8r_BNo3c"}, {"place_id": "ChIJj_ILDTsDDTkRHueVRwQtnVI", "name": "AJAH TECHNOLOGIES", "street": "12, 3, Saraswati Marg, Block 4, WEA, Karol Bagh, New Delhi, Delhi, 110005, India", "phone": "", "rating": "4.2", "review_count": "", "website": "", "latitude": 28.6479838, "longitude": 77.1887802, "maps_url": "https://www.google.com/maps/search/?api=1&query=AJAH%20TECHNOLOGIES&query_place_id=ChIJj_ILDTsDDTkRHueVRwQtnVI"}, {"place_id": "ChIJKxVFie8CDTkRgHo0tL5qAh8", "name": "Alpha kkc Logistics India Private Limited", "street": "Unit No - 402 & 403, 4th Floor, 12, Rajendra Place, New Delhi, Delhi 110008, India", "phone": "+91 11 4135 5555", "rating": "3.8", "review_count": "", "website": "http://www.alphakkclogistics.com/", "latitude": 28.644040999999998, "longitude": 77.17752639999999, "maps_url": "https://www.google.com/maps/search/?api=1&query=Alpha%20kkc%20Logistics%20India%20Private%20Limited&query_place_id=ChIJKxVFie8CDTkRgHo0tL5qAh8"}, {"place_id": "ChIJf0vgss3jDDkRXzr2g_p_rkM", "name": "GIBS (Global IT Business Solutions)", "street": "15A Basement, Golf Apartments, near Sujan Singh Park, Khan Market, Sujan Singh Park, New Delhi, Delhi 110003, India", "phone": "+91 98112 26600", "rating": "4.9", "review_count": "", "website": "https://gibsit.com/", "latitude": 28.5991413, "longitude": 77.2288398, "maps_url": "https://www.google.com/maps/search/?api=1&query=GIBS%20%28Global%20IT%20Business%20Solutions%29&query_place_id=ChIJf0vgss3jDDkRXzr2g_p_rkM"}, {"place_id": "ChIJ8zVfgpYCDTkRnfLUpHTR0DU", "name": "Focus Energy Ltd", "street": "3rd Floor, Gopala Tower, 25, West, Prasad Nagar, Rajendra Place, New Delhi, Delhi, 110008, India", "phone": "+91 11 4230 0400", "rating": "2.5", "review_count": "", "website": "http://www.focusenergy.co.in/", "latitude": 28.6458768, "longitude": 77.17738489999999, "maps_url": "https://www.google.com/maps/search/?api=1&query=Focus%20Energy%20Ltd&query_place_id=ChIJ8zVfgpYCDTkRnfLUpHTR0DU"}, {"place_id": "ChIJrT7OXBYDDTkRWEyLIpDrXDE", "name": "Web Techno Expert", "street": "4, 28, Saraswati Marg, Block 12, WEA, Karol Bagh, Delhi, 110005, India", "phone": "+91 98107 44660", "rating": "5", "review_count": "", "website": "https://www.webtechnoexperts.com/", "latitude": 28.649784999999998, "longitude": 77.18861989999999, "maps_url": "https://www.google.com/maps/search/?api=1&query=Web%20Techno%20Expert&query_place_id=ChIJrT7OXBYDDTkRWEyLIpDrXDE"}, {"place_id": "ChIJ____P2f9DDkRK3oP70sP8rA", "name": "KLB Instruments Co. Private Limited", "street": "1E, 17, Link Road, Block E 1, Jhandewalan Extension, Jhandewalan, New Delhi, Delhi 110055, India", "phone": "+91 11 4154 3333", "rating": "4.3", "review_count": "", "website": "https://klb.in/", "latitude": 28.645252, "longitude": 77.20116089999999, "maps_url": "https://www.google.com/maps/search/?api=1&query=KLB%20Instruments%20Co.%20Private%20Limited&query_place_id=ChIJ____P2f9DDkRK3oP70sP8rA"}, {"place_id": "ChIJ4z0gX-wDDTkR7apacHfwA3g", "name": "Taxfiniti:| Tax Audit | Accounting | Book Keeping | GST Return | GST Registration | Company Registration | CA Firm in Delhi", "street": "38/19, Govind Lal Sikka Marg, Block 38, East Patel Nagar, Patel Nagar, Delhi, New Delhi, Delhi 110008, India", "phone": "+91 87499 01234", "rating": "4.9", "review_count": "", "website": "https://taxfiniti.com/", "latitude": 28.6458633, "longitude": 77.1769272, "maps_url": "https://www.google.com/maps/search/?api=1&query=Taxfiniti%3A%7C%20Tax%20Audit%20%7C%20Accounting%20%7C%20Book%20Keeping%20%7C%20GST%20Return%20%7C%20GST%20Registration%20%7C%20Company%20Registration%20%7C%20CA%20Firm%20in%20Delhi&query_place_id=ChIJ4z0gX-wDDTkR7apacHfwA3g"}, {"place_id": "ChIJd-3rnjD9DDkRl57EhpQsBF8", "name": "Mega Grain Trading Company Private Limited", "street": "402, Rajendra Place, New Delhi, Delhi 110060, India", "phone": "+91 11 2571 9896", "rating": "5", "review_count": "", "website": "https://www.megagrain.com/", "latitude": 28.6439639, "longitude": 77.1783969, "maps_url": "https://www.google.com/maps/search/?api=1&query=Mega%20Grain%20Trading%20Company%20Private%20Limited&query_place_id=ChIJd-3rnjD9DDkRl57EhpQsBF8"}, {"place_id": "ChIJ57xZTpgCDTkRYjnFNtZRjs8", "name": "Multicolor Steel Pvt Ltd", "street": "White House, 1/18-20, Rani Jhansi Rd, Type 4, Block B, Aram Bagh, Jhandewalan, New Delhi, Delhi 110055, India", "phone": "+91 78273 13233", "rating": "4.2", "review_count": "", "website": "https://www.multicolorsteel.com/", "latitude": 28.6427418, "longitude": 77.20515069999999, "maps_url": "https://www.google.com/maps/search/?api=1&query=Multicolor%20Steel%20Pvt%20Ltd&query_place_id=ChIJ57xZTpgCDTkRYjnFNtZRjs8"}, {"place_id": "ChIJ1-nWQZ4CDTkR6IgbNef9w6Y", "name": "FURMATS", "street": "Pratap Chambers, 404, Gurudwara Rd, Block 25A, Naiwala, Karol Bagh, New Delhi, Delhi, 110005, India", "phone": "+91 11 3060 6000", "rating": "3.3", "review_count": "", "website": "https://furmats.com/", "latitude": 28.648244299999998, "longitude": 77.1928775, "maps_url": "https://www.google.com/maps/search/?api=1&query=FURMATS&query_place_id=ChIJ1-nWQZ4CDTkR6IgbNef9w6Y"}, {"place_id": "ChIJW6eh6m4DDTkR_X3yTQcdTPI", "name": "Magicine Pharma | Cancer Medicine Manufacturer in India | Cancer Medicine Supplier in India", "street": "Gagandeep Building, Office No.2 Ground Floor, Govind Lal Sikka Marg, Rajendra Place, New Delhi, Delhi 110060, India", "phone": "+91 93191 13130", "rating": "4.8", "review_count": "", "website": "http://magicinepharma.com/", "latitude": 28.642034, "longitude": 77.177189, "maps_url": "https://www.google.com/maps/search/?api=1&query=Magicine%20Pharma%20%7C%20Cancer%20Medicine%20Manufacturer%20in%20India%20%7C%20Cancer%20Medicine%20Supplier%20in%20India&query_place_id=ChIJW6eh6m4DDTkR_X3yTQcdTPI"}, {"place_id": "ChIJl1XknesCDTkRpvPuM7uyEKw", "name": "INDIA RETAIL COMPANY", "street": "Plot No. 3046 , South Patel Nagar, Delhi, 110008, India", "phone": "+91 95823 60856", "rating": "3", "review_count": "", "website": "", "latitude": 28.6463269, "longitude": 77.1685907, "maps_url": "https://www.google.com/maps/search/?api=1&query=INDIA%20RETAIL%20COMPANY&query_place_id=ChIJl1XknesCDTkRpvPuM7uyEKw"}, {"place_id": "ChIJ1TIGIgADDTkR0XpV08G3E20", "name": "Streetbite co.", "street": "Gol Chakkar, Bada Bazar Rd, Old Rajinder Nagar, Rajinder Nagar, Delhi, 110060, India", "phone": "", "rating": "4.6", "review_count": "", "website": "", "latitude": 28.638791599999998, "longitude": 77.18326669999999, "maps_url": "https://www.google.com/maps/search/?api=1&query=Streetbite%20co.&query_place_id=ChIJ1TIGIgADDTkR0XpV08G3E20"}, {"place_id": "ChIJOdImD7sCDTkR8Tqyoq5zC_I", "name": "Acezd Consultancy Services", "street": "229, First Floor DDA Site 1, New Rajinder Nagar, New Delhi, Delhi 110060, India", "phone": "+91 95999 69001", "rating": "2.6", "review_count": "", "website": "http://acezd.com/", "latitude": 28.639229999999998, "longitude": 77.175499, "maps_url": "https://www.google.com/maps/search/?api=1&query=Acezd%20Consultancy%20Services&query_place_id=ChIJOdImD7sCDTkR8Tqyoq5zC_I"}, {"place_id": "ChIJH7rpve0CDTkR4QPL4HPAQP8", "name": "AERO PACK", "street": "18/10, Block 18, West Patel Nagar, Patel Nagar, New Delhi, Delhi, 110008, India", "phone": "+91 11 4248 8086", "rating": "4.3", "review_count": "", "website": "http://www.aeropack.net.in/", "latitude": 28.6514648, "longitude": 77.1677315, "maps_url": "https://www.google.com/maps/search/?api=1&query=AERO%20PACK&query_place_id=ChIJH7rpve0CDTkR4QPL4HPAQP8"}, {"place_id": "ChIJoS3RAkUDDTkRPPEFyJTMbQs", "name": "SPG & Associates- Company Secretaries", "street": "10th Floor, Vikram Towers, 1001, Rajendra Place, New Delhi, Delhi 110060, India", "phone": "+91 99683 00649", "rating": "4.8", "review_count": "", "website": "http://www.spgindia.co.in/", "latitude": 28.6429525, "longitude": 77.1784464, "maps_url": "https://www.google.com/maps/search/?api=1&query=SPG%20%26%20Associates-%20Company%20Secretaries&query_place_id=ChIJoS3RAkUDDTkRPPEFyJTMbQs"}, {"place_id": "ChIJG1iHIuEDDTkRFU3NYUTvk_I", "name": "Deluxe Cargo Packers And Movers", "street": "Plot No 14, Block 7, Block 16A, WEA, Karol Bagh, New Delhi, Delhi, 110005, India", "phone": "+91 88600 08146", "rating": "5", "review_count": "", "website": "http://www.deluxecargopackers.com/", "latitude": 28.645162, "longitude": 77.1895055, "maps_url": "https://www.google.com/maps/search/?api=1&query=Deluxe%20Cargo%20Packers%20And%20Movers&query_place_id=ChIJG1iHIuEDDTkRFU3NYUTvk_I"}, {"place_id": "ChIJUfbkbYoDDTkRKuOH9qcBems", "name": "Trigunam Foods Pvt.Ltd.", "street": "4A/59, Shankar Rd, Old Rajinder Nagar, Rajinder Nagar, New Delhi, Delhi, 110060, India", "phone": "", "rating": "4.9", "review_count": "", "website": "", "latitude": 28.6374529, "longitude": 77.1822597, "maps_url": "https://www.google.com/maps/search/?api=1&query=Trigunam%20Foods%20Pvt.Ltd.&query_place_id=ChIJUfbkbYoDDTkRKuOH9qcBems"}, {"place_id": "ChIJg4plhJYCDTkRMx7xON02Q0U", "name": "PARK MEDICLAIM TPA PVT LTD", "street": "702, Vikrant Tower,Rajendra Place, Delhi, 110005, India", "phone": "+91 1800 11 5533", "rating": "3.4", "review_count": "", "website": "http://www.parkmediclaim.co.in/", "latitude": 28.6458616, "longitude": 77.1779907, "maps_url": "https://www.google.com/maps/search/?api=1&query=PARK%20MEDICLAIM%20TPA%20PVT%20LTD&query_place_id=ChIJg4plhJYCDTkRMx7xON02Q0U"}, {"place_id": "ChIJZ0CHYWf9DDkR_si6mR_okSw", "name": "Onkar International Private Limited", "street": "110055, 14 Extension, Block E 3, Jhandewalan Extension, Jhandewalan, New Delhi, Delhi 110055, India", "phone": "+91 11 4141 4040", "rating": "4.4", "review_count": "", "website": "http://www.onkarinternational.co/", "latitude": 28.6449952, "longitude": 77.20203769999999, "maps_url": "https://www.google.com/maps/search/?api=1&query=Onkar%20International%20Private%20Limited&query_place_id=ChIJZ0CHYWf9DDkR_si6mR_okSw"}, {"place_id": "ChIJhZZTFZQPDTkRO-IYWevEiH0", "name": "Namah India", "street": "3/9 Basement, Block 6, East Patel Nagar, Patel Nagar, New Delhi, Delhi 110008, India", "phone": "+91 98598 51030", "rating": "4.9", "review_count": "", "website": "http://www.namahindia.com/", "latitude": 28.6451623, "longitude": 77.1703477, "maps_url": "https://www.google.com/maps/search/?api=1&query=Namah%20India&query_place_id=ChIJhZZTFZQPDTkRO-IYWevEiH0"}, {"place_id": "ChIJwY2Lhr0CDTkRBvjLhvvWl_Q", "name": "SMC Real Estate Advisors Pvt. Ltd", "street": "3rd Floor, 11/5B, Pusa Rd, opposite Metro Pillar Number 132, Block 11, Old Rajinder Nagar, Rajinder Nagar, New Delhi, Delhi, 110005, India", "phone": "+91 81301 15544", "rating": "4.1", "review_count": "", "website": "https://www.smcrealty.com/", "latitude": 28.6426402, "longitude": 77.18167749999999, "maps_url": "https://www.google.com/maps/search/?api=1&query=SMC%20Real%20Estate%20Advisors%20Pvt.%20Ltd&query_place_id=ChIJwY2Lhr0CDTkRBvjLhvvWl_Q"}, {"place_id": "ChIJ28mlS2b9DDkROhaHyIlBq8g", "name": "Anmol Enterprises", "street": "B 11, Block E, Jhandewalan Extension, Jhandewalan, New Delhi, Delhi 110055, India", "phone": "+91 11 4011 5176", "rating": "4.7", "review_count": "", "website": "https://anmolent.in/", "latitude": 28.647574, "longitude": 77.2049011, "maps_url": "https://www.google.com/maps/search/?api=1&query=Anmol%20Enterprises&query_place_id=ChIJ28mlS2b9DDkROhaHyIlBq8g"}, {"place_id": "ChIJ1YTnVXYDDTkRi0A-3qe9tAA", "name": "Akbar Travels of India Pvt Ltd", "street": "J5VR+WGW, Akbar Online Booking Co Pvt Ltd 17, (1st Floor, 17, Pusa Rd, near Karol bagh, Block 8, WEA, Karol Bagh, New Delhi, Delhi 110005, India", "phone": "+91 11 6647 7000", "rating": "3.4", "review_count": "", "website": "https://www.akbartravels.com/", "latitude": 28.644702799999997, "longitude": 77.1913294, "maps_url": "https://www.google.com/maps/search/?api=1&query=Akbar%20Travels%20of%20India%20Pvt%20Ltd&query_place_id=ChIJ1YTnVXYDDTkRi0A-3qe9tAA"}, {"place_id": "ChIJh9C6W7YDDTkR9ApRxlpbgGo", "name": "Greymoons | Website Design Company in Delhi, India | Graphic Design", "street": "Block 29, Padam Singh Rd, Block 4, Regar Pura, Karol Bagh, New Delhi, Delhi, 110005, India", "phone": "+91 98218 81394", "rating": "5", "review_count": "", "website": "http://www.greymoons.com/", "latitude": 28.6491804, "longitude": 77.1880655, "maps_url": "https://www.google.com/maps/search/?api=1&query=Greymoons%20%7C%20Website%20Design%20Company%20in%20Delhi%2C%20India%20%7C%20Graphic%20Design&query_place_id=ChIJh9C6W7YDDTkR9ApRxlpbgGo"}, {"place_id": "ChIJJ1taMi0FDTkRtEyy1B5WnDU", "name": "Master Brains", "street": "303, Prabhat Kiran Building, 17, Rajendra Place, New Delhi, Delhi 110060, India", "phone": "+91 85958 67402", "rating": "4.9", "review_count": "", "website": "https://masterbrains.co.in/", "latitude": 28.6439639, "longitude": 77.1783969, "maps_url": "https://www.google.com/maps/search/?api=1&query=Master%20Brains&query_place_id=ChIJJ1taMi0FDTkRtEyy1B5WnDU"}, {"place_id": "ChIJX_uKY74CDTkRAO66aKZhl6g", "name": "Unicorn Denmart Ltd", "street": "3, MOR Land, LSC, DDA Market Rd, near J Block, R-Block, Pocket J, Rajender Nagar Part 2, New Rajinder Nagar, New Delhi, Delhi 110060, India", "phone": "+91 11 4555 1200", "rating": "4.9", "review_count": "", "website": "https://www.unicorndenmart.com/", "latitude": 28.637829999999997, "longitude": 77.1770293, "maps_url": "https://www.google.com/maps/search/?api=1&query=Unicorn%20Denmart%20Ltd&query_place_id=ChIJX_uKY74CDTkRAO66aKZhl6g"}, {"place_id": "ChIJHy_mJJwCDTkRjjWBA338368", "name": "Lahore Watch Co.", "street": "Shop No. 112, Shop No. 112 113 Ghaffar Market, Block, 113, Ghaffar Market, Block 23, Beadonpura, Karol Bagh, New Delhi, Delhi 110005, India", "phone": "+91 99996 68166", "rating": "4.8", "review_count": "", "website": "http://lahorewatchco.com/", "latitude": 28.649777999999998, "longitude": 77.191687, "maps_url": "https://www.google.com/maps/search/?api=1&query=Lahore%20Watch%20Co.&query_place_id=ChIJHy_mJJwCDTkRjjWBA338368"}, {"place_id": "ChIJcXKWhCcFDTkRNEVFKwsKsds", "name": "LSONIC INDUSTRIES PVT. LTD.", "street": "Rajendra Place, New Delhi, Delhi 110008, India", "phone": "", "rating": "4.2", "review_count": "", "website": "http://lsonicindustries.com/", "latitude": 28.6432944, "longitude": 77.1779949, "maps_url": "https://www.google.com/maps/search/?api=1&query=LSONIC%20INDUSTRIES%20PVT.%20LTD.&query_place_id=ChIJcXKWhCcFDTkRNEVFKwsKsds"}, {"place_id": "ChIJ9WQmtZ4CDTkR1WdeOxHFcno", "name": "Galaxy Appliances", "street": "5/2, opposite Suruchi restaurant, Block 5, WEA, Karol Bagh, Delhi, 110005, India", "phone": "+91 98100 08066", "rating": "4.7", "review_count": "", "website": "http://www.indiamart.com/galaxyappliances-Delhi", "latitude": 28.647277, "longitude": 77.188588, "maps_url": "https://www.google.com/maps/search/?api=1&query=Galaxy%20Appliances&query_place_id=ChIJ9WQmtZ4CDTkR1WdeOxHFcno"}, {"place_id": "ChIJM32GX2D9DDkRDTQwGBm5vus", "name": "Sethi Steel Fabricator Safe and Almirah co.", "street": "Shop No. T- 2313, Opp. Federal Bank , Near Hanuman Statue, Faiz Road, Karol Bagh, New Delhi, Delhi 110005, India", "phone": "+91 96501 41432", "rating": "4.4", "review_count": "", "website": "http://www.sethisteelfabricator.com/", "latitude": 28.646075399999997, "longitude": 77.1973336, "maps_url": "https://www.google.com/maps/search/?api=1&query=Sethi%20Steel%20Fabricator%20Safe%20and%20Almirah%20co.&query_place_id=ChIJM32GX2D9DDkRDTQwGBm5vus"}, {"place_id": "ChIJB1i5musDDTkRR201ZBYajGM", "name": "Global Business Connects", "street": "R546, Shankar Rd, R-Block, Pocket R, Rajender Nagar Part 2, Rajinder Nagar, New Delhi, Delhi 110060, India", "phone": "+91 11 4520 2020", "rating": "5", "review_count": "", "website": "https://ourglobalgroup.com/", "latitude": 28.639675399999998, "longitude": 77.1777403, "maps_url": "https://www.google.com/maps/search/?api=1&query=Global%20Business%20Connects&query_place_id=ChIJB1i5musDDTkRR201ZBYajGM"}, {"place_id": "ChIJcZZw2GP9DDkRo45qdQn9XRs", "name": "BHAMBRI SOLAR PRIVATE LIMITED", "street": "794, Joshi Rd, Block A, Karol Bagh, New Delhi, Delhi, 110005, India", "phone": "+91 11 2354 1114", "rating": "3.8", "review_count": "", "website": "http://www.kingsunsolarproducts.com/", "latitude": 28.650143999999997, "longitude": 77.198095, "maps_url": "https://www.google.com/maps/search/?api=1&query=BHAMBRI%20SOLAR%20PRIVATE%20LIMITED&query_place_id=ChIJcZZw2GP9DDkRo45qdQn9XRs"}, {"place_id": "ChIJw5pcGWD9DDkRdfwjhZ450iY", "name": "Pringle Homeware", "street": "5, Pusa Rd, Block 18 A, WEA, Karol Bagh, New Delhi, Delhi, 110005, India", "phone": "+91 1800 120 7010", "rating": "3.4", "review_count": "", "website": "http://www.pringle.in/", "latitude": 28.6452, "longitude": 77.194923, "maps_url": "https://www.google.com/maps/search/?api=1&query=Pringle%20Homeware&query_place_id=ChIJw5pcGWD9DDkRdfwjhZ450iY"}]