{"timestamp": 1773729538.504238, "keyword": "IT company", "location": "delhi", "cell_idx": 102, "results": [{"place_id": "0x390d19472c0ed765:0x3448f98cc74febf6", "name": "Vichara Technology", "category": "Software company", "street": "Infotech Center", "city": "Old Delhi Gurugram Rd", "phone": "08887631346", "website": "http://www.vichara.com/", "rating": 4.1, "review_count": "", "latitude": 28.5110438, "longitude": 77.07454489999999, "maps_url": "https://www.google.com/maps/place/?q=place_id:0x390d19472c0ed765:0x3448f98cc74febf6"}, {"place_id": "0x390d191100000001:0x424476192b3b5b5b", "name": "Binary Semantics Limited", "category": "Software company", "street": "PLot no", "city": "38", "phone": "08929156505", "website": "https://www.binarysemantics.com/", "rating": 3.7, "review_count": "", "latitude": 28.5018823, "longitude": 77.0701466, "maps_url": "https://www.google.com/maps/place/?q=place_id:0x390d191100000001:0x424476192b3b5b5b"}, {"place_id": "0x390d195b3d2c83ab:0x3dedc435b1e10e51", "name": "Gemini Solutions pvt ltd", "category": "Software company", "street": "Plot No. 119", "city": "Udyog Vihar, Phase I, Sector 20", "phone": "08800998042", "website": "https://geminisolutions.com/", "rating": 4.2, "review_count": "", "latitude": 28.5133342, "longitude": 77.08256279999999, "maps_url": "https://www.google.com/maps/place/?q=place_id:0x390d195b3d2c83ab:0x3dedc435b1e10e51"}, {"place_id": "0x390d184cde473ae9:0x5e9aa69790935890", "name": "AIRCOM International (A TEOCO Company)", "category": "Software company", "street": "Infotech Center", "city": "Old Delhi Gurugram Rd", "phone": "", "website": "https://www.teoco.com/", "rating": 4.5, "review_count": "", "latitude": 28.5107358, "longitude": 77.0751057, "maps_url": "https://www.google.com/maps/place/?q=place_id:0x390d184cde473ae9:0x5e9aa69790935890"}, {"place_id": "0x390d19ea441d6251:0xc1b1c732e58da0fd", "name": "KDataScience Solutions Private Limited", "category": "Software company", "street": "MyOffiz Co-Working Space", "city": "Plot No. 270", "phone": "09205066413", "website": "https://kdatascience.com/", "rating": 4.6, "review_count": "", "latitude": 28.5079948, "longitude": 77.07515099999999, "maps_url": "https://www.google.com/maps/place/?q=place_id:0x390d19ea441d6251:0xc1b1c732e58da0fd"}, {"place_id": "0x390d191100000001:0x83e113ab96f792a6", "name": "Aithent Technologies Private Limited", "category": "Software company", "street": "Plot 8 & 9", "city": "Electronic City, Udyog Vihar, Sector 18", "phone": "01244514600", "website": "", "rating": 4.3, "review_count": "", "latitude": 28.4992287, "longitude": 77.0683609, "maps_url": "https://www.google.com/maps/place/?q=place_id:0x390d191100000001:0x83e113ab96f792a6"}, {"place_id": "0x390d18895e47a5a9:0x498fa0445e22352", "name": "IGT Solutions Pvt Ltd", "category": "Corporate office", "street": "2nd Floor InfoTech Centre Old Delhi Gurgaon Road Sector 21 Milestone 14/2", "city": "Old Delhi Gurugram Rd", "phone": "01244587000", "website": "https://www.igtsolutions.com/", "rating": 3.9, "review_count": "", "latitude": 28.5106535, "longitude": 77.0752528, "maps_url": "https://www.google.com/maps/place/?q=place_id:0x390d18895e47a5a9:0x498fa0445e22352"}, {"place_id": "0x390d19174792f4db:0xcb5f589caa71b6e7", "name": "Knocial India Limited", "category": "Software company", "street": "60B", "city": "Udyog Vihar, Sector 22", "phone": "09354120847", "website": "https://www.knocialindia.com/", "rating": 4.7, "review_count": "", "latitude": 28.504239499999997, "longitude": 77.0651981, "maps_url": "https://www.google.com/maps/place/?q=place_id:0x390d19174792f4db:0xcb5f589caa71b6e7"}, {"place_id": "0x390d195e4483ae05:0xec67b2579bb38803", "name": "eXtendCode - Software Development Company", "category": "Software company", "street": "Plot 63, Second Floor, Udyog Vihar Phase -1,", "city": "Gurugram, Haryana 122016", "phone": "01244261219", "website": "http://www.extendcode.com/", "rating": 4.1, "review_count": "", "latitude": 28.514535199999997, "longitude": 77.0815075, "maps_url": "https://www.google.com/maps/place/?q=place_id:0x390d195e4483ae05:0xec67b2579bb38803"}, {"place_id": "0x390d19440bc59efb:0xda6549686148f7b4", "name": "PerfectionGeeks Technologies", "category": "Software company", "street": "Plot 378-379, Udyog Vihar Phase 4 Rd", "city": "near nokia building", "phone": "08920947884", "website": "http://www.perfectiongeeks.com/", "rating": 4.9, "review_count": "", "latitude": 28.5002221, "longitude": 77.0730516, "maps_url": "https://www.google.com/maps/place/?q=place_id:0x390d19440bc59efb:0xda6549686148f7b4"}, {"place_id": "0x390d195b13c7fb7b:0x2208f4c7da7b6a28", "name": "Binary Semantics Limited", "category": "Software company", "street": "3rd floor, Tower 11", "city": "Candor Techspace", "phone": "", "website": "https://www.binarysemantics.com/", "rating": 4.4, "review_count": "", "latitude": 28.510111199999997, "longitude": 77.0728006, "maps_url": "https://www.google.com/maps/place/?q=place_id:0x390d195b13c7fb7b:0x2208f4c7da7b6a28"}, {"place_id": "0x390d1956221df1e9:0xb53bfcaf2a093cd2", "name": "Nityo Infotech", "category": "Corporate office", "street": "1st floor, Infotech Center", "city": "Nityo Infotech Services Pvt. Ltd", "phone": "", "website": "http://www.nityo.com/", "rating": 4.4, "review_count": "", "latitude": 28.5106446, "longitude": 77.0749368, "maps_url": "https://www.google.com/maps/place/?q=place_id:0x390d1956221df1e9:0xb53bfcaf2a093cd2"}, {"place_id": "0x390d1966954592b7:0x9d806c595f0dd9ca", "name": "Bhavyansh Infotech", "category": "Software company", "street": "1st floor", "city": "Infotech Center", "phone": "09818114030", "website": "http://bhavyansh.net/", "rating": 3.6, "review_count": "", "latitude": 28.5107358, "longitude": 77.0751057, "maps_url": "https://www.google.com/maps/place/?q=place_id:0x390d1966954592b7:0x9d806c595f0dd9ca"}, {"place_id": "0x390cfd00fd453a1b:0x9b04afa48c2538ec", "name": "Inwoin Technologies Pvt. Ltd.", "category": "Software company", "street": "Building No. 309", "city": "310", "phone": "", "website": "http://www.inwoin.com/", "rating": 4.5, "review_count": "", "latitude": 28.4999559, "longitude": 77.07965879999999, "maps_url": "https://www.google.com/maps/place/?q=place_id:0x390cfd00fd453a1b:0x9b04afa48c2538ec"}, {"place_id": "0x390d194c2cdbf5ad:0x3b413d400419216", "name": "Japanese Standard Processing Pvt Ltd", "category": "Corporate office", "street": "891", "city": "Udyog Vihar Phase 1, Dundahera Village, Sector 20", "phone": "07303645618", "website": "", "rating": 4.6, "review_count": "", "latitude": 28.5117269, "longitude": 77.07540999999999, "maps_url": "https://www.google.com/maps/place/?q=place_id:0x390d194c2cdbf5ad:0x3b413d400419216"}, {"place_id": "0x390d19644adf98c5:0x22b06487a9b2c7b1", "name": "Ernst & Young LLP", "category": "Business management consultant", "street": "4th floor tower Tower B 3 Old Delhi - Palam Highway Sector 21 Unitech Infospace Complex", "city": "Gurugram, Haryana 122016", "phone": "01244575000", "website": "http://www.ey.com/", "rating": 4.2, "review_count": "", "latitude": 28.5091388, "longitude": 77.0717806, "maps_url": "https://www.google.com/maps/place/?q=place_id:0x390d19644adf98c5:0x22b06487a9b2c7b1"}, {"place_id": "0x390d196dd557600b:0x9d4d1908b3f87bc1", "name": "MetaDesign Solutions - AI , Gen AI & Software Development Company", "category": "Software company", "street": "Plot 28-29", "city": "Electronic City, Phase IV, Udyog Vihar, Sector 18", "phone": "07669913462", "website": "https://metadesignsolutions.com/", "rating": 3.9, "review_count": "", "latitude": 28.5005469, "longitude": 77.0717586, "maps_url": "https://www.google.com/maps/place/?q=place_id:0x390d196dd557600b:0x9d4d1908b3f87bc1"}, {"place_id": "0x390d1923af5d91ed:0xbe103b16161f5631", "name": "Condeco Software Private Limited", "category": "Software company", "street": "Tower C", "city": "4th floor building 10", "phone": "01244760150", "website": "http://www.condecosoftware.com/apac", "rating": 4.3, "review_count": "", "latitude": 28.4940696, "longitude": 77.0885457, "maps_url": "https://www.google.com/maps/place/?q=place_id:0x390d1923af5d91ed:0xbe103b16161f5631"}, {"place_id": "0x390d19647c815751:0xfd511a4cae47e80f", "name": "Admiral Solutions (EUI Ltd)", "category": "Corporate office", "street": "4th & 5th Floor, Building 6 B, Gurgaon Infospace IT ITES SEZ Candor Techspace", "city": "Dundahera Village, Sector 21", "phone": "01244302100", "website": "http://www.admiralsolutions.in/", "rating": 4.3, "review_count": "", "latitude": 28.5111055, "longitude": 77.0713007, "maps_url": "https://www.google.com/maps/place/?q=place_id:0x390d19647c815751:0xfd511a4cae47e80f"}, {"place_id": "0x390d19437cb628b3:0x12e71803eb09ac16", "name": "Clavax Technologies", "category": "Software company", "street": "727", "city": "Udyog Vihar, Phase 5", "phone": "+18444252829", "website": "http://www.clavax.com/", "rating": 4.1, "review_count": "", "latitude": 28.5052123, "longitude": 77.0850025, "maps_url": "https://www.google.com/maps/place/?q=place_id:0x390d19437cb628b3:0x12e71803eb09ac16"}, {"place_id": "0x390d1964fdda0243:0xea892a7f1201881", "name": "RBS Services India Pvt. Ltd", "category": "Corporate office", "street": "Building 1", "city": "Tower A, Unitech Infospace", "phone": "", "website": "", "rating": 4.5, "review_count": "", "latitude": 28.5091537, "longitude": 77.0706609, "maps_url": "https://www.google.com/maps/place/?q=place_id:0x390d1964fdda0243:0xea892a7f1201881"}, {"place_id": "0x390d19d53fed1853:0x489946d71f2cd136", "name": "Globiva Services Private Limited", "category": "BPO Company", "street": "5th", "city": "Infotech Center", "phone": "18003090109", "website": "https://www.globiva.com/", "rating": 3.8, "review_count": "", "latitude": 28.5107014, "longitude": 77.0753776, "maps_url": "https://www.google.com/maps/place/?q=place_id:0x390d19d53fed1853:0x489946d71f2cd136"}, {"place_id": "0x390d19f36f09bccb:0x922b9ed67b679fb8", "name": "Webdecorum | Best Web Development Company in India", "category": "Software company", "street": "7th Floor", "city": "108", "phone": "09599110321", "website": "https://www.webdecorum.com/", "rating": 4.9, "review_count": "", "latitude": 28.5161558, "longitude": 77.08289289999999, "maps_url": "https://www.google.com/maps/place/?q=place_id:0x390d19f36f09bccb:0x922b9ed67b679fb8"}, {"place_id": "0x390d1905cf9418ab:0x68c73ef2c55c6a92", "name": "Dixinfotech | Best Web Development Company in Gurgaon", "category": "Software company", "street": "Plot No. 96, 1st Floor", "city": "Udyog Vihar Phase 1, Sector 20", "phone": "09717106162", "website": "https://www.dixinfotech.com/website-designing-company-in-gurgaon", "rating": 5, "review_count": "", "latitude": 28.5169219, "longitude": 77.0803425, "maps_url": "https://www.google.com/maps/place/?q=place_id:0x390d1905cf9418ab:0x68c73ef2c55c6a92"}, {"place_id": "0x390d1960f718ce2d:0x312d6570489091ea", "name": "Infospace Limited", "category": "Business center", "street": "9 Towers", "city": "Dundahera Rd", "phone": "", "website": "http://www.unitechgroup.com/commercial-properties/gurgaon/infospace-sector-21.asp", "rating": 4.3, "review_count": "", "latitude": 28.5102899, "longitude": 77.07228599999999, "maps_url": "https://www.google.com/maps/place/?q=place_id:0x390d1960f718ce2d:0x312d6570489091ea"}, {"place_id": "0x390d19cea409bc97:0xc6e8a3b81530d83e", "name": "Bill Gosling India Private Ltd", "category": "BPO Company", "street": "430", "city": "Phase IV, Udyog Vihar, Sector 18", "phone": "01244229330", "website": "https://www.billgosling.com/", "rating": 4.2, "review_count": "", "latitude": 28.4994452, "longitude": 77.07619059999999, "maps_url": "https://www.google.com/maps/place/?q=place_id:0x390d19cea409bc97:0xc6e8a3b81530d83e"}, {"place_id": "0x390d1990db19986d:0x76f7bda3736fe4c4", "name": "Panchisoft", "category": "Software company", "street": "H-166, Street No. 2", "city": "I Block, H- Block, Dharam Colony, Palam Vihar Extension", "phone": "09810735390", "website": "https://www.panchisoft.com/", "rating": 5, "review_count": "", "latitude": 28.5014164, "longitude": 77.0380527, "maps_url": "https://www.google.com/maps/place/?q=place_id:0x390d1990db19986d:0x76f7bda3736fe4c4"}, {"place_id": "0x390d190c870c17bd:0x4409f3685fd1baf3", "name": "ALITSO INDIA IT CONSULTING PVT LTD", "category": "Computer Hardware Company", "street": "Plot No. 76 D", "city": "Phase IV, Sector 18", "phone": "09168491495", "website": "http://www.alitso.com/", "rating": 5, "review_count": "", "latitude": 28.4851782, "longitude": 77.0657025, "maps_url": "https://www.google.com/maps/place/?q=place_id:0x390d190c870c17bd:0x4409f3685fd1baf3"}, {"place_id": "0x390d192b25446fd9:0xfa30aac40a8f26ad", "name": "Digitem", "category": "Software company", "street": "7th Floor", "city": "STPI", "phone": "", "website": "http://www.digitem.tech/", "rating": 5, "review_count": "", "latitude": 28.5006655, "longitude": 77.06961919999999, "maps_url": "https://www.google.com/maps/place/?q=place_id:0x390d192b25446fd9:0xfa30aac40a8f26ad"}, {"place_id": "0x390d195c26bfa369:0x69bd8efd2e3a31fe", "name": "Radical Minds Technologies Pvt. Ltd.", "category": "BPO Company", "street": "368", "city": "Phase II, Udyog Vihar, Sector 20", "phone": "01244338366", "website": "http://www.radicalminds.in/", "rating": 4.2, "review_count": "", "latitude": 28.506335099999998, "longitude": 77.0877546, "maps_url": "https://www.google.com/maps/place/?q=place_id:0x390d195c26bfa369:0x69bd8efd2e3a31fe"}, {"place_id": "0x390ce458d0000001:0xf2123bd299ec4501", "name": "IT Company India", "category": "Software company", "street": "D56", "city": "D Block, Sector 10", "phone": "09999244854", "website": "https://www.itcompanyindia.in/", "rating": 4.7, "review_count": "", "latitude": 28.589917699999997, "longitude": 77.3351153, "maps_url": "https://www.google.com/maps/place/?q=place_id:0x390ce458d0000001:0xf2123bd299ec4501"}, {"place_id": "0x390d19ec527ca367:0xd2462fe853ceac25", "name": "Shree Computer And Cartridge Solution.Printer and Laptop ,Macbook Chip Level Repairing ,CCTV,Networking, Cartridge Refilling", "category": "Computer repair service", "street": "Shop No 11, 1st Floor,Hanuman Mandir", "city": "Market, Hanuman Chowk", "phone": "09911175006", "website": "", "rating": 5, "review_count": "", "latitude": 28.511962099999998, "longitude": 77.0745895, "maps_url": "https://www.google.com/maps/place/?q=place_id:0x390d19ec527ca367:0xd2462fe853ceac25"}, {"place_id": "0x390d191598f48ef3:0x70991b4ff870f05d", "name": "Shree Partners LLC", "category": "Software company", "street": "1, Tower A, Building, Cyber City", "city": "Corporate Edge Level", "phone": "01246728815", "website": "https://www.shreepartners.com/", "rating": 4.3, "review_count": "", "latitude": 28.4936018, "longitude": 77.088325, "maps_url": "https://www.google.com/maps/place/?q=place_id:0x390d191598f48ef3:0x70991b4ff870f05d"}, {"place_id": "0x390ce3c4c702c55b:0xeeaf4a4a4791ac82", "name": "Clairvolex IP Solutions Pvt. Ltd.", "category": "Corporate office", "street": "Level 2, Tower 6-B, Candor Techspace (SEZ", "city": "Sector 21", "phone": "01247174707", "website": "https://www.clairvolex.com/", "rating": 4, "review_count": "", "latitude": 28.5110866, "longitude": 77.0714201, "maps_url": "https://www.google.com/maps/place/?q=place_id:0x390ce3c4c702c55b:0xeeaf4a4a4791ac82"}, {"place_id": "0x390d1916929deec3:0xb9c982abb9723244", "name": "Quytech - Artificial Intelligence | Mobile App | Blockchain | AR/VR", "category": "Software company", "street": "Plot No, 657, Udyog Vihar Phase V Rd", "city": "Udyog Vihar 3, Udyog Vihar, Sector 19", "phone": "07042777014", "website": "https://www.quytech.com/?utm_source=GMB&utm_medium=Organic&utm_campaign=QuytechGMB", "rating": 4.3, "review_count": "", "latitude": 28.5015821, "longitude": 77.08342669999999, "maps_url": "https://www.google.com/maps/place/?q=place_id:0x390d1916929deec3:0xb9c982abb9723244"}, {"place_id": "0x390d192fc20b97e7:0x3048b25634f6d955", "name": "Nagarro", "category": "Software company", "street": "Plot 6B, Sub. Major Laxmi Chand Rd", "city": "Maruti Udyog, Sector 18", "phone": "", "website": "https://www.nagarro.com/en", "rating": 4.5, "review_count": "", "latitude": 28.491098599999997, "longitude": 77.0673492, "maps_url": "https://www.google.com/maps/place/?q=place_id:0x390d192fc20b97e7:0x3048b25634f6d955"}, {"place_id": "0x390d1960c2b8367f:0xd2d30e45ac71acea", "name": "Vorombetech Solutions - Top IT & Digitalization Service Company in Gurugram", "category": "Software company", "street": "249", "city": "Phase IV, Udyog Vihar, Sector 19", "phone": "", "website": "https://vorombetech.com/", "rating": 4.8, "review_count": "", "latitude": 28.4941475, "longitude": 77.0808448, "maps_url": "https://www.google.com/maps/place/?q=place_id:0x390d1960c2b8367f:0xd2d30e45ac71acea"}, {"place_id": "0x390d1946a4b0d01f:0xab23cbaa408b3b9c", "name": "Tagbin Services Pvt. Ltd. \u2013 Best AI & Experiential Tech Company in Gurgaon", "category": "Software company", "street": "3rd Floor, Wing A, Enkay Centre", "city": "Vaniya Kunj", "phone": "08178112682", "website": "https://tagbin.in/", "rating": 4.2, "review_count": "", "latitude": 28.4974691, "longitude": 77.08654609999999, "maps_url": "https://www.google.com/maps/place/?q=place_id:0x390d1946a4b0d01f:0xab23cbaa408b3b9c"}, {"place_id": "0x390ce3b5c2a11543:0xc4df0cd95534bf85", "name": "LimeTray", "category": "Software company", "street": "2nd Floor", "city": "815", "phone": "", "website": "https://limetray.com/", "rating": 3.6, "review_count": "", "latitude": 28.5015508, "longitude": 77.08626919999999, "maps_url": "https://www.google.com/maps/place/?q=place_id:0x390ce3b5c2a11543:0xc4df0cd95534bf85"}, {"place_id": "0x390d183a3846403b:0x8fd7c90645a11f72", "name": "Vashist IT Solutions Pvt Ltd", "category": "Software company", "street": "729", "city": "Islampur Village, Sector 38", "phone": "09718216517", "website": "https://vashist.tech/", "rating": 4.4, "review_count": "", "latitude": 28.4305924, "longitude": 77.0415957, "maps_url": "https://www.google.com/maps/place/?q=place_id:0x390d183a3846403b:0x8fd7c90645a11f72"}, {"place_id": "0x390d05befd73251b:0x5b1f0b14ae5f78dd", "name": "Trank Tec. | Web & Mobile App Developers : eCommerce Web Development Company in Delhi, India", "category": "Software company", "street": "Plot no. 112, 3rd Floor", "city": "Udyog Vihar Phase 1, Udyog Vihar, Sector 20", "phone": "09311397535", "website": "https://www.tranktechnologies.com/", "rating": 3.8, "review_count": "", "latitude": 28.514941399999998, "longitude": 77.0849483, "maps_url": "https://www.google.com/maps/place/?q=place_id:0x390d05befd73251b:0x5b1f0b14ae5f78dd"}, {"place_id": "0x390d1964597d6c65:0x343a47bf9e5b0081", "name": "Building 2 Candor Techspace", "category": "Corporate office", "street": "G35C+X6M", "city": "Sector 21", "phone": "", "website": "", "rating": 4.5, "review_count": "", "latitude": 28.5099588, "longitude": 77.0705342, "maps_url": "https://www.google.com/maps/place/?q=place_id:0x390d1964597d6c65:0x343a47bf9e5b0081"}, {"place_id": "0x390d0526d1ddb8f3:0xba62a1e906bc3dd2", "name": "The Trip Company", "category": "Travel agency", "street": "First Floor", "city": "Suncity Trade Tower", "phone": "09711992017", "website": "http://www.thetripcompany.com/", "rating": 4.9, "review_count": "", "latitude": 28.507853599999997, "longitude": 77.0710618, "maps_url": "https://www.google.com/maps/place/?q=place_id:0x390d0526d1ddb8f3:0xba62a1e906bc3dd2"}, {"place_id": "0x390d19f8a81c849d:0x7a1295f7d2d15336", "name": "Moody's Corporation", "category": "Association / Organization", "street": "Old Delhi Gurugram Rd", "city": "Dundahera, Dundahera Village, Sector 21", "phone": "", "website": "", "rating": 4.5, "review_count": "", "latitude": 28.5081211, "longitude": 77.0721643, "maps_url": "https://www.google.com/maps/place/?q=place_id:0x390d19f8a81c849d:0x7a1295f7d2d15336"}, {"place_id": "0x390d19428c7254bf:0x8fc225154a5744d3", "name": "Visioneraa Studios", "category": "Photography studio", "street": "BASEMENT, 417 - SP", "city": "Sector 21A", "phone": "09211228505", "website": "https://visioneraastudios.com/", "rating": 5, "review_count": "", "latitude": 28.5098168, "longitude": 77.0684263, "maps_url": "https://www.google.com/maps/place/?q=place_id:0x390d19428c7254bf:0x8fc225154a5744d3"}, {"place_id": "0x390d1961e1555555:0xbba99a86917642a6", "name": "Kadimi Tool Manufacturing Company (P) Ltd.", "category": "Manufacturer", "street": "118", "city": "Udyog Vihar Phase 1, Dundahera Village, Sector 20", "phone": "01242347205", "website": "https://www.kadimitool.com/", "rating": 4.1, "review_count": "", "latitude": 28.513565699999997, "longitude": 77.0826821, "maps_url": "https://www.google.com/maps/place/?q=place_id:0x390d1961e1555555:0xbba99a86917642a6"}, {"place_id": "0x390d19a6d0cd5b3f:0xfcb2ab3c1c513941", "name": "Avighnity Technologies | Digital Marketing, PPC, Social Media, Website Designing, SEO Agency in Gurgaon", "category": "Software company", "street": "Building 96, First Floor", "city": "Udyog Vihar Phase 1, Udyog Vihar, Sector 20", "phone": "08595364679", "website": "https://www.avighnity.com/", "rating": 4.3, "review_count": "", "latitude": 28.5116326, "longitude": 77.083787, "maps_url": "https://www.google.com/maps/place/?q=place_id:0x390d19a6d0cd5b3f:0xfcb2ab3c1c513941"}, {"place_id": "0x390d19f36f09bccb:0x922b9ed67b679fb8", "name": "Webdecorum | Best Web Development Company in India", "category": "Software company", "street": "7th Floor", "city": "108", "phone": "09599110321", "website": "https://www.webdecorum.com/", "rating": 4.9, "review_count": "", "latitude": 28.5161558, "longitude": 77.08289289999999, "maps_url": "https://www.google.com/maps/place/?q=place_id:0x390d19f36f09bccb:0x922b9ed67b679fb8"}, {"place_id": "0x390d1916929deec3:0xb9c982abb9723244", "name": "Quytech - Artificial Intelligence | Mobile App | Blockchain | AR/VR", "category": "Software company", "street": "Plot No, 657, Udyog Vihar Phase V Rd", "city": "Udyog Vihar 3, Udyog Vihar, Sector 19", "phone": "07042777014", "website": "https://www.quytech.com/?utm_source=GMB&utm_medium=Organic&utm_campaign=QuytechGMB", "rating": 4.3, "review_count": "", "latitude": 28.5015821, "longitude": 77.08342669999999, "maps_url": "https://www.google.com/maps/place/?q=place_id:0x390d1916929deec3:0xb9c982abb9723244"}, {"place_id": "0x390d19c738367b87:0xd1a083f3edbfcaf8", "name": "GetWork AI - Hiring & Recruitment | Gurgaon", "category": "Recruiter", "street": "2nd Floor, S Lal Tower", "city": "545", "phone": "08595351311", "website": "https://www.getwork.org/", "rating": 4.4, "review_count": "", "latitude": 28.5118717, "longitude": 77.0750874, "maps_url": "https://www.google.com/maps/place/?q=place_id:0x390d19c738367b87:0xd1a083f3edbfcaf8"}, {"place_id": "0x390d197b363f8881:0xa27f881df0cf885c", "name": "Robocraze", "category": "", "street": "623, Sector 22B Rd", "city": "Sector 22B, Sector 22A, Sector 22", "phone": "", "website": "http://robocraze.com/", "rating": 2.3, "review_count": "", "latitude": 28.510002399999998, "longitude": 77.0675321, "maps_url": "https://www.google.com/maps/place/?q=place_id:0x390d197b363f8881:0xa27f881df0cf885c"}, {"place_id": "0x390d190c870c17bd:0x4409f3685fd1baf3", "name": "ALITSO INDIA IT CONSULTING PVT LTD", "category": "Computer Hardware Company", "street": "Plot No. 76 D", "city": "Phase IV, Sector 18", "phone": "09168491495", "website": "http://www.alitso.com/", "rating": 5, "review_count": "", "latitude": 28.4851782, "longitude": 77.0657025, "maps_url": "https://www.google.com/maps/place/?q=place_id:0x390d190c870c17bd:0x4409f3685fd1baf3"}, {"place_id": "0x390d196f58ee53c3:0xd267076a01a7def0", "name": "Accenture Tower 7", "category": "Corporate office", "street": "G36C+GMX", "city": "Sector 21", "phone": "", "website": "", "rating": 4.6, "review_count": "", "latitude": 28.5113678, "longitude": 77.0717375, "maps_url": "https://www.google.com/maps/place/?q=place_id:0x390d196f58ee53c3:0xd267076a01a7def0"}, {"place_id": "0x8331fe4c345ee6cf:0xb82133b2aeeb11da", "name": "Ayushvani - Have you experienced complete healthcare yet?", "category": "Wellness program", "street": "", "city": "", "phone": "", "website": "https://ayushvani.in/", "rating": 5, "review_count": "", "latitude": 21.0680074, "longitude": 82.7525294, "maps_url": "https://www.google.com/maps/place/?q=place_id:0x8331fe4c345ee6cf:0xb82133b2aeeb11da"}, {"place_id": "0x390d195b82955c11:0x4ac608c95db239fa", "name": "Worxpertise (Edge Business Solutions Pvt. Ltd.)", "category": "Business to business service", "street": "4th Floor, WING-B", "city": "AIHP Tower", "phone": "", "website": "https://worxpertise.com/", "rating": 4.1, "review_count": "", "latitude": 28.497374899999997, "longitude": 77.0827276, "maps_url": "https://www.google.com/maps/place/?q=place_id:0x390d195b82955c11:0x4ac608c95db239fa"}, {"place_id": "0x390d1959e54e0cdb:0x7120a86a0b29095e", "name": "Gurgaon SEO Company", "category": "Website designer", "street": "First Floor Plot", "city": "270, Udyog Vihar II Rd", "phone": "", "website": "", "rating": 2, "review_count": "", "latitude": 28.5074082, "longitude": 77.08512379999999, "maps_url": "https://www.google.com/maps/place/?q=place_id:0x390d1959e54e0cdb:0x7120a86a0b29095e"}, {"place_id": "0x390d195c405a28cd:0x601d98b0e3748746", "name": "SupportMart Global Services Pvt Ltd", "category": "Computer service", "street": "29", "city": "Udyog Vihar Phase 1, Dundahera Village, Sector 20", "phone": "01244618200", "website": "", "rating": 3.7, "review_count": "", "latitude": 28.512702599999997, "longitude": 77.0800531, "maps_url": "https://www.google.com/maps/place/?q=place_id:0x390d195c405a28cd:0x601d98b0e3748746"}, {"place_id": "0x390d1960c2b8367f:0xd2d30e45ac71acea", "name": "Vorombetech Solutions - Top IT & Digitalization Service Company in Gurugram", "category": "Software company", "street": "249", "city": "Phase IV, Udyog Vihar, Sector 19", "phone": "", "website": "https://vorombetech.com/", "rating": 4.8, "review_count": "", "latitude": 28.4941475, "longitude": 77.0808448, "maps_url": "https://www.google.com/maps/place/?q=place_id:0x390d1960c2b8367f:0xd2d30e45ac71acea"}, {"place_id": "0x390d196dd557600b:0x9d4d1908b3f87bc1", "name": "MetaDesign Solutions - AI , Gen AI & Software Development Company", "category": "Software company", "street": "Plot 28-29", "city": "Electronic City, Phase IV, Udyog Vihar, Sector 18", "phone": "07669913462", "website": "https://metadesignsolutions.com/", "rating": 3.9, "review_count": "", "latitude": 28.5005469, "longitude": 77.0717586, "maps_url": "https://www.google.com/maps/place/?q=place_id:0x390d196dd557600b:0x9d4d1908b3f87bc1"}, {"place_id": "0x390d196458ed45cf:0xdf80767b95185a47", "name": "R1 RCM sector 21 GGN", "category": "Corporate office", "street": "Tower A Building", "city": "Candor Info Space", "phone": "01244879200", "website": "http://www.r1rcm.com/", "rating": 4.1, "review_count": "", "latitude": 28.5101628, "longitude": 77.0707752, "maps_url": "https://www.google.com/maps/place/?q=place_id:0x390d196458ed45cf:0xdf80767b95185a47"}, {"place_id": "0x390d1915fa5d766d:0x1d92c0eb013cd4f2", "name": "FIS Global Business Solutions India Pvt. Ltd.", "category": "Corporate office", "street": "402, I Park, Plot No. 15", "city": "Phase IV", "phone": "01243927500", "website": "https://www.fisglobal.com/", "rating": 4.1, "review_count": "", "latitude": 28.490092899999997, "longitude": 77.078841, "maps_url": "https://www.google.com/maps/place/?q=place_id:0x390d1915fa5d766d:0x1d92c0eb013cd4f2"}, {"place_id": "0x390d1964597d6c65:0x343a47bf9e5b0081", "name": "Building 2 Candor Techspace", "category": "Corporate office", "street": "G35C+X6M", "city": "Sector 21", "phone": "", "website": "", "rating": 4.5, "review_count": "", "latitude": 28.5099588, "longitude": 77.0705342, "maps_url": "https://www.google.com/maps/place/?q=place_id:0x390d1964597d6c65:0x343a47bf9e5b0081"}, {"place_id": "0x390d19638a6f64cb:0xfa2863bf9b053c96", "name": "Accenture Tower 9", "category": "Corporate office", "street": "sector 21 candor infospace", "city": "Haryana 122016", "phone": "", "website": "https://www.accenture.com/in-en/company", "rating": 4.6, "review_count": "", "latitude": 28.5120902, "longitude": 77.0716952, "maps_url": "https://www.google.com/maps/place/?q=place_id:0x390d19638a6f64cb:0xfa2863bf9b053c96"}, {"place_id": "0x390d196458ed45cf:0xdf80767b95185a47", "name": "R1 RCM sector 21 GGN", "category": "Corporate office", "street": "Tower A Building", "city": "Candor Info Space", "phone": "01244879200", "website": "http://www.r1rcm.com/", "rating": 4.1, "review_count": "", "latitude": 28.5101628, "longitude": 77.0707752, "maps_url": "https://www.google.com/maps/place/?q=place_id:0x390d196458ed45cf:0xdf80767b95185a47"}, {"place_id": "0x390d19c738367b87:0xd1a083f3edbfcaf8", "name": "GetWork AI - Hiring & Recruitment | Gurgaon", "category": "Recruiter", "street": "2nd Floor, S Lal Tower", "city": "545", "phone": "08595351311", "website": "https://www.getwork.org/", "rating": 4.4, "review_count": "", "latitude": 28.5118717, "longitude": 77.0750874, "maps_url": "https://www.google.com/maps/place/?q=place_id:0x390d19c738367b87:0xd1a083f3edbfcaf8"}, {"place_id": "0x390d19d844b40e27:0xec33be9c4c6ceab1", "name": "Celerity Consulting", "category": "Business management consultant", "street": "Ground Floor, Candor Tech Space Gate", "city": "PS-04, Tower 6B", "phone": "", "website": "https://www.celerity-consulting.com/", "rating": "", "review_count": "", "latitude": 28.509698099999998, "longitude": 77.0710615, "maps_url": "https://www.google.com/maps/place/?q=place_id:0x390d19d844b40e27:0xec33be9c4c6ceab1"}, {"place_id": "0x390d19345bcdc4f3:0x61d5221ed2c17f35", "name": "Cognizant", "category": "Software company", "street": "Tower C, SEZ Building, Building No 6, 5th & 6th Floor DLF C yber City Rd W Block", "city": "Near Shankar Chowk", "phone": "", "website": "http://www.cognizant.com/india", "rating": 4.1, "review_count": "", "latitude": 28.4964521, "longitude": 77.096576, "maps_url": "https://www.google.com/maps/place/?q=place_id:0x390d19345bcdc4f3:0x61d5221ed2c17f35"}, {"place_id": "0x390d195d0d8bbaeb:0x879480fbc713a400", "name": "MJS eSTORE", "category": "Software company", "street": "223-224", "city": "Udyog Vihar Phase 1, Udyog Vihar, Sector 20", "phone": "", "website": "", "rating": 4.1, "review_count": "", "latitude": 28.509130799999998, "longitude": 77.08123619999999, "maps_url": "https://www.google.com/maps/place/?q=place_id:0x390d195d0d8bbaeb:0x879480fbc713a400"}, {"place_id": "0x390d19a6d0cd5b3f:0xfcb2ab3c1c513941", "name": "Avighnity Technologies | Digital Marketing, PPC, Social Media, Website Designing, SEO Agency in Gurgaon", "category": "Software company", "street": "Building 96, First Floor", "city": "Udyog Vihar Phase 1, Udyog Vihar, Sector 20", "phone": "08595364679", "website": "https://www.avighnity.com/", "rating": 4.3, "review_count": "", "latitude": 28.5116326, "longitude": 77.083787, "maps_url": "https://www.google.com/maps/place/?q=place_id:0x390d19a6d0cd5b3f:0xfcb2ab3c1c513941"}, {"place_id": "0x390d19c4f81c373b:0x569790526001fe47", "name": "Pasenture Technologies - Web Development Company in Gurugram, Software Development Company in Gurgaon for CRM & Saas Software", "category": "Software company", "street": "2nd Floor", "city": "90, IDC", "phone": "09717197498", "website": "https://pasenture.in/", "rating": 4, "review_count": "", "latitude": 28.4716508, "longitude": 77.0509349, "maps_url": "https://www.google.com/maps/place/?q=place_id:0x390d19c4f81c373b:0x569790526001fe47"}, {"place_id": "0x390d192b051a2ac5:0xbaa1cad28a1d4fbf", "name": "Softude Infotech | Software Development Company", "category": "Software company", "street": "107, First Floor", "city": "Suncity Trade Tower", "phone": "09303800613", "website": "https://www.softude.com/", "rating": "", "review_count": "", "latitude": 28.507854, "longitude": 77.071062, "maps_url": "https://www.google.com/maps/place/?q=place_id:0x390d192b051a2ac5:0xbaa1cad28a1d4fbf"}, {"place_id": "0x390cfb4bf15a6733:0xaf50e6f3c5fb7641", "name": "Digitals Daddy: Web & App Development Company", "category": "Software company", "street": "Metro Gate No. 2", "city": "Nearest Sikandarpur", "phone": "09818286609", "website": "https://www.digitalsdaddy.com/", "rating": 4.9, "review_count": "", "latitude": 28.4847884, "longitude": 77.0922192, "maps_url": "https://www.google.com/maps/place/?q=place_id:0x390cfb4bf15a6733:0xaf50e6f3c5fb7641"}, {"place_id": "0x390d195b82955c11:0x4ac608c95db239fa", "name": "Worxpertise (Edge Business Solutions Pvt. Ltd.)", "category": "Business to business service", "street": "4th Floor, WING-B", "city": "AIHP Tower", "phone": "", "website": "https://worxpertise.com/", "rating": 4.1, "review_count": "", "latitude": 28.497374899999997, "longitude": 77.0827276, "maps_url": "https://www.google.com/maps/place/?q=place_id:0x390d195b82955c11:0x4ac608c95db239fa"}, {"place_id": "0x390d193c3a36fabd:0x8bd7aacd8793bdb7", "name": "Orange Business Services", "category": "Public relations firm", "street": "Infinity Tower 8, Tower B", "city": "DLF Cyber City, DLF Phase 2, Sector 25", "phone": "", "website": "http://www.orange-business.com/", "rating": 4.5, "review_count": "", "latitude": 28.495814199999998, "longitude": 77.0910088, "maps_url": "https://www.google.com/maps/place/?q=place_id:0x390d193c3a36fabd:0x8bd7aacd8793bdb7"}, {"place_id": "0x390d193feaaaaaab:0x7a36da7465a8aea3", "name": "SoftAge Information Technology Limited", "category": "Corporate office", "street": "204", "city": "Phase IV, Udyog Vihar, Sector 18", "phone": "09999886622", "website": "http://www.softage.net/", "rating": 4.3, "review_count": "", "latitude": 28.496942699999998, "longitude": 77.0796953, "maps_url": "https://www.google.com/maps/place/?q=place_id:0x390d193feaaaaaab:0x7a36da7465a8aea3"}, {"place_id": "0x390d1949d8cd4f33:0x39dfefc7550d8db5", "name": "Saxo Group India Private Limited", "category": "Investment bank", "street": "2nd, 3rd Floor, Tower 11", "city": "5th, 6th Floor, MLCP Tower 10, Candor TechSpace", "phone": "01244523000", "website": "https://www.home.saxo/contact-us", "rating": 4.4, "review_count": "", "latitude": 28.5098082, "longitude": 77.0726772, "maps_url": "https://www.google.com/maps/place/?q=place_id:0x390d1949d8cd4f33:0x39dfefc7550d8db5"}, {"place_id": "0x390d19646ffbf79f:0x43f99f150397ed08", "name": "Accenture", "category": "Business management consultant", "street": "A Building No.1, Tower-B, Tower, Unitech Infospace", "city": "Building No. 2", "phone": "01246164100", "website": "https://www.accenture.com/in-en/about/company-index?c=acn_glb_locationmarketiyext_14216810&n=otc_1224", "rating": 4.4, "review_count": "", "latitude": 28.517601199999998, "longitude": 77.07406259999999, "maps_url": "https://www.google.com/maps/place/?q=place_id:0x390d19646ffbf79f:0x43f99f150397ed08"}, {"place_id": "0x390d19ebd6d31471:0x1cb12b8ca56235f", "name": "Reactex Chem", "category": "Chemical Manufacturer", "street": "Ram Swaroop market", "city": "Dundahera Village, Sector 21", "phone": "", "website": "http://reactex.in/", "rating": 4.9, "review_count": "", "latitude": 28.512489199999997, "longitude": 77.0747865, "maps_url": "https://www.google.com/maps/place/?q=place_id:0x390d19ebd6d31471:0x1cb12b8ca56235f"}, {"place_id": "0x390d1964310d24e3:0x623761031fe6305e", "name": "Candor TechSpace, Sector 21, Gurugram", "category": "Corporate campus", "street": "", "city": "", "phone": "01204279168", "website": "https://www.brookfieldindiareit.in/candor-techspace-sector-21-gurugram", "rating": 4.3, "review_count": "", "latitude": 21.0680074, "longitude": 82.7525294, "maps_url": "https://www.google.com/maps/place/?q=place_id:0x390d1964310d24e3:0x623761031fe6305e"}, {"place_id": "0x390d197cc800b79d:0xf904b6f940d783e3", "name": "Gogoaleasy", "category": "Corporate office", "street": "Shalapur Khera, Building No.35", "city": "Street-3, Bijwashan, South West Delhi", "phone": "08377874787", "website": "", "rating": 4.7, "review_count": "", "latitude": 28.5129281, "longitude": 77.06724439999999, "maps_url": "https://www.google.com/maps/place/?q=place_id:0x390d197cc800b79d:0xf904b6f940d783e3"}, {"place_id": "0x390d195b82955c11:0x4ac608c95db239fa", "name": "Worxpertise (Edge Business Solutions Pvt. Ltd.)", "category": "Business to business service", "street": "4th Floor, WING-B", "city": "AIHP Tower", "phone": "", "website": "https://worxpertise.com/", "rating": 4.1, "review_count": "", "latitude": 28.497374899999997, "longitude": 77.0827276, "maps_url": "https://www.google.com/maps/place/?q=place_id:0x390d195b82955c11:0x4ac608c95db239fa"}, {"place_id": "0x390d193c3a36fabd:0x8bd7aacd8793bdb7", "name": "Orange Business Services", "category": "Public relations firm", "street": "Infinity Tower 8, Tower B", "city": "DLF Cyber City, DLF Phase 2, Sector 25", "phone": "", "website": "http://www.orange-business.com/", "rating": 4.5, "review_count": "", "latitude": 28.495814199999998, "longitude": 77.0910088, "maps_url": "https://www.google.com/maps/place/?q=place_id:0x390d193c3a36fabd:0x8bd7aacd8793bdb7"}, {"place_id": "0x390d193feaaaaaab:0x7a36da7465a8aea3", "name": "SoftAge Information Technology Limited", "category": "Corporate office", "street": "204", "city": "Phase IV, Udyog Vihar, Sector 18", "phone": "09999886622", "website": "http://www.softage.net/", "rating": 4.3, "review_count": "", "latitude": 28.496942699999998, "longitude": 77.0796953, "maps_url": "https://www.google.com/maps/place/?q=place_id:0x390d193feaaaaaab:0x7a36da7465a8aea3"}, {"place_id": "0x390d1949d8cd4f33:0x39dfefc7550d8db5", "name": "Saxo Group India Private Limited", "category": "Investment bank", "street": "2nd, 3rd Floor, Tower 11", "city": "5th, 6th Floor, MLCP Tower 10, Candor TechSpace", "phone": "01244523000", "website": "https://www.home.saxo/contact-us", "rating": 4.4, "review_count": "", "latitude": 28.5098082, "longitude": 77.0726772, "maps_url": "https://www.google.com/maps/place/?q=place_id:0x390d1949d8cd4f33:0x39dfefc7550d8db5"}, {"place_id": "0x390d19646ffbf79f:0x43f99f150397ed08", "name": "Accenture", "category": "Business management consultant", "street": "A Building No.1, Tower-B, Tower, Unitech Infospace", "city": "Building No. 2", "phone": "01246164100", "website": "https://www.accenture.com/in-en/about/company-index?c=acn_glb_locationmarketiyext_14216810&n=otc_1224", "rating": 4.4, "review_count": "", "latitude": 28.517601199999998, "longitude": 77.07406259999999, "maps_url": "https://www.google.com/maps/place/?q=place_id:0x390d19646ffbf79f:0x43f99f150397ed08"}, {"place_id": "0x390d19ebd6d31471:0x1cb12b8ca56235f", "name": "Reactex Chem", "category": "Chemical Manufacturer", "street": "Ram Swaroop market", "city": "Dundahera Village, Sector 21", "phone": "", "website": "http://reactex.in/", "rating": 4.9, "review_count": "", "latitude": 28.512489199999997, "longitude": 77.0747865, "maps_url": "https://www.google.com/maps/place/?q=place_id:0x390d19ebd6d31471:0x1cb12b8ca56235f"}, {"place_id": "0x390d21f8e936f80d:0x25889e2c279d61d6", "name": "Mantra IT Systems", "category": "Software company", "street": "BAANI \u201cThe Address\u201d", "city": "1 Golf Course Road,207, 2nd Floor", "phone": "01242570022", "website": "", "rating": 3.2, "review_count": "", "latitude": 28.421386199999997, "longitude": 77.1042435, "maps_url": "https://www.google.com/maps/place/?q=place_id:0x390d21f8e936f80d:0x25889e2c279d61d6"}, {"place_id": "0x390d1964310d24e3:0x623761031fe6305e", "name": "Candor TechSpace, Sector 21, Gurugram", "category": "Corporate campus", "street": "", "city": "", "phone": "01204279168", "website": "https://www.brookfieldindiareit.in/candor-techspace-sector-21-gurugram", "rating": 4.3, "review_count": "", "latitude": 21.0680074, "longitude": 82.7525294, "maps_url": "https://www.google.com/maps/place/?q=place_id:0x390d1964310d24e3:0x623761031fe6305e"}, {"place_id": "0x390d197cc800b79d:0xf904b6f940d783e3", "name": "Gogoaleasy", "category": "Corporate office", "street": "Shalapur Khera, Building No.35", "city": "Street-3, Bijwashan, South West Delhi", "phone": "08377874787", "website": "", "rating": 4.7, "review_count": "", "latitude": 28.5129281, "longitude": 77.06724439999999, "maps_url": "https://www.google.com/maps/place/?q=place_id:0x390d197cc800b79d:0xf904b6f940d783e3"}, {"place_id": "0x390d196ef0493d6b:0xaef80ac4c4873fae", "name": "QUARTH IT SOLUTIONS PVT. LTD.", "category": "Software company", "street": "M-18, Ground Floor", "city": "near Sani Mandir", "phone": "01244324094", "website": "", "rating": 4.5, "review_count": "", "latitude": 28.4698493, "longitude": 77.0442382, "maps_url": "https://www.google.com/maps/place/?q=place_id:0x390d196ef0493d6b:0xaef80ac4c4873fae"}, {"place_id": "0x390d1961e1555555:0xbba99a86917642a6", "name": "Kadimi Tool Manufacturing Company (P) Ltd.", "category": "Manufacturer", "street": "118", "city": "Udyog Vihar Phase 1, Dundahera Village, Sector 20", "phone": "01242347205", "website": "https://www.kadimitool.com/", "rating": 4.1, "review_count": "", "latitude": 28.513565699999997, "longitude": 77.0826821, "maps_url": "https://www.google.com/maps/place/?q=place_id:0x390d1961e1555555:0xbba99a86917642a6"}, {"place_id": "0x390d19d8ddff5f0b:0x20e68020472937d1", "name": "Balaji Freight Packers And Movers Gurgaon | Packers and Movers | Movers and Packers in Gurgaon", "category": "Packaging company", "street": "Plot No. 530,Satguru Farm Old Delhi road Near Maruti Gate No-2", "city": "Gurugram, Haryana 122016", "phone": "09813994843", "website": "https://balajifreightpackers.com/", "rating": 5, "review_count": "", "latitude": 28.5088048, "longitude": 77.0727677, "maps_url": "https://www.google.com/maps/place/?q=place_id:0x390d19d8ddff5f0b:0x20e68020472937d1"}, {"place_id": "0x390d1925fac84eb5:0x72d233a3230fe315", "name": "Urban Company Gurugram City Office", "category": "Home help", "street": "121", "city": "Udyog Vihar Phase 1, Udyog Vihar, Sector 20", "phone": "", "website": "http://urbancompany.com/", "rating": 3.3, "review_count": "", "latitude": 28.5122036, "longitude": 77.0816696, "maps_url": "https://www.google.com/maps/place/?q=place_id:0x390d1925fac84eb5:0x72d233a3230fe315"}, {"place_id": "0x390d1906b561eafd:0x895f1e5be2e0f882", "name": "OneMetric (formerly Growtomation) - A Revenue Enablement Company", "category": "Marketing agency", "street": "1st Floor", "city": "Nimai Tower", "phone": "", "website": "https://onemetric.io/", "rating": 4.5, "review_count": "", "latitude": 28.499856899999997, "longitude": 77.0760152, "maps_url": "https://www.google.com/maps/place/?q=place_id:0x390d1906b561eafd:0x895f1e5be2e0f882"}, {"place_id": "0x390d19482ec7af6b:0xce48ba6ad2474bf2", "name": "AVIZVA Solutions Pvt Ltd", "category": "Corporate office", "street": "16th Floor, Building No. 14 Tower D Building", "city": "DLF Cyber City, DLF Phase 3, Sector 25A", "phone": "01246542490", "website": "http://www.avizva.com/", "rating": 3.9, "review_count": "", "latitude": 28.496678799999998, "longitude": 77.0944262, "maps_url": "https://www.google.com/maps/place/?q=place_id:0x390d19482ec7af6b:0xce48ba6ad2474bf2"}, {"place_id": "0x390d19f48e8d6125:0xb650a846d2e4b04b", "name": "DO Communication | Best SEO Company Gurgaon", "category": "Website designer", "street": "Hartron Complex", "city": "B-8", "phone": "09999661915", "website": "https://www.docommunication.io/seo-company-gurgaon.php?&utm_source=gbp_grg&utm_medium=organic&utm_campaign=profile_click&utm_term=gbp_profile_click", "rating": 4.9, "review_count": "", "latitude": 28.500157299999998, "longitude": 77.0700324, "maps_url": "https://www.google.com/maps/place/?q=place_id:0x390d19f48e8d6125:0xb650a846d2e4b04b"}, {"place_id": "0x390d1b0010fc2321:0x12e9154c815cf007", "name": "Prashant Dwivedi IT company", "category": "Warehouse", "street": "G3P5+GVC", "city": "Nayak Pura, Bijwasan", "phone": "", "website": "", "rating": "", "review_count": "", "latitude": 28.536316, "longitude": 77.059649, "maps_url": "https://www.google.com/maps/place/?q=place_id:0x390d1b0010fc2321:0x12e9154c815cf007"}, {"place_id": "0x390d197b482e1a83:0xdf6434f8ca3c887d", "name": "Indus Trips - India Travel Tours", "category": "Tour agency", "street": "Suite 674 pocket b", "city": "Sector 22 Rd", "phone": "09810954649", "website": "https://industrips.com/", "rating": 4.9, "review_count": "", "latitude": 28.50971, "longitude": 77.0666356, "maps_url": "https://www.google.com/maps/place/?q=place_id:0x390d197b482e1a83:0xdf6434f8ca3c887d"}, {"place_id": "0x390cddaa1531b279:0x46372208767a5dca", "name": "Woxa Technologies (P) Ltd.", "category": "Computer support and services", "street": "Plot number 568", "city": "Phase V, Udyog Vihar, Sector 19", "phone": "09310164954", "website": "", "rating": 3.4, "review_count": "", "latitude": 28.4972729, "longitude": 77.085078, "maps_url": "https://www.google.com/maps/place/?q=place_id:0x390cddaa1531b279:0x46372208767a5dca"}, {"place_id": "0x210e2a7a0177e2b:0xe8478832384e2e5a", "name": "Iram Global IT Solution Pvt. Ltd. Gurgaon", "category": "Software company", "street": "Iram Global IT Solution Pvt. Ltd", "city": "E15", "phone": "09461861000", "website": "https://iramglobal.com/", "rating": 5, "review_count": "", "latitude": 28.5102886, "longitude": 77.0255128, "maps_url": "https://www.google.com/maps/place/?q=place_id:0x210e2a7a0177e2b:0xe8478832384e2e5a"}]}