{"timestamp": 1773729512.4055016, "keyword": "IT company", "location": "delhi", "cell_idx": 99, "results": [{"place_id": "0x8d1367491c694315:0xb6e1626c69d891d2", "name": "WebGridSolution - Software Development Digital Marketing Company", "category": "Software company", "street": "G-12/188", "city": "Talimabad, Sangam Vihar", "phone": "", "website": "https://webgridsolution.com/", "rating": 4.8, "review_count": "", "latitude": 28.506943099999997, "longitude": 77.2507213, "maps_url": "https://www.google.com/maps/place/?q=place_id:0x8d1367491c694315:0xb6e1626c69d891d2"}, {"place_id": "0x390ce11068dacbdd:0xac4070cb73f9c1b1", "name": "Reedham It solutions pvt ltd", "category": "Software company", "street": "1297B, H 16 Rd", "city": "Block G 1, Talimabad, Sangam Vihar", "phone": "01146012950", "website": "http://reedhamitsolution.com/", "rating": 5, "review_count": "", "latitude": 28.5017906, "longitude": 77.25404069999999, "maps_url": "https://www.google.com/maps/place/?q=place_id:0x390ce11068dacbdd:0xac4070cb73f9c1b1"}, {"place_id": "0x390ce1aa4d34fe37:0x451d1679345c6df6", "name": "Matrix Solution Group", "category": "Computer Hardware Company", "street": "G-2nd 18/11", "city": "near Tiranga Chowk Road", "phone": "09599014461", "website": "https://www.matrixsolutiongroup.com/", "rating": 4.6, "review_count": "", "latitude": 28.5005962, "longitude": 77.2478308, "maps_url": "https://www.google.com/maps/place/?q=place_id:0x390ce1aa4d34fe37:0x451d1679345c6df6"}, {"place_id": "0x390ce1597b5509e5:0xfd8209b937b44d3c", "name": "IT Solutions India Private Limited", "category": "Software company", "street": "D-88/5", "city": "Pocket D, Okhla Phase I, Okhla Industrial Estate", "phone": "09810017429", "website": "https://www.itsipl.com/", "rating": 4.2, "review_count": "", "latitude": 28.520146, "longitude": 77.280431, "maps_url": "https://www.google.com/maps/place/?q=place_id:0x390ce1597b5509e5:0xfd8209b937b44d3c"}, {"place_id": "0x390ce3656d0315e1:0xd5bfe1a2a2869d6f", "name": "InnoSewa", "category": "Software company", "street": "D-1/52B", "city": "Block D, Sangam Vihar", "phone": "07011307359", "website": "https://innosewa.com/", "rating": 5, "review_count": "", "latitude": 28.5082408, "longitude": 77.2443978, "maps_url": "https://www.google.com/maps/place/?q=place_id:0x390ce3656d0315e1:0xd5bfe1a2a2869d6f"}, {"place_id": "0x390ce458d0000001:0xf2123bd299ec4501", "name": "IT Company India", "category": "Software company", "street": "D56", "city": "D Block, Sector 10", "phone": "09999244854", "website": "https://www.itcompanyindia.in/", "rating": 4.7, "review_count": "", "latitude": 28.589917699999997, "longitude": 77.3351153, "maps_url": "https://www.google.com/maps/place/?q=place_id:0x390ce458d0000001:0xf2123bd299ec4501"}, {"place_id": "0x390ce3c153b89811:0xe7a279685777e9ca", "name": "IT Company", "category": "Automation company", "street": "A-14", "city": "near iskcon temple", "phone": "", "website": "http://www.opuswiz.com/", "rating": 3, "review_count": "", "latitude": 28.557167, "longitude": 77.25424819999999, "maps_url": "https://www.google.com/maps/place/?q=place_id:0x390ce3c153b89811:0xe7a279685777e9ca"}, {"place_id": "0x390ce185568b7a01:0x1dc38e608c16f9c3", "name": "LUXELOGIC DIGITAL ACCESS", "category": "Computer software store", "street": "103b", "city": "E-6", "phone": "", "website": "", "rating": 5, "review_count": "", "latitude": 28.504369999999998, "longitude": 77.2466946, "maps_url": "https://www.google.com/maps/place/?q=place_id:0x390ce185568b7a01:0x1dc38e608c16f9c3"}, {"place_id": "0x390ce1eb60121711:0xd2f6080d5723b934", "name": "TECKVINI SOLUTIONS PRIVATE LIMITED", "category": "Computer support and services", "street": "S/F", "city": "G-1-208, GALI NO-12", "phone": "08700488233", "website": "https://teckvini.com/", "rating": 5, "review_count": "", "latitude": 28.505258299999998, "longitude": 77.25356099999999, "maps_url": "https://www.google.com/maps/place/?q=place_id:0x390ce1eb60121711:0xd2f6080d5723b934"}, {"place_id": "0x390ce1a84c6a05c3:0x7e192e6d8b97061d", "name": "A-TECH INDIA", "category": "Business management consultant", "street": "B -539, Public Schools Rd", "city": "Block B, Devli, Sangam Vihar", "phone": "08527298902", "website": "http://atechindia.in/", "rating": 5, "review_count": "", "latitude": 28.5021427, "longitude": 77.2406735, "maps_url": "https://www.google.com/maps/place/?q=place_id:0x390ce1a84c6a05c3:0x7e192e6d8b97061d"}, {"place_id": "0x2af2d75c7bf84603:0x184d197137886fe2", "name": "AZYRON TECH", "category": "Software company", "street": "G-12/509", "city": "Block G, Talimabad, Sangam Vihar", "phone": "", "website": "https://www.azyrontech.in/", "rating": 5, "review_count": "", "latitude": 28.5044048, "longitude": 77.2550619, "maps_url": "https://www.google.com/maps/place/?q=place_id:0x2af2d75c7bf84603:0x184d197137886fe2"}, {"place_id": "0x390ce1a20e94f69d:0xf6c5af89da672917", "name": "Code IT Solutions", "category": "Software company", "street": "E45", "city": "Krishna Park Colony, Khanpur", "phone": "07992249312", "website": "http://codeitsolutionshub.com/", "rating": 4.9, "review_count": "", "latitude": 28.509770999999997, "longitude": 77.23377169999999, "maps_url": "https://www.google.com/maps/place/?q=place_id:0x390ce1a20e94f69d:0xf6c5af89da672917"}, {"place_id": "0x390ce176bf848c95:0x29a573bec67213df", "name": "Pc Detective", "category": "Computer service", "street": "H-16/1248", "city": "Block G 1, Talimabad, Sangam Vihar", "phone": "", "website": "", "rating": 4.4, "review_count": "", "latitude": 28.5028814, "longitude": 77.2550948, "maps_url": "https://www.google.com/maps/place/?q=place_id:0x390ce176bf848c95:0x29a573bec67213df"}, {"place_id": "0x390ce25767d65705:0x69370431f47bb375", "name": "Utech India Limited", "category": "Software company", "street": "2nd Floor", "city": "A-2", "phone": "01140562728", "website": "http://utechindia.com/", "rating": 4.8, "review_count": "", "latitude": 28.5281512, "longitude": 77.2742353, "maps_url": "https://www.google.com/maps/place/?q=place_id:0x390ce25767d65705:0x69370431f47bb375"}, {"place_id": "0x390ce1b0dc54cb8f:0x866834c1a8f0e380", "name": "Sudhanshu Mishra", "category": "Website designer", "street": "E/7 398a", "city": "Block E, Sangam Vihar", "phone": "09625030157", "website": "https://ureka.dev/", "rating": 5, "review_count": "", "latitude": 28.5040387, "longitude": 77.2470917, "maps_url": "https://www.google.com/maps/place/?q=place_id:0x390ce1b0dc54cb8f:0x866834c1a8f0e380"}, {"place_id": "0x390ce1ce534cb1e5:0x39fe77c42bc52616", "name": "ITeSolution- Odoo ERP , Mobile/Web Application Development Software Company in Noida, Delhi NCR India.", "category": "Software company", "street": "RZ60/9", "city": "T/F, Tughlakabad Extension, Tughlakabad", "phone": "09889294124", "website": "https://www.itesolution.co.in/", "rating": 4.9, "review_count": "", "latitude": 28.520523899999997, "longitude": 77.2570535, "maps_url": "https://www.google.com/maps/place/?q=place_id:0x390ce1ce534cb1e5:0x39fe77c42bc52616"}, {"place_id": "0x390ce10e2b288311:0xe17374abe15ac8e1", "name": "ABHi TECHNOLOGIES", "category": "Computer service", "street": "1st Floor", "city": "236", "phone": "09310165112", "website": "http://www.abhitechnologies.com/", "rating": 4, "review_count": "", "latitude": 28.5035697, "longitude": 77.25181789999999, "maps_url": "https://www.google.com/maps/place/?q=place_id:0x390ce10e2b288311:0xe17374abe15ac8e1"}, {"place_id": "0x390cfd309eebed77:0xf47bee595f075e26", "name": "Asfera Technologies Private Limited | Dialer Software Company", "category": "Software company", "street": "59/1", "city": "Saroj Tower, Office No:- 15", "phone": "09066677770", "website": "https://www.asfera.in/", "rating": 4.6, "review_count": "", "latitude": 28.540130599999998, "longitude": 77.2619868, "maps_url": "https://www.google.com/maps/place/?q=place_id:0x390cfd309eebed77:0xf47bee595f075e26"}, {"place_id": "0x390ce7d088b49e53:0xbe91d554f6056f4a", "name": "ARVI IT SOLUTIONS", "category": "Software company", "street": "G-454/20, Tajpur Rd", "city": "near standford convent school", "phone": "09971148719", "website": "https://arviitsolutions.com/", "rating": 4.9, "review_count": "", "latitude": 28.4926846, "longitude": 77.3079108, "maps_url": "https://www.google.com/maps/place/?q=place_id:0x390ce7d088b49e53:0xbe91d554f6056f4a"}, {"place_id": "0x390ce18e402306b5:0x9dbfaada227164c4", "name": "Vijprat Tech Private Limited", "category": "Software company", "street": "Sangam Vihar", "city": "Block D, Hamdard Nagar", "phone": "08565013979", "website": "https://www.vijprat.com/", "rating": 4.8, "review_count": "", "latitude": 28.5153091, "longitude": 77.2498549, "maps_url": "https://www.google.com/maps/place/?q=place_id:0x390ce18e402306b5:0x9dbfaada227164c4"}, {"place_id": "0x390ce1fb44618b65:0x8e06b2a6128352d1", "name": "Acropolis Infotech - Delhi Office", "category": "Software company", "street": "metro station gate", "city": "55, 2nd Floor, Lane 2", "phone": "09999876593", "website": "https://www.acropolisinfotech.com/", "rating": 4.6, "review_count": "", "latitude": 28.518907, "longitude": 77.2015435, "maps_url": "https://www.google.com/maps/place/?q=place_id:0x390ce1fb44618b65:0x8e06b2a6128352d1"}, {"place_id": "0x390ce17b94309bbf:0x2a7be4bbd23e8470", "name": "Nexinfotech", "category": "Software company", "street": "Gali No. 5", "city": "Block J 1, Devli, Sangam Vihar", "phone": "09319089231", "website": "https://nexinfotech.com/", "rating": 5, "review_count": "", "latitude": 28.4901479, "longitude": 77.2463212, "maps_url": "https://www.google.com/maps/place/?q=place_id:0x390ce17b94309bbf:0x2a7be4bbd23e8470"}, {"place_id": "0x390ce6ef34283cef:0x52e1084d285eb54f", "name": "M/S. BAGHEL IT SOLUTIONS", "category": "Software company", "street": "E-30A/ 8", "city": "Hari Nagar Part II, Hari Nagar Extn, Hari Nagar, Badarpur", "phone": "09999931256", "website": "http://www.baghelitsolutions.com/", "rating": 4.9, "review_count": "", "latitude": 28.5081524, "longitude": 77.3155013, "maps_url": "https://www.google.com/maps/place/?q=place_id:0x390ce6ef34283cef:0x52e1084d285eb54f"}, {"place_id": "0x390ce30f4c4ed777:0x3a7c5e032ce51ce5", "name": "Appextech Software Solutions", "category": "Software company", "street": "Second Floor", "city": "Mohan Cooperative Industrial Estate", "phone": "09911432451", "website": "https://www.appextech.com/", "rating": 4.9, "review_count": "", "latitude": 28.502260099999997, "longitude": 77.28519, "maps_url": "https://www.google.com/maps/place/?q=place_id:0x390ce30f4c4ed777:0x3a7c5e032ce51ce5"}, {"place_id": "0x390ce146624d3325:0xdef50cdb9e3f79b2", "name": "Hybridd Eminence IT Solutions", "category": "Computer service", "street": "No .A-66", "city": "H", "phone": "07011675606", "website": "https://www.google.com/search?q=hybrid+eminence+it+solutions&oq=hy&aqs=chrome.0.69i59j69i61j69i57j0i273l2j46i199i291i433i512j0i433i512l2.1129j0j4&client=ms-android-xiaomi&sourceid=chrome-mobile&ie=UTF-8#lkt=overview&trex=m_t:lcl_akp,rc_f:nav,rc_ludocids:16065761383106443698,rc_q:Hybrid%2520Eminence%2520IT%2520Solutions,ru_q:Hybrid%2520Eminence%2520IT%2520Solutions,trex_id:BTlVsc", "rating": 4.9, "review_count": "", "latitude": 28.504536299999998, "longitude": 77.2357723, "maps_url": "https://www.google.com/maps/place/?q=place_id:0x390ce146624d3325:0xdef50cdb9e3f79b2"}, {"place_id": "0x390ce16618011ef1:0xfa88c0bdf388981a", "name": "ARVINDIA", "category": "Manufacturer", "street": "E6/120 & E6/121, Street no. 6", "city": "Sangam Vihar", "phone": "09871997049", "website": "https://arvindia.com/", "rating": 5, "review_count": "", "latitude": 28.504838699999997, "longitude": 77.2469438, "maps_url": "https://www.google.com/maps/place/?q=place_id:0x390ce16618011ef1:0xfa88c0bdf388981a"}, {"place_id": "0x390cfc3e042c896b:0x8849ba24bee722b6", "name": "Krishna Institute of Computer Science", "category": "Software company", "street": "C-274/2a, Gali No. 11", "city": "Block G, Block C, Bhajanpura, Sangam Vihar", "phone": "07532001837", "website": "", "rating": 4.7, "review_count": "", "latitude": 28.505580199999997, "longitude": 77.2535971, "maps_url": "https://www.google.com/maps/place/?q=place_id:0x390cfc3e042c896b:0x8849ba24bee722b6"}, {"place_id": "0x390ce5fdcc79e755:0x309ce99251b84ef6", "name": "Optyminds IT Solutions - Top AI and IT company I Best Digital agency in Noida | Delhi NCR | India", "category": "Software company", "street": "1st Floor", "city": "B-70", "phone": "08929075975", "website": "https://optyminds.com/", "rating": 4.9, "review_count": "", "latitude": 28.584679599999998, "longitude": 77.3135042, "maps_url": "https://www.google.com/maps/place/?q=place_id:0x390ce5fdcc79e755:0x309ce99251b84ef6"}, {"place_id": "0x390ce76a5afbb667:0xb82005056bfc325e", "name": "Sonic Tech Solutions (Tally Certified Partner)", "category": "Software company", "street": "2nd Floor", "city": "No 11A", "phone": "09953535497", "website": "http://www.sonictechsolutions.com/", "rating": 5, "review_count": "", "latitude": 28.5003758, "longitude": 77.2905988, "maps_url": "https://www.google.com/maps/place/?q=place_id:0x390ce76a5afbb667:0xb82005056bfc325e"}, {"place_id": "0x390ce1a874bd0589:0x33088458a49d4463", "name": "Giga Nett ( Giganext solutions pvt ltd)", "category": "Computer support and services", "street": "G-12/125(anita cable) sangam vihar new delhi 110062", "city": "New Delhi, Delhi 110080", "phone": "09911054879", "website": "https://giganett.in/", "rating": 4.3, "review_count": "", "latitude": 28.504891999999998, "longitude": 77.2571253, "maps_url": "https://www.google.com/maps/place/?q=place_id:0x390ce1a874bd0589:0x33088458a49d4463"}, {"place_id": "0x390ce10dccb16099:0x78acff13030e9ab4", "name": "Dot-Net Computer Education", "category": "Education center", "street": "D 5/1, Ratiya Marg", "city": "near Helth Point Hospital", "phone": "09711036633", "website": "", "rating": 4.3, "review_count": "", "latitude": 28.505928899999997, "longitude": 77.2492881, "maps_url": "https://www.google.com/maps/place/?q=place_id:0x390ce10dccb16099:0x78acff13030e9ab4"}, {"place_id": "0x390ce1656fbb7b65:0x7f0e4b2c21935a5c", "name": "Lynkit Solutions Pvt. Ltd.", "category": "Software company", "street": "246", "city": "Block A, Okhla Phase I, Okhla Industrial Estate", "phone": "01140824028", "website": "http://www.lynkit.in/", "rating": 4.3, "review_count": "", "latitude": 28.5254729, "longitude": 77.2754985, "maps_url": "https://www.google.com/maps/place/?q=place_id:0x390ce1656fbb7b65:0x7f0e4b2c21935a5c"}, {"place_id": "0x390ce7b62827897b:0xf9c64750fed6eeef", "name": "Connect Infosoft Technologies Pvt.Ltd-Mobile and Software Application Development Company", "category": "Software company", "street": "Plot No.598", "city": "near Community Center", "phone": "", "website": "https://www.connectinfosoft.com/", "rating": 4.6, "review_count": "", "latitude": 28.451022599999998, "longitude": 77.29805, "maps_url": "https://www.google.com/maps/place/?q=place_id:0x390ce7b62827897b:0xf9c64750fed6eeef"}, {"place_id": "0x390ce167a2fe2113:0x680ab5f778d97d4c", "name": "Digital Multi Solutions - Best CCTV Camera installation & Repair Service in Delhi", "category": "Security system installation service", "street": "F2, 873", "city": "A", "phone": "09599327317", "website": "https://digitalmultisolutions.com/", "rating": 5, "review_count": "", "latitude": 28.499465599999997, "longitude": 77.2420319, "maps_url": "https://www.google.com/maps/place/?q=place_id:0x390ce167a2fe2113:0x680ab5f778d97d4c"}, {"place_id": "0x390ce18d63d85c39:0xf541a7d4f517169d", "name": "iFuturePlus Skill Development & Training centre", "category": "Education center", "street": "H 17 Rd", "city": "18a, Sangam Vihar", "phone": "06376952881", "website": "", "rating": 4.9, "review_count": "", "latitude": 28.5007666, "longitude": 77.2492355, "maps_url": "https://www.google.com/maps/place/?q=place_id:0x390ce18d63d85c39:0xf541a7d4f517169d"}, {"place_id": "0x390ce137736852e9:0x7fe34ee47ed93a72", "name": "Pothera ERP Software for Manufacturing Company", "category": "Software company", "street": "Basement A-283, Near TATA Showroom Okhla Phase 1, New Delhi", "city": "Delhi, 110020", "phone": "", "website": "http://pothera.com/", "rating": 5, "review_count": "", "latitude": 28.525357099999997, "longitude": 77.27710809999999, "maps_url": "https://www.google.com/maps/place/?q=place_id:0x390ce137736852e9:0x7fe34ee47ed93a72"}, {"place_id": "0x390ce1ed9d6128f5:0x3544534325c20cc", "name": "S.K. Tech Solutions", "category": "Security system installation service", "street": "Flat No 302", "city": "E-6/71A1", "phone": "07291090688", "website": "", "rating": 4.9, "review_count": "", "latitude": 28.5048295, "longitude": 77.2482308, "maps_url": "https://www.google.com/maps/place/?q=place_id:0x390ce1ed9d6128f5:0x3544534325c20cc"}, {"place_id": "0x390ce65743459b7d:0x68b2d56bc0174f6c", "name": "Generous Technology - Tally Prime Sales , Services, Customization, Integration Tdl", "category": "Software company", "street": "B-194/2 -44", "city": "Jaitpur Extension Part II, Khadda Colony, Badarpur", "phone": "09873032133", "website": "http://www.generoustechnology.com/", "rating": 5, "review_count": "", "latitude": 28.507802299999998, "longitude": 77.3369402, "maps_url": "https://www.google.com/maps/place/?q=place_id:0x390ce65743459b7d:0x68b2d56bc0174f6c"}, {"place_id": "0x60d89f591b63775d:0x20ec06a1fac3b772", "name": "GrowBytes IT Solutions", "category": "Computer support and services", "street": "", "city": "", "phone": "", "website": "https://www.facebook.com/share/1RTS1mVKrQ/", "rating": 5, "review_count": "", "latitude": 28.6440837, "longitude": 77.0932314, "maps_url": "https://www.google.com/maps/place/?q=place_id:0x60d89f591b63775d:0x20ec06a1fac3b772"}, {"place_id": "0x390ce195574c683b:0x18728a0247643df3", "name": "Weboura", "category": "Marketing agency", "street": "G12", "city": "437A", "phone": "08587803114", "website": "", "rating": 5, "review_count": "", "latitude": 28.5041658, "longitude": 77.2556955, "maps_url": "https://www.google.com/maps/place/?q=place_id:0x390ce195574c683b:0x18728a0247643df3"}, {"place_id": "0x390ce1a874bd0589:0x33088458a49d4463", "name": "Giga Nett ( Giganext solutions pvt ltd)", "category": "Computer support and services", "street": "G-12/125(anita cable) sangam vihar new delhi 110062", "city": "New Delhi, Delhi 110080", "phone": "09911054879", "website": "https://giganett.in/", "rating": 4.3, "review_count": "", "latitude": 28.504891999999998, "longitude": 77.2571253, "maps_url": "https://www.google.com/maps/place/?q=place_id:0x390ce1a874bd0589:0x33088458a49d4463"}, {"place_id": "0x390ce10dccb16099:0x78acff13030e9ab4", "name": "Dot-Net Computer Education", "category": "Education center", "street": "D 5/1, Ratiya Marg", "city": "near Helth Point Hospital", "phone": "09711036633", "website": "", "rating": 4.3, "review_count": "", "latitude": 28.505928899999997, "longitude": 77.2492881, "maps_url": "https://www.google.com/maps/place/?q=place_id:0x390ce10dccb16099:0x78acff13030e9ab4"}, {"place_id": "0x390ce1656fbb7b65:0x7f0e4b2c21935a5c", "name": "Lynkit Solutions Pvt. Ltd.", "category": "Software company", "street": "246", "city": "Block A, Okhla Phase I, Okhla Industrial Estate", "phone": "01140824028", "website": "http://www.lynkit.in/", "rating": 4.3, "review_count": "", "latitude": 28.5254729, "longitude": 77.2754985, "maps_url": "https://www.google.com/maps/place/?q=place_id:0x390ce1656fbb7b65:0x7f0e4b2c21935a5c"}, {"place_id": "0x390ce319104d79c9:0x95d32e1350597245", "name": "Buddys Infotech - Best IT Services Provider | Hardware & Software | CCTV Installation service | Delhi NCR", "category": "Computer support and services", "street": "A-219", "city": "Block A, Kalkaji", "phone": "01135004363", "website": "", "rating": 4.7, "review_count": "", "latitude": 28.5436686, "longitude": 77.249749, "maps_url": "https://www.google.com/maps/place/?q=place_id:0x390ce319104d79c9:0x95d32e1350597245"}, {"place_id": "0x390ce7d1a34f5fc3:0xad54a304f940d3c4", "name": "Infotonics media", "category": "Software company", "street": "B1/A5", "city": "Block E, Mohan Cooperative Industrial Estate, Badarpur", "phone": "09810959001", "website": "https://www.infotonicsmedia.com/", "rating": 4.9, "review_count": "", "latitude": 28.5092856, "longitude": 77.29728779999999, "maps_url": "https://www.google.com/maps/place/?q=place_id:0x390ce7d1a34f5fc3:0xad54a304f940d3c4"}, {"place_id": "0x390ce162d8c2bc93:0x4183fb7a337d61cd", "name": "MAA IT", "category": "Computer support and services", "street": "H", "city": "2, Jalam Mohalla Rd", "phone": "09625457800", "website": "https://maa-it.grexa.site/", "rating": 4.7, "review_count": "", "latitude": 28.5119185, "longitude": 77.2656172, "maps_url": "https://www.google.com/maps/place/?q=place_id:0x390ce162d8c2bc93:0x4183fb7a337d61cd"}, {"place_id": "0x390ce7b62827897b:0xf9c64750fed6eeef", "name": "Connect Infosoft Technologies Pvt.Ltd-Mobile and Software Application Development Company", "category": "Software company", "street": "Plot No.598", "city": "near Community Center", "phone": "", "website": "https://www.connectinfosoft.com/", "rating": 4.6, "review_count": "", "latitude": 28.451022599999998, "longitude": 77.29805, "maps_url": "https://www.google.com/maps/place/?q=place_id:0x390ce7b62827897b:0xf9c64750fed6eeef"}, {"place_id": "0x390ce167a2fe2113:0x680ab5f778d97d4c", "name": "Digital Multi Solutions - Best CCTV Camera installation & Repair Service in Delhi", "category": "Security system installation service", "street": "F2, 873", "city": "A", "phone": "09599327317", "website": "https://digitalmultisolutions.com/", "rating": 5, "review_count": "", "latitude": 28.499465599999997, "longitude": 77.2420319, "maps_url": "https://www.google.com/maps/place/?q=place_id:0x390ce167a2fe2113:0x680ab5f778d97d4c"}, {"place_id": "0x390ce198ef877ab9:0x7a18a39d0d4b426", "name": "PRIYA TECHNOLOGY", "category": "Software company", "street": "45, Devli Rd", "city": "Khanpur Extension, Khanpur", "phone": "09718501851", "website": "", "rating": 4, "review_count": "", "latitude": 28.5133838, "longitude": 77.2337356, "maps_url": "https://www.google.com/maps/place/?q=place_id:0x390ce198ef877ab9:0x7a18a39d0d4b426"}, {"place_id": "0x390ce18d63d85c39:0xf541a7d4f517169d", "name": "iFuturePlus Skill Development & Training centre", "category": "Education center", "street": "H 17 Rd", "city": "18a, Sangam Vihar", "phone": "06376952881", "website": "", "rating": 4.9, "review_count": "", "latitude": 28.5007666, "longitude": 77.2492355, "maps_url": "https://www.google.com/maps/place/?q=place_id:0x390ce18d63d85c39:0xf541a7d4f517169d"}, {"place_id": "0x390ce137736852e9:0x7fe34ee47ed93a72", "name": "Pothera ERP Software for Manufacturing Company", "category": "Software company", "street": "Basement A-283, Near TATA Showroom Okhla Phase 1, New Delhi", "city": "Delhi, 110020", "phone": "", "website": "http://pothera.com/", "rating": 5, "review_count": "", "latitude": 28.525357099999997, "longitude": 77.27710809999999, "maps_url": "https://www.google.com/maps/place/?q=place_id:0x390ce137736852e9:0x7fe34ee47ed93a72"}, {"place_id": "0x390ce17b01e1a187:0x586fa6002747476d", "name": "OneTap AI Solutions", "category": "Software company", "street": "FIRST FLOOR", "city": "HOLI CHOWK", "phone": "07859935902", "website": "https://onetapaisolutions.com/", "rating": 5, "review_count": "", "latitude": 28.5011396, "longitude": 77.2343595, "maps_url": "https://www.google.com/maps/place/?q=place_id:0x390ce17b01e1a187:0x586fa6002747476d"}, {"place_id": "0x390ce1ed9d6128f5:0x3544534325c20cc", "name": "S.K. Tech Solutions", "category": "Security system installation service", "street": "Flat No 302", "city": "E-6/71A1", "phone": "07291090688", "website": "", "rating": 4.9, "review_count": "", "latitude": 28.5048295, "longitude": 77.2482308, "maps_url": "https://www.google.com/maps/place/?q=place_id:0x390ce1ed9d6128f5:0x3544534325c20cc"}, {"place_id": "0x390ce3df9a39b6a5:0x2350a5aee5e0bc7d", "name": "Sahaniya Technologies (OPC) Pvt. Ltd", "category": "Software company", "street": "2nd Floor", "city": "973/9", "phone": "09555489021", "website": "http://sahaniyatech.com/", "rating": 1, "review_count": "", "latitude": 28.535953499999998, "longitude": 77.2609849, "maps_url": "https://www.google.com/maps/place/?q=place_id:0x390ce3df9a39b6a5:0x2350a5aee5e0bc7d"}, {"place_id": "0x60d89f591b63775d:0x20ec06a1fac3b772", "name": "GrowBytes IT Solutions", "category": "Computer support and services", "street": "", "city": "", "phone": "", "website": "https://www.facebook.com/share/1RTS1mVKrQ/", "rating": 5, "review_count": "", "latitude": 28.6440837, "longitude": 77.0932314, "maps_url": "https://www.google.com/maps/place/?q=place_id:0x60d89f591b63775d:0x20ec06a1fac3b772"}, {"place_id": "0x390ce195574c683b:0x18728a0247643df3", "name": "Weboura", "category": "Marketing agency", "street": "G12", "city": "437A", "phone": "08587803114", "website": "", "rating": 5, "review_count": "", "latitude": 28.5041658, "longitude": 77.2556955, "maps_url": "https://www.google.com/maps/place/?q=place_id:0x390ce195574c683b:0x18728a0247643df3"}, {"place_id": "0x390ce3c50d455555:0x625e4cf2def0b6ac", "name": "Infonative Solutions Limited", "category": "Computer support and services", "street": "107, 108", "city": "DLF South Court", "phone": "08448141818", "website": "https://infonative.net/", "rating": 4.7, "review_count": "", "latitude": 28.5274255, "longitude": 77.2209031, "maps_url": "https://www.google.com/maps/place/?q=place_id:0x390ce3c50d455555:0x625e4cf2def0b6ac"}, {"place_id": "0x390ce226100110ef:0xe529d399458dbf03", "name": "First IT", "category": "Software company", "street": "S/F 776-A", "city": "Chirag Dilli", "phone": "", "website": "https://www.firstit.in/", "rating": 5, "review_count": "", "latitude": 28.5376318, "longitude": 77.2282863, "maps_url": "https://www.google.com/maps/place/?q=place_id:0x390ce226100110ef:0xe529d399458dbf03"}, {"place_id": "0x390ce14a4a7f40d7:0x4a0ceaacf28c1ade", "name": "NanoTech Mobile Signal Solutions", "category": "Telecommunications service provider", "street": "Block H", "city": "Block G, Talimabad, Sangam Vihar", "phone": "09319147712", "website": "https://nanotech-mobile-signal.grexa.site/", "rating": 4.7, "review_count": "", "latitude": 28.5041433, "longitude": 77.25355449999999, "maps_url": "https://www.google.com/maps/place/?q=place_id:0x390ce14a4a7f40d7:0x4a0ceaacf28c1ade"}, {"place_id": "0x390ce3c5130e43f3:0xce85951ee98d424e", "name": "MODI INFOSOL PVT. LTD.", "category": "Manufacturer", "street": "OFFICE # 168", "city": "D Block, Pocket D, Okhla Phase I, Okhla Industrial Estate", "phone": "01140746900", "website": "http://www.modiithub.com/", "rating": 3.6, "review_count": "", "latitude": 28.5209118, "longitude": 77.2783556, "maps_url": "https://www.google.com/maps/place/?q=place_id:0x390ce3c5130e43f3:0xce85951ee98d424e"}, {"place_id": "0x390ce7efbc7aff21:0x5d574e48430142e", "name": "AANYA TECHSOFT LLP", "category": "Software company", "street": "1st & 2nd Floor", "city": "Metro Station Tughlakabad", "phone": "09811393975", "website": "https://aanyatech.co.in/", "rating": 4.9, "review_count": "", "latitude": 28.4950084, "longitude": 77.30347809999999, "maps_url": "https://www.google.com/maps/place/?q=place_id:0x390ce7efbc7aff21:0x5d574e48430142e"}, {"place_id": "0x390ce7a279fd45f7:0x1febdef735f1b836", "name": "ClfSofttech | AI Video Chatbot | Artificial Intelligence | AI Business Automation | Website Chatbots", "category": "Software company", "street": "A-12/2, Vishwakarma colony, Lal Kuan", "city": "Mehrauli - Badarpur Rd", "phone": "09114995230", "website": "https://clfsofttech.com/", "rating": 5, "review_count": "", "latitude": 28.4990205, "longitude": 77.2868694, "maps_url": "https://www.google.com/maps/place/?q=place_id:0x390ce7a279fd45f7:0x1febdef735f1b836"}, {"place_id": "0x390ce53010dfd08b:0x2990f9af6b173aad", "name": "Marc2web ERP Solutions Pvt Ltd", "category": "Software company", "street": "C-1/14A, 2nd Floor, Old Village Jasola Vihar Extn Opp- DDA Janta Flats", "city": "Pocket 11, Jasola Vihar", "phone": "", "website": "https://marc2web.com/", "rating": 3.8, "review_count": "", "latitude": 28.550180899999997, "longitude": 77.2913852, "maps_url": "https://www.google.com/maps/place/?q=place_id:0x390ce53010dfd08b:0x2990f9af6b173aad"}, {"place_id": "0x390ce158b926ffd3:0x1a98e9ac83e533d3", "name": "InSoftLink Software Technology", "category": "Software company", "street": "E 44/3", "city": "Pocket D, Okhla Phase II, Okhla Industrial Estate", "phone": "09540349392", "website": "http://insoftlinktechnology.com/", "rating": 3.9, "review_count": "", "latitude": 28.5353694, "longitude": 77.2702709, "maps_url": "https://www.google.com/maps/place/?q=place_id:0x390ce158b926ffd3:0x1a98e9ac83e533d3"}, {"place_id": "0x4215c6da63b4b82f:0x794ba814a6ada964", "name": "Asha Tech | Website Design, App Development & IT Solutions Delhi", "category": "Software company", "street": "no 2", "city": "195, Lane No. 1", "phone": "07531080874", "website": "https://ashatech.co.in/", "rating": 4.7, "review_count": "", "latitude": 28.519994099999998, "longitude": 77.2008791, "maps_url": "https://www.google.com/maps/place/?q=place_id:0x4215c6da63b4b82f:0x794ba814a6ada964"}, {"place_id": "0x390ce3932eaaaaab:0xb308d9aae0d93852", "name": "Al Hadaf Technologies\u2013 ERP, CRM, HRM, Hospital, School, Billing Software Development Company in Delhi NCR", "category": "Software company", "street": "96, Gate No-2", "city": "opp. Escort Hospital", "phone": "08586972994", "website": "https://www.alhadaftech.com/", "rating": 4.9, "review_count": "", "latitude": 28.5562397, "longitude": 77.2762099, "maps_url": "https://www.google.com/maps/place/?q=place_id:0x390ce3932eaaaaab:0xb308d9aae0d93852"}, {"place_id": "0x390ce1d0d244be9f:0x5387208ea1b80bef", "name": "Madhav Singh", "category": "Computer support and services", "street": "D-5/577, Ratiya Marg", "city": "Block E, Sangam Vihar", "phone": "09355059125", "website": "https://madhavsingh.in/", "rating": "", "review_count": "", "latitude": 28.5057294, "longitude": 77.2485678, "maps_url": "https://www.google.com/maps/place/?q=place_id:0x390ce1d0d244be9f:0x5387208ea1b80bef"}, {"place_id": "0x390ce1e92eec0d49:0x8b4c598e70e40b8", "name": "Kito Infocom Pvt. Ltd", "category": "Internet marketing service", "street": "2nd Floor", "city": "B-38", "phone": "08826845665", "website": "https://kitoinfocom.com/", "rating": 4.6, "review_count": "", "latitude": 28.5302415, "longitude": 77.2719123, "maps_url": "https://www.google.com/maps/place/?q=place_id:0x390ce1e92eec0d49:0x8b4c598e70e40b8"}, {"place_id": "0x390ce14ee7712b09:0x16f1e425f9106ad", "name": "Royal Datamatics Limited", "category": "Software company", "street": "Shop No", "city": "DSIDC", "phone": "01145751500", "website": "http://www.rdpl.com/", "rating": 4, "review_count": "", "latitude": 28.521658, "longitude": 77.278385, "maps_url": "https://www.google.com/maps/place/?q=place_id:0x390ce14ee7712b09:0x16f1e425f9106ad"}, {"place_id": "0x390ce10fdb3bef19:0x8b9f0674bb26d7a9", "name": "Enhance View Securities", "category": "Corporate office", "street": "110080 H-16", "city": "150, Gali No 16", "phone": "09013081399", "website": "https://m.indiamart.com/enhanceviewsecuritas/about-us.html", "rating": 4.2, "review_count": "", "latitude": 28.5022956, "longitude": 77.2513553, "maps_url": "https://www.google.com/maps/place/?q=place_id:0x390ce10fdb3bef19:0x8b9f0674bb26d7a9"}, {"place_id": "0x390ce3cfe91504eb:0x55346c5c499223d7", "name": "CCS Computers Private Limited", "category": "Computer support and services", "street": "2nd-3rd Floor Skipper House", "city": "Nehru Place", "phone": "01126463959", "website": "http://www.ccscomputers.co.in/", "rating": 4, "review_count": "", "latitude": 28.550090599999997, "longitude": 77.2537834, "maps_url": "https://www.google.com/maps/place/?q=place_id:0x390ce3cfe91504eb:0x55346c5c499223d7"}, {"place_id": "0x390ce18325e56bed:0x9b5150c1ad42ff14", "name": "MSB Web Services", "category": "Software company", "street": "F", "city": "1B", "phone": "09818476105", "website": "https://www.msbwebs.com/", "rating": 5, "review_count": "", "latitude": 28.502231199999997, "longitude": 77.2427198, "maps_url": "https://www.google.com/maps/place/?q=place_id:0x390ce18325e56bed:0x9b5150c1ad42ff14"}, {"place_id": "0x390ce19d6aaaaaab:0x322f66cd91e8f6cd", "name": "Vikas Gupta Web Developer", "category": "Website designer", "street": "A-454 Dakshinpuri", "city": "New Delhi, Delhi 110062", "phone": "09643269244", "website": "https://itcrafterhub.com/website-developer-delhi/", "rating": 5, "review_count": "", "latitude": 28.522017599999998, "longitude": 77.2366923, "maps_url": "https://www.google.com/maps/place/?q=place_id:0x390ce19d6aaaaaab:0x322f66cd91e8f6cd"}, {"place_id": "0x390ce1106a322819:0xb1a2195a1122ff02", "name": "INNOVATIVE PIX", "category": "Automation company", "street": "Gali sitara musjit", "city": "745B, H 16 Rd", "phone": "09821182605", "website": "", "rating": 5, "review_count": "", "latitude": 28.5018918, "longitude": 77.25375249999999, "maps_url": "https://www.google.com/maps/place/?q=place_id:0x390ce1106a322819:0xb1a2195a1122ff02"}, {"place_id": "0x390ce3d606c913ef:0xd246bd5631eb2cad", "name": "Delvetech", "category": "Software company", "street": "87A/1, 3rd Floor, Opp. Block N-115, G.K-1, Near Moolchand Merto", "city": "Block B, Zamrudpur, Greater Kailash", "phone": "09873895154", "website": "http://www.delvetech.co.in/", "rating": 4.1, "review_count": "", "latitude": 28.5570597, "longitude": 77.2356981, "maps_url": "https://www.google.com/maps/place/?q=place_id:0x390ce3d606c913ef:0xd246bd5631eb2cad"}, {"place_id": "0x390ce1c1b9594bf1:0x5f29d210a6db5f08", "name": "spytechh", "category": "Computer security service", "street": "H-16/130B sangam vihar", "city": "Hamdard Nagar", "phone": "", "website": "", "rating": "", "review_count": "", "latitude": 28.5029029, "longitude": 77.2508555, "maps_url": "https://www.google.com/maps/place/?q=place_id:0x390ce1c1b9594bf1:0x5f29d210a6db5f08"}, {"place_id": "0x390ce45bcd61048f:0x5f6a5602f4155df7", "name": "JK Technosoft Limited", "category": "Software company", "street": "F", "city": "3", "phone": "01204606300", "website": "https://jktech.com/", "rating": 4.2, "review_count": "", "latitude": 28.5802509, "longitude": 77.31793329999999, "maps_url": "https://www.google.com/maps/place/?q=place_id:0x390ce45bcd61048f:0x5f6a5602f4155df7"}, {"place_id": "0x390ce775ccbe4053:0x7bdd9661ba8993d", "name": "Custom Theme Development Company in India Zaid App", "category": "Software company", "street": "E-403/B", "city": "Block E, Jaitpur Extension Part II, Khadda Colony, Badarpur", "phone": "07678131912", "website": "", "rating": 5, "review_count": "", "latitude": 28.513295199999998, "longitude": 77.33561379999999, "maps_url": "https://www.google.com/maps/place/?q=place_id:0x390ce775ccbe4053:0x7bdd9661ba8993d"}, {"place_id": "0x390ce3d647f7d2d5:0x389ee7c78c3019f9", "name": "APPWRK IT Solutions- Bespoke Web & Mobile App Development Company I AI Powered Solutions", "category": "Software company", "street": "101, NH-19", "city": "CRRI, Ishwar Nagar, Okhla", "phone": "", "website": "https://appwrk.com/", "rating": 5, "review_count": "", "latitude": 28.5508191, "longitude": 77.2746251, "maps_url": "https://www.google.com/maps/place/?q=place_id:0x390ce3d647f7d2d5:0x389ee7c78c3019f9"}, {"place_id": "0x390ce3b7c0000001:0x46ddd80ee502d937", "name": "Amtrak Technologies Private Limited", "category": "Computer support and services", "street": "6, Community Centre", "city": "East of Kailash", "phone": "01126448000", "website": "https://amtrak.co.in/", "rating": 4.4, "review_count": "", "latitude": 28.558434899999998, "longitude": 77.2463302, "maps_url": "https://www.google.com/maps/place/?q=place_id:0x390ce3b7c0000001:0x46ddd80ee502d937"}, {"place_id": "0x390ce1a84c6a05c3:0x8782105baf302a33", "name": "Website Vale", "category": "Website designer", "street": "K-ll 685", "city": "near Raghupath Chowk", "phone": "08750343083", "website": "https://www.websitevale.com/", "rating": 4.9, "review_count": "", "latitude": 28.494864399999997, "longitude": 77.23539339999999, "maps_url": "https://www.google.com/maps/place/?q=place_id:0x390ce1a84c6a05c3:0x8782105baf302a33"}, {"place_id": "0x390ce1b9de54d101:0xc5184256693b27dd", "name": "LCK Technologies - Website designing development company South Delhi", "category": "Website designer", "street": "439 1st floor", "city": "438", "phone": "09891337955", "website": "https://lckdigitalmedia.in/", "rating": 4.9, "review_count": "", "latitude": 28.5089698, "longitude": 77.20114769999999, "maps_url": "https://www.google.com/maps/place/?q=place_id:0x390ce1b9de54d101:0xc5184256693b27dd"}, {"place_id": "0x390ce106120a5555:0x722da94ff3caffc3", "name": "Pamed Pharma", "category": "Pharmaceutical company", "street": "E-7A 409/11, Ratiya Marg", "city": "Block E, Sangam Vihar", "phone": "08700634274", "website": "https://www.pamedpharma.com/", "rating": 4.9, "review_count": "", "latitude": 28.5032391, "longitude": 77.24713059999999, "maps_url": "https://www.google.com/maps/place/?q=place_id:0x390ce106120a5555:0x722da94ff3caffc3"}, {"place_id": "0x390ce1666c6ec1a7:0x70da121ab652024", "name": "Technico Online Services", "category": "Software company", "street": "Rz 1/36, Street No. 4", "city": "Tughlakabad Extension, Tughlakabad", "phone": "07042996551", "website": "http://www.technicoonline.com/", "rating": 4.6, "review_count": "", "latitude": 28.5246602, "longitude": 77.25867269999999, "maps_url": "https://www.google.com/maps/place/?q=place_id:0x390ce1666c6ec1a7:0x70da121ab652024"}, {"place_id": "0x390ce196e61df7f3:0xedb8f1af808c8874", "name": "Best Digital Marketing Company in Kalkaji - HitupSolutions", "category": "Software company", "street": "1343, Street No. 13", "city": "Govindpuri", "phone": "07983772834", "website": "https://hitupsolutions.com/", "rating": 4.9, "review_count": "", "latitude": 28.5323982, "longitude": 77.2634478, "maps_url": "https://www.google.com/maps/place/?q=place_id:0x390ce196e61df7f3:0xedb8f1af808c8874"}, {"place_id": "0x390ce1b90129e91f:0x3bfc9febfd31974", "name": "Dynamic Network & Co.", "category": "Internet service provider", "street": "Street Number 7A, Block E", "city": "371", "phone": "", "website": "", "rating": 5, "review_count": "", "latitude": 28.503677, "longitude": 77.24388189999999, "maps_url": "https://www.google.com/maps/place/?q=place_id:0x390ce1b90129e91f:0x3bfc9febfd31974"}, {"place_id": "0x390ce456aaaaaaab:0x6e4e087895622564", "name": "Klasiinn", "category": "Software company", "street": "E-506, Inder Mohan Bhardwaj Marg", "city": "Block E, Greater Kailash II, Greater Kailash", "phone": "07827882870", "website": "http://klasiinn.in/", "rating": 5, "review_count": "", "latitude": 28.5358657, "longitude": 77.2384798, "maps_url": "https://www.google.com/maps/place/?q=place_id:0x390ce456aaaaaaab:0x6e4e087895622564"}, {"place_id": "0x390ce25e35e99b33:0xf443abe69b4e8fcc", "name": "Synapse Valuetech Private Limited", "category": "Software company", "street": "Lower Ground Floor", "city": "221", "phone": "01146628882", "website": "https://www.synapsevaluetech.com/", "rating": 4.3, "review_count": "", "latitude": 28.558165, "longitude": 77.2592385, "maps_url": "https://www.google.com/maps/place/?q=place_id:0x390ce25e35e99b33:0xf443abe69b4e8fcc"}, {"place_id": "0x390ce76e7a9dcdcb:0xc822fe40443dca04", "name": "Biro Infotech", "category": "Software company", "street": "A-15", "city": "Pocket-A Phase 2, Madanpur Khadar", "phone": "09560441610", "website": "http://biroinfotech.com/", "rating": 5, "review_count": "", "latitude": 28.532781099999998, "longitude": 77.3169934, "maps_url": "https://www.google.com/maps/place/?q=place_id:0x390ce76e7a9dcdcb:0xc822fe40443dca04"}, {"place_id": "0x390ce1c0f5a74511:0x7ac7bb3220713f75", "name": "Bhumi Infotech", "category": "Computer support and services", "street": "L-1st 376/7, G744+34V", "city": "Buddha Bazar", "phone": "", "website": "", "rating": "", "review_count": "", "latitude": 28.505278099999998, "longitude": 77.255299, "maps_url": "https://www.google.com/maps/place/?q=place_id:0x390ce1c0f5a74511:0x7ac7bb3220713f75"}, {"place_id": "0x390ce1f99938a4bf:0x94440b5e8f9049d7", "name": "Silk Circuit Solutions", "category": "Solar Energy Company", "street": "K-1", "city": "100/18-B", "phone": "", "website": "", "rating": 5, "review_count": "", "latitude": 28.4977232, "longitude": 77.2526663, "maps_url": "https://www.google.com/maps/place/?q=place_id:0x390ce1f99938a4bf:0x94440b5e8f9049d7"}, {"place_id": "0x390ce19df9ad8d55:0x1a7c336be3deec54", "name": "Awesome Event | Best Event Company in Delhi NCR", "category": "Event planner", "street": "street no.12", "city": "House no.121b", "phone": "08447716668", "website": "https://sites.google.com/view/awesomeeventpvtltd/home", "rating": 4.9, "review_count": "", "latitude": 28.504360799999997, "longitude": 77.2566302, "maps_url": "https://www.google.com/maps/place/?q=place_id:0x390ce19df9ad8d55:0x1a7c336be3deec54"}, {"place_id": "0x390ce3c572a9ee5f:0xd4ddf520fbbd12dc", "name": "Vectrae Infotech", "category": "Corporate office", "street": "B-1 Extension", "city": "A-16", "phone": "01140590964", "website": "http://www.vectrae.com/", "rating": 4.6, "review_count": "", "latitude": 28.5068442, "longitude": 77.2986782, "maps_url": "https://www.google.com/maps/place/?q=place_id:0x390ce3c572a9ee5f:0xd4ddf520fbbd12dc"}, {"place_id": "0x390ce1a582675569:0x7d3f4fa297fb3bbf", "name": "Nanhe IT System & Support", "category": "Computer support and services", "street": "D-1", "city": "Mobile- 8750611455", "phone": "", "website": "", "rating": 3, "review_count": "", "latitude": 28.5092574, "longitude": 77.2494246, "maps_url": "https://www.google.com/maps/place/?q=place_id:0x390ce1a582675569:0x7d3f4fa297fb3bbf"}, {"place_id": "0x390ce16ede0e02b5:0xc549800b46f74e0c", "name": "Usher Infotech", "category": "Software company", "street": "RZ-529/24", "city": "Tughlakabad Extension, Tughlakabad", "phone": "09718347896", "website": "http://www.usherinfotech.com/", "rating": 4.8, "review_count": "", "latitude": 28.521096399999998, "longitude": 77.2570176, "maps_url": "https://www.google.com/maps/place/?q=place_id:0x390ce16ede0e02b5:0xc549800b46f74e0c"}, {"place_id": "0x390ce19a838a4f87:0x2d74a8f89a3c58ee", "name": "kalila Pharmaceuticals Pvt Ltd", "category": "Pharmaceutical company", "street": "242, Gali No 16", "city": "Block G, Talimabad, Hamdard Nagar", "phone": "09069786492", "website": "http://kalilapharmaceuticals.in/", "rating": 5, "review_count": "", "latitude": 28.504823199999997, "longitude": 77.2534857, "maps_url": "https://www.google.com/maps/place/?q=place_id:0x390ce19a838a4f87:0x2d74a8f89a3c58ee"}, {"place_id": "0x390ce111945fd605:0x46d79454f64b22c2", "name": "Mtuggar", "category": "Manufacturer", "street": "House no 274/66 Gali no 16", "city": "Ratiya Marg", "phone": "09990558612", "website": "", "rating": 5, "review_count": "", "latitude": 28.5051486, "longitude": 77.2524332, "maps_url": "https://www.google.com/maps/place/?q=place_id:0x390ce111945fd605:0x46d79454f64b22c2"}, {"place_id": "0x390ce6db6cf32775:0x65f3101fb04f909c", "name": "Thaver Tech Pvt. Ltd.", "category": "Software company", "street": "A 1524", "city": "Greenfields, Sector 43", "phone": "09289816699", "website": "https://www.thavertech.com/", "rating": 4.4, "review_count": "", "latitude": 28.464767499999997, "longitude": 77.3008876, "maps_url": "https://www.google.com/maps/place/?q=place_id:0x390ce6db6cf32775:0x65f3101fb04f909c"}, {"place_id": "0x390ce10059329759:0xa75075ad397574ee", "name": "Just Print", "category": "Print shop", "street": "230, H 16 Rd", "city": "near SBI ATM", "phone": "", "website": "https://sites.google.com/view/justprintcare", "rating": 5, "review_count": "", "latitude": 28.503080699999998, "longitude": 77.2514961, "maps_url": "https://www.google.com/maps/place/?q=place_id:0x390ce10059329759:0xa75075ad397574ee"}, {"place_id": "0x390ce100f5e94809:0xd78d6863269ad2a1", "name": "Taom Solutions", "category": "Software company", "street": "E- 44/3 Ground Floor", "city": "F Block, Pocket X, Okhla Phase II, Okhla Industrial Estate", "phone": "", "website": "https://www.taomsolutions.com/", "rating": 5, "review_count": "", "latitude": 28.535762799999997, "longitude": 77.2764329, "maps_url": "https://www.google.com/maps/place/?q=place_id:0x390ce100f5e94809:0xd78d6863269ad2a1"}]}