{"timestamp": 1773729499.291986, "keyword": "IT company", "location": "delhi", "cell_idx": 97, "results": [{"place_id": "0x390ce1a20e94f69d:0xf6c5af89da672917", "name": "Code IT Solutions", "category": "Software company", "street": "E45", "city": "Krishna Park Colony, Khanpur", "phone": "07992249312", "website": "http://codeitsolutionshub.com/", "rating": 4.9, "review_count": "", "latitude": 28.509770999999997, "longitude": 77.23377169999999, "maps_url": "https://www.google.com/maps/place/?q=place_id:0x390ce1a20e94f69d:0xf6c5af89da672917"}, {"place_id": "0x390ce19def47dcdb:0x559511e0f84263c7", "name": "EzeeOnline", "category": "Software company", "street": "A166, Devli Rd", "city": "near Sainik Farm", "phone": "08882505020", "website": "https://www.ezeeonline.in/", "rating": 5, "review_count": "", "latitude": 28.5059188, "longitude": 77.23209489999999, "maps_url": "https://www.google.com/maps/place/?q=place_id:0x390ce19def47dcdb:0x559511e0f84263c7"}, {"place_id": "0x390ce1a84c6a05c3:0x7e192e6d8b97061d", "name": "A-TECH INDIA", "category": "Business management consultant", "street": "B -539, Public Schools Rd", "city": "Block B, Devli, Sangam Vihar", "phone": "08527298902", "website": "http://atechindia.in/", "rating": 5, "review_count": "", "latitude": 28.5021427, "longitude": 77.2406735, "maps_url": "https://www.google.com/maps/place/?q=place_id:0x390ce1a84c6a05c3:0x7e192e6d8b97061d"}, {"place_id": "0x390ce14c2e74d0c3:0x66d18bd7f06cde65", "name": "OUTWARE IT SOLUTION PVT LTD", "category": "Corporate office", "street": "D Block, Krishna Park Colony, Jawahar Park, Khanpur", "city": "New Delhi, Delhi 110080", "phone": "", "website": "https://outwareit.com/", "rating": 5, "review_count": "", "latitude": 28.5076923, "longitude": 77.23223589999999, "maps_url": "https://www.google.com/maps/place/?q=place_id:0x390ce14c2e74d0c3:0x66d18bd7f06cde65"}, {"place_id": "0x390ce146624d3325:0xdef50cdb9e3f79b2", "name": "Hybridd Eminence IT Solutions", "category": "Computer service", "street": "No .A-66", "city": "H", "phone": "07011675606", "website": "https://www.google.com/search?q=hybrid+eminence+it+solutions&oq=hy&aqs=chrome.0.69i59j69i61j69i57j0i273l2j46i199i291i433i512j0i433i512l2.1129j0j4&client=ms-android-xiaomi&sourceid=chrome-mobile&ie=UTF-8#lkt=overview&trex=m_t:lcl_akp,rc_f:nav,rc_ludocids:16065761383106443698,rc_q:Hybrid%2520Eminence%2520IT%2520Solutions,ru_q:Hybrid%2520Eminence%2520IT%2520Solutions,trex_id:BTlVsc", "rating": 4.9, "review_count": "", "latitude": 28.504536299999998, "longitude": 77.2357723, "maps_url": "https://www.google.com/maps/place/?q=place_id:0x390ce146624d3325:0xdef50cdb9e3f79b2"}, {"place_id": "0x390ce1a3f356c35f:0x816fe3490c7a685f", "name": "RD InfoSystem", "category": "Computer repair service", "street": "H. no 62 Gali no.3", "city": "Nai Basti Rd", "phone": "08920212199", "website": "http://www.rdinfosystem.com/", "rating": 4.3, "review_count": "", "latitude": 28.5047239, "longitude": 77.2333615, "maps_url": "https://www.google.com/maps/place/?q=place_id:0x390ce1a3f356c35f:0x816fe3490c7a685f"}, {"place_id": "0x390ce1597b5509e5:0xfd8209b937b44d3c", "name": "IT Solutions India Private Limited", "category": "Software company", "street": "D-88/5", "city": "Pocket D, Okhla Phase I, Okhla Industrial Estate", "phone": "09810017429", "website": "https://www.itsipl.com/", "rating": 4.2, "review_count": "", "latitude": 28.520146, "longitude": 77.280431, "maps_url": "https://www.google.com/maps/place/?q=place_id:0x390ce1597b5509e5:0xfd8209b937b44d3c"}, {"place_id": "0x390ce112b8e7842f:0xf52e5dae570a739f", "name": "Alex IT Solutions", "category": "Computer support and services", "street": "C-1st/479, Gali No. 6", "city": "near Sehrawat Gas Agency", "phone": "07042556210", "website": "", "rating": 4.4, "review_count": "", "latitude": 28.500353099999998, "longitude": 77.2379811, "maps_url": "https://www.google.com/maps/place/?q=place_id:0x390ce112b8e7842f:0xf52e5dae570a739f"}, {"place_id": "0x390ce3da3f68853d:0xcd720b2a87c87b08", "name": "E Pixel Services", "category": "Software company", "street": "Sangam vihar", "city": "Block L, Devli, Sangam Vihar", "phone": "", "website": "http://www.epixelservices.com/", "rating": 4.8, "review_count": "", "latitude": 28.4979901, "longitude": 77.2339501, "maps_url": "https://www.google.com/maps/place/?q=place_id:0x390ce3da3f68853d:0xcd720b2a87c87b08"}, {"place_id": "0x8d1367491c694315:0xb6e1626c69d891d2", "name": "WebGridSolution - Software Development Digital Marketing Company", "category": "Software company", "street": "G-12/188", "city": "Talimabad, Sangam Vihar", "phone": "", "website": "https://webgridsolution.com/", "rating": 4.8, "review_count": "", "latitude": 28.506943099999997, "longitude": 77.2507213, "maps_url": "https://www.google.com/maps/place/?q=place_id:0x8d1367491c694315:0xb6e1626c69d891d2"}, {"place_id": "0x390ce458d0000001:0xf2123bd299ec4501", "name": "IT Company India", "category": "Software company", "street": "D56", "city": "D Block, Sector 10", "phone": "09999244854", "website": "https://www.itcompanyindia.in/", "rating": 4.7, "review_count": "", "latitude": 28.589917699999997, "longitude": 77.3351153, "maps_url": "https://www.google.com/maps/place/?q=place_id:0x390ce458d0000001:0xf2123bd299ec4501"}, {"place_id": "0x390ce1fd90fd6a05:0x3da727e8a7d67167", "name": "StartUp Delhi - Company Registration Consultancy in Delhi | Pvt. Ltd.", "category": "Registration office", "street": "Devli Rd", "city": "Pocket A, Jawahar Park, Khanpur", "phone": "08447371730", "website": "", "rating": 4.3, "review_count": "", "latitude": 28.5078376, "longitude": 77.2300901, "maps_url": "https://www.google.com/maps/place/?q=place_id:0x390ce1fd90fd6a05:0x3da727e8a7d67167"}, {"place_id": "0x390ce1a4862aa76f:0x1e7e203d7d715198", "name": "Corporate Training Computer Institute", "category": "Software Training Institute", "street": "Bus Stand", "city": "Khasra No 144 Ground Floor Deoli", "phone": "09911996339", "website": "", "rating": 4.8, "review_count": "", "latitude": 28.503310199999998, "longitude": 77.23182539999999, "maps_url": "https://www.google.com/maps/place/?q=place_id:0x390ce1a4862aa76f:0x1e7e203d7d715198"}, {"place_id": "0x390ce1fb44618b65:0x8e06b2a6128352d1", "name": "Acropolis Infotech - Delhi Office", "category": "Software company", "street": "metro station gate", "city": "55, 2nd Floor, Lane 2", "phone": "09999876593", "website": "https://www.acropolisinfotech.com/", "rating": 4.6, "review_count": "", "latitude": 28.518907, "longitude": 77.2015435, "maps_url": "https://www.google.com/maps/place/?q=place_id:0x390ce1fb44618b65:0x8e06b2a6128352d1"}, {"place_id": "0x390ce3c153b89811:0xe7a279685777e9ca", "name": "IT Company", "category": "Automation company", "street": "A-14", "city": "near iskcon temple", "phone": "", "website": "http://www.opuswiz.com/", "rating": 3, "review_count": "", "latitude": 28.557167, "longitude": 77.25424819999999, "maps_url": "https://www.google.com/maps/place/?q=place_id:0x390ce3c153b89811:0xe7a279685777e9ca"}, {"place_id": "0x390ce17b01e1a187:0x586fa6002747476d", "name": "OneTap AI Solutions", "category": "Software company", "street": "FIRST FLOOR", "city": "HOLI CHOWK", "phone": "07859935902", "website": "https://onetapaisolutions.com/", "rating": 5, "review_count": "", "latitude": 28.5011396, "longitude": 77.2343595, "maps_url": "https://www.google.com/maps/place/?q=place_id:0x390ce17b01e1a187:0x586fa6002747476d"}, {"place_id": "0x390ce1bca456ed31:0x9f4e99a3d0d5a364", "name": "Webxicom", "category": "Internet marketing service", "street": "A-42, Devli Rd", "city": "Pocket D, Raju Park, Khanpur", "phone": "09899883923", "website": "https://www.webxicom.com/", "rating": 4.9, "review_count": "", "latitude": 28.504669099999997, "longitude": 77.231572, "maps_url": "https://www.google.com/maps/place/?q=place_id:0x390ce1bca456ed31:0x9f4e99a3d0d5a364"}, {"place_id": "0x390ce3656d0315e1:0xd5bfe1a2a2869d6f", "name": "InnoSewa", "category": "Software company", "street": "D-1/52B", "city": "Block D, Sangam Vihar", "phone": "07011307359", "website": "https://innosewa.com/", "rating": 5, "review_count": "", "latitude": 28.5082408, "longitude": 77.2443978, "maps_url": "https://www.google.com/maps/place/?q=place_id:0x390ce3656d0315e1:0xd5bfe1a2a2869d6f"}, {"place_id": "0x390ce227b000003f:0x68c684a3cbf810b", "name": "IT Solution INDIA", "category": "Computer support and services", "street": "Triveni Commercial Complex", "city": "Sheikh Sarai Phase 1, Sheikh Sarai", "phone": "09312209167", "website": "https://itsolutionindia.in/", "rating": 4.8, "review_count": "", "latitude": 28.5364054, "longitude": 77.22372, "maps_url": "https://www.google.com/maps/place/?q=place_id:0x390ce227b000003f:0x68c684a3cbf810b"}, {"place_id": "0x390ce198ef877ab9:0x7a18a39d0d4b426", "name": "PRIYA TECHNOLOGY", "category": "Software company", "street": "45, Devli Rd", "city": "Khanpur Extension, Khanpur", "phone": "09718501851", "website": "", "rating": 4, "review_count": "", "latitude": 28.5133838, "longitude": 77.2337356, "maps_url": "https://www.google.com/maps/place/?q=place_id:0x390ce198ef877ab9:0x7a18a39d0d4b426"}, {"place_id": "0x390ce3c50d455555:0x625e4cf2def0b6ac", "name": "Infonative Solutions Limited", "category": "Corporate office", "street": "107, 108", "city": "DLF South Court", "phone": "08448141818", "website": "https://infonative.net/", "rating": 4.7, "review_count": "", "latitude": 28.5274255, "longitude": 77.2209031, "maps_url": "https://www.google.com/maps/place/?q=place_id:0x390ce3c50d455555:0x625e4cf2def0b6ac"}, {"place_id": "0x390ce1a6b76e339f:0xcc91a4cfda47e0ae", "name": "Maruti Electronic", "category": "Electronics Company", "street": "A- 50, Sangam Vihar Rd", "city": "Devli Extention, Tigri Extension, Sangam Vihar", "phone": "09211909247", "website": "", "rating": 4.1, "review_count": "", "latitude": 28.505414299999998, "longitude": 77.2368298, "maps_url": "https://www.google.com/maps/place/?q=place_id:0x390ce1a6b76e339f:0xcc91a4cfda47e0ae"}, {"place_id": "0x390ce1277def128b:0xef158ca926a010c2", "name": "Digital Kavya", "category": "Advertising agency", "street": "5 floor, Ganga appartment", "city": "Holi chowk", "phone": "09650779553", "website": "", "rating": 5, "review_count": "", "latitude": 28.502667799999998, "longitude": 77.2350927, "maps_url": "https://www.google.com/maps/place/?q=place_id:0x390ce1277def128b:0xef158ca926a010c2"}, {"place_id": "0x4215c6da63b4b82f:0x794ba814a6ada964", "name": "Asha Tech | Website Design, App Development & IT Solutions Delhi", "category": "Software company", "street": "no 2", "city": "195, Lane No. 1", "phone": "07531080874", "website": "https://ashatech.co.in/", "rating": 4.7, "review_count": "", "latitude": 28.519994099999998, "longitude": 77.2008791, "maps_url": "https://www.google.com/maps/place/?q=place_id:0x4215c6da63b4b82f:0x794ba814a6ada964"}, {"place_id": "0x390ce128fa4f4fdd:0xbaf579b34dc2a978", "name": "Trinity Computer Solution", "category": "Computer service", "street": "A-96", "city": "Durga Vihar, Raju Park, Devli", "phone": "09711044809", "website": "", "rating": 5, "review_count": "", "latitude": 28.505039, "longitude": 77.23054069999999, "maps_url": "https://www.google.com/maps/place/?q=place_id:0x390ce128fa4f4fdd:0xbaf579b34dc2a978"}, {"place_id": "0x390ce1656fbb7b65:0x7f0e4b2c21935a5c", "name": "Lynkit Solutions Pvt. Ltd.", "category": "Software company", "street": "246", "city": "Block A, Okhla Phase I, Okhla Industrial Estate", "phone": "01140824028", "website": "http://www.lynkit.in/", "rating": 4.3, "review_count": "", "latitude": 28.5254729, "longitude": 77.2754985, "maps_url": "https://www.google.com/maps/place/?q=place_id:0x390ce1656fbb7b65:0x7f0e4b2c21935a5c"}, {"place_id": "0x390ce135d4df1083:0xf98600d44915be82", "name": "SHRISTI NETWORKING PROVIDER", "category": "Internet service provider", "street": "Men market", "city": "501/1, Devli Rd", "phone": "", "website": "", "rating": 4.9, "review_count": "", "latitude": 28.5030817, "longitude": 77.2316536, "maps_url": "https://www.google.com/maps/place/?q=place_id:0x390ce135d4df1083:0xf98600d44915be82"}, {"place_id": "0x390ce1726e39b19f:0xaf8499b737226c4f", "name": "Dreamiler Private Limited", "category": "Human resource consulting", "street": "3rd floor, PNB Building", "city": "Bus stand", "phone": "", "website": "http://www.dreamiler.com/", "rating": 4.6, "review_count": "", "latitude": 28.503366, "longitude": 77.23151279999999, "maps_url": "https://www.google.com/maps/place/?q=place_id:0x390ce1726e39b19f:0xaf8499b737226c4f"}, {"place_id": "0x390ce1b1896e0a6b:0x8a74bc7ae8b4e8bc", "name": "Moral Computer", "category": "Computer support and services", "street": "Bus Stand", "city": "512, Nai Basti Rd", "phone": "09555606781", "website": "", "rating": 5, "review_count": "", "latitude": 28.5035402, "longitude": 77.2322667, "maps_url": "https://www.google.com/maps/place/?q=place_id:0x390ce1b1896e0a6b:0x8a74bc7ae8b4e8bc"}, {"place_id": "0x390ce17abd50d7c7:0xb804600c23f3d5a2", "name": "Morphiaas", "category": "Marketing agency", "street": "c137/a ,jawahar park ,c block near Sai Baba Mandir", "city": "New Delhi, Delhi 110080", "phone": "09643291984", "website": "https://morphiaas.com/", "rating": 4.9, "review_count": "", "latitude": 28.5063545, "longitude": 77.23072359999999, "maps_url": "https://www.google.com/maps/place/?q=place_id:0x390ce17abd50d7c7:0xb804600c23f3d5a2"}, {"place_id": "0x390ce1a84c6a05c3:0x8782105baf302a33", "name": "Website Vale", "category": "Website designer", "street": "K-ll 685", "city": "near Raghupath Chowk", "phone": "08750343083", "website": "https://www.websitevale.com/", "rating": 4.9, "review_count": "", "latitude": 28.494864399999997, "longitude": 77.23539339999999, "maps_url": "https://www.google.com/maps/place/?q=place_id:0x390ce1a84c6a05c3:0x8782105baf302a33"}, {"place_id": "0x390ce1cd91e64d55:0x7eddc4dbfa5f5048", "name": "Star World Solution", "category": "Security system installation service", "street": "Second Floor", "city": "Flat No-06", "phone": "09220933133", "website": "https://www.starworldsolution.com/", "rating": 4.7, "review_count": "", "latitude": 28.5058789, "longitude": 77.23405989999999, "maps_url": "https://www.google.com/maps/place/?q=place_id:0x390ce1cd91e64d55:0x7eddc4dbfa5f5048"}, {"place_id": "0x390ce1462df4eec3:0x5c81469925a0fc29", "name": "SunRadiance Technologies Pvt Ltd", "category": "Solar Energy Company", "street": "B-15, Devli Rd", "city": "opposite Red Tape Showroom", "phone": "08285858535", "website": "http://www.sunradiance.in/", "rating": 5, "review_count": "", "latitude": 28.5096737, "longitude": 77.2320506, "maps_url": "https://www.google.com/maps/place/?q=place_id:0x390ce1462df4eec3:0x5c81469925a0fc29"}, {"place_id": "0x390ce184deea63bf:0x88fa9bcf0085a99f", "name": "Osprey Elite Private Limited", "category": "Clothing manufacturer", "street": "Basement", "city": "D- 319/323", "phone": "08810223389", "website": "", "rating": 5, "review_count": "", "latitude": 28.5064861, "longitude": 77.234585, "maps_url": "https://www.google.com/maps/place/?q=place_id:0x390ce184deea63bf:0x88fa9bcf0085a99f"}, {"place_id": "0x390ce169166daafb:0x59f83b4c9acb8753", "name": "ClaimSolution.in", "category": "Consultant", "street": "3RD FLOOR", "city": "A -4 & 5, Devli Rd", "phone": "09717282825", "website": "https://claimsolution.in/", "rating": 4.9, "review_count": "", "latitude": 28.5055834, "longitude": 77.2318662, "maps_url": "https://www.google.com/maps/place/?q=place_id:0x390ce169166daafb:0x59f83b4c9acb8753"}, {"place_id": "0x390ce1b9de54d101:0xc5184256693b27dd", "name": "LCK Technologies - Website designing development company South Delhi", "category": "Website designer", "street": "439 1st floor", "city": "438", "phone": "09891337955", "website": "https://lckdigitalmedia.in/", "rating": 4.9, "review_count": "", "latitude": 28.5089698, "longitude": 77.20114769999999, "maps_url": "https://www.google.com/maps/place/?q=place_id:0x390ce1b9de54d101:0xc5184256693b27dd"}, {"place_id": "0x390ce19d6aaaaaab:0x322f66cd91e8f6cd", "name": "Vikas Gupta Web Developer", "category": "Website designer", "street": "A-454 Dakshinpuri", "city": "New Delhi, Delhi 110062", "phone": "09643269244", "website": "https://itcrafterhub.com/website-developer-delhi/", "rating": 5, "review_count": "", "latitude": 28.522017599999998, "longitude": 77.2366923, "maps_url": "https://www.google.com/maps/place/?q=place_id:0x390ce19d6aaaaaab:0x322f66cd91e8f6cd"}, {"place_id": "0x390ce3cfe91504eb:0x55346c5c499223d7", "name": "CCS Computers Private Limited", "category": "Computer support and services", "street": "2nd-3rd Floor Skipper House", "city": "Nehru Place", "phone": "01126463959", "website": "http://www.ccscomputers.co.in/", "rating": 4, "review_count": "", "latitude": 28.550090599999997, "longitude": 77.2537834, "maps_url": "https://www.google.com/maps/place/?q=place_id:0x390ce3cfe91504eb:0x55346c5c499223d7"}, {"place_id": "0x390ce1a4daaaaaab:0x41d8d5340c8cdf94", "name": "AFC Consulting", "category": "Consultant", "street": "Bus Stand, Near", "city": "Ground Floor, Plot No 144", "phone": "08287304997", "website": "https://afcconsulting.in/", "rating": 4.1, "review_count": "", "latitude": 28.503381899999997, "longitude": 77.2318173, "maps_url": "https://www.google.com/maps/place/?q=place_id:0x390ce1a4daaaaaab:0x41d8d5340c8cdf94"}, {"place_id": "0x390ce14c406f483d:0x580fb3099669988d", "name": "Aj Enterprises", "category": "Business to business service", "street": "686/4, Nai Basti Rd", "city": "Ashok Vatika, Devli, Khanpur", "phone": "08808782410", "website": "https://youtube.com/@ajsupport?si=b85Re8yr4NQreIY6", "rating": 5, "review_count": "", "latitude": 28.504451, "longitude": 77.2354745, "maps_url": "https://www.google.com/maps/place/?q=place_id:0x390ce14c406f483d:0x580fb3099669988d"}, {"place_id": "0x390ce1b1896e0a6b:0x8a74bc7ae8b4e8bc", "name": "Moral Computer", "category": "Computer service", "street": "Bus Stand", "city": "512, Nai Basti Rd", "phone": "09555606781", "website": "", "rating": 5, "review_count": "", "latitude": 28.5035402, "longitude": 77.2322667, "maps_url": "https://www.google.com/maps/place/?q=place_id:0x390ce1b1896e0a6b:0x8a74bc7ae8b4e8bc"}, {"place_id": "0x390ce17abd50d7c7:0xb804600c23f3d5a2", "name": "Morphiaas", "category": "Website designer", "street": "c137/a ,jawahar park ,c block near Sai Baba Mandir", "city": "New Delhi, Delhi 110080", "phone": "09643291984", "website": "https://morphiaas.com/", "rating": 4.9, "review_count": "", "latitude": 28.5063545, "longitude": 77.23072359999999, "maps_url": "https://www.google.com/maps/place/?q=place_id:0x390ce17abd50d7c7:0xb804600c23f3d5a2"}, {"place_id": "0x390ce1a84c6a05c3:0x8782105baf302a33", "name": "Website Vale", "category": "Website designer", "street": "K-ll 685", "city": "near Raghupath Chowk", "phone": "08750343083", "website": "https://www.websitevale.com/", "rating": 4.9, "review_count": "", "latitude": 28.494864399999997, "longitude": 77.23539339999999, "maps_url": "https://www.google.com/maps/place/?q=place_id:0x390ce1a84c6a05c3:0x8782105baf302a33"}, {"place_id": "0x390ce1cd91e64d55:0x7eddc4dbfa5f5048", "name": "Star World Solution", "category": "Security system installation service", "street": "Second Floor", "city": "Flat No-06", "phone": "09220933133", "website": "https://www.starworldsolution.com/", "rating": 4.7, "review_count": "", "latitude": 28.5058789, "longitude": 77.23405989999999, "maps_url": "https://www.google.com/maps/place/?q=place_id:0x390ce1cd91e64d55:0x7eddc4dbfa5f5048"}, {"place_id": "0x390ce1462df4eec3:0x5c81469925a0fc29", "name": "SunRadiance Technologies Pvt Ltd", "category": "Solar Energy Company", "street": "B-15, Devli Rd", "city": "opposite Red Tape Showroom", "phone": "08285858535", "website": "http://www.sunradiance.in/", "rating": 5, "review_count": "", "latitude": 28.5096737, "longitude": 77.2320506, "maps_url": "https://www.google.com/maps/place/?q=place_id:0x390ce1462df4eec3:0x5c81469925a0fc29"}, {"place_id": "0x390ce184deea63bf:0x88fa9bcf0085a99f", "name": "Osprey Elite Private Limited", "category": "Clothing manufacturer", "street": "Basement", "city": "D- 319/323", "phone": "08810223389", "website": "", "rating": 5, "review_count": "", "latitude": 28.5064861, "longitude": 77.234585, "maps_url": "https://www.google.com/maps/place/?q=place_id:0x390ce184deea63bf:0x88fa9bcf0085a99f"}, {"place_id": "0x390ce169166daafb:0x59f83b4c9acb8753", "name": "ClaimSolution.in", "category": "Consultant", "street": "3RD FLOOR", "city": "A -4 & 5, Devli Rd", "phone": "09717282825", "website": "https://claimsolution.in/", "rating": 4.9, "review_count": "", "latitude": 28.5055834, "longitude": 77.2318662, "maps_url": "https://www.google.com/maps/place/?q=place_id:0x390ce169166daafb:0x59f83b4c9acb8753"}, {"place_id": "0x390ce1b9de54d101:0xc5184256693b27dd", "name": "LCK Technologies - Website designing development company South Delhi", "category": "Website designer", "street": "439 1st floor", "city": "438", "phone": "09891337955", "website": "https://lckdigitalmedia.in/", "rating": 4.9, "review_count": "", "latitude": 28.5089698, "longitude": 77.20114769999999, "maps_url": "https://www.google.com/maps/place/?q=place_id:0x390ce1b9de54d101:0xc5184256693b27dd"}, {"place_id": "0x390ce1361c1d0ec9:0xaf1e699c9ad610ca", "name": "VIRMANI SOFTWARE & HARDWARE SOLUTION", "category": "Computer Hardware Company", "street": "F1/67", "city": "Block F 2, Sangam Vihar", "phone": "", "website": "", "rating": 5, "review_count": "", "latitude": 28.502211499999998, "longitude": 77.2441462, "maps_url": "https://www.google.com/maps/place/?q=place_id:0x390ce1361c1d0ec9:0xaf1e699c9ad610ca"}, {"place_id": "0x390ce19d6aaaaaab:0x322f66cd91e8f6cd", "name": "Vikas Gupta Web Developer", "category": "Website designer", "street": "A-454 Dakshinpuri", "city": "New Delhi, Delhi 110062", "phone": "09643269244", "website": "https://itcrafterhub.com/website-developer-delhi/", "rating": 5, "review_count": "", "latitude": 28.522017599999998, "longitude": 77.2366923, "maps_url": "https://www.google.com/maps/place/?q=place_id:0x390ce19d6aaaaaab:0x322f66cd91e8f6cd"}, {"place_id": "0x390ce18325e56bed:0x9b5150c1ad42ff14", "name": "MSB Web Services", "category": "Software company", "street": "F", "city": "1B", "phone": "09818476105", "website": "https://www.msbwebs.com/", "rating": 5, "review_count": "", "latitude": 28.502231199999997, "longitude": 77.2427198, "maps_url": "https://www.google.com/maps/place/?q=place_id:0x390ce18325e56bed:0x9b5150c1ad42ff14"}, {"place_id": "0x390ce3cfe91504eb:0x55346c5c499223d7", "name": "CCS Computers Private Limited", "category": "Computer support and services", "street": "2nd-3rd Floor Skipper House", "city": "Nehru Place", "phone": "01126463959", "website": "http://www.ccscomputers.co.in/", "rating": 4, "review_count": "", "latitude": 28.550090599999997, "longitude": 77.2537834, "maps_url": "https://www.google.com/maps/place/?q=place_id:0x390ce3cfe91504eb:0x55346c5c499223d7"}, {"place_id": "0x390ce1a4daaaaaab:0x41d8d5340c8cdf94", "name": "AFC Consulting", "category": "Consultant", "street": "Bus Stand, Near", "city": "Ground Floor, Plot No 144", "phone": "08287304997", "website": "https://afcconsulting.in/", "rating": 4.1, "review_count": "", "latitude": 28.503381899999997, "longitude": 77.2318173, "maps_url": "https://www.google.com/maps/place/?q=place_id:0x390ce1a4daaaaaab:0x41d8d5340c8cdf94"}, {"place_id": "0x2af2d75c7bf84603:0x184d197137886fe2", "name": "AZYRON TECH", "category": "Software company", "street": "G-12/509", "city": "Block G, Talimabad, Sangam Vihar", "phone": "", "website": "https://www.azyrontech.in/", "rating": 5, "review_count": "", "latitude": 28.5044048, "longitude": 77.2550619, "maps_url": "https://www.google.com/maps/place/?q=place_id:0x2af2d75c7bf84603:0x184d197137886fe2"}, {"place_id": "0x390ce14c406f483d:0x580fb3099669988d", "name": "Aj Enterprises", "category": "Business to business service", "street": "686/4, Nai Basti Rd", "city": "Ashok Vatika, Devli, Khanpur", "phone": "08808782410", "website": "https://youtube.com/@ajsupport?si=b85Re8yr4NQreIY6", "rating": 5, "review_count": "", "latitude": 28.504451, "longitude": 77.2354745, "maps_url": "https://www.google.com/maps/place/?q=place_id:0x390ce14c406f483d:0x580fb3099669988d"}, {"place_id": "0x390ce1557a9b46e7:0xfa936456123e51f1", "name": "Total Solution", "category": "Repair service", "street": "A-3, Devli Rd", "city": "Pocket B, Raju Park, Khanpur", "phone": "09311292623", "website": "", "rating": 4.9, "review_count": "", "latitude": 28.505179899999998, "longitude": 77.2298093, "maps_url": "https://www.google.com/maps/place/?q=place_id:0x390ce1557a9b46e7:0xfa936456123e51f1"}, {"place_id": "0x390ce1a312135289:0x54cfdf9aadda4d33", "name": "Dream Consulting", "category": "Recruiter", "street": "3rd floor, PNB Building", "city": "Bus stand", "phone": "09625614549", "website": "http://www.isarkariyojana.com/", "rating": 4.5, "review_count": "", "latitude": 28.503366, "longitude": 77.23151279999999, "maps_url": "https://www.google.com/maps/place/?q=place_id:0x390ce1a312135289:0x54cfdf9aadda4d33"}, {"place_id": "0x390ce1a5f2f5e567:0x60be5a7f6c3ca99a", "name": "Ranu Computer Education", "category": "Software Training Institute", "street": "B 1007, Gali number 3", "city": "Block B, Devli, Sangam Vihar", "phone": "09211226224", "website": "http://ranueducation.co.in/", "rating": 4.9, "review_count": "", "latitude": 28.5032055, "longitude": 77.23820909999999, "maps_url": "https://www.google.com/maps/place/?q=place_id:0x390ce1a5f2f5e567:0x60be5a7f6c3ca99a"}, {"place_id": "0x390ce10c6b5a9cb1:0xea9e2f6ccece3d0e", "name": "DizitalXpert | Digital Advertising Agency", "category": "Website designer", "street": "Devli Rd", "city": "Durga Vihar, Deoli Gaon Nai Basti, Sangam Vihar", "phone": "", "website": "http://dizitalxpert.com/", "rating": 4.8, "review_count": "", "latitude": 28.504681899999998, "longitude": 77.2319119, "maps_url": "https://www.google.com/maps/place/?q=place_id:0x390ce10c6b5a9cb1:0xea9e2f6ccece3d0e"}, {"place_id": "0x8ed3e0792b5f9485:0xe925c4aefa9a04b1", "name": "Deep Analytical Eduzone", "category": "Software Training Institute", "street": "1st Floor", "city": "A-3B, Devli Rd", "phone": "09899757591", "website": "https://deepanalyticaleduzone.com/", "rating": 4.9, "review_count": "", "latitude": 28.505888199999998, "longitude": 77.23181149999999, "maps_url": "https://www.google.com/maps/place/?q=place_id:0x8ed3e0792b5f9485:0xe925c4aefa9a04b1"}, {"place_id": "0x390ce1a20e94f687:0x13554fd9471442e5", "name": "Nextera Entertainment", "category": "Event management company", "street": "D-144, 1st Floor, Flat No. B-5", "city": "Krishna Park, Khanpur (9863522222)", "phone": "09899291066", "website": "", "rating": 4.9, "review_count": "", "latitude": 28.509770999999997, "longitude": 77.2337715, "maps_url": "https://www.google.com/maps/place/?q=place_id:0x390ce1a20e94f687:0x13554fd9471442e5"}, {"place_id": "0x8d3b9ebb36202b71:0xc70492edf61a9ad6", "name": "Digital Amil", "category": "Internet marketing service", "street": "", "city": "", "phone": "", "website": "", "rating": 4.7, "review_count": "", "latitude": 28.4985555, "longitude": 77.2402534, "maps_url": "https://www.google.com/maps/place/?q=place_id:0x8d3b9ebb36202b71:0xc70492edf61a9ad6"}, {"place_id": "0x390d1fb9b19cd7d7:0x2febfba590f33428", "name": "Corapana Technologies - Mobile App Development and Web Design Development Company Delhi", "category": "Software company", "street": "Ground floor", "city": "D-23", "phone": "08295242621", "website": "https://corapana.com/", "rating": 4.8, "review_count": "", "latitude": 28.496378999999997, "longitude": 77.17898, "maps_url": "https://www.google.com/maps/place/?q=place_id:0x390d1fb9b19cd7d7:0x2febfba590f33428"}, {"place_id": "0x390ce1a157663613:0xc2e87b792fe1d196", "name": "Society for Applied Studies (Devli Office)", "category": "Corporate office", "street": "692", "city": "Ashok Vatika, Deoli Khanpur", "phone": "", "website": "", "rating": 4.2, "review_count": "", "latitude": 28.505253, "longitude": 77.235024, "maps_url": "https://www.google.com/maps/place/?q=place_id:0x390ce1a157663613:0xc2e87b792fe1d196"}, {"place_id": "0x390ce18c6963a4af:0xb99624ed3ba838ee", "name": "Royal mesh - The right mosquito door & windows - Great service guaranteed", "category": "Door manufacturer", "street": "Address B 1296", "city": "Block B, Devli, Sangam Vihar", "phone": "", "website": "http://royalmesh.in/", "rating": 4.7, "review_count": "", "latitude": 28.503000399999998, "longitude": 77.235463, "maps_url": "https://www.google.com/maps/place/?q=place_id:0x390ce18c6963a4af:0xb99624ed3ba838ee"}, {"place_id": "0x390ce156a6da3edf:0x6249800715df0244", "name": "Unique Solution Private limited", "category": "Book publisher", "street": "12/32", "city": "Block C, phase 1, Sangam Vihar", "phone": "", "website": "", "rating": 1.9, "review_count": "", "latitude": 28.4989666, "longitude": 77.2390388, "maps_url": "https://www.google.com/maps/place/?q=place_id:0x390ce156a6da3edf:0x6249800715df0244"}, {"place_id": "0x390ce1dc3bcea249:0x16af5021326c1f31", "name": "Jirel Pharmaceuticals Private Limited", "category": "Pharmaceutical company", "street": "F2", "city": "193, Sangam Vihar Rd", "phone": "09411002654", "website": "", "rating": 5, "review_count": "", "latitude": 28.5034842, "longitude": 77.2325055, "maps_url": "https://www.google.com/maps/place/?q=place_id:0x390ce1dc3bcea249:0x16af5021326c1f31"}, {"place_id": "0x390d04d9c62ecba9:0xac7a8b4e3f5338e8", "name": "Original Products Private Limited", "category": "Manufacturer", "street": "School Rd", "city": "Shiv Park, Khanpur Village, Khanpur", "phone": "08860597553", "website": "http://www.opplin.com/", "rating": 3.7, "review_count": "", "latitude": 28.5108046, "longitude": 77.2285868, "maps_url": "https://www.google.com/maps/place/?q=place_id:0x390d04d9c62ecba9:0xac7a8b4e3f5338e8"}, {"place_id": "0x390ce169ad55dd55:0xa59250553934cd0d", "name": "PSR & Associates LLP (Chartered Accountants)", "category": "Certified public accountant", "street": "A 3B, Devli Rd", "city": "near Sundar Lal Hospital", "phone": "09990028230", "website": "", "rating": 4.9, "review_count": "", "latitude": 28.5058519, "longitude": 77.2318116, "maps_url": "https://www.google.com/maps/place/?q=place_id:0x390ce169ad55dd55:0xa59250553934cd0d"}, {"place_id": "0x390cfd309eebed77:0x69f53faeb6ac49b6", "name": "V. S. ENTERPRISES ( VSE Paper Box )", "category": "Packaging company", "street": "kh-689, extension", "city": "near subham vatika", "phone": "09811095085", "website": "", "rating": 5, "review_count": "", "latitude": 28.505311499999998, "longitude": 77.2357954, "maps_url": "https://www.google.com/maps/place/?q=place_id:0x390cfd309eebed77:0x69f53faeb6ac49b6"}, {"place_id": "0xa3f7b500ba6bee9b:0xbf6f44de92b28de", "name": "Yuvocreations Private Limited ( \u092f\u0941\u0935\u094b\u0915\u094d\u0930\u093f\u090f\u0936\u0928\u094d\u0938 \u092a\u094d\u0930\u093e\u0907\u0935\u0947\u091f \u0932\u093f\u092e\u093f\u091f\u0947\u0921 ) - Website Designing & Digital Marketing Agency", "category": "Software company", "street": "Lane no.4", "city": "Khasra no. 258, Westend Marg", "phone": "07042123166", "website": "https://yuvocreations.com/", "rating": 5, "review_count": "", "latitude": 28.5169774, "longitude": 77.19925789999999, "maps_url": "https://www.google.com/maps/place/?q=place_id:0xa3f7b500ba6bee9b:0xbf6f44de92b28de"}, {"place_id": "0x390ce1cc81366711:0x2d4fbb5a3813396b", "name": "ZeeClick", "category": "Website designer", "street": "", "city": "", "phone": "08851338312", "website": "http://www.zeeclick.com/", "rating": 4.3, "review_count": "", "latitude": 21.7644144, "longitude": 75.3291284, "maps_url": "https://www.google.com/maps/place/?q=place_id:0x390ce1cc81366711:0x2d4fbb5a3813396b"}, {"place_id": "0x390ce1e507220a51:0xfe74ede7645b1fd1", "name": "Yash Infinite Solutions Private Limited", "category": "Software company", "street": "South of Saket", "city": "B-39, IGNOU Rd", "phone": "09810464978", "website": "", "rating": 4, "review_count": "", "latitude": 28.5157003, "longitude": 77.2033136, "maps_url": "https://www.google.com/maps/place/?q=place_id:0x390ce1e507220a51:0xfe74ede7645b1fd1"}, {"place_id": "0x390ce2726553aa39:0x253eb491be551dfb", "name": "Kite Infocom Vision Pvt. Ltd.", "category": "Business management consultant", "street": "A-54, Ground Floor, Devli Extension", "city": "New Delhi, Delhi 110080", "phone": "09205059155", "website": "http://kivpl.com/", "rating": 4, "review_count": "", "latitude": 28.504861599999998, "longitude": 77.23683009999999, "maps_url": "https://www.google.com/maps/place/?q=place_id:0x390ce2726553aa39:0x253eb491be551dfb"}, {"place_id": "0x390ce1fe8ae9b37f:0x2d9b69161876b7d0", "name": "Smarto India |Best Interior Designer in Delhi |Best Interior Designer Delhi| Interior Designer Delhi", "category": "Interior designer", "street": "A-04, 1ST FLOOR, DEVLI -KHANPUR", "city": "Main Rd", "phone": "", "website": "https://smartoindiacom.odoo.com/", "rating": 5, "review_count": "", "latitude": 28.5019207, "longitude": 77.2297379, "maps_url": "https://www.google.com/maps/place/?q=place_id:0x390ce1fe8ae9b37f:0x2d9b69161876b7d0"}, {"place_id": "0x390ce104a5e817c3:0xa3ea313c07b10d4a", "name": "Anmol Travels pvt Ltd", "category": "Transportation service", "street": "A -96, Devli Rd", "city": "Durga Vihar, Raju Park, Khanpur", "phone": "", "website": "", "rating": 5, "review_count": "", "latitude": 28.5048097, "longitude": 77.2304016, "maps_url": "https://www.google.com/maps/place/?q=place_id:0x390ce104a5e817c3:0xa3ea313c07b10d4a"}, {"place_id": "0x390ce1a404205efb:0xbbdf678e1a924a7f", "name": "Shakta Travels Pvt. Ltd.", "category": "Tour operator", "street": "Office Address. 32, Steert No. 2, Nai Basti Deoli", "city": "New Delhi, Delhi 110080", "phone": "09711885571", "website": "http://shaktatravels.com/", "rating": 4.3, "review_count": "", "latitude": 28.504143, "longitude": 77.23438, "maps_url": "https://www.google.com/maps/place/?q=place_id:0x390ce1a404205efb:0xbbdf678e1a924a7f"}, {"place_id": "0x390ce1fb6d6fa48f:0x8be9b07790f41251", "name": "The Wellingston Company", "category": "Corporate office", "street": "K-2nd, 555", "city": "Bandh Rd", "phone": "09716881871", "website": "http://www.wellingston.com/", "rating": 5, "review_count": "", "latitude": 28.4954108, "longitude": 77.2369391, "maps_url": "https://www.google.com/maps/place/?q=place_id:0x390ce1fb6d6fa48f:0x8be9b07790f41251"}, {"place_id": "0x6933a46c519d4cd1:0x69e3e87458f0dcea", "name": "Saini Internet", "category": "Internet service provider", "street": "l", "city": "224/4, Sangam Vihar Rd", "phone": "08700838844", "website": "https://www.saininternet.in/", "rating": 5, "review_count": "", "latitude": 28.503679199999997, "longitude": 77.23303469999999, "maps_url": "https://www.google.com/maps/place/?q=place_id:0x6933a46c519d4cd1:0x69e3e87458f0dcea"}, {"place_id": "0x390ce1f1f371749b:0x77573736d622df81", "name": "Teleprompters & Live Broadcasting System", "category": "Video production service", "street": "Plot No 669, Flat No G4 Ground Floor Block B Shree Jagannath Apartment Nai Basti Deoli Khanpur Road", "city": "near, Tenkar wali gali", "phone": "07053600701", "website": "https://telepromptersystem.in/", "rating": 5, "review_count": "", "latitude": 28.504483399999998, "longitude": 77.233248, "maps_url": "https://www.google.com/maps/place/?q=place_id:0x390ce1f1f371749b:0x77573736d622df81"}, {"place_id": "0xa32755c7aad0bdfd:0x1b9e1537878af3b7", "name": "Pest Control Service Delhi NCR \u2013 Pest Shield", "category": "Pest control service", "street": "", "city": "", "phone": "08860580704", "website": "https://pestshieldservice.com/", "rating": 4.9, "review_count": "", "latitude": 28.8843271, "longitude": 77.1975795, "maps_url": "https://www.google.com/maps/place/?q=place_id:0xa32755c7aad0bdfd:0x1b9e1537878af3b7"}, {"place_id": "0x390ce3769b2c2c93:0x55d3e1ea40fcc58d", "name": "Cardinal Holiday Planners", "category": "Travel agency", "street": "627/3", "city": "opposite Tinu Public School", "phone": "07838181888", "website": "http://www.cardinalholidayplanners.in/", "rating": 4.9, "review_count": "", "latitude": 28.5023411, "longitude": 77.2351324, "maps_url": "https://www.google.com/maps/place/?q=place_id:0x390ce3769b2c2c93:0x55d3e1ea40fcc58d"}, {"place_id": "0x390ce1de4bc2ca35:0x4f735120327c8f2", "name": "TripSthan.com", "category": "Tour operator", "street": "khasra no.713", "city": "H no.226, Nai Basti Rd", "phone": "09953458949", "website": "https://tripsthan.com/home.php", "rating": 5, "review_count": "", "latitude": 28.5037591, "longitude": 77.23335709999999, "maps_url": "https://www.google.com/maps/place/?q=place_id:0x390ce1de4bc2ca35:0x4f735120327c8f2"}, {"place_id": "0x390ce106fa5a3885:0xa9de87a90f5c5dbc", "name": "Freelance Graphic Designer - S.kishore Designs", "category": "Graphic designer", "street": "", "city": "", "phone": "09311754794", "website": "https://sushantkishore.my.canva.site/sushantkishoredesigns", "rating": 5, "review_count": "", "latitude": 28.486955199999997, "longitude": 77.181708, "maps_url": "https://www.google.com/maps/place/?q=place_id:0x390ce106fa5a3885:0xa9de87a90f5c5dbc"}, {"place_id": "0x390ce18727859b07:0xf0186b178a1d227d", "name": "CA Shiwali Dagar \u2013 Chartered Accountant | Income Tax & GST", "category": "Chartered accountant", "street": "412", "city": "opposite Punjab National Bank", "phone": "09266032777", "website": "http://www.cashiwali.com/", "rating": 5, "review_count": "", "latitude": 28.5033548, "longitude": 77.23175169999999, "maps_url": "https://www.google.com/maps/place/?q=place_id:0x390ce18727859b07:0xf0186b178a1d227d"}, {"place_id": "0x287f4302b710265b:0x1739ec65d130270c", "name": "PK EVENTS & EXHIBITIONS", "category": "Event planner", "street": "Devli Rd", "city": "opposite HDFC BANK", "phone": "09220269844", "website": "", "rating": 5, "review_count": "", "latitude": 28.504758, "longitude": 77.231698, "maps_url": "https://www.google.com/maps/place/?q=place_id:0x287f4302b710265b:0x1739ec65d130270c"}, {"place_id": "0x390ce199baaaaaab:0xfe814f9c9c563447", "name": "Food Machine Equipment Co.", "category": "Food machinery supplier", "street": "107 B,2nd Floor", "city": "Khanpur Village, Khanpur", "phone": "09871968070", "website": "http://foodmachineequipment.com/", "rating": 4.7, "review_count": "", "latitude": 28.513876099999997, "longitude": 77.2312183, "maps_url": "https://www.google.com/maps/place/?q=place_id:0x390ce199baaaaaab:0xfe814f9c9c563447"}, {"place_id": "0x390ce14550745dd3:0x1935fbd68442b7b3", "name": "Shri Nath Trading Co.", "category": "Tile manufacturer", "street": "677/18", "city": "Ashok Vatika, Deoli Gaon Nai Basti, Khanpur", "phone": "08860461154", "website": "https://www.sntcmosaic.com/", "rating": 5, "review_count": "", "latitude": 28.505709, "longitude": 77.234352, "maps_url": "https://www.google.com/maps/place/?q=place_id:0x390ce14550745dd3:0x1935fbd68442b7b3"}, {"place_id": "0x390ce15bac92be69:0x59fb78d18cf4cff2", "name": "PRD & Associates - Company Secretaries", "category": "Consultant", "street": "L1", "city": "941/18", "phone": "08368648999", "website": "", "rating": 4.8, "review_count": "", "latitude": 28.4946184, "longitude": 77.2287387, "maps_url": "https://www.google.com/maps/place/?q=place_id:0x390ce15bac92be69:0x59fb78d18cf4cff2"}, {"place_id": "0x390ce1dbd05c1a01:0x349a0cfd13747c58", "name": "Speed Clothing Company", "category": "Clothing store", "street": "Ground Floor", "city": "A-13, Devli Rd", "phone": "09953906043", "website": "", "rating": 4, "review_count": "", "latitude": 28.5090476, "longitude": 77.2324245, "maps_url": "https://www.google.com/maps/place/?q=place_id:0x390ce1dbd05c1a01:0x349a0cfd13747c58"}, {"place_id": "0x390ce1a110802163:0x709205fdc356132a", "name": "S. K. Traders", "category": "Electronics store", "street": "Shop No. 82, Gali No. 1", "city": "DDA Flats Rd", "phone": "09654297821", "website": "", "rating": 5, "review_count": "", "latitude": 28.5066965, "longitude": 77.23685499999999, "maps_url": "https://www.google.com/maps/place/?q=place_id:0x390ce1a110802163:0x709205fdc356132a"}, {"place_id": "0x390ce1a36c888245:0x7469b7449cb0432f", "name": "Quintessence Consulting", "category": "Business management consultant", "street": "A 57, Devli Rd", "city": "Deoli, Raju Park, Khanpur", "phone": "09311111001", "website": "http://www.quint-essence.com/", "rating": "", "review_count": "", "latitude": 28.5054552, "longitude": 77.23078009999999, "maps_url": "https://www.google.com/maps/place/?q=place_id:0x390ce1a36c888245:0x7469b7449cb0432f"}, {"place_id": "0x390ce1a412473d39:0x301e081fd92c17e", "name": "Ramdoot Apartment", "category": "Apartment building", "street": "G63M+CCW", "city": "Block B, Devli, Sangam Vihar", "phone": "", "website": "", "rating": 3.7, "review_count": "", "latitude": 28.5036044, "longitude": 77.23359169999999, "maps_url": "https://www.google.com/maps/place/?q=place_id:0x390ce1a412473d39:0x301e081fd92c17e"}, {"place_id": "0xfb397df4613fe37:0x5d1053e1fd04955d", "name": "Shirobyte Solutions", "category": "Software company", "street": "", "city": "", "phone": "08802873644", "website": "https://www.shirobyte.com/", "rating": "", "review_count": "", "latitude": 8.688613, "longitude": 32.9366549, "maps_url": "https://www.google.com/maps/place/?q=place_id:0xfb397df4613fe37:0x5d1053e1fd04955d"}, {"place_id": "0x390ce10b355a40c3:0x2140b0b2b53ac078", "name": "Excitel Broadband", "category": "Internet service provider", "street": "No 309", "city": "Balmiki Colony, Devli, Sangam Vihar", "phone": "01169657070", "website": "https://broadband-nearme.excitel.com/excitel-broadband-om-network-internet-service-provider-deoli-new-delhi-206320/Home?utm_source=locator&utm_medium=googleplaces", "rating": 5, "review_count": "", "latitude": 28.5036095, "longitude": 77.2327624, "maps_url": "https://www.google.com/maps/place/?q=place_id:0x390ce10b355a40c3:0x2140b0b2b53ac078"}, {"place_id": "0x390ce1c5530a5631:0xcc057f152cf90041", "name": "RBR ORIGINALS", "category": "Clothing manufacturer", "street": "Durga Vihar, Devli, Deoli Khanpur", "city": "New Delhi, Delhi 110080", "phone": "", "website": "https://www.rbroriginals.com/?utm_source=google&utm_medium=wix_google_business_profile&utm_campaign=5662179470052192422", "rating": 3.4, "review_count": "", "latitude": 28.5019207, "longitude": 77.2297379, "maps_url": "https://www.google.com/maps/place/?q=place_id:0x390ce1c5530a5631:0xcc057f152cf90041"}, {"place_id": "0x390ce1a6fa34753d:0x574a3a15e37f4672", "name": "Lodhi Enterprises", "category": "Hardware store", "street": "B/1107", "city": "Block B, Devli, Sangam Vihar", "phone": "09555204005", "website": "", "rating": 4.1, "review_count": "", "latitude": 28.5021751, "longitude": 77.23739499999999, "maps_url": "https://www.google.com/maps/place/?q=place_id:0x390ce1a6fa34753d:0x574a3a15e37f4672"}, {"place_id": "0x390ce138287b2be5:0xcf198d147af514d3", "name": "Sadhna Borewell Company | Borewell | Submersible Pump Repair | Rainwater Harvesting Well System | Pump & Motor Repair", "category": "Drilling contractor", "street": "L-1st Street, No 12", "city": "near sattu sangwan banquet hall", "phone": "", "website": "https://www.instagram.com/sadhnaborewellcompany_17?igsh=bHlucWZoMXE5ZXI3", "rating": 5, "review_count": "", "latitude": 28.4938234, "longitude": 77.2257154, "maps_url": "https://www.google.com/maps/place/?q=place_id:0x390ce138287b2be5:0xcf198d147af514d3"}, {"place_id": "0x390ce10455bf2c55:0x7540a4ea27753bf", "name": "Bhandari Fire Safety", "category": "Fire protection equipment supplier", "street": "Khasra no", "city": "596/7b", "phone": "09999778793", "website": "https://www.bhandarifiresafety.com/", "rating": 5, "review_count": "", "latitude": 28.5018544, "longitude": 77.23114389999999, "maps_url": "https://www.google.com/maps/place/?q=place_id:0x390ce10455bf2c55:0x7540a4ea27753bf"}, {"place_id": "0x390ce106f3a61cf5:0x52120f4e41befb9b", "name": "SSK& COMPANY", "category": "Computer support and services", "street": "", "city": "", "phone": "", "website": "", "rating": "", "review_count": "", "latitude": 28.470720399999998, "longitude": 77.378811, "maps_url": "https://www.google.com/maps/place/?q=place_id:0x390ce106f3a61cf5:0x52120f4e41befb9b"}]}