{"timestamp": 1773731436.188433, "keyword": "IT company", "location": "delhi", "cell_idx": 391, "results": [{"place_id": "0x390ce458d0000001:0xf2123bd299ec4501", "name": "IT Company India", "category": "Software company", "street": "D56", "city": "D Block, Sector 10", "phone": "09999244854", "website": "https://www.itcompanyindia.in/", "rating": 4.7, "review_count": "", "latitude": 28.589917699999997, "longitude": 77.3351153, "maps_url": "https://www.google.com/maps/place/?q=place_id:0x390ce458d0000001:0xf2123bd299ec4501"}, {"place_id": "0x390ce3c153b89811:0xe7a279685777e9ca", "name": "IT Company", "category": "Automation company", "street": "A-14", "city": "near iskcon temple", "phone": "", "website": "http://www.opuswiz.com/", "rating": 3, "review_count": "", "latitude": 28.557167, "longitude": 77.25424819999999, "maps_url": "https://www.google.com/maps/place/?q=place_id:0x390ce3c153b89811:0xe7a279685777e9ca"}, {"place_id": "0x390d1d95931171db:0xf4c24d49d831b27", "name": "Muniwar Technologies Private Limited", "category": "Website designer", "street": "2nd Floor", "city": "Hanuman Mandir Market", "phone": "01143050611", "website": "https://www.muniwar.com/", "rating": 4.4, "review_count": "", "latitude": 28.557070699999997, "longitude": 77.1732794, "maps_url": "https://www.google.com/maps/place/?q=place_id:0x390d1d95931171db:0xf4c24d49d831b27"}, {"place_id": "0x390d1d86a4f12173:0x3a6b42ea6f4b8260", "name": "Softvanz Technologies Private Limited", "category": "Software company", "street": "Somdutt Chamber 1", "city": "BT-22/9", "phone": "", "website": "https://softvanz.com/", "rating": 5, "review_count": "", "latitude": 28.567948899999998, "longitude": 77.1889269, "maps_url": "https://www.google.com/maps/place/?q=place_id:0x390d1d86a4f12173:0x3a6b42ea6f4b8260"}, {"place_id": "0x390ce1597b5509e5:0xfd8209b937b44d3c", "name": "IT Solutions India Private Limited", "category": "Software company", "street": "D-88/5", "city": "Pocket D, Okhla Phase I, Okhla Industrial Estate", "phone": "09810017429", "website": "https://www.itsipl.com/", "rating": 4.2, "review_count": "", "latitude": 28.520146, "longitude": 77.280431, "maps_url": "https://www.google.com/maps/place/?q=place_id:0x390ce1597b5509e5:0xfd8209b937b44d3c"}, {"place_id": "0x390d1d9ce0eaada3:0xc5a1a0a2458099e3", "name": "CODENCREATIVE TECH PVT LTD", "category": "Software company", "street": "DDA Flat", "city": "RBI Officers Colony, Vasant Vihar", "phone": "09717047610", "website": "https://codencreative.com/", "rating": 4.9, "review_count": "", "latitude": 28.563302099999998, "longitude": 77.1519732, "maps_url": "https://www.google.com/maps/place/?q=place_id:0x390d1d9ce0eaada3:0xc5a1a0a2458099e3"}, {"place_id": "0x8a77b9133d00e1d5:0xdc22385e31357395", "name": "Codologi IT Solutions Pvt Ltd", "category": "Software company", "street": "F-2/401", "city": "near Budh Vihar Street", "phone": "09999687725", "website": "https://codologi.in/", "rating": 5, "review_count": "", "latitude": 28.553921199999998, "longitude": 77.171915, "maps_url": "https://www.google.com/maps/place/?q=place_id:0x8a77b9133d00e1d5:0xdc22385e31357395"}, {"place_id": "0x390d1daf5bbb6d71:0xd493e8d457a28388", "name": "DPM IT SOLUTIONS", "category": "Software company", "street": "2nd floor, madangiri", "city": "111, E-2", "phone": "09650413450", "website": "https://dpmitsolutions.com/", "rating": 5, "review_count": "", "latitude": 28.565620799999998, "longitude": 77.16005679999999, "maps_url": "https://www.google.com/maps/place/?q=place_id:0x390d1daf5bbb6d71:0xd493e8d457a28388"}, {"place_id": "0x390d165555555555:0xf57c20f7d07d8fd1", "name": "Teckinfo Solutions Pvt Ltd", "category": "Software company", "street": "1/1 BA, 3rd Floor, Mohammadpur,", "city": "Bhikaji Cama Place", "phone": "01149605500", "website": "https://www.teckinfo.com/", "rating": 4.6, "review_count": "", "latitude": 28.566004099999997, "longitude": 77.187579, "maps_url": "https://www.google.com/maps/place/?q=place_id:0x390d165555555555:0xf57c20f7d07d8fd1"}, {"place_id": "0x390d02e54cb57e51:0x9b728fddc9aa673e", "name": "IT Solutions & Services (ITSS)", "category": "Computer support and services", "street": "T\u20132425 Street Number 21, Baljeet Nagar", "city": "West Patel Nagar", "phone": "08800419462", "website": "https://www.itssin.com/", "rating": 4.7, "review_count": "", "latitude": 28.6576111, "longitude": 77.160708, "maps_url": "https://www.google.com/maps/place/?q=place_id:0x390d02e54cb57e51:0x9b728fddc9aa673e"}, {"place_id": "0x390d02994de5e515:0xd908bc03409a0d37", "name": "Himalayan IT Solutions | Best Website Designing Company in Delhi | SEO/Digital Marketing Company in Delhi NCR, India", "category": "Website designer", "street": "61/4255, Padam Singh Rd", "city": "Block 29, Block 1, Regar Pura, Karol Bagh", "phone": "09899098509", "website": "http://www.himalayanitsolutions.com/", "rating": 3.9, "review_count": "", "latitude": 28.649673999999997, "longitude": 77.186599, "maps_url": "https://www.google.com/maps/place/?q=place_id:0x390d02994de5e515:0xd908bc03409a0d37"}, {"place_id": "0x390ce5fdcc79e755:0x309ce99251b84ef6", "name": "Optyminds IT Solutions - Top AI and IT company I Best Digital agency in Noida | Delhi NCR | India", "category": "Software company", "street": "1st Floor", "city": "B-70", "phone": "08929075975", "website": "https://optyminds.com/", "rating": 4.9, "review_count": "", "latitude": 28.584679599999998, "longitude": 77.3135042, "maps_url": "https://www.google.com/maps/place/?q=place_id:0x390ce5fdcc79e755:0x309ce99251b84ef6"}, {"place_id": "0x390d0306a5205339:0xc8417239bcfe9f11", "name": "RSS INFOTECH PVT.LTD", "category": "Software company", "street": "1st floor, Didar Complex", "city": "6 DLE Industrial Area office no -128,129", "phone": "09953134732", "website": "https://www.rssindia.com/", "rating": 4.5, "review_count": "", "latitude": 28.656828299999997, "longitude": 77.1425177, "maps_url": "https://www.google.com/maps/place/?q=place_id:0x390d0306a5205339:0xc8417239bcfe9f11"}, {"place_id": "0x390ce1fb44618b65:0x8e06b2a6128352d1", "name": "Acropolis Infotech - Delhi Office", "category": "Software company", "street": "metro station gate", "city": "55, 2nd Floor, Lane 2", "phone": "09999876593", "website": "https://www.acropolisinfotech.com/", "rating": 4.6, "review_count": "", "latitude": 28.518907, "longitude": 77.2015435, "maps_url": "https://www.google.com/maps/place/?q=place_id:0x390ce1fb44618b65:0x8e06b2a6128352d1"}, {"place_id": "0x390d1ca8de94abb1:0xc070687f1d5f8558", "name": "Bita Infotech IT Solutions:: Website Designing & Development Company", "category": "Software company", "street": "Rz-31 B, Street No. 5", "city": "Block M, West Sagarpur, Sagar Pur", "phone": "08178256664", "website": "https://bitainfotech.com/", "rating": 4.7, "review_count": "", "latitude": 28.6056495, "longitude": 77.1012293, "maps_url": "https://www.google.com/maps/place/?q=place_id:0x390d1ca8de94abb1:0xc070687f1d5f8558"}, {"place_id": "0x2a72b8b69d7b6493:0x11251466d4d34cac", "name": "WebZonal IT Company", "category": "Website designer", "street": "Wz-258/2-3, D Block Rd", "city": "Khazan Basti, Nangal Raya, Janakpuri", "phone": "09811170903", "website": "http://webzonal.com/", "rating": 5, "review_count": "", "latitude": 28.6122102, "longitude": 77.11159549999999, "maps_url": "https://www.google.com/maps/place/?q=place_id:0x2a72b8b69d7b6493:0x11251466d4d34cac"}, {"place_id": "0x390ce26dc4d4ba2d:0x9486a6d620e379f9", "name": "Akal Information Systems Ltd.", "category": "Software company", "street": "Tower J, World Trade Center", "city": "103", "phone": "01146503545", "website": "https://www.akalinfo.com/", "rating": 3.9, "review_count": "", "latitude": 28.567935499999997, "longitude": 77.1923202, "maps_url": "https://www.google.com/maps/place/?q=place_id:0x390ce26dc4d4ba2d:0x9486a6d620e379f9"}, {"place_id": "0x390ce2305c00002d:0x9f7efbacdc0d8271", "name": "ICO WebTech Pvt. Ltd. - Website Designing Company in Delhi", "category": "Website designer", "street": "J E 5, Ground Floor, Khirki Extension, Malviya Nagar", "city": "New Delhi, Delhi 110017", "phone": "08447380262", "website": "https://www.icowebsolutions.com/", "rating": 4.6, "review_count": "", "latitude": 28.535594, "longitude": 77.21577099999999, "maps_url": "https://www.google.com/maps/place/?q=place_id:0x390ce2305c00002d:0x9f7efbacdc0d8271"}, {"place_id": "0x390d0388eb1134b7:0x923b38f37bf6abe4", "name": "Techquench Solution - Best IT Company provide Digital Marketing and Software Solution in Paschim Vihar New Delhi NCR.", "category": "Internet marketing service", "street": "103 First", "city": "DMALL", "phone": "09355008575", "website": "https://www.techquenchsolution.com/", "rating": 4.9, "review_count": "", "latitude": 28.6924855, "longitude": 77.1526042, "maps_url": "https://www.google.com/maps/place/?q=place_id:0x390d0388eb1134b7:0x923b38f37bf6abe4"}, {"place_id": "0x390cfd36df0d730b:0xd425c6f106d9cf8", "name": "I. T. Solutions", "category": "Computer repair service", "street": "Gate No. 8", "city": "A-6, 1st Floor, Inner Circle, Above Post office", "phone": "01141523242", "website": "http://www.itsolutioncp.com/", "rating": 4.9, "review_count": "", "latitude": 28.6324367, "longitude": 77.2183441, "maps_url": "https://www.google.com/maps/place/?q=place_id:0x390cfd36df0d730b:0xd425c6f106d9cf8"}, {"place_id": "0x390feda4c4f56aed:0x2277b287e38fc0ec", "name": "Dizivan IT Solutions Pvt Ltd- App Development & Digital Marketing Company", "category": "Software company", "street": "near Metro Station New Ashok Nagar", "city": "Block B, New Ashok Nagar", "phone": "09142092979", "website": "https://dizivan.com/", "rating": 5, "review_count": "", "latitude": 28.5891575, "longitude": 77.3020624, "maps_url": "https://www.google.com/maps/place/?q=place_id:0x390feda4c4f56aed:0x2277b287e38fc0ec"}, {"place_id": "0x390ce3003fffffe3:0x1dd892a28603e769", "name": "Corporate Infotech Pvt Ltd.", "category": "Software company", "street": "E-81", "city": "E Block, Sector 6", "phone": "1800116474", "website": "https://cipl.org.in/", "rating": 4.4, "review_count": "", "latitude": 28.5937284, "longitude": 77.3206974, "maps_url": "https://www.google.com/maps/place/?q=place_id:0x390ce3003fffffe3:0x1dd892a28603e769"}, {"place_id": "0x390d1f5abfb25fe1:0x7d9c4d5e159f2955", "name": "Jaimru Technology Pvt Ltd", "category": "Software company", "street": "WARD NO. 2", "city": "Plot No. 178 M 33 A/1", "phone": "07838153420", "website": "https://www.jaimru.com/", "rating": 4.9, "review_count": "", "latitude": 28.524347499999998, "longitude": 77.1731889, "maps_url": "https://www.google.com/maps/place/?q=place_id:0x390d1f5abfb25fe1:0x7d9c4d5e159f2955"}, {"place_id": "0x390ce3d606c913ef:0xd246bd5631eb2cad", "name": "Delvetech", "category": "Software company", "street": "87A/1, 3rd Floor, Opp. Block N-115, G.K-1, Near Moolchand Merto", "city": "Block B, Zamrudpur, Greater Kailash", "phone": "09873895154", "website": "http://www.delvetech.co.in/", "rating": 4.1, "review_count": "", "latitude": 28.5570597, "longitude": 77.2356981, "maps_url": "https://www.google.com/maps/place/?q=place_id:0x390ce3d606c913ef:0xd246bd5631eb2cad"}, {"place_id": "0x390d1d5a6700fa97:0x62cdfb3b3813acb3", "name": "Kaushal Bhawan", "category": "Corporate office", "street": "New Moti Bagh", "city": "New Delhi, Delhi 110023", "phone": "", "website": "", "rating": 4.1, "review_count": "", "latitude": 28.5808413, "longitude": 77.1885896, "maps_url": "https://www.google.com/maps/place/?q=place_id:0x390d1d5a6700fa97:0x62cdfb3b3813acb3"}, {"place_id": "0x390ce3b7c0000001:0x46ddd80ee502d937", "name": "Amtrak Technologies Private Limited", "category": "Computer support and services", "street": "6, Community Centre", "city": "East of Kailash", "phone": "01126448000", "website": "https://amtrak.co.in/", "rating": 4.4, "review_count": "", "latitude": 28.558434899999998, "longitude": 77.2463302, "maps_url": "https://www.google.com/maps/place/?q=place_id:0x390ce3b7c0000001:0x46ddd80ee502d937"}, {"place_id": "0x390d1df08092847b:0xefdfe862c9d36291", "name": "National Skill Development Corporation", "category": "Non-profit organization", "street": "5th & 6th Floor", "city": "Kaushal Bhawan", "phone": "01147451600", "website": "https://www.nsdcindia.org/", "rating": 4.4, "review_count": "", "latitude": 28.5808671, "longitude": 77.1887264, "maps_url": "https://www.google.com/maps/place/?q=place_id:0x390d1df08092847b:0xefdfe862c9d36291"}, {"place_id": "0x390ce45bcd61048f:0x5f6a5602f4155df7", "name": "JK Technosoft Limited", "category": "Software company", "street": "F", "city": "3", "phone": "01204606300", "website": "https://jktech.com/", "rating": 4.2, "review_count": "", "latitude": 28.5802509, "longitude": 77.31793329999999, "maps_url": "https://www.google.com/maps/place/?q=place_id:0x390ce45bcd61048f:0x5f6a5602f4155df7"}, {"place_id": "0x390d1be7f1a44f95:0x84524a5425f8930d", "name": "InfraDost Technologies Pvt Ltd.- Microsoft Adobe Corel Draw & Security Solution Provider", "category": "Software company", "street": "Gurgaon - Delhi Expy", "city": "Block B, Mahipalpur Village, Mahipalpur", "phone": "08287792542", "website": "http://www.infradost.com/", "rating": 4.6, "review_count": "", "latitude": 28.5485743, "longitude": 77.1264697, "maps_url": "https://www.google.com/maps/place/?q=place_id:0x390d1be7f1a44f95:0x84524a5425f8930d"}, {"place_id": "0x390cfd35391deb71:0xdbdd1388c7dc51b6", "name": "Jak Software Pvt Ltd", "category": "Software company", "street": "52 Janpath", "city": "New Delhi, Delhi 110001", "phone": "07827249056", "website": "http://www.jaksoftware.co.in/", "rating": 4.4, "review_count": "", "latitude": 28.627537999999998, "longitude": 77.21878989999999, "maps_url": "https://www.google.com/maps/place/?q=place_id:0x390cfd35391deb71:0xdbdd1388c7dc51b6"}, {"place_id": "0x390ce3cfe91504eb:0x55346c5c499223d7", "name": "CCS Computers Private Limited", "category": "Computer support and services", "street": "2nd-3rd Floor Skipper House", "city": "Nehru Place", "phone": "01126463959", "website": "http://www.ccscomputers.co.in/", "rating": 4, "review_count": "", "latitude": 28.550090599999997, "longitude": 77.2537834, "maps_url": "https://www.google.com/maps/place/?q=place_id:0x390ce3cfe91504eb:0x55346c5c499223d7"}, {"place_id": "0x390ce3db460cee5f:0x47a6e8d4aa56a40f", "name": "Injoria Technologies: Website, Custome Software, Mobile Apps Development company", "category": "Computer support and services", "street": "Second Floor", "city": "Pandav Nagar Complex", "phone": "09911177045", "website": "", "rating": 4.5, "review_count": "", "latitude": 28.6215884, "longitude": 77.2842872, "maps_url": "https://www.google.com/maps/place/?q=place_id:0x390ce3db460cee5f:0x47a6e8d4aa56a40f"}, {"place_id": "0x390d1d841aaaaaab:0xa32856a97de4096b", "name": "BI Biotech India Pvt. Ltd. (Corporate Office)", "category": "Biotechnology company", "street": "328", "city": "Ansal Chamber-2", "phone": "01126101271", "website": "http://www.biotechindia.com/", "rating": 3.9, "review_count": "", "latitude": 28.5677649, "longitude": 77.187382, "maps_url": "https://www.google.com/maps/place/?q=place_id:0x390d1d841aaaaaab:0xa32856a97de4096b"}, {"place_id": "0x390ce25755122ea7:0x59e8215f1ba54e40", "name": "Ministry Of Marketing - Best Performance Marketing Agency", "category": "Advertising agency", "street": "7, Basrurkar Market Rd", "city": "Moti Bagh 1, Block D, Moti Bagh", "phone": "08700089990", "website": "http://www.ministryofmarketing.in/", "rating": 4.9, "review_count": "", "latitude": 28.581474099999998, "longitude": 77.1788444, "maps_url": "https://www.google.com/maps/place/?q=place_id:0x390ce25755122ea7:0x59e8215f1ba54e40"}, {"place_id": "0x390d1d7ce3391da9:0xaa286e4389c43b26", "name": "PORTACABIN", "category": "Portable building manufacturer", "street": "Shop No 30", "city": "Yashwant place", "phone": "09910999457", "website": "https://www.portacabin-india.com/", "rating": 4.2, "review_count": "", "latitude": 28.584235099999997, "longitude": 77.19179799999999, "maps_url": "https://www.google.com/maps/place/?q=place_id:0x390d1d7ce3391da9:0xaa286e4389c43b26"}, {"place_id": "0x390d036a16f841d9:0x9b91311b1453f4c0", "name": "Zon Tec Solutions", "category": "Software company", "street": "3rd Floor", "city": "302 - 302 A, West", "phone": "09599902185", "website": "https://zontecsolutions.com/", "rating": 4.1, "review_count": "", "latitude": 28.6382303, "longitude": 77.1205162, "maps_url": "https://www.google.com/maps/place/?q=place_id:0x390d036a16f841d9:0x9b91311b1453f4c0"}, {"place_id": "0x390d1ed3c6e9f579:0x322eccdb00f350d2", "name": "Techjockey", "category": "Software company", "street": "Ground floor, Habitat India", "city": "C-3", "phone": "01142213003", "website": "https://www.techjockey.com/", "rating": 4, "review_count": "", "latitude": 28.536615299999998, "longitude": 77.1902978, "maps_url": "https://www.google.com/maps/place/?q=place_id:0x390d1ed3c6e9f579:0x322eccdb00f350d2"}, {"place_id": "0x390d1d4e77aff9c1:0x5dcb2d916235e4e", "name": "Tiffany & Co., Delhi", "category": "Jewelry store", "street": "Commercial Complex, Yashwant place", "city": "The Chanakya Ground Floor", "phone": "08595405644", "website": "https://www.tiffany.co.in/", "rating": 4.4, "review_count": "", "latitude": 28.5848797, "longitude": 77.1908473, "maps_url": "https://www.google.com/maps/place/?q=place_id:0x390d1d4e77aff9c1:0x5dcb2d916235e4e"}, {"place_id": "0x390d1db0aef40171:0xb748a2e6079dd53d", "name": "YB INFORMATICS", "category": "Computer support and services", "street": "43, Poorvi Marg", "city": "Block A, Vasant Vihar", "phone": "09650920040", "website": "http://www.ybinformatics.com/", "rating": 5, "review_count": "", "latitude": 28.560817399999998, "longitude": 77.1666408, "maps_url": "https://www.google.com/maps/place/?q=place_id:0x390d1db0aef40171:0xb748a2e6079dd53d"}, {"place_id": "0x390d0302af76c545:0x97d6a46d40086acd", "name": "Solarman Technology Project Pvt Ltd - Digital Marketing Company in Delhi, India |Software Development Company | IT Company", "category": "Software company", "street": "6/14", "city": "Block 5, Kirti Nagar Industrial Area, Kirti Nagar", "phone": "07428086779", "website": "https://solarmantech.in/", "rating": 5, "review_count": "", "latitude": 28.6517841, "longitude": 77.14799649999999, "maps_url": "https://www.google.com/maps/place/?q=place_id:0x390d0302af76c545:0x97d6a46d40086acd"}, {"place_id": "0x390d1d7b7567b701:0x4a6cc44dc8436db4", "name": "Ginger Chanakyapuri", "category": "Hotel", "street": "No. 13A-16D, Maharaja Surajmal Ln", "city": "near Lakhswadeep Guest House", "phone": "01124677392", "website": "https://www.gingerhotels.com/hotels/ginger-delhi-chanakyapuri?utm_source=google&utm_medium=hotelgmb&utm_campaign=chanakyapuri_gmb", "rating": 4.3, "review_count": "", "latitude": 28.5840018, "longitude": 77.18729909999999, "maps_url": "https://www.google.com/maps/place/?q=place_id:0x390d1d7b7567b701:0x4a6cc44dc8436db4"}, {"place_id": "0x390cfd355ca0fea9:0x1f2be0f1ef6dbdcf", "name": "Vayam Technologies Ltd.", "category": "Corporate office", "street": "Thapar House", "city": "124, Janpath Ln", "phone": "01147101200", "website": "https://www.vayamtech.com/", "rating": 3.8, "review_count": "", "latitude": 28.624508, "longitude": 77.21805499999999, "maps_url": "https://www.google.com/maps/place/?q=place_id:0x390cfd355ca0fea9:0x1f2be0f1ef6dbdcf"}, {"place_id": "0x390d02994de5e515:0xd908bc03409a0d37", "name": "Himalayan IT Solutions | Best Website Designing Company in Delhi | SEO/Digital Marketing Company in Delhi NCR, India", "category": "Software company", "street": "61/4255, Padam Singh Rd", "city": "Block 29, Block 1, Regar Pura, Karol Bagh", "phone": "09899098509", "website": "http://www.himalayanitsolutions.com/", "rating": 3.9, "review_count": "", "latitude": 28.649673999999997, "longitude": 77.186599, "maps_url": "https://www.google.com/maps/place/?q=place_id:0x390d02994de5e515:0xd908bc03409a0d37"}, {"place_id": "0x390ce3860c81c723:0xc5f50e43c0a86a3e", "name": "Nextr Technology", "category": "Software company", "street": "2nd Floor", "city": "1483/A-1", "phone": "09911751575", "website": "http://www.nextr.in/", "rating": 4.9, "review_count": "", "latitude": 28.574374, "longitude": 77.224284, "maps_url": "https://www.google.com/maps/place/?q=place_id:0x390ce3860c81c723:0xc5f50e43c0a86a3e"}, {"place_id": "0x390cfd35391deb71:0xdbdd1388c7dc51b6", "name": "Jak Software Pvt Ltd", "category": "Software company", "street": "52 Janpath", "city": "New Delhi, Delhi 110001", "phone": "07827249056", "website": "http://www.jaksoftware.co.in/", "rating": 4.4, "review_count": "", "latitude": 28.627537999999998, "longitude": 77.21878989999999, "maps_url": "https://www.google.com/maps/place/?q=place_id:0x390cfd35391deb71:0xdbdd1388c7dc51b6"}, {"place_id": "0x390feda4c4f56aed:0x2277b287e38fc0ec", "name": "Dizivan IT Solutions Pvt Ltd- App Development & Digital Marketing Company", "category": "Software company", "street": "near Metro Station New Ashok Nagar", "city": "Block B, New Ashok Nagar", "phone": "09142092979", "website": "https://dizivan.com/", "rating": 5, "review_count": "", "latitude": 28.5891575, "longitude": 77.3020624, "maps_url": "https://www.google.com/maps/place/?q=place_id:0x390feda4c4f56aed:0x2277b287e38fc0ec"}, {"place_id": "0x390d03fd9307cd73:0x7a223a0902c6e0cd", "name": "Web Cloud Technology", "category": "Website designer", "street": "3A/74 W.E.A", "city": "Sat Nagar, Karol Bagh", "phone": "08882324811", "website": "https://webcloudtechnology.in/", "rating": 4.4, "review_count": "", "latitude": 28.6465632, "longitude": 77.1824149, "maps_url": "https://www.google.com/maps/place/?q=place_id:0x390d03fd9307cd73:0x7a223a0902c6e0cd"}, {"place_id": "0x390d1d00458dd353:0xb16e3083adc1bdca", "name": "New Moti Bagh", "category": "Condominium complex", "street": "Tower 3", "city": "New Moti Bagh", "phone": "", "website": "", "rating": 5, "review_count": "", "latitude": 28.5786293, "longitude": 77.1841542, "maps_url": "https://www.google.com/maps/place/?q=place_id:0x390d1d00458dd353:0xb16e3083adc1bdca"}, {"place_id": "0x390ce23eeab015ab:0x92d6a7e8dbc46e1a", "name": "Odyssey Website Development Company", "category": "Website designer", "street": "B-59", "city": "Block B, Soami Nagar South, Soami Nagar", "phone": "09654486464", "website": "http://odysseyin.com/?utm_source=GMB&utm_medium=Organic&utm_term=Odyssey&utm_content=Listing&utm_campaign=GMB1", "rating": 3.6, "review_count": "", "latitude": 28.541823599999997, "longitude": 77.2262008, "maps_url": "https://www.google.com/maps/place/?q=place_id:0x390ce23eeab015ab:0x92d6a7e8dbc46e1a"}, {"place_id": "0x390d1d7adcbf2067:0xb50321f99fb8dd3f", "name": "The Czech Embassy - Chanakyapuri, New Delhi, Delhi, India", "category": "Embassy", "street": "50-M, Niti Marg", "city": "Chanakyapuri", "phone": "", "website": "http://www.mzv.cz/newdelhi", "rating": 3.5, "review_count": "", "latitude": 28.5846651, "longitude": 77.1859413, "maps_url": "https://www.google.com/maps/place/?q=place_id:0x390d1d7adcbf2067:0xb50321f99fb8dd3f"}, {"place_id": "0x390d1d7a370df30b:0x37de0d7cedbc648e", "name": "Tower 10, New Moti Bagh Colony, New Delhi", "category": "Housing complex", "street": "Tower 10, New Moti Bagh", "city": "New Delhi, Delhi 110021", "phone": "", "website": "", "rating": 4.4, "review_count": "", "latitude": 28.5813657, "longitude": 77.18525629999999, "maps_url": "https://www.google.com/maps/place/?q=place_id:0x390d1d7a370df30b:0x37de0d7cedbc648e"}, {"place_id": "0x390ce3b48e27a563:0x4ec8ae3c524366b", "name": "iSOFT INDIA TECHNOLOGIES", "category": "Software company", "street": "E-168|169, Amar Colony, Lajpat Nagar", "city": "New Delhi, Delhi 110024", "phone": "09717978320", "website": "", "rating": 4.9, "review_count": "", "latitude": 28.5657368, "longitude": 77.23946029999999, "maps_url": "https://www.google.com/maps/place/?q=place_id:0x390ce3b48e27a563:0x4ec8ae3c524366b"}, {"place_id": "0x390ce25755122ea7:0x59e8215f1ba54e40", "name": "Ministry Of Marketing - Best Performance Marketing Agency", "category": "Advertising agency", "street": "7, Basrurkar Market Rd", "city": "Moti Bagh 1, Block D, Moti Bagh", "phone": "08700089990", "website": "http://www.ministryofmarketing.in/", "rating": 4.9, "review_count": "", "latitude": 28.581474099999998, "longitude": 77.1788444, "maps_url": "https://www.google.com/maps/place/?q=place_id:0x390ce25755122ea7:0x59e8215f1ba54e40"}, {"place_id": "0x390d046160cbfd05:0x61b16861a432d74c", "name": "Datar Security Service Group company", "category": "Security service", "street": "201, Second Floor", "city": "Bhikaji Cama Place, Bhawan II", "phone": "18001204131", "website": "http://www.dssg.in/", "rating": 3.9, "review_count": "", "latitude": 28.5690264, "longitude": 77.1872187, "maps_url": "https://www.google.com/maps/place/?q=place_id:0x390d046160cbfd05:0x61b16861a432d74c"}, {"place_id": "0x390d03adaef37299:0xd8b343093deaee7", "name": "Ruminate IT Solution | Best software company in Delhi NCR | IT Software company", "category": "Software company", "street": "C-64", "city": "Pocket B, Hari Nagar", "phone": "09625650376", "website": "https://www.ruminateitsolution.com/", "rating": 5, "review_count": "", "latitude": 28.628819, "longitude": 77.10428399999999, "maps_url": "https://www.google.com/maps/place/?q=place_id:0x390d03adaef37299:0xd8b343093deaee7"}, {"place_id": "0x390ce3cfe91504eb:0x55346c5c499223d7", "name": "CCS Computers Private Limited", "category": "Computer support and services", "street": "2nd-3rd Floor Skipper House", "city": "Nehru Place", "phone": "01126463959", "website": "http://www.ccscomputers.co.in/", "rating": 4, "review_count": "", "latitude": 28.550090599999997, "longitude": 77.2537834, "maps_url": "https://www.google.com/maps/place/?q=place_id:0x390ce3cfe91504eb:0x55346c5c499223d7"}, {"place_id": "0x390d1d4e77aff9c1:0x5dcb2d916235e4e", "name": "Tiffany & Co., Delhi", "category": "Jewelry store", "street": "Commercial Complex, Yashwant place", "city": "The Chanakya Ground Floor", "phone": "08595405644", "website": "https://www.tiffany.co.in/", "rating": 4.4, "review_count": "", "latitude": 28.5848797, "longitude": 77.1908473, "maps_url": "https://www.google.com/maps/place/?q=place_id:0x390d1d4e77aff9c1:0x5dcb2d916235e4e"}, {"place_id": "0x390d1d655348a905:0xee95be3ffdcaa5e0", "name": "Embassy of the Philippines", "category": "Embassy", "street": "50-N, Nyaya Marg", "city": "Chanakyapuri", "phone": "01126889091", "website": "http://newdelhipe.dfa.gov.ph/", "rating": 3.4, "review_count": "", "latitude": 28.5852762, "longitude": 77.18278339999999, "maps_url": "https://www.google.com/maps/place/?q=place_id:0x390d1d655348a905:0xee95be3ffdcaa5e0"}, {"place_id": "0x390d1d13ebffffe1:0xe35273206cc9bd89", "name": "Detective Guru Rahul Rai Gupta - Secret Watch Detectives Pvt. Ltd.", "category": "Corporate office", "street": "284, 3rd Floor", "city": "Satya Niketan", "phone": "08826267700", "website": "https://secretwatchdetectives.com/", "rating": 4.9, "review_count": "", "latitude": 28.588499799999997, "longitude": 77.1687652, "maps_url": "https://www.google.com/maps/place/?q=place_id:0x390d1d13ebffffe1:0xe35273206cc9bd89"}, {"place_id": "0x390ce20c05555555:0x15fe85e8b5322da8", "name": "DCC SUPPLY CHAIN & DISTRIBUTION LLP formerly known as Dairy Chem Corporation", "category": "Cold storage facility", "street": "Community Center", "city": "AB -17", "phone": "09899972766", "website": "", "rating": 5, "review_count": "", "latitude": 28.5661591, "longitude": 77.19903819999999, "maps_url": "https://www.google.com/maps/place/?q=place_id:0x390ce20c05555555:0x15fe85e8b5322da8"}, {"place_id": "0x390d0331f8fa9037:0xbf316ec71fe5896d", "name": "Web Development Company in South West Delhi - MSN Technologies", "category": "Software company", "street": "Mahatma Gandhi Rd", "city": "Block WZ, Naraina", "phone": "08800388071", "website": "http://www.msntechnologies.org/", "rating": 5, "review_count": "", "latitude": 28.621692, "longitude": 77.1363598, "maps_url": "https://www.google.com/maps/place/?q=place_id:0x390d0331f8fa9037:0xbf316ec71fe5896d"}, {"place_id": "0x390d1dd7ee2437c7:0xbb97265e67fde1c7", "name": "Perona", "category": "Clothing store", "street": "201, The Chanakya", "city": "Chanakyapuri", "phone": "01126871100", "website": "https://www.perona.com/", "rating": 4.6, "review_count": "", "latitude": 28.584368299999998, "longitude": 77.1906705, "maps_url": "https://www.google.com/maps/place/?q=place_id:0x390d1dd7ee2437c7:0xbb97265e67fde1c7"}, {"place_id": "0x390d1da390af7a4d:0xa8f9984ec122a77a", "name": "Ethos Summit", "category": "Watch store", "street": "111, The Chanakya Mall, YPCC", "city": "Chanakyapuri", "phone": "09015654925", "website": "https://www.ethoswatches.com/locatestore/sdcm-new-delhi/", "rating": 4.3, "review_count": "", "latitude": 28.5848983, "longitude": 77.191561, "maps_url": "https://www.google.com/maps/place/?q=place_id:0x390d1da390af7a4d:0xa8f9984ec122a77a"}, {"place_id": "0x390d1d7cf175df85:0xc9be3324569ef298", "name": "TAJ Global leader", "category": "Shopping mall", "street": "SS COMPLEX, INFRONT OF YASHWANT PLACE", "city": "Chanakyapuri", "phone": "", "website": "", "rating": 4, "review_count": "", "latitude": 28.5846166, "longitude": 77.1917181, "maps_url": "https://www.google.com/maps/place/?q=place_id:0x390d1d7cf175df85:0xc9be3324569ef298"}, {"place_id": "0x390d1d187e8f18f3:0xd314c67dce19ccb4", "name": "IT Solutions", "category": "Computer service", "street": "Motilal Nehru Camp, Old JNU Campus, Munirka", "city": "New Delhi, Delhi 110067", "phone": "07838560178", "website": "https://computerservices365.wordpress.com/", "rating": 5, "review_count": "", "latitude": 28.5522942, "longitude": 77.178367, "maps_url": "https://www.google.com/maps/place/?q=place_id:0x390d1d187e8f18f3:0xd314c67dce19ccb4"}, {"place_id": "0x390d046160cbfd05:0x61b16861a432d74c", "name": "Datar Security Service Group company", "category": "Security service", "street": "201, Second Floor", "city": "Bhikaji Cama Place, Bhawan II", "phone": "18001204131", "website": "http://www.dssg.in/", "rating": 3.9, "review_count": "", "latitude": 28.5690264, "longitude": 77.1872187, "maps_url": "https://www.google.com/maps/place/?q=place_id:0x390d046160cbfd05:0x61b16861a432d74c"}, {"place_id": "0x390d1d716cb1e169:0xd1902c1772bb8fff", "name": "Khalsa Electronics", "category": "Electronics store", "street": "H5JH+HGC", "city": "Basrurkar Market Rd", "phone": "09910199019", "website": "", "rating": 4.1, "review_count": "", "latitude": 28.5814481, "longitude": 77.17875939999999, "maps_url": "https://www.google.com/maps/place/?q=place_id:0x390d1d716cb1e169:0xd1902c1772bb8fff"}, {"place_id": "0x390d1d0767850183:0xa2ab42b37f226960", "name": "PVR ECX Chanakyapuri Delhi", "category": "Movie theater", "street": "YPCC Mall", "city": "Yashwant place", "phone": "08800900009", "website": "https://www.pvrcinemas.com/cinemasessions/Delhi/PVR-ECX-Chanakyapuri-Delhi/404?utm_source=gmb_listing&utm_medium=website&utm_campaign=pvr_ecx_chanakyapuri_delhi", "rating": 4.5, "review_count": "", "latitude": 28.584435799999998, "longitude": 77.1911518, "maps_url": "https://www.google.com/maps/place/?q=place_id:0x390d1d0767850183:0xa2ab42b37f226960"}, {"place_id": "0x390cfb4bf15a6733:0xaf50e6f3c5fb7641", "name": "Digitals Daddy: Web & App Development Company", "category": "Website designer", "street": "Metro Gate No. 2", "city": "Nearest Sikandarpur", "phone": "09818286609", "website": "https://www.digitalsdaddy.com/", "rating": 4.9, "review_count": "", "latitude": 28.4847884, "longitude": 77.0922192, "maps_url": "https://www.google.com/maps/place/?q=place_id:0x390cfb4bf15a6733:0xaf50e6f3c5fb7641"}, {"place_id": "0x390d1d8baaaaaaab:0x81e02841f207d0f0", "name": "S SONY & COMPANY PVT. LTD", "category": "Real Estate Builders & Construction Company", "street": "G-4, ANUPAMA BUILDING II FLOOR", "city": "Hauz Khas", "phone": "01135002651", "website": "http://ssony.in/", "rating": 4.9, "review_count": "", "latitude": 28.5510508, "longitude": 77.2048471, "maps_url": "https://www.google.com/maps/place/?q=place_id:0x390d1d8baaaaaaab:0x81e02841f207d0f0"}, {"place_id": "0x390d1ddf376831d9:0x71cb6b8fdad501de", "name": "CIPELLA TRAVELS INDIA", "category": "Tour operator", "street": "shop 24", "city": "Yashwant place", "phone": "06006779374", "website": "https://cipella.com/", "rating": 4.9, "review_count": "", "latitude": 28.5852047, "longitude": 77.1916947, "maps_url": "https://www.google.com/maps/place/?q=place_id:0x390d1ddf376831d9:0x71cb6b8fdad501de"}, {"place_id": "0x390cfd3396f99f65:0xd97f147f067ace15", "name": "Shilpi Computers Private Limited", "category": "Corporate office", "street": "501-502", "city": "7, Tolstoy Rd", "phone": "01143500600", "website": "https://shilpisoft.com/", "rating": 3.9, "review_count": "", "latitude": 28.627693899999997, "longitude": 77.2244393, "maps_url": "https://www.google.com/maps/place/?q=place_id:0x390cfd3396f99f65:0xd97f147f067ace15"}, {"place_id": "0x390d03fd9307cd73:0x7a223a0902c6e0cd", "name": "Web Cloud Technology", "category": "Marketing agency", "street": "3A/74 W.E.A", "city": "Sat Nagar, Karol Bagh", "phone": "08882324811", "website": "https://webcloudtechnology.in/", "rating": 4.4, "review_count": "", "latitude": 28.6465632, "longitude": 77.1824149, "maps_url": "https://www.google.com/maps/place/?q=place_id:0x390d03fd9307cd73:0x7a223a0902c6e0cd"}, {"place_id": "0x390ce522a069537b:0xef06c643689ab6ef", "name": "Babbar Tours", "category": "Tour operator", "street": "Basrurkar Market Rd", "city": "Moti Bagh 1, Block D, North West Moti Bagh", "phone": "09971241477", "website": "", "rating": 5, "review_count": "", "latitude": 28.5823464, "longitude": 77.178545, "maps_url": "https://www.google.com/maps/place/?q=place_id:0x390ce522a069537b:0xef06c643689ab6ef"}, {"place_id": "0x390d1d7bd8f7d559:0x92f7772f2603d890", "name": "Tower 7 New Moti Bagh", "category": "Housing complex", "street": "New Moti Bagh Club House", "city": "5, CSC Suvidha Market, Netaji Nagar", "phone": "", "website": "", "rating": 4.6, "review_count": "", "latitude": 28.5805571, "longitude": 77.1867305, "maps_url": "https://www.google.com/maps/place/?q=place_id:0x390d1d7bd8f7d559:0x92f7772f2603d890"}, {"place_id": "0x390d1b0010fc2321:0x12e9154c815cf007", "name": "Prashant Dwivedi IT company", "category": "Warehouse", "street": "G3P5+GVC", "city": "Nayak Pura, Bijwasan", "phone": "", "website": "", "rating": "", "review_count": "", "latitude": 28.536316, "longitude": 77.059649, "maps_url": "https://www.google.com/maps/place/?q=place_id:0x390d1b0010fc2321:0x12e9154c815cf007"}, {"place_id": "0x390ce3c87abeddd9:0xa68500e49b658474", "name": "IT Magnum Opus", "category": "Computer support and services", "street": "P-31", "city": "Sriniwaspuri Extn, Block Q, Private Colony, Sri Niwaspuri", "phone": "", "website": "https://www.itmo.in/", "rating": 4.8, "review_count": "", "latitude": 28.5626805, "longitude": 77.2597913, "maps_url": "https://www.google.com/maps/place/?q=place_id:0x390ce3c87abeddd9:0xa68500e49b658474"}, {"place_id": "0x390d1d1323b91801:0x5a4843b2de9c70a6", "name": "SCG Contracts India Pvt. Ltd", "category": "Real Estate Builders & Construction Company", "street": "240, 3rd & 4th Floor, Satya Niketan", "city": "Ring Road", "phone": "01146032435", "website": "http://scgindia.com/", "rating": 4.4, "review_count": "", "latitude": 28.587790799999997, "longitude": 77.1703265, "maps_url": "https://www.google.com/maps/place/?q=place_id:0x390d1d1323b91801:0x5a4843b2de9c70a6"}]}