{"timestamp": 1773731493.4230726, "keyword": "IT company", "location": "delhi", "cell_idx": 468, "results": [{"place_id": "0x46d12742e05e473:0x5264b13ac6fcef02", "name": "Info Tech India", "category": "Software company", "street": "KAILASH BUILDING", "city": "1212, KG Marg", "phone": "", "website": "https://infotechindia.in/", "rating": 5, "review_count": "", "latitude": 28.629473299999997, "longitude": 77.22220159999999, "maps_url": "https://www.google.com/maps/place/?q=place_id:0x46d12742e05e473:0x5264b13ac6fcef02"}, {"place_id": "0x390ce458d0000001:0xf2123bd299ec4501", "name": "IT Company India", "category": "Software company", "street": "D56", "city": "D Block, Sector 10", "phone": "09999244854", "website": "https://www.itcompanyindia.in/", "rating": 4.7, "review_count": "", "latitude": 28.589917699999997, "longitude": 77.3351153, "maps_url": "https://www.google.com/maps/place/?q=place_id:0x390ce458d0000001:0xf2123bd299ec4501"}, {"place_id": "0x390ce3c153b89811:0xe7a279685777e9ca", "name": "IT Company", "category": "Automation company", "street": "A-14", "city": "near iskcon temple", "phone": "", "website": "http://www.opuswiz.com/", "rating": 3, "review_count": "", "latitude": 28.557167, "longitude": 77.25424819999999, "maps_url": "https://www.google.com/maps/place/?q=place_id:0x390ce3c153b89811:0xe7a279685777e9ca"}, {"place_id": "0x390cfd36df0d730b:0xd425c6f106d9cf8", "name": "I. T. Solutions", "category": "Software company", "street": "Gate No. 8", "city": "A-6, 1st Floor, Inner Circle, Above Post office", "phone": "01141523242", "website": "http://www.itsolutioncp.com/", "rating": 4.9, "review_count": "", "latitude": 28.6324367, "longitude": 77.2183441, "maps_url": "https://www.google.com/maps/place/?q=place_id:0x390cfd36df0d730b:0xd425c6f106d9cf8"}, {"place_id": "0x390cfd4b1d3ba695:0xb16c2090d9df4e5c", "name": "Infocera IT", "category": "Software company", "street": "First Floor", "city": "Block-L", "phone": "", "website": "https://infocera.in/", "rating": 4.7, "review_count": "", "latitude": 28.634275499999998, "longitude": 77.2217273, "maps_url": "https://www.google.com/maps/place/?q=place_id:0x390cfd4b1d3ba695:0xb16c2090d9df4e5c"}, {"place_id": "0x390ce2e52043e633:0x3ed44d79ea4bd91c", "name": "Wirecto", "category": "Software company", "street": "Triloki Colony", "city": "C-49", "phone": "09716670074", "website": "https://wirecto.app/", "rating": 5, "review_count": "", "latitude": 28.575404799999998, "longitude": 77.2250054, "maps_url": "https://www.google.com/maps/place/?q=place_id:0x390ce2e52043e633:0x3ed44d79ea4bd91c"}, {"place_id": "0x390d03d2e32b8b3b:0x82fa2b6b795ab600", "name": "Iraitech | Software Development Company", "category": "Software company", "street": "Central Square Complex 3, Unit No-1051, 1st Floor, Near Filmistan, DCM chowk", "city": "Bara Hindu Rao, Kishan Ganj", "phone": "08130104108", "website": "https://www.iraitech.com/", "rating": 4.1, "review_count": "", "latitude": 28.6631951, "longitude": 77.20308639999999, "maps_url": "https://www.google.com/maps/place/?q=place_id:0x390d03d2e32b8b3b:0x82fa2b6b795ab600"}, {"place_id": "0x390ce1597b5509e5:0xfd8209b937b44d3c", "name": "IT Solutions India Private Limited", "category": "Software company", "street": "D-88/5", "city": "Pocket D, Okhla Phase I, Okhla Industrial Estate", "phone": "09810017429", "website": "https://www.itsipl.com/", "rating": 4.2, "review_count": "", "latitude": 28.520146, "longitude": 77.280431, "maps_url": "https://www.google.com/maps/place/?q=place_id:0x390ce1597b5509e5:0xfd8209b937b44d3c"}, {"place_id": "0x390d02994de5e515:0xd908bc03409a0d37", "name": "Himalayan IT Solutions | Best Website Designing Company in Delhi | SEO/Digital Marketing Company in Delhi NCR, India", "category": "Software company", "street": "61/4255, Padam Singh Rd", "city": "Block 29, Block 1, Regar Pura, Karol Bagh", "phone": "09899098509", "website": "http://www.himalayanitsolutions.com/", "rating": 3.9, "review_count": "", "latitude": 28.649673999999997, "longitude": 77.186599, "maps_url": "https://www.google.com/maps/place/?q=place_id:0x390d02994de5e515:0xd908bc03409a0d37"}, {"place_id": "0x390cfcac5aaaaaed:0xa20ab2e7b400180", "name": "\ud835\udc68\ud835\udc76 \ud835\udc7a\ud835\udc90\ud835\udc87\ud835\udc95\ud835\udc98\ud835\udc82\ud835\udc93\ud835\udc86 \ud835\udc7a\ud835\udc90\ud835\udc8d\ud835\udc96\ud835\udc95\ud835\udc8a\ud835\udc90\ud835\udc8f Website Designing company-website development company-product promotion and ERP development company", "category": "Software company", "street": "1B", "city": "S-505", "phone": "01142603444", "website": "https://aosoftwaresolution.com/", "rating": 4.8, "review_count": "", "latitude": 28.6287195, "longitude": 77.2766171, "maps_url": "https://www.google.com/maps/place/?q=place_id:0x390cfcac5aaaaaed:0xa20ab2e7b400180"}, {"place_id": "0x390d1d86a4f12173:0x3a6b42ea6f4b8260", "name": "Softvanz Technologies Private Limited", "category": "Software company", "street": "Somdutt Chamber 1", "city": "BT-22/9", "phone": "", "website": "https://softvanz.com/", "rating": 5, "review_count": "", "latitude": 28.567948899999998, "longitude": 77.1889269, "maps_url": "https://www.google.com/maps/place/?q=place_id:0x390d1d86a4f12173:0x3a6b42ea6f4b8260"}, {"place_id": "0x390cfd554ee63851:0xea2adb2e36e4ce16", "name": "Globe Alley Tech. - Software Development Company", "category": "Software company", "street": "J6JG+6RW", "city": "119", "phone": "09910710140", "website": "http://globealley.us/", "rating": 4.9, "review_count": "", "latitude": 28.6306084, "longitude": 77.22708829999999, "maps_url": "https://www.google.com/maps/place/?q=place_id:0x390cfd554ee63851:0xea2adb2e36e4ce16"}, {"place_id": "0x39f89c0fb3b411eb:0xbe473f977e9b7558", "name": "Kbeatech - Digital Solutions Company", "category": "Software company", "street": "1893, 1st Floor", "city": "Uday Chand Marg", "phone": "", "website": "https://kbeatech.in/", "rating": 4.9, "review_count": "", "latitude": 28.571338299999997, "longitude": 77.2228884, "maps_url": "https://www.google.com/maps/place/?q=place_id:0x39f89c0fb3b411eb:0xbe473f977e9b7558"}, {"place_id": "0x390cfd36664c4e63:0xcce34350707b204e", "name": "DataSlexIndia | On-Demand Software Development Company", "category": "Software company", "street": "210,211,212 BMC House, N1", "city": "Middle Cir", "phone": "01124845172", "website": "https://dataslexindia.com/", "rating": 5, "review_count": "", "latitude": 28.630570499999997, "longitude": 77.2198088, "maps_url": "https://www.google.com/maps/place/?q=place_id:0x390cfd36664c4e63:0xcce34350707b204e"}, {"place_id": "0x390ce5fdcc79e755:0x309ce99251b84ef6", "name": "Optyminds IT Solutions - Top AI and IT company I Best Digital agency in Noida | Delhi NCR | India", "category": "Software company", "street": "1st Floor", "city": "B-70", "phone": "08929075975", "website": "https://optyminds.com/", "rating": 4.9, "review_count": "", "latitude": 28.584679599999998, "longitude": 77.3135042, "maps_url": "https://www.google.com/maps/place/?q=place_id:0x390ce5fdcc79e755:0x309ce99251b84ef6"}, {"place_id": "0x390ce3094f4a9af1:0xdc21c66946b829ad", "name": "BAUDHYANTRAM IT Solutions | Website Designing | Web Development | Software Company in Delhi", "category": "Software company", "street": "H82 2nd Floor", "city": "opposite Bengali Sweet Center", "phone": "07900899996", "website": "http://www.baudhyantram.in/", "rating": 4.8, "review_count": "", "latitude": 28.5695803, "longitude": 77.221047, "maps_url": "https://www.google.com/maps/place/?q=place_id:0x390ce3094f4a9af1:0xdc21c66946b829ad"}, {"place_id": "0x2a72b8b69d7b6493:0x11251466d4d34cac", "name": "WebZonal IT Company", "category": "Website designer", "street": "Wz-258/2-3, D Block Rd", "city": "Khazan Basti, Nangal Raya, Janakpuri", "phone": "09811170903", "website": "http://webzonal.com/", "rating": 5, "review_count": "", "latitude": 28.6122102, "longitude": 77.11159549999999, "maps_url": "https://www.google.com/maps/place/?q=place_id:0x2a72b8b69d7b6493:0x11251466d4d34cac"}, {"place_id": "0x390ce25e81555555:0xf93f773552127f47", "name": "SANEKT SOFTWARE SOLUTION", "category": "Software company", "street": "Top floor", "city": "H 11", "phone": "01141589565", "website": "http://sanekt.com/", "rating": 5, "review_count": "", "latitude": 28.571361, "longitude": 77.221733, "maps_url": "https://www.google.com/maps/place/?q=place_id:0x390ce25e81555555:0xf93f773552127f47"}, {"place_id": "0x390ce3b48e27a563:0x4ec8ae3c524366b", "name": "iSOFT INDIA TECHNOLOGIES", "category": "Software company", "street": "E-168|169, Amar Colony, Lajpat Nagar", "city": "New Delhi, Delhi 110024", "phone": "09717978320", "website": "", "rating": 4.9, "review_count": "", "latitude": 28.5657368, "longitude": 77.23946029999999, "maps_url": "https://www.google.com/maps/place/?q=place_id:0x390ce3b48e27a563:0x4ec8ae3c524366b"}, {"place_id": "0x390d165555555555:0xf57c20f7d07d8fd1", "name": "Teckinfo Solutions Pvt Ltd", "category": "Software company", "street": "1/1 BA, 3rd Floor, Mohammadpur,", "city": "Bhikaji Cama Place", "phone": "01149605500", "website": "https://www.teckinfo.com/", "rating": 4.6, "review_count": "", "latitude": 28.566004099999997, "longitude": 77.187579, "maps_url": "https://www.google.com/maps/place/?q=place_id:0x390d165555555555:0xf57c20f7d07d8fd1"}, {"place_id": "0x390feda4c4f56aed:0x2277b287e38fc0ec", "name": "Dizivan IT Solutions Pvt Ltd- App Development & Digital Marketing Company", "category": "Software company", "street": "near Metro Station New Ashok Nagar", "city": "Block B, New Ashok Nagar", "phone": "09142092979", "website": "https://dizivan.com/", "rating": 5, "review_count": "", "latitude": 28.5891575, "longitude": 77.3020624, "maps_url": "https://www.google.com/maps/place/?q=place_id:0x390feda4c4f56aed:0x2277b287e38fc0ec"}, {"place_id": "0x390ce3b3c0bff43d:0xabc41f336aea769f", "name": "5 Kushak Road", "category": "Technology park", "street": "5, Kushak Rd", "city": "Kushak Road, Teen Murti Marg Area", "phone": "", "website": "", "rating": 4.6, "review_count": "", "latitude": 28.6062157, "longitude": 77.20215259999999, "maps_url": "https://www.google.com/maps/place/?q=place_id:0x390ce3b3c0bff43d:0xabc41f336aea769f"}, {"place_id": "0x390d029cf3d42055:0x568de645f31e31dd", "name": "AI Micro Mind\u00aeTechnology", "category": "Software company", "street": "3rd Floor, 16/448", "city": "Block I, Building Number", "phone": "09818353030", "website": "http://micromind.in/", "rating": 4.8, "review_count": "", "latitude": 28.656936299999998, "longitude": 77.1817737, "maps_url": "https://www.google.com/maps/place/?q=place_id:0x390d029cf3d42055:0x568de645f31e31dd"}, {"place_id": "0x390cfdcc4be47a2d:0xbd6a23fa53037221", "name": "Web Players Technology- Website Designing Company in Central Delhi - Landing Page Designing Company in Delhi", "category": "Website designer", "street": "CP N-12 UPPER GROUND FLOOR MUNSI LAL BUILDING", "city": "Connaught Cir", "phone": "09717292583", "website": "https://www.web-players.co.in/", "rating": 5, "review_count": "", "latitude": 28.6315566, "longitude": 77.22262119999999, "maps_url": "https://www.google.com/maps/place/?q=place_id:0x390cfdcc4be47a2d:0xbd6a23fa53037221"}, {"place_id": "0x390cfcad2d191127:0x83c805201ec0a98e", "name": "IT Nucleus", "category": "Website designer", "street": "310, 3rd Floor, S-524, Aggarwal House Opp-Metro Pillar 27", "city": "School Block shakarpur, Laxmi Nagar", "phone": "01143001828", "website": "http://www.itnucleus.com/", "rating": 4.9, "review_count": "", "latitude": 28.629542599999997, "longitude": 77.2766257, "maps_url": "https://www.google.com/maps/place/?q=place_id:0x390cfcad2d191127:0x83c805201ec0a98e"}, {"place_id": "0x390ce26dc4d4ba2d:0x9486a6d620e379f9", "name": "Akal Information Systems Ltd.", "category": "Software company", "street": "Tower J, World Trade Center", "city": "103", "phone": "01146503545", "website": "https://www.akalinfo.com/", "rating": 3.9, "review_count": "", "latitude": 28.567935499999997, "longitude": 77.1923202, "maps_url": "https://www.google.com/maps/place/?q=place_id:0x390ce26dc4d4ba2d:0x9486a6d620e379f9"}, {"place_id": "0x390ce38a40d45f61:0xe34c49c2b75a112a", "name": "Restraunt Franchisee", "category": "Business management consultant", "street": "FLAT NO.10, TOP FLOOR, 58A", "city": "MAXMINT MARKETING & CONSULTING (OPC) PRIVATE LIMITED", "phone": "", "website": "https://restaurantfranchisee.in/", "rating": 4.7, "review_count": "", "latitude": 28.5998378, "longitude": 77.1966992, "maps_url": "https://www.google.com/maps/place/?q=place_id:0x390ce38a40d45f61:0xe34c49c2b75a112a"}, {"place_id": "0x390d025b435681cd:0xb0fd4285362080d0", "name": "Nyay Kesari \u0928\u094d\u092f\u093e\u092f \u0915\u0947\u0938\u0930\u0940 \u0938\u092e\u093e\u091a\u093e\u0930\u092a\u0924\u094d\u0930 delhi ka No.1(Kesari Business Media Group)", "category": "Corporate office", "street": "83, South Ave", "city": "South Avenue Area, President's Estate", "phone": "09953469534", "website": "", "rating": 5, "review_count": "", "latitude": 28.6063895, "longitude": 77.1993878, "maps_url": "https://www.google.com/maps/place/?q=place_id:0x390d025b435681cd:0xb0fd4285362080d0"}, {"place_id": "0x390cfd4003b035d5:0x710fbda5c1a9b3dc", "name": "TechMaa AI Innovations Pvt. Ltd.", "category": "Software company", "street": "3, SF", "city": "Kundan Mansion", "phone": "09910947998", "website": "https://www.techmaa.org/", "rating": 4.8, "review_count": "", "latitude": 28.6410409, "longitude": 77.23569549999999, "maps_url": "https://www.google.com/maps/place/?q=place_id:0x390cfd4003b035d5:0x710fbda5c1a9b3dc"}, {"place_id": "0x390ce300327a6381:0x7774e3875913502b", "name": "Coco NITI marg", "category": "Manufacturer", "street": "A company, 12th Rac", "city": "Chanakyapuri", "phone": "", "website": "", "rating": 4.8, "review_count": "", "latitude": 28.5997867, "longitude": 77.19618, "maps_url": "https://www.google.com/maps/place/?q=place_id:0x390ce300327a6381:0x7774e3875913502b"}, {"place_id": "0x390ce45bcd61048f:0x5f6a5602f4155df7", "name": "JK Technosoft Limited", "category": "Software company", "street": "F", "city": "3", "phone": "01204606300", "website": "https://jktech.com/", "rating": 4.2, "review_count": "", "latitude": 28.5802509, "longitude": 77.31793329999999, "maps_url": "https://www.google.com/maps/place/?q=place_id:0x390ce45bcd61048f:0x5f6a5602f4155df7"}, {"place_id": "0x390ce3932eaaaaab:0xb308d9aae0d93852", "name": "Al Hadaf Technologies\u2013 ERP, CRM, HRM, Hospital, School, Billing Software Development Company in Delhi NCR", "category": "Software company", "street": "96, Gate No-2", "city": "opp. Escort Hospital", "phone": "08586972994", "website": "https://www.alhadaftech.com/", "rating": 4.9, "review_count": "", "latitude": 28.5562397, "longitude": 77.2762099, "maps_url": "https://www.google.com/maps/place/?q=place_id:0x390ce3932eaaaaab:0xb308d9aae0d93852"}, {"place_id": "0x390ce3b7c0000001:0x46ddd80ee502d937", "name": "Amtrak Technologies Private Limited", "category": "Computer support and services", "street": "6, Community Centre", "city": "East of Kailash", "phone": "01126448000", "website": "https://amtrak.co.in/", "rating": 4.4, "review_count": "", "latitude": 28.558434899999998, "longitude": 77.2463302, "maps_url": "https://www.google.com/maps/place/?q=place_id:0x390ce3b7c0000001:0x46ddd80ee502d937"}, {"place_id": "0x390cfd355ca0fea9:0x1f2be0f1ef6dbdcf", "name": "Vayam Technologies Ltd.", "category": "Corporate office", "street": "Thapar House", "city": "124, Janpath Ln", "phone": "01147101200", "website": "https://www.vayamtech.com/", "rating": 3.8, "review_count": "", "latitude": 28.624508, "longitude": 77.21805499999999, "maps_url": "https://www.google.com/maps/place/?q=place_id:0x390cfd355ca0fea9:0x1f2be0f1ef6dbdcf"}, {"place_id": "0x390ce3db460cee5f:0x47a6e8d4aa56a40f", "name": "Injoria Technologies: Website, Custome Software, Mobile Apps Development company", "category": "Computer support and services", "street": "Second Floor", "city": "Pandav Nagar Complex", "phone": "09911177045", "website": "", "rating": 4.5, "review_count": "", "latitude": 28.6215884, "longitude": 77.2842872, "maps_url": "https://www.google.com/maps/place/?q=place_id:0x390ce3db460cee5f:0x47a6e8d4aa56a40f"}, {"place_id": "0x390ce3d606c913ef:0xd246bd5631eb2cad", "name": "Delvetech", "category": "Computer support and services", "street": "87A/1, 3rd Floor, Opp. Block N-115, G.K-1, Near Moolchand Merto", "city": "Block B, Zamrudpur, Greater Kailash", "phone": "09873895154", "website": "http://www.delvetech.co.in/", "rating": 4.1, "review_count": "", "latitude": 28.5570597, "longitude": 77.2356981, "maps_url": "https://www.google.com/maps/place/?q=place_id:0x390ce3d606c913ef:0xd246bd5631eb2cad"}, {"place_id": "0x390d0295dfbe951f:0xd11e46b9abc48457", "name": "Webtel Electrosoft Ltd.", "category": "Software company", "street": "1st Floor, Rattan Jyoti Building", "city": "110-114", "phone": "01145054000", "website": "https://webtel.in/", "rating": 3.9, "review_count": "", "latitude": 28.644031199999997, "longitude": 77.1772288, "maps_url": "https://www.google.com/maps/place/?q=place_id:0x390d0295dfbe951f:0xd11e46b9abc48457"}, {"place_id": "0x390ce3cfe91504eb:0x55346c5c499223d7", "name": "CCS Computers Private Limited", "category": "Computer support and services", "street": "2nd-3rd Floor Skipper House", "city": "Nehru Place", "phone": "01126463959", "website": "http://www.ccscomputers.co.in/", "rating": 4, "review_count": "", "latitude": 28.550090599999997, "longitude": 77.2537834, "maps_url": "https://www.google.com/maps/place/?q=place_id:0x390ce3cfe91504eb:0x55346c5c499223d7"}, {"place_id": "0x390cfcacae4e5a67:0x961a9738d8ff3f7c", "name": "Need Infotech", "category": "Software company", "street": "110012", "city": "E-557", "phone": "08860808752", "website": "https://www.needinfotech.com/", "rating": 4.8, "review_count": "", "latitude": 28.631518, "longitude": 77.1436078, "maps_url": "https://www.google.com/maps/place/?q=place_id:0x390cfcacae4e5a67:0x961a9738d8ff3f7c"}, {"place_id": "0x390ce383788e3af3:0xfa9ee9575d57b51c", "name": "Sky Lane Network", "category": "Internet service provider", "street": "Shop No 7", "city": "South Ave", "phone": "08368806591", "website": "", "rating": 4.5, "review_count": "", "latitude": 28.6082187, "longitude": 77.20152689999999, "maps_url": "https://www.google.com/maps/place/?q=place_id:0x390ce383788e3af3:0xfa9ee9575d57b51c"}, {"place_id": "0x390cfd4003b035d5:0x710fbda5c1a9b3dc", "name": "TechMaa AI Innovations Pvt. Ltd.", "category": "Software company", "street": "3, SF", "city": "Kundan Mansion", "phone": "09910947998", "website": "https://www.techmaa.org/", "rating": 4.8, "review_count": "", "latitude": 28.6410409, "longitude": 77.23569549999999, "maps_url": "https://www.google.com/maps/place/?q=place_id:0x390cfd4003b035d5:0x710fbda5c1a9b3dc"}, {"place_id": "0x390ce300327a6381:0x7774e3875913502b", "name": "Coco NITI marg", "category": "Manufacturer", "street": "A company, 12th Rac", "city": "Chanakyapuri", "phone": "", "website": "", "rating": 4.8, "review_count": "", "latitude": 28.5997867, "longitude": 77.19618, "maps_url": "https://www.google.com/maps/place/?q=place_id:0x390ce300327a6381:0x7774e3875913502b"}, {"place_id": "0x390ce45bcd61048f:0x5f6a5602f4155df7", "name": "JK Technosoft Limited", "category": "Software company", "street": "F", "city": "3", "phone": "01204606300", "website": "https://jktech.com/", "rating": 4.2, "review_count": "", "latitude": 28.5802509, "longitude": 77.31793329999999, "maps_url": "https://www.google.com/maps/place/?q=place_id:0x390ce45bcd61048f:0x5f6a5602f4155df7"}, {"place_id": "0x390ce3932eaaaaab:0xb308d9aae0d93852", "name": "Al Hadaf Technologies\u2013 ERP, CRM, HRM, Hospital, School, Billing Software Development Company in Delhi NCR", "category": "Software company", "street": "96, Gate No-2", "city": "opp. Escort Hospital", "phone": "08586972994", "website": "https://www.alhadaftech.com/", "rating": 4.9, "review_count": "", "latitude": 28.5562397, "longitude": 77.2762099, "maps_url": "https://www.google.com/maps/place/?q=place_id:0x390ce3932eaaaaab:0xb308d9aae0d93852"}, {"place_id": "0x390ce3b7c0000001:0x46ddd80ee502d937", "name": "Amtrak Technologies Private Limited", "category": "Computer support and services", "street": "6, Community Centre", "city": "East of Kailash", "phone": "01126448000", "website": "https://amtrak.co.in/", "rating": 4.4, "review_count": "", "latitude": 28.558434899999998, "longitude": 77.2463302, "maps_url": "https://www.google.com/maps/place/?q=place_id:0x390ce3b7c0000001:0x46ddd80ee502d937"}, {"place_id": "0x390cfd355ca0fea9:0x1f2be0f1ef6dbdcf", "name": "Vayam Technologies Ltd.", "category": "Corporate office", "street": "Thapar House", "city": "124, Janpath Ln", "phone": "01147101200", "website": "https://www.vayamtech.com/", "rating": 3.8, "review_count": "", "latitude": 28.624508, "longitude": 77.21805499999999, "maps_url": "https://www.google.com/maps/place/?q=place_id:0x390cfd355ca0fea9:0x1f2be0f1ef6dbdcf"}, {"place_id": "0x390ce3db460cee5f:0x47a6e8d4aa56a40f", "name": "Injoria Technologies: Website, Custome Software, Mobile Apps Development company", "category": "Computer support and services", "street": "Second Floor", "city": "Pandav Nagar Complex", "phone": "09911177045", "website": "", "rating": 4.5, "review_count": "", "latitude": 28.6215884, "longitude": 77.2842872, "maps_url": "https://www.google.com/maps/place/?q=place_id:0x390ce3db460cee5f:0x47a6e8d4aa56a40f"}, {"place_id": "0x390ce3d606c913ef:0xd246bd5631eb2cad", "name": "Delvetech", "category": "Software company", "street": "87A/1, 3rd Floor, Opp. Block N-115, G.K-1, Near Moolchand Merto", "city": "Block B, Zamrudpur, Greater Kailash", "phone": "09873895154", "website": "http://www.delvetech.co.in/", "rating": 4.1, "review_count": "", "latitude": 28.5570597, "longitude": 77.2356981, "maps_url": "https://www.google.com/maps/place/?q=place_id:0x390ce3d606c913ef:0xd246bd5631eb2cad"}, {"place_id": "0x390d0295dfbe951f:0xd11e46b9abc48457", "name": "Webtel Electrosoft Ltd.", "category": "Software company", "street": "1st Floor, Rattan Jyoti Building", "city": "110-114", "phone": "01145054000", "website": "https://webtel.in/", "rating": 3.9, "review_count": "", "latitude": 28.644031199999997, "longitude": 77.1772288, "maps_url": "https://www.google.com/maps/place/?q=place_id:0x390d0295dfbe951f:0xd11e46b9abc48457"}, {"place_id": "0x390ce30f4c4ed777:0x3a7c5e032ce51ce5", "name": "Appextech Software Solutions", "category": "Software company", "street": "Second Floor", "city": "Mohan Cooperative Industrial Estate", "phone": "09911432451", "website": "https://www.appextech.com/", "rating": 4.9, "review_count": "", "latitude": 28.502260099999997, "longitude": 77.28519, "maps_url": "https://www.google.com/maps/place/?q=place_id:0x390ce30f4c4ed777:0x3a7c5e032ce51ce5"}, {"place_id": "0x390ce3cfe91504eb:0x55346c5c499223d7", "name": "CCS Computers Private Limited", "category": "Computer support and services", "street": "2nd-3rd Floor Skipper House", "city": "Nehru Place", "phone": "01126463959", "website": "http://www.ccscomputers.co.in/", "rating": 4, "review_count": "", "latitude": 28.550090599999997, "longitude": 77.2537834, "maps_url": "https://www.google.com/maps/place/?q=place_id:0x390ce3cfe91504eb:0x55346c5c499223d7"}, {"place_id": "0x390cfcacae4e5a67:0x961a9738d8ff3f7c", "name": "Need Infotech", "category": "Software company", "street": "110012", "city": "E-557", "phone": "08860808752", "website": "https://www.needinfotech.com/", "rating": 4.8, "review_count": "", "latitude": 28.631518, "longitude": 77.1436078, "maps_url": "https://www.google.com/maps/place/?q=place_id:0x390cfcacae4e5a67:0x961a9738d8ff3f7c"}, {"place_id": "0x390ce383788e3af3:0xfa9ee9575d57b51c", "name": "Sky Lane Network", "category": "Internet service provider", "street": "Shop No 7", "city": "South Ave", "phone": "08368806591", "website": "", "rating": 4.5, "review_count": "", "latitude": 28.6082187, "longitude": 77.20152689999999, "maps_url": "https://www.google.com/maps/place/?q=place_id:0x390ce383788e3af3:0xfa9ee9575d57b51c"}, {"place_id": "0x390ce2a048e27743:0x62488fede9ead8c6", "name": "Mohinder cyber cafe", "category": "Internet cafe", "street": "Diplomatic Enclave, Chanakyapuri", "city": "New Delhi, Delhi 110011", "phone": "08505903932", "website": "", "rating": 3.8, "review_count": "", "latitude": 28.600696, "longitude": 77.1967992, "maps_url": "https://www.google.com/maps/place/?q=place_id:0x390ce2a048e27743:0x62488fede9ead8c6"}, {"place_id": "0x390ce25e35e99b33:0xf443abe69b4e8fcc", "name": "Synapse Valuetech Private Limited", "category": "Software company", "street": "Lower Ground Floor", "city": "221", "phone": "01146628882", "website": "https://www.synapsevaluetech.com/", "rating": 4.3, "review_count": "", "latitude": 28.558165, "longitude": 77.2592385, "maps_url": "https://www.google.com/maps/place/?q=place_id:0x390ce25e35e99b33:0xf443abe69b4e8fcc"}, {"place_id": "0x390cfd4b7923dc09:0x266950bb2756cf4a", "name": "Big Feathers Technology", "category": "Computer support and services", "street": "8577, New Rohtak Rd", "city": "Ratan Nagar, Karol Bagh", "phone": "08690720398", "website": "https://www.thebigfeathers.com/", "rating": 4.9, "review_count": "", "latitude": 28.657151, "longitude": 77.1959542, "maps_url": "https://www.google.com/maps/place/?q=place_id:0x390cfd4b7923dc09:0x266950bb2756cf4a"}, {"place_id": "0x390d0302af76c545:0x97d6a46d40086acd", "name": "Solarman Technology Project Pvt Ltd - Digital Marketing Company in Delhi, India |Software Development Company | IT Company", "category": "Software company", "street": "6/14", "city": "Block 5, Kirti Nagar Industrial Area, Kirti Nagar", "phone": "07428086779", "website": "https://solarmantech.in/", "rating": 5, "review_count": "", "latitude": 28.6517841, "longitude": 77.14799649999999, "maps_url": "https://www.google.com/maps/place/?q=place_id:0x390d0302af76c545:0x97d6a46d40086acd"}, {"place_id": "0x390d036a16f841d9:0x9b91311b1453f4c0", "name": "Zon Tec Solutions", "category": "Software company", "street": "3rd Floor", "city": "302 - 302 A, West", "phone": "09599902185", "website": "https://zontecsolutions.com/", "rating": 4.1, "review_count": "", "latitude": 28.6382303, "longitude": 77.1205162, "maps_url": "https://www.google.com/maps/place/?q=place_id:0x390d036a16f841d9:0x9b91311b1453f4c0"}, {"place_id": "0x390ce44efef427e7:0x4d0a10522519f65e", "name": "Omnie Solutions (I) Pvt Ltd", "category": "Software company", "street": "D-108", "city": "Sector 2, D Block, Sector 2", "phone": "09266754671", "website": "https://www.omniesolutions.com/", "rating": 3.4, "review_count": "", "latitude": 28.583485, "longitude": 77.316155, "maps_url": "https://www.google.com/maps/place/?q=place_id:0x390ce44efef427e7:0x4d0a10522519f65e"}, {"place_id": "0x390d03ff3a6ee899:0xf355d89c9f801013", "name": "Esafe Hi-Tech Solutions Pvt. Ltd.", "category": "Computer service", "street": "4/52 , 3rd Floor", "city": "Shankar Road, Old Rajinder Nagar", "phone": "08800015155", "website": "https://esafesolutions.org/", "rating": 5, "review_count": "", "latitude": 28.6378399, "longitude": 77.1810955, "maps_url": "https://www.google.com/maps/place/?q=place_id:0x390d03ff3a6ee899:0xf355d89c9f801013"}, {"place_id": "0x390ce293a1d8d7cf:0xceb3a334eb476e7", "name": "Combine Company", "category": "Educational consultant", "street": "35 A, Prithvi Raj Road", "city": "New Delhi, Delhi 110003", "phone": "09810111169", "website": "https://bestfituniversities.com/", "rating": 4.4, "review_count": "", "latitude": 28.592962699999998, "longitude": 77.21440319999999, "maps_url": "https://www.google.com/maps/place/?q=place_id:0x390ce293a1d8d7cf:0xceb3a334eb476e7"}, {"place_id": "0x390cfd3396f99f65:0xd97f147f067ace15", "name": "Shilpi Computers Private Limited", "category": "Corporate office", "street": "501-502", "city": "7, Tolstoy Rd", "phone": "01143500600", "website": "https://shilpisoft.com/", "rating": 3.9, "review_count": "", "latitude": 28.627693899999997, "longitude": 77.2244393, "maps_url": "https://www.google.com/maps/place/?q=place_id:0x390cfd3396f99f65:0xd97f147f067ace15"}, {"place_id": "0x390ce459e2a3a42f:0xdda2e042090c2c72", "name": "InfiCare Technologies Pvt. Ltd", "category": "Software company", "street": "D-92 Second/Third floor", "city": "Sector 2", "phone": "09711265591", "website": "http://www.inficaretech.com/", "rating": 3.9, "review_count": "", "latitude": 28.582936099999998, "longitude": 77.3175146, "maps_url": "https://www.google.com/maps/place/?q=place_id:0x390ce459e2a3a42f:0xdda2e042090c2c72"}, {"place_id": "0xac577056c2b5ff3d:0xaf00253141553d04", "name": "Devnotam | IT Company", "category": "Internet marketing service", "street": "", "city": "", "phone": "", "website": "https://devnotam.com/", "rating": 5, "review_count": "", "latitude": 28.692404999999997, "longitude": 77.090042, "maps_url": "https://www.google.com/maps/place/?q=place_id:0xac577056c2b5ff3d:0xaf00253141553d04"}, {"place_id": "0x390ce39a3aaaaaef:0xca57821ce7ee09b0", "name": "Smart IT Technologies", "category": "Website designer", "street": "Saroj Sadan", "city": "100", "phone": "08840274824", "website": "https://smartittechnologies.com/", "rating": 5, "review_count": "", "latitude": 28.5697218, "longitude": 77.2680354, "maps_url": "https://www.google.com/maps/place/?q=place_id:0x390ce39a3aaaaaef:0xca57821ce7ee09b0"}, {"place_id": "0x390d0331f8fa9037:0xbf316ec71fe5896d", "name": "Web Development Company in South West Delhi - MSN Technologies", "category": "Software company", "street": "Mahatma Gandhi Rd", "city": "Block WZ, Naraina", "phone": "08800388071", "website": "http://www.msntechnologies.org/", "rating": 5, "review_count": "", "latitude": 28.621692, "longitude": 77.1363598, "maps_url": "https://www.google.com/maps/place/?q=place_id:0x390d0331f8fa9037:0xbf316ec71fe5896d"}, {"place_id": "0x390d1d841aaaaaab:0xa32856a97de4096b", "name": "BI Biotech India Pvt. Ltd. (Corporate Office)", "category": "Biotechnology company", "street": "328", "city": "Ansal Chamber-2", "phone": "01126101271", "website": "http://www.biotechindia.com/", "rating": 3.9, "review_count": "", "latitude": 28.5677649, "longitude": 77.187382, "maps_url": "https://www.google.com/maps/place/?q=place_id:0x390d1d841aaaaaab:0xa32856a97de4096b"}, {"place_id": "0x390cfdcac4c0f307:0xd88ecb12344270b3", "name": "\ud835\uddd5\ud835\uddff\ud835\uddfc\ud835\ude04\ud835\uddfb & \ud835\uddea\ud835\uddf5\ud835\uddf6\ud835\ude01\ud835\uddf2\ud835\ude00 | \ud835\uddd6\ud835\uddfc\ud835\uddfa\ud835\uddfd\ud835\uddee\ud835\uddfb\ud835\ude06 \ud835\uddfd\ud835\uddff\ud835\uddfc\ud835\uddf3\ud835\uddf6\ud835\uddf9\ud835\uddf2, Brochure, Catalogue Design \ud835\uddf6\ud835\uddfb \ud835\uddf1\ud835\uddf2\ud835\uddf9\ud835\uddf5\ud835\uddf6 | \ud835\udde3\ud835\uddff\ud835\uddf2\ud835\ude00\ud835\uddf2\ud835\uddfb\ud835\ude01\ud835\uddee\ud835\ude01\ud835\uddf6\ud835\uddfc\ud835\uddfb \ud835\uddf1\ud835\uddf2\ud835\ude00\ud835\uddf6\ud835\uddf4\ud835\uddfb \ud835\ude00\ud835\uddf2\ud835\uddff\ud835\ude03\ud835\uddf6\ud835\uddf0\ud835\uddf2 \ud835\uddf6\ud835\uddfb \ud835\uddd7\ud835\uddf2\ud835\uddf9\ud835\uddf5\ud835\uddf6", "category": "Consultant", "street": "7, Tansen Marg", "city": "Todermal Road Area, Mandi House", "phone": "09811179964", "website": "http://www.brownandwhites.com/", "rating": 5, "review_count": "", "latitude": 28.6292787, "longitude": 77.2320237, "maps_url": "https://www.google.com/maps/place/?q=place_id:0x390cfdcac4c0f307:0xd88ecb12344270b3"}, {"place_id": "0x390cfd35c8f89657:0xadbc7004661a9c74", "name": "Sterco Digitex Pvt Limited", "category": "Software company", "street": "2nd Floor", "city": "72, Janpath Rd", "phone": "01204857333", "website": "https://www.stercodigitex.com/", "rating": 4.1, "review_count": "", "latitude": 28.628133, "longitude": 77.21985099999999, "maps_url": "https://www.google.com/maps/place/?q=place_id:0x390cfd35c8f89657:0xadbc7004661a9c74"}, {"place_id": "0x390d03fd9307cd73:0x7a223a0902c6e0cd", "name": "Web Cloud Technology", "category": "Website designer", "street": "3A/74 W.E.A", "city": "Sat Nagar, Karol Bagh", "phone": "08882324811", "website": "https://webcloudtechnology.in/", "rating": 4.4, "review_count": "", "latitude": 28.6465632, "longitude": 77.1824149, "maps_url": "https://www.google.com/maps/place/?q=place_id:0x390d03fd9307cd73:0x7a223a0902c6e0cd"}, {"place_id": "0x390ce39a24b89521:0x6e886c5e28fd05a9", "name": "Cloude Data Delhi | Best Cloud Service Provider company in India", "category": "Web hosting company", "street": "First Floor", "city": "A 212, Okhla Phase 3 Rd", "phone": "08882353612", "website": "https://cloudedata.com/", "rating": 4.4, "review_count": "", "latitude": 28.548515, "longitude": 77.2712834, "maps_url": "https://www.google.com/maps/place/?q=place_id:0x390ce39a24b89521:0x6e886c5e28fd05a9"}, {"place_id": "0x390d1b2cb6508ab9:0x1ecc23dbb116ce2a", "name": "India Data Entry Services", "category": "E-commerce service", "street": "", "city": "", "phone": "09015666732", "website": "http://www.india-data-entry-services.com/", "rating": 4.6, "review_count": "", "latitude": 28.5273522, "longitude": 77.20898509999999, "maps_url": "https://www.google.com/maps/place/?q=place_id:0x390d1b2cb6508ab9:0x1ecc23dbb116ce2a"}, {"place_id": "0x390cfd455083d75f:0x7c5261a47c9e1ea1", "name": "Anu & Company", "category": "Tax consultant", "street": "2nd Floor", "city": "10703, Jhandewalan Rd", "phone": "08700480022", "website": "https://anucompany.in/", "rating": 4.8, "review_count": "", "latitude": 28.651619699999998, "longitude": 77.2130291, "maps_url": "https://www.google.com/maps/place/?q=place_id:0x390cfd455083d75f:0x7c5261a47c9e1ea1"}, {"place_id": "0xd1516b679f60d2f:0x9458c47d907b59a8", "name": "MarkTech Company", "category": "Marketing agency", "street": "INA, Laxmi Bai Nagar", "city": "New Delhi, Delhi 110023", "phone": "08527880385", "website": "https://markteches.com/", "rating": 3.9, "review_count": "", "latitude": 28.5754463, "longitude": 77.2077127, "maps_url": "https://www.google.com/maps/place/?q=place_id:0xd1516b679f60d2f:0x9458c47d907b59a8"}, {"place_id": "0x390ce15795555555:0x9bb8a801d00d7573", "name": "DreamSoft Infotech - Website Development Company in India", "category": "Software company", "street": "A-75 Third Floor", "city": "A Block, Sector 5", "phone": "01204380622", "website": "https://dreamsoftinfotech.com/", "rating": 3.4, "review_count": "", "latitude": 28.591018899999998, "longitude": 77.32201529999999, "maps_url": "https://www.google.com/maps/place/?q=place_id:0x390ce15795555555:0x9bb8a801d00d7573"}, {"place_id": "0x390ce36c45a640db:0xb9eaa96e1cb3a58c", "name": "Aditya Dhyani Photowork", "category": "Photographer", "street": "Teen Murti Marg", "city": "Palika Vihar, Police Colony, Chanakyapuri", "phone": "", "website": "", "rating": 5, "review_count": "", "latitude": 28.6042362, "longitude": 77.1968129, "maps_url": "https://www.google.com/maps/place/?q=place_id:0x390ce36c45a640db:0xb9eaa96e1cb3a58c"}, {"place_id": "0x390ce365b54a27d5:0xf9f49184ff0417fc", "name": "British High Commissioner Residence", "category": "Corporate office", "street": "J644+WF4, 2", "city": "Rajaji Marg", "phone": "", "website": "", "rating": 4.6, "review_count": "", "latitude": 28.6072866, "longitude": 77.2061339, "maps_url": "https://www.google.com/maps/place/?q=place_id:0x390ce365b54a27d5:0xf9f49184ff0417fc"}, {"place_id": "0x390ce30403b64187:0x8726709a519a194c", "name": "Digital Marketing Company", "category": "Advertising agency", "street": "Unit Number 109, 1St Floor, Mercantile House", "city": "KG Marg", "phone": "09599575057", "website": "https://www.linkedin.com/in/arvindnirala/", "rating": 4.9, "review_count": "", "latitude": 28.622821799999997, "longitude": 77.2253394, "maps_url": "https://www.google.com/maps/place/?q=place_id:0x390ce30403b64187:0x8726709a519a194c"}, {"place_id": "0x390cfd258dd692a9:0x8576e5d535edca80", "name": "Rizer", "category": "Corporate office", "street": "Floor 1", "city": "Second", "phone": "08860323444", "website": "", "rating": 5, "review_count": "", "latitude": 28.643711, "longitude": 77.2271583, "maps_url": "https://www.google.com/maps/place/?q=place_id:0x390cfd258dd692a9:0x8576e5d535edca80"}, {"place_id": "0x390cfb4bf15a6733:0xaf50e6f3c5fb7641", "name": "Digitals Daddy: Web & App Development Company", "category": "Software company", "street": "Metro Gate No. 2", "city": "Nearest Sikandarpur", "phone": "09818286609", "website": "https://www.digitalsdaddy.com/", "rating": 4.9, "review_count": "", "latitude": 28.4847884, "longitude": 77.0922192, "maps_url": "https://www.google.com/maps/place/?q=place_id:0x390cfb4bf15a6733:0xaf50e6f3c5fb7641"}, {"place_id": "0x390d02eb9de45597:0x772cc0459bd00b08", "name": "WebzPapa - SEO Company in Delhi I SEO Services Agency in Delhi", "category": "Website designer", "street": "Gate no 6", "city": "Building - O, 4th Floor, South Patel Nagar Near Patel Nagar Metro Station", "phone": "09953993944", "website": "https://webzpapa.com/seo-company-delhi.html", "rating": 4.7, "review_count": "", "latitude": 28.6450192, "longitude": 77.1688623, "maps_url": "https://www.google.com/maps/place/?q=place_id:0x390d02eb9de45597:0x772cc0459bd00b08"}, {"place_id": "0x390d02efaf79b961:0x413607f4cfba5420", "name": "Support Star Corporate Services Pvt. Ltd", "category": "Corporate office", "street": "Cottage No 19, Lower Ground Floor", "city": "West Patel Nagar, Patel Nagar", "phone": "07042627575", "website": "", "rating": 4.2, "review_count": "", "latitude": 28.6500426, "longitude": 77.1623192, "maps_url": "https://www.google.com/maps/place/?q=place_id:0x390d02efaf79b961:0x413607f4cfba5420"}, {"place_id": "0x390ce3856ac51127:0x254ae1e32715bf07", "name": "Vishwa Yuvak Kendra", "category": "Youth organization", "street": "J53W+G33", "city": "Pt. Uma Shankar Dikshit Road", "phone": "01123013631", "website": "https://vishwayuvakkendra.org/", "rating": 4.4, "review_count": "", "latitude": 28.603796, "longitude": 77.1951267, "maps_url": "https://www.google.com/maps/place/?q=place_id:0x390ce3856ac51127:0x254ae1e32715bf07"}, {"place_id": "0x390ce34417329317:0x579039403ea837cb", "name": "Bengali compound", "category": "Housing complex", "street": "Teen Murti House", "city": "Teen Murti Marg", "phone": "", "website": "", "rating": 4.2, "review_count": "", "latitude": 28.603639899999997, "longitude": 77.19711769999999, "maps_url": "https://www.google.com/maps/place/?q=place_id:0x390ce34417329317:0x579039403ea837cb"}, {"place_id": "0x390d1b0010fc2321:0x12e9154c815cf007", "name": "Prashant Dwivedi IT company", "category": "Warehouse", "street": "G3P5+GVC", "city": "Nayak Pura, Bijwasan", "phone": "", "website": "", "rating": "", "review_count": "", "latitude": 28.536316, "longitude": 77.059649, "maps_url": "https://www.google.com/maps/place/?q=place_id:0x390d1b0010fc2321:0x12e9154c815cf007"}, {"place_id": "0x390ce370b849e701:0xf64d1240698480f2", "name": "Business Innovation Magazine | Best Global Business Magazine.", "category": "Media company", "street": "C-3/213", "city": "Lodi Colony", "phone": "", "website": "https://businessinnovationmagazine.com/", "rating": 4.8, "review_count": "", "latitude": 28.584767, "longitude": 77.218617, "maps_url": "https://www.google.com/maps/place/?q=place_id:0x390ce370b849e701:0xf64d1240698480f2"}, {"place_id": "0x390cfd3515adae13:0x1bb352627e7e90e6", "name": "The Shipping Corporation Of India Limited", "category": "Shipping company", "street": "1st floor, Chandralok Buillding, 36 Janpath", "city": "Janpath Rd", "phone": "01123322446", "website": "http://www.shipindia.com/", "rating": 3.9, "review_count": "", "latitude": 28.6243965, "longitude": 77.2196376, "maps_url": "https://www.google.com/maps/place/?q=place_id:0x390cfd3515adae13:0x1bb352627e7e90e6"}, {"place_id": "0x390ce25f6e3d2b9d:0x57f3a0fc9725f59b", "name": "YATRA POINT TOURISM COMPANY INDIA", "category": "Travel agency", "street": "OFFICE NO-7", "city": "BULDING NO N-1, LGF", "phone": "08860016982", "website": "", "rating": 4.9, "review_count": "", "latitude": 28.574078, "longitude": 77.219089, "maps_url": "https://www.google.com/maps/place/?q=place_id:0x390ce25f6e3d2b9d:0x57f3a0fc9725f59b"}, {"place_id": "0x3be7c21b5901e181:0x7fe794585addc1f6", "name": "Smartinfologiks - Software Development Company in India | IT Solutions", "category": "Software company", "street": "Hilton Center", "city": "514", "phone": "07400064691", "website": "https://www.smartinfologiks.com/", "rating": 4.6, "review_count": "", "latitude": 19.0139592, "longitude": 73.0382705, "maps_url": "https://www.google.com/maps/place/?q=place_id:0x3be7c21b5901e181:0x7fe794585addc1f6"}, {"place_id": "0x390ce550ac43f535:0x7efd3596bc8722ed", "name": "DataMetricks Consulting Private Limited- Best Digital Marketing & Web Development Company in Noida", "category": "Software company", "street": "12th Floor, TOWER-C", "city": "ITHUM TOWER", "phone": "07303946657", "website": "http://www.datametricks.com/", "rating": 5, "review_count": "", "latitude": 28.626568, "longitude": 77.37237549999999, "maps_url": "https://www.google.com/maps/place/?q=place_id:0x390ce550ac43f535:0x7efd3596bc8722ed"}, {"place_id": "0x390d1d8baaaaaaab:0x81e02841f207d0f0", "name": "S SONY & COMPANY PVT. LTD", "category": "Real Estate Builders & Construction Company", "street": "G-4, ANUPAMA BUILDING II FLOOR", "city": "Hauz Khas", "phone": "01135002651", "website": "http://ssony.in/", "rating": 4.9, "review_count": "", "latitude": 28.5510508, "longitude": 77.2048471, "maps_url": "https://www.google.com/maps/place/?q=place_id:0x390d1d8baaaaaaab:0x81e02841f207d0f0"}, {"place_id": "0x390ce32f7f91b893:0xf7c2be7eb729f502", "name": "Digital marketing Company, website Designing Company ( Logo Designing Company ) ( Online Marketplace )", "category": "Website designer", "street": "120-G", "city": "Hari Nagar Ashram", "phone": "08920138925", "website": "https://royalcruiselimos.com/", "rating": 5, "review_count": "", "latitude": 28.5718902, "longitude": 77.2559809, "maps_url": "https://www.google.com/maps/place/?q=place_id:0x390ce32f7f91b893:0xf7c2be7eb729f502"}, {"place_id": "0x390ce3b5e9981665:0x6ed3916f90d5be3c", "name": "Netsoft Consulting Services", "category": "Information services", "street": "24, IInd Floor, Community Center, East Of Kailash", "city": "behind Sapna Cinema", "phone": "01145330000", "website": "https://netsoftit.com/contact-us/", "rating": 3.5, "review_count": "", "latitude": 28.5583678, "longitude": 77.24568579999999, "maps_url": "https://www.google.com/maps/place/?q=place_id:0x390ce3b5e9981665:0x6ed3916f90d5be3c"}, {"place_id": "0x3bc2becdc35b6937:0x515ac559c349eee3", "name": "Thinkitive Technologies Private Limited", "category": "Software company", "street": "4th Floor", "city": "ABIL IMPERIAL COMMERCIAL SPACES", "phone": "08956467327", "website": "https://www.thinkitive.com/", "rating": 3.9, "review_count": "", "latitude": 18.5563888, "longitude": 73.7729748, "maps_url": "https://www.google.com/maps/place/?q=place_id:0x3bc2becdc35b6937:0x515ac559c349eee3"}, {"place_id": "0x390ce2b9e10c4b41:0x384ed3e1e6fa9390", "name": "Directorate General of Foreign Trade (DGFT)", "category": "Central Government Office", "street": "Udyog Bhawan, H-Wing, Gate", "city": "No.2, Maulana Azad Rd", "phone": "01123061562", "website": "http://www.dgft.gov.in/", "rating": 4.1, "review_count": "", "latitude": 28.6109106, "longitude": 77.2129162, "maps_url": "https://www.google.com/maps/place/?q=place_id:0x390ce2b9e10c4b41:0x384ed3e1e6fa9390"}, {"place_id": "0x390ce3083df185df:0xcff0bc07ace98fca", "name": "Dwitty & Company", "category": "Website designer", "street": "B-109", "city": "Block D, Jangpura B", "phone": "07011273521", "website": "", "rating": 5, "review_count": "", "latitude": 28.581945599999997, "longitude": 77.2534653, "maps_url": "https://www.google.com/maps/place/?q=place_id:0x390ce3083df185df:0xcff0bc07ace98fca"}, {"place_id": "0x390ce36da8a5f61d:0x9c483a3323bbad09", "name": "Yashobhumi Travels", "category": "Travel agency", "street": "Shop No 1", "city": "near Bihar House (Bhawan", "phone": "09599197111", "website": "https://www.yashobhumitravels.in/", "rating": 4.9, "review_count": "", "latitude": 28.6003321, "longitude": 77.1969129, "maps_url": "https://www.google.com/maps/place/?q=place_id:0x390ce36da8a5f61d:0x9c483a3323bbad09"}, {"place_id": "0x390d1d87e9b69f2b:0xe0a635cec75d7088", "name": "TLGS Consulting Group", "category": "Consultant", "street": "8, Kautilya Marg", "city": "Kriti Nagar, Block X, Diplomatic Enclave, Chanakyapuri", "phone": "07669006430", "website": "https://tlgs.consulting/", "rating": 4.7, "review_count": "", "latitude": 28.604501199999998, "longitude": 77.1887504, "maps_url": "https://www.google.com/maps/place/?q=place_id:0x390d1d87e9b69f2b:0xe0a635cec75d7088"}, {"place_id": "0x390ce36fefdbc09f:0x24599a6a499b7fb4", "name": "IndianOil", "category": "Petrol Pump", "street": "Ground Floor", "city": "Niti Marg", "phone": "09927057700", "website": "https://locator.iocl.com/indianoil-ioc-coco-petrol-pump-niti-marg-new-delhi-196934/Home?utm_source=locator&utm_medium=googleplaces", "rating": 4.3, "review_count": "", "latitude": 28.5997335, "longitude": 77.1964729, "maps_url": "https://www.google.com/maps/place/?q=place_id:0x390ce36fefdbc09f:0x24599a6a499b7fb4"}, {"place_id": "0x390ce2a0533ed68d:0x2b83db5824b3f1cb", "name": "Odisha Niwas", "category": "Guest house", "street": "27, Kautilya Marg", "city": "behind Bihar Bhawan", "phone": "01124679201", "website": "http://bhawan.homeodisha.gov.in/", "rating": 4.2, "review_count": "", "latitude": 28.6010901, "longitude": 77.19720319999999, "maps_url": "https://www.google.com/maps/place/?q=place_id:0x390ce2a0533ed68d:0x2b83db5824b3f1cb"}, {"place_id": "0x390ce3fa30cb5c19:0xc2b9c3fe8db1dd54", "name": "KIREN SMART SERVICES", "category": "Software company", "street": "D-196, New", "city": "G/F, Lajpat Nagar I, Lajpat Nagar", "phone": "09873907360", "website": "https://kirensmartservices.com/", "rating": 4.1, "review_count": "", "latitude": 28.5785903, "longitude": 77.2423422, "maps_url": "https://www.google.com/maps/place/?q=place_id:0x390ce3fa30cb5c19:0xc2b9c3fe8db1dd54"}, {"place_id": "0x390cfcdf40000001:0x4c12a97db05da004", "name": "Kapur & Company", "category": "Cell phone store", "street": "3574", "city": "near Sablock Clinic", "phone": "01123275265", "website": "https://www.kapurncompany.com/?utm_source=google&utm_medium=wix_google_business_profile&utm_campaign=11484373263752398986", "rating": 4.9, "review_count": "", "latitude": 28.6425785, "longitude": 77.2402833, "maps_url": "https://www.google.com/maps/place/?q=place_id:0x390cfcdf40000001:0x4c12a97db05da004"}, {"place_id": "0x390ce300bfffffff:0xe1356f6e89808ee9", "name": "Skylark Elevator Company", "category": "Elevator Manufacturer", "street": "208, Defence Colony Flyover", "city": "Block M, Jungpura Extension, Market", "phone": "09953667500", "website": "https://www.skylarkelevator.com/", "rating": 2.6, "review_count": "", "latitude": 28.5801894, "longitude": 77.238514, "maps_url": "https://www.google.com/maps/place/?q=place_id:0x390ce300bfffffff:0xe1356f6e89808ee9"}, {"place_id": "0x390ce393335b0317:0xd6f26887ac202ae7", "name": "DRM and COMPANY", "category": "Medical equipment supplier", "street": "O-30", "city": "ODS, Lajpat Nagar 4, Lajpat Nagar", "phone": "08851267277", "website": "http://www.drmcompany.co.in/", "rating": 4.6, "review_count": "", "latitude": 28.5644229, "longitude": 77.2485993, "maps_url": "https://www.google.com/maps/place/?q=place_id:0x390ce393335b0317:0xd6f26887ac202ae7"}, {"place_id": "0xe5d0154e6ab3411:0x910e5bc58e937ad2", "name": "RK WEB SOLUTION", "category": "Website designer", "street": "", "city": "", "phone": "", "website": "", "rating": 5, "review_count": "", "latitude": 28.6440837, "longitude": 77.0932314, "maps_url": "https://www.google.com/maps/place/?q=place_id:0xe5d0154e6ab3411:0x910e5bc58e937ad2"}, {"place_id": "0x390ce2a015a5582f:0xb58068f3d52d5ea2", "name": "Hindustan Petroleum Corporation Limited", "category": "Petrol Pump", "street": "Niti Marg", "city": "near Ashoka Hotel", "phone": "08655436754", "website": "https://petrolpump.hpretail.in/hindustan-petroleum-corporation-limited-company-owned-managed-by-company-officer-auto-care-t-e-stn-compressed-natural-gas-station-chankaypuri-new-delhi-97356/Home?utm_source=locator&utm_medium=googleplaces", "rating": 4.4, "review_count": "", "latitude": 28.5995144, "longitude": 77.1957899, "maps_url": "https://www.google.com/maps/place/?q=place_id:0x390ce2a015a5582f:0xb58068f3d52d5ea2"}, {"place_id": "0x390cfd11498fe06d:0x4b790c1ebfb4f82e", "name": "TripToniq Pvt Ltd - Best Tour and Travel Company in India", "category": "Travel agency", "street": "4th Floor", "city": "Harsha Bhawan", "phone": "09560118008", "website": "https://triptoniq.com/", "rating": 5, "review_count": "", "latitude": 28.6326204, "longitude": 77.22187869999999, "maps_url": "https://www.google.com/maps/place/?q=place_id:0x390cfd11498fe06d:0x4b790c1ebfb4f82e"}, {"place_id": "0x390d0395c86e1dd9:0xeb8a04095d0319c4", "name": "HAE Digital Marketing Company", "category": "Marketing agency", "street": "3rd Floor, Padma Tower-2", "city": "309", "phone": "09289765898", "website": "https://www.haedigital.com/", "rating": 4.9, "review_count": "", "latitude": 28.645200799999998, "longitude": 77.17821719999999, "maps_url": "https://www.google.com/maps/place/?q=place_id:0x390d0395c86e1dd9:0xeb8a04095d0319c4"}, {"place_id": "0x390d03f2f37aef51:0xc4e7406ccd44f399", "name": "AGS TELECALLING MARKETING", "category": "Computer support and services", "street": "", "city": "", "phone": "08377896397", "website": "http://agstelecallingmarketing.in/", "rating": 4.4, "review_count": "", "latitude": 28.5273522, "longitude": 77.20898509999999, "maps_url": "https://www.google.com/maps/place/?q=place_id:0x390d03f2f37aef51:0xc4e7406ccd44f399"}, {"place_id": "0x390cfd2f99fc09b9:0x9ef75bae73a514e5", "name": "Business World India", "category": "Business management consultant", "street": "", "city": "", "phone": "", "website": "https://business-world-india.ueniweb.com/?utm_campaign=gmb", "rating": 5, "review_count": "", "latitude": 28.5273522, "longitude": 77.20898509999999, "maps_url": "https://www.google.com/maps/place/?q=place_id:0x390cfd2f99fc09b9:0x9ef75bae73a514e5"}, {"place_id": "0x390ce307c858845f:0x502848c25123ea85", "name": "Al Hassan Group | Global Leaders in Exports and Imports", "category": "Import export company", "street": "14/746", "city": "14/746, NH-19", "phone": "09555510115", "website": "http://www.alhassangroup.in/", "rating": 4.7, "review_count": "", "latitude": 28.582683099999997, "longitude": 77.2510777, "maps_url": "https://www.google.com/maps/place/?q=place_id:0x390ce307c858845f:0x502848c25123ea85"}, {"place_id": "0x390ce2a1d322eaed:0xd6a349deec702216", "name": "Gujarat Bhawan", "category": "State government office", "street": "11, Kautilya Marg", "city": "Chanakyapuri", "phone": "01146273200", "website": "http://www.gujaratbhawan.com/", "rating": 4.3, "review_count": "", "latitude": 28.598630999999997, "longitude": 77.1976796, "maps_url": "https://www.google.com/maps/place/?q=place_id:0x390ce2a1d322eaed:0xd6a349deec702216"}, {"place_id": "0x390ce25bf3643f6d:0xf1699cfc4b71993d", "name": "Fireball Securitas | Security Guards Service | Top security services | Delhi India", "category": "Security guard service", "street": "1899, Uday Chand Marg", "city": "South Extension I, Kotla Mubarakpur", "phone": "08586977224", "website": "http://www.fireballindia.com/", "rating": 4.6, "review_count": "", "latitude": 28.5719329, "longitude": 77.221848, "maps_url": "https://www.google.com/maps/place/?q=place_id:0x390ce25bf3643f6d:0xf1699cfc4b71993d"}, {"place_id": "0x390ce3c87abeddd9:0xa68500e49b658474", "name": "IT Magnum Opus", "category": "Computer support and services", "street": "P-31", "city": "Sriniwaspuri Extn, Block Q, Private Colony, Sri Niwaspuri", "phone": "", "website": "https://www.itmo.in/", "rating": 4.8, "review_count": "", "latitude": 28.5626805, "longitude": 77.2597913, "maps_url": "https://www.google.com/maps/place/?q=place_id:0x390ce3c87abeddd9:0xa68500e49b658474"}, {"place_id": "0x390d0306b29bcce9:0xd4cf5fdb9acbc83e", "name": "Merino Consulting Services Limited", "category": "Engineering consultant", "street": "70, KLJ Complex, Moti Nagar,", "city": "Block C, Najafgarh Road Industrial Area", "phone": "01145068300", "website": "https://www.merinoservices.com/", "rating": 4.2, "review_count": "", "latitude": 28.6598014, "longitude": 77.1473929, "maps_url": "https://www.google.com/maps/place/?q=place_id:0x390d0306b29bcce9:0xd4cf5fdb9acbc83e"}, {"place_id": "0x390d1dc92fcc59c1:0x8c00d96ff929537f", "name": "Triumphant Finance Company LTD", "category": "Financial institution", "street": "Panchsheel Marg", "city": "Chanakyapuri", "phone": "09654586863", "website": "https://wa.link/5itrzt", "rating": "", "review_count": "", "latitude": 28.597783, "longitude": 77.1893484, "maps_url": "https://www.google.com/maps/place/?q=place_id:0x390d1dc92fcc59c1:0x8c00d96ff929537f"}, {"place_id": "0x390ce39635e612d5:0xb288fe6c9172f2af", "name": "Bombay Shirt Company", "category": "Formal Clothing Store", "street": "2A, Second Floor, Property No. G-26", "city": "South Extension I, Block G", "phone": "07382349837", "website": "https://www.bombayshirts.com/", "rating": 4.6, "review_count": "", "latitude": 28.5690386, "longitude": 77.2206563, "maps_url": "https://www.google.com/maps/place/?q=place_id:0x390ce39635e612d5:0xb288fe6c9172f2af"}, {"place_id": "0x390ce2160c350ae7:0x769ee9e445eca4d6", "name": "The Sports Company", "category": "Corporate office", "street": "141-A, Fourth Floor", "city": "Shahpur Jat, Siri Fort", "phone": "09821384210", "website": "http://tscglobal.in/", "rating": 4.8, "review_count": "", "latitude": 28.548057999999997, "longitude": 77.216359, "maps_url": "https://www.google.com/maps/place/?q=place_id:0x390ce2160c350ae7:0x769ee9e445eca4d6"}, {"place_id": "0x39737181980ea0d7:0x79dcdc3c73703c39", "name": "CDS NAGAR", "category": "Housing society", "street": "J654+HWG", "city": "Unnamed Road", "phone": "", "website": "", "rating": 3.8, "review_count": "", "latitude": 28.6089389, "longitude": 77.2073137, "maps_url": "https://www.google.com/maps/place/?q=place_id:0x39737181980ea0d7:0x79dcdc3c73703c39"}, {"place_id": "0x390d02edbde9ba1f:0xff40c073e0cb03e1", "name": "AERO PACK", "category": "Computer store", "street": "18/10", "city": "Block 18, West Patel Nagar, Patel Nagar", "phone": "01142488086", "website": "http://www.aeropack.net.in/", "rating": 4.3, "review_count": "", "latitude": 28.6514648, "longitude": 77.1677315, "maps_url": "https://www.google.com/maps/place/?q=place_id:0x390d02edbde9ba1f:0xff40c073e0cb03e1"}, {"place_id": "0x390cdc6f70fb5be5:0xa34888feda73528d", "name": "Pepper Designs", "category": "Website designer", "street": "House No 1, Ground Floor", "city": "Hauz Khas Village", "phone": "09811767560", "website": "https://www.pepper-designs.com/", "rating": 4.6, "review_count": "", "latitude": 28.555021999999997, "longitude": 77.19471399999999, "maps_url": "https://www.google.com/maps/place/?q=place_id:0x390cdc6f70fb5be5:0xa34888feda73528d"}, {"place_id": "0x44410b48618716b:0x7d0c5e38d0253ca9", "name": "WENGS SOLUTIONS LLP", "category": "Website designer", "street": "", "city": "", "phone": "09999537998", "website": "https://www.wengs.co.in/", "rating": 4.9, "review_count": "", "latitude": 13.4222866, "longitude": 142.1078416, "maps_url": "https://www.google.com/maps/place/?q=place_id:0x44410b48618716b:0x7d0c5e38d0253ca9"}, {"place_id": "0x390ce35071aa88f7:0x6b1c5c0fde4cac28", "name": "CAAQ Consultancy - Company Registration & Compliance Consultant Delhi", "category": "Accounting firm", "street": "S/F", "city": "Bhaskar Bhavan", "phone": "", "website": "https://caaq.in/", "rating": 4.1, "review_count": "", "latitude": 28.570666, "longitude": 77.2222604, "maps_url": "https://www.google.com/maps/place/?q=place_id:0x390ce35071aa88f7:0x6b1c5c0fde4cac28"}, {"place_id": "0x390cfd360f21ba35:0x50503ebf2806ecc5", "name": "The New India Assurance Company Ltd", "category": "Insurance company", "street": "E -9, connaught Place", "city": "New Delhi, Delhi 110001", "phone": "18002091415", "website": "http://www.newindia.co.in/index.aspx", "rating": 3.4, "review_count": "", "latitude": 28.633089599999998, "longitude": 77.22199619999999, "maps_url": "https://www.google.com/maps/place/?q=place_id:0x390cfd360f21ba35:0x50503ebf2806ecc5"}, {"place_id": "0x390cfd3570e5fce1:0xa05ab9787d143e2", "name": "One Imperial Place Business Centre", "category": "Business center", "street": "Janpath Rd", "city": "near Metro Station", "phone": "01123341234", "website": "", "rating": 4.7, "review_count": "", "latitude": 28.625857, "longitude": 77.218378, "maps_url": "https://www.google.com/maps/place/?q=place_id:0x390cfd3570e5fce1:0xa05ab9787d143e2"}, {"place_id": "0x390ce31f8414d201:0xd94fa7c34d7873a2", "name": "Bhardwaj And Company (Steel Shuttering and Scaffolding Material Supplier)", "category": "Construction equipment supplier", "street": "85-A , Ground Floor", "city": "Bhardwaj Plaza", "phone": "09811109106", "website": "http://bhardwajandcompany.com/", "rating": 4.9, "review_count": "", "latitude": 28.557116399999998, "longitude": 77.23596979999999, "maps_url": "https://www.google.com/maps/place/?q=place_id:0x390ce31f8414d201:0xd94fa7c34d7873a2"}, {"place_id": "0x390cfcf3d766c6e3:0xae584b7e82859b14", "name": "Shri Tapodhani Aluminium Trading Company", "category": "Aluminium Supplier", "street": "Xv 2758, Street No. 6", "city": "near banke bihari mandir", "phone": "09911087778", "website": "https://tapodhani.com/", "rating": 4.8, "review_count": "", "latitude": 28.6435481, "longitude": 77.21105469999999, "maps_url": "https://www.google.com/maps/place/?q=place_id:0x390cfcf3d766c6e3:0xae584b7e82859b14"}, {"place_id": "0x390cfdd8e37bd86d:0x6fdf6f77ed7835ed", "name": "Business Setup in Dubai - AE Setup", "category": "Business management consultant", "street": "GF-39A", "city": "Indra Prakash Building", "phone": "", "website": "https://aesetup.com/", "rating": "", "review_count": "", "latitude": 28.6293059, "longitude": 77.22376489999999, "maps_url": "https://www.google.com/maps/place/?q=place_id:0x390cfdd8e37bd86d:0x6fdf6f77ed7835ed"}, {"place_id": "0x390ce3ca02c212bf:0x831590e44471eedc", "name": "SANKET GARG & COMPANY", "category": "Accounting firm", "street": "No. 10", "city": "216-B/1 Basement Gautam Nagar", "phone": "09810577298", "website": "http://casanketgargindia.co.in/", "rating": 5, "review_count": "", "latitude": 28.5607808, "longitude": 77.21212799999999, "maps_url": "https://www.google.com/maps/place/?q=place_id:0x390ce3ca02c212bf:0x831590e44471eedc"}, {"place_id": "0x390d1d4e77aff9c1:0x5dcb2d916235e4e", "name": "Tiffany & Co., Delhi", "category": "Jewelry store", "street": "Commercial Complex, Yashwant place", "city": "The Chanakya Ground Floor", "phone": "08595405644", "website": "https://www.tiffany.co.in/", "rating": 4.4, "review_count": "", "latitude": 28.5848797, "longitude": 77.1908473, "maps_url": "https://www.google.com/maps/place/?q=place_id:0x390d1d4e77aff9c1:0x5dcb2d916235e4e"}, {"place_id": "0x390d03b6ecb23137:0x58a2d768eaf97735", "name": "The Creation", "category": "Website designer", "street": "4th Floor", "city": "17, Pusa Rd", "phone": "09818405894", "website": "http://www.thecreation.in/", "rating": 4.5, "review_count": "", "latitude": 28.64474, "longitude": 77.191228, "maps_url": "https://www.google.com/maps/place/?q=place_id:0x390d03b6ecb23137:0x58a2d768eaf97735"}, {"place_id": "0x390cfd3459b91a79:0xdb761654f8748f84", "name": "IndiaFirst Life Insurance Company Ltd.", "category": "Insurance company", "street": "2nd Floor", "city": "Narain Manzil", "phone": "01169298700", "website": "https://www.indiafirstlife.com/customer-service/branch-locator/delhi/new-delhi", "rating": 3.3, "review_count": "", "latitude": 28.629535599999997, "longitude": 77.2238955, "maps_url": "https://www.google.com/maps/place/?q=place_id:0x390cfd3459b91a79:0xdb761654f8748f84"}, {"place_id": "0x390ce383cbe684f9:0x6df322cd06395a6c", "name": "Level Up The Photo Video Company | Corporate & Healthcare Video Production | Photography & Live Streaming Services", "category": "Video production service", "street": "C - 546", "city": "Block C, Defence Colony", "phone": "09718979770", "website": "http://www.leveluppvc.com/", "rating": 5, "review_count": "", "latitude": 28.5670589, "longitude": 77.23005069999999, "maps_url": "https://www.google.com/maps/place/?q=place_id:0x390ce383cbe684f9:0x6df322cd06395a6c"}, {"place_id": "0x390d05dc98436fc7:0xb1d181d3cb2f6d1", "name": "Best MICE Company in India ( VIRKAUF DMC PVT LTD )", "category": "Event planner", "street": "Regal Building", "city": "Hanuman Road Area, Connaught Place", "phone": "08920654676", "website": "https://virkaufdmc.com/", "rating": 3.5, "review_count": "", "latitude": 28.6306726, "longitude": 77.21648929999999, "maps_url": "https://www.google.com/maps/place/?q=place_id:0x390d05dc98436fc7:0xb1d181d3cb2f6d1"}, {"place_id": "0x390cfd7f9153700d:0x930508f43e1b830d", "name": "The Delhi Safe Deposit Co. Ltd.", "category": "Safe & vault shop", "street": "86, Janpath Rd", "city": "Atul Grove Road, Janpath, HC Mathur Lane", "phone": "01143580400", "website": "http://www.dsdgroup.co.in/", "rating": 4.5, "review_count": "", "latitude": 28.628907599999998, "longitude": 77.2198365, "maps_url": "https://www.google.com/maps/place/?q=place_id:0x390cfd7f9153700d:0x930508f43e1b830d"}, {"place_id": "0x390cfcdf40000001:0xad5968bcbc67fa18", "name": "Rohit KC Jain & Co. ( RKCJ )", "category": "Certified public accountant", "street": "SIDBI ELSC NEW DELHI", "city": "Suite No. 11A-11B", "phone": "01149470000", "website": "", "rating": 4.3, "review_count": "", "latitude": 28.628251799999997, "longitude": 77.2251508, "maps_url": "https://www.google.com/maps/place/?q=place_id:0x390cfcdf40000001:0xad5968bcbc67fa18"}, {"place_id": "0x390cfd35cf76a0ed:0xe9873430abf42c2c", "name": "RNM India", "category": "Consultant", "street": "4", "city": "80, Janpath Rd", "phone": "01143192000", "website": "http://www.rnm.in/", "rating": 3.9, "review_count": "", "latitude": 28.6284632, "longitude": 77.2198494, "maps_url": "https://www.google.com/maps/place/?q=place_id:0x390cfd35cf76a0ed:0xe9873430abf42c2c"}, {"place_id": "0x390ce2a071e3fdcb:0x90b26d323a220865", "name": "Embassy of The Holy See Vatican", "category": "Embassy", "street": "Embassy Of The Holy See Vatican", "city": "50-C Niti Marg, Chanakyapuri", "phone": "01142492300", "website": "http://apostolicnunciatureindia.com/", "rating": 4.2, "review_count": "", "latitude": 28.600070799999997, "longitude": 77.195602, "maps_url": "https://www.google.com/maps/place/?q=place_id:0x390ce2a071e3fdcb:0x90b26d323a220865"}, {"place_id": "0x390ce34e49b627ab:0xf91f8f0ac3105233", "name": "Sunder Watch Company", "category": "Watch store", "street": "Shop No. J-35B, Pushpa", "city": "Central Market, Lajpat Nagar II", "phone": "", "website": "", "rating": 4.9, "review_count": "", "latitude": 28.5690226, "longitude": 77.2436111, "maps_url": "https://www.google.com/maps/place/?q=place_id:0x390ce34e49b627ab:0xf91f8f0ac3105233"}, {"place_id": "0x390ce20c05555555:0x15fe85e8b5322da8", "name": "DCC SUPPLY CHAIN & DISTRIBUTION LLP formerly known as Dairy Chem Corporation", "category": "Cold storage facility", "street": "Community Center", "city": "AB -17", "phone": "09899972766", "website": "", "rating": 5, "review_count": "", "latitude": 28.5661591, "longitude": 77.19903819999999, "maps_url": "https://www.google.com/maps/place/?q=place_id:0x390ce20c05555555:0x15fe85e8b5322da8"}, {"place_id": "0x390ce3c851487b1f:0xb893e768ca355a6c", "name": "Aditya V Agarwal & Company", "category": "Certified public accountant", "street": "First Floor 29", "city": "Community Center", "phone": "09873131781", "website": "", "rating": 5, "review_count": "", "latitude": 28.5586234, "longitude": 77.2455276, "maps_url": "https://www.google.com/maps/place/?q=place_id:0x390ce3c851487b1f:0xb893e768ca355a6c"}, {"place_id": "0x390cfcdf40000001:0xf240941c5c2978dc", "name": "Ranjit Trading Company , Daryaganj Ac Market", "category": "Electronics store", "street": "8 No, Netaji Subhash Marg", "city": "near Duke Hotel", "phone": "08368974104", "website": "https://imart.page.link/V6NLD", "rating": 4.8, "review_count": "", "latitude": 28.647514299999997, "longitude": 77.24028659999999, "maps_url": "https://www.google.com/maps/place/?q=place_id:0x390cfcdf40000001:0xf240941c5c2978dc"}, {"place_id": "0x4cb0ad51736b3b:0x56ecb0ac101697c0", "name": "DNG WEB DEVELOPER - Website Development and Designing Company Delhi | App Development | Digital Marketing Company in Delhi", "category": "Software company", "street": "J6W7+475", "city": "Arya Nagar, Paharganj", "phone": "", "website": "https://www.dngwebdeveloper.com/", "rating": "", "review_count": "", "latitude": 28.6452545, "longitude": 77.2132341, "maps_url": "https://www.google.com/maps/place/?q=place_id:0x4cb0ad51736b3b:0x56ecb0ac101697c0"}, {"place_id": "0x390cfd11194c9b77:0xcd7c15a67a994537", "name": "United Optical Company", "category": "Software company", "street": "5974 Gali Kumran, Ballimaran North", "city": "Katra Nawab, Chandni Chowk", "phone": "08047642809", "website": "http://unitedoptical.co.in/", "rating": 4.8, "review_count": "", "latitude": 28.654613899999998, "longitude": 77.2258283, "maps_url": "https://www.google.com/maps/place/?q=place_id:0x390cfd11194c9b77:0xcd7c15a67a994537"}, {"place_id": "0x390ce357a22ec36b:0x2a290a404606e9d8", "name": "Internal security and manpower services", "category": "Security guard service", "street": "7, Safdarjung Ln", "city": "Safdarjung Lane Area, Tughlak Road Area", "phone": "", "website": "https://www.internalsecurity.in/", "rating": "", "review_count": "", "latitude": 28.5993589, "longitude": 77.2091399, "maps_url": "https://www.google.com/maps/place/?q=place_id:0x390ce357a22ec36b:0x2a290a404606e9d8"}, {"place_id": "0x390ce32a4935cfb3:0x215c580033758e7b", "name": "Techsunware Private Limited", "category": "Software company", "street": "Sriniwaspuri Extn, Block L, Private Colony, Sri Niwaspuri", "city": "New Delhi, Delhi 110065", "phone": "", "website": "https://www.techsunware.com/", "rating": "", "review_count": "", "latitude": 28.563623999999997, "longitude": 77.25999379999999, "maps_url": "https://www.google.com/maps/place/?q=place_id:0x390ce32a4935cfb3:0x215c580033758e7b"}, {"place_id": "0x390cfd36a2a1bb4d:0xde79f41bc2ffb8fe", "name": "Miric Biotech", "category": "Health food store", "street": "New Delhi House", "city": "105", "phone": "01147775700", "website": "", "rating": 3.1, "review_count": "", "latitude": 28.629832999999998, "longitude": 77.223041, "maps_url": "https://www.google.com/maps/place/?q=place_id:0x390cfd36a2a1bb4d:0xde79f41bc2ffb8fe"}]}