[{"place_id": "ChIJ_3_axhb9YjkRSfQ2vH3aaqE", "name": "Hvantage Tech Solutions Pvt. Ltd.", "street": "509 block B corporate house 5th floor, RNT Marg, Indore, Madhya Pradesh 452001, India", "phone": "+91 731 407 4459", "rating": "3.2", "review_count": "", "website": "https://hvantagetechnologies.com/", "latitude": 22.7172125, "longitude": 75.87177729999999, "maps_url": "https://www.google.com/maps/search/?api=1&query=Hvantage%20Tech%20Solutions%20Pvt.%20Ltd.&query_place_id=ChIJ_3_axhb9YjkRSfQ2vH3aaqE"}, {"place_id": "ChIJFziVioEDYzkRcb89171WfPY", "name": "InfiminTus Technologies - Website Design, Application and Software Development IT Company", "street": "2nd Floor, Chetak Chamber, 220, RNT Marg, Madhumilan, M.Y.Hospital, Jaora Compound, Indore, Madhya Pradesh 452001, India", "phone": "+91 97543 16154", "rating": "4.4", "review_count": "", "website": "https://infimintustech.com/", "latitude": 22.7128428, "longitude": 75.8758618, "maps_url": "https://www.google.com/maps/search/?api=1&query=InfiminTus%20Technologies%20-%20Website%20Design%2C%20Application%20and%20Software%20Development%20IT%20Company&query_place_id=ChIJFziVioEDYzkRcb89171WfPY"}, {"place_id": "ChIJy-aykBf9YjkRv0cJ438KJ0c", "name": "TECHFROLIC", "street": "Office No. 509, 165, Fortune Business Center, RNT Marg, Chhoti Gwaltoli, Indore, Madhya Pradesh 452001, India", "phone": "+91 64799 22645", "rating": "5", "review_count": "", "website": "http://techfrolic.com/", "latitude": 22.7143998, "longitude": 75.8745102, "maps_url": "https://www.google.com/maps/search/?api=1&query=TECHFROLIC&query_place_id=ChIJy-aykBf9YjkRv0cJ438KJ0c"}, {"place_id": "ChIJXYkICkD9YjkR4AFXuwhwYh8", "name": "ASAP Infotech", "street": "503 A Block, Corporate House, RNT Marg, South Tukoganj, Indore, Madhya Pradesh 452001, India", "phone": "+91 731 406 5619", "rating": "3.9", "review_count": "", "website": "http://www.theabicgroup.com/", "latitude": 22.7172125, "longitude": 75.87177729999999, "maps_url": "https://www.google.com/maps/search/?api=1&query=ASAP%20Infotech&query_place_id=ChIJXYkICkD9YjkR4AFXuwhwYh8"}, {"place_id": "ChIJsQOUlsb9YjkRUMKZIshGBt4", "name": "IT Spark Technology Pvt. Ltd.", "street": "4th Floor 418 Shekhar Central Manoramaganj, New Palasia, Indore, Madhya Pradesh 452001, India", "phone": "+91 91098 45654", "rating": "4.8", "review_count": "", "website": "http://www.itsparktechnology.com/", "latitude": 22.722727, "longitude": 75.88707099999999, "maps_url": "https://www.google.com/maps/search/?api=1&query=IT%20Spark%20Technology%20Pvt.%20Ltd.&query_place_id=ChIJsQOUlsb9YjkRUMKZIshGBt4"}, {"place_id": "ChIJDSlVh639YjkRcqsmYirlm64", "name": "ThoughtWin IT Solutions Pvt. Ltd.", "street": "1 Panna estate, Kesar Bagh Rd, Indira Gandhi Nagar, Indore, Madhya Pradesh 452009, India", "phone": "+91 99770 69348", "rating": "4.1", "review_count": "", "website": "https://www.thoughtwin.com/", "latitude": 22.699189099999998, "longitude": 75.84473919999999, "maps_url": "https://www.google.com/maps/search/?api=1&query=ThoughtWin%20IT%20Solutions%20Pvt.%20Ltd.&query_place_id=ChIJDSlVh639YjkRcqsmYirlm64"}, {"place_id": "ChIJd1ljDUj9YjkR86S6JSgu-HI", "name": "Mango IT Solutions", "street": "15/3, Old Palasia Rd, behind sarda house, Old Palasia, Indore, Madhya Pradesh 452018, India", "phone": "+91 731 404 6693", "rating": "4.3", "review_count": "", "website": "http://www.mangoitsolutions.com/", "latitude": 22.7276298, "longitude": 75.8888766, "maps_url": "https://www.google.com/maps/search/?api=1&query=Mango%20IT%20Solutions&query_place_id=ChIJd1ljDUj9YjkR86S6JSgu-HI"}, {"place_id": "ChIJ5d7LEgD9YjkRYJI_Ffzh3Oo", "name": "Limra IT", "street": "16/3, near jhanda chauk, Ranipura, Indore, Madhya Pradesh 452007, India", "phone": "", "rating": "", "review_count": "", "website": "", "latitude": 22.716305199999997, "longitude": 75.86290989999999, "maps_url": "https://www.google.com/maps/search/?api=1&query=Limra%20IT&query_place_id=ChIJ5d7LEgD9YjkRYJI_Ffzh3Oo"}, {"place_id": "ChIJBa__YUr9YjkRHdGJDSr5j8A", "name": "Top Custom Software Development Company | AI, IoT & IT Solutions – Hiteshi", "street": "8th Floor Crystal IT Park, Madhya Pradesh 452001, India", "phone": "+91 731 297 1133", "rating": "3.6", "review_count": "", "website": "https://www.hiteshi.com/", "latitude": 22.685651999999997, "longitude": 75.872211, "maps_url": "https://www.google.com/maps/search/?api=1&query=Top%20Custom%20Software%20Development%20Company%20%7C%20AI%2C%20IoT%20%26%20IT%20Solutions%20%E2%80%93%20Hiteshi&query_place_id=ChIJBa__YUr9YjkRHdGJDSr5j8A"}, {"place_id": "ChIJB9V-VWIdYzkRGpenK3q2wl0", "name": "Royal IT Service - IT Company in Indore", "street": "426 Scheme No. 114 Part 2, Anurag Nagar Ln, B/H, Shalimar Township, Indore, Madhya Pradesh 452010, India", "phone": "+91 92851 92850", "rating": "4.2", "review_count": "", "website": "http://royalitservice.com/", "latitude": 22.7622528, "longitude": 75.9022899, "maps_url": "https://www.google.com/maps/search/?api=1&query=Royal%20IT%20Service%20-%20IT%20Company%20in%20Indore&query_place_id=ChIJB9V-VWIdYzkRGpenK3q2wl0"}, {"place_id": "ChIJhwOXvhb9YjkRp_nk8EPzN8c", "name": "Top Software Development Company in USA | AI/ML | AI Agent | Gen AI | UXUI | Product Development", "street": "Crystal IT Park STP-1, 4th Floor Right Wing Ring Road, Madhya Pradesh 452001, India", "phone": "+91 731 297 3109", "rating": "4.8", "review_count": "", "website": "https://47billion.com/", "latitude": 22.6858591, "longitude": 75.8723211, "maps_url": "https://www.google.com/maps/search/?api=1&query=Top%20Software%20Development%20Company%20in%20USA%20%7C%20AI/ML%20%7C%20AI%20Agent%20%7C%20Gen%20AI%20%7C%20UXUI%20%7C%20Product%20Development&query_place_id=ChIJhwOXvhb9YjkRp_nk8EPzN8c"}, {"place_id": "ChIJkx4oC7P9YjkRivdcqx3A4Qk", "name": "Aiminent IT Solutions", "street": "2nd floor, 6 Dravid Nagar, Footi Kothi Main Road,, above Andhra Bank, Indore, Madhya Pradesh 452009, India", "phone": "+91 731 400 5778", "rating": "4.3", "review_count": "", "website": "http://aiminent.com/", "latitude": 22.70109, "longitude": 75.8374362, "maps_url": "https://www.google.com/maps/search/?api=1&query=Aiminent%20IT%20Solutions&query_place_id=ChIJkx4oC7P9YjkRivdcqx3A4Qk"}, {"place_id": "ChIJh6-LT3_9YjkRWMU7NvN1j1k", "name": "Aimfortech - Software | SaaS | Web | E-Commerce Gaming App Development Company in India", "street": "103, Greater Kailash Road, above Nafees Restaurant, Old Palasia, Indore, Madhya Pradesh 452018, India", "phone": "+91 731 406 6773", "rating": "5", "review_count": "", "website": "https://www.aimfortech.com/", "latitude": 22.7257765, "longitude": 75.8878778, "maps_url": "https://www.google.com/maps/search/?api=1&query=Aimfortech%20-%20Software%20%7C%20SaaS%20%7C%20Web%20%7C%20E-Commerce%20Gaming%20App%20Development%20Company%20in%20India&query_place_id=ChIJh6-LT3_9YjkRWMU7NvN1j1k"}, {"place_id": "ChIJKZOqZDf9YjkRk3tV8cIzSxs", "name": "Indore Technology Solutions", "street": "PVFQ+39X, Old Palasia Rd, Near Mayank Hospital, Manorama Ganj, Indore, Madhya Pradesh 452001, India", "phone": "+91 94070 87049", "rating": "5", "review_count": "", "website": "http://indoretechnology.com/", "latitude": 22.7227252, "longitude": 75.8884757, "maps_url": "https://www.google.com/maps/search/?api=1&query=Indore%20Technology%20Solutions&query_place_id=ChIJKZOqZDf9YjkRk3tV8cIzSxs"}, {"place_id": "ChIJVVXlxhb9YjkRSBIJ_PDQxpM", "name": "Phantom Market Research", "street": "Corporate House, B-109, RNT Marg, South Tukoganj, Indore, Madhya Pradesh 452001, India", "phone": "+91 96444 28181", "rating": "2.6", "review_count": "", "website": "http://phantomresearch.in/", "latitude": 22.7172125, "longitude": 75.87177729999999, "maps_url": "https://www.google.com/maps/search/?api=1&query=Phantom%20Market%20Research&query_place_id=ChIJVVXlxhb9YjkRSBIJ_PDQxpM"}, {"place_id": "ChIJ72sjlhb9YjkRGlOFYSJwaTo", "name": "SAP Support Indore", "street": "6'th Floor, Corporate House, 503 B, RNT Marg, South Tukoganj, Indore, Madhya Pradesh 452001, India", "phone": "+91 98934 63533", "rating": "4.4", "review_count": "", "website": "http://www.theabicgroup.com/", "latitude": 22.7172125, "longitude": 75.87177729999999, "maps_url": "https://www.google.com/maps/search/?api=1&query=SAP%20Support%20Indore&query_place_id=ChIJ72sjlhb9YjkRGlOFYSJwaTo"}, {"place_id": "ChIJmbEamRb9YjkRB7Nr1TmFxc8", "name": "Make My House", "street": "Block - A , 301, Corporate House, RNT Marg, opposite Lemon Tree Hotel, South Tukoganj, Indore, Madhya Pradesh 452001, India", "phone": "+91 731 680 3999", "rating": "4", "review_count": "", "website": "https://www.makemyhouse.com/", "latitude": 22.7172125, "longitude": 75.87177729999999, "maps_url": "https://www.google.com/maps/search/?api=1&query=Make%20My%20House&query_place_id=ChIJmbEamRb9YjkRB7Nr1TmFxc8"}, {"place_id": "ChIJOVVVRbP9YjkRyhg_Xzlf1xc", "name": "Kudoss IT Solutions", "street": "560, Usha Nagar, Ext, Indore, Madhya Pradesh 452009, India", "phone": "+91 79840 65677", "rating": "4.5", "review_count": "", "website": "https://kudossweb.com/", "latitude": 22.6971091, "longitude": 75.8373182, "maps_url": "https://www.google.com/maps/search/?api=1&query=Kudoss%20IT%20Solutions&query_place_id=ChIJOVVVRbP9YjkRyhg_Xzlf1xc"}, {"place_id": "ChIJJ2QHIvT9YjkRgvT4t7HSSoY", "name": "Rera Solution", "street": "105-Ext. Manas Bhawan, Madhu Milan Square, 11, RNT Marg, near Hotel shreemaya, Indore, Madhya Pradesh 452001, India", "phone": "+91 97533 31432", "rating": "4.9", "review_count": "", "website": "http://www.rerasolution.com/", "latitude": 22.713116, "longitude": 75.8719248, "maps_url": "https://www.google.com/maps/search/?api=1&query=Rera%20Solution&query_place_id=ChIJJ2QHIvT9YjkRgvT4t7HSSoY"}, {"place_id": "ChIJB-S2cXH9YjkReMnT5FhSk3M", "name": "Right Choice", "street": "Infront of Aarti Sweets Tower Square, RIGHT CHOICE Tally institute 2nd floor Gold Coin Plaza, Shradhanand Marg Main Rd, above Union Bank, Indore, Madhya Pradesh 452001, India", "phone": "+91 98269 64620", "rating": "4.9", "review_count": "", "website": "", "latitude": 22.710130499999998, "longitude": 75.872828, "maps_url": "https://www.google.com/maps/search/?api=1&query=Right%20Choice&query_place_id=ChIJB-S2cXH9YjkReMnT5FhSk3M"}, {"place_id": "ChIJrRgYFJH9YjkRJjKO4gHjlqQ", "name": "Sion Data matics India Pvt. Ltd| Best IT Company In Madhya Pradesh", "street": "11,5, bano doctor compound, Green Park, South Tukoganj, Indore, Madhya Pradesh 452001, India", "phone": "+91 78801 36882", "rating": "3.9", "review_count": "", "website": "https://www.sdmipl.com/", "latitude": 22.7181933, "longitude": 75.87494319999999, "maps_url": "https://www.google.com/maps/search/?api=1&query=Sion%20Data%20matics%20India%20Pvt.%20Ltd%7C%20Best%20IT%20Company%20In%20Madhya%20Pradesh&query_place_id=ChIJrRgYFJH9YjkRJjKO4gHjlqQ"}, {"place_id": "ChIJE0DYIBD9YjkRAAAA0Fc6Cjk", "name": "Guruji Mp Online", "street": "35 MALIPURA GADI ADDA, Juni Indore, Indore, Madhya Pradesh 452007, India", "phone": "+91 79996 90302", "rating": "4", "review_count": "", "website": "", "latitude": 22.711670599999998, "longitude": 75.8639697, "maps_url": "https://www.google.com/maps/search/?api=1&query=Guruji%20Mp%20Online&query_place_id=ChIJE0DYIBD9YjkRAAAA0Fc6Cjk"}, {"place_id": "ChIJdTyYkWgtri0RF-ZCY8JQKJw", "name": "Webgennie Media LLP", "street": "51, 52, Siyaganj Main Rd, Indore, Madhya Pradesh 452007, India", "phone": "+91 74983 17971", "rating": "5", "review_count": "", "website": "https://webgennie.com/", "latitude": 22.7161868, "longitude": 75.8657789, "maps_url": "https://www.google.com/maps/search/?api=1&query=Webgennie%20Media%20LLP&query_place_id=ChIJdTyYkWgtri0RF-ZCY8JQKJw"}, {"place_id": "ChIJa8DlRA79YjkR8xi7BXA_3Hk", "name": "Engineer Plus waterproofing & Painting solutions", "street": "building 1st floor, chemiCal house, 61 jawahar marg, opp, Sanjay Setu Rd, Indore, Madhya Pradesh 452007, India", "phone": "+91 93295 77550", "rating": "4.8", "review_count": "", "website": "https://engineerplus.in/", "latitude": 22.716331, "longitude": 75.8600206, "maps_url": "https://www.google.com/maps/search/?api=1&query=Engineer%20Plus%20waterproofing%20%26%20Painting%20solutions&query_place_id=ChIJa8DlRA79YjkR8xi7BXA_3Hk"}, {"place_id": "ChIJq6qqqib9YjkROrEsKNGFReA", "name": "Legal251", "street": "206, Corporate House, RNT Marg, South Tukoganj, Indore, Madhya Pradesh 452001, India", "phone": "+91 77728 77729", "rating": "4.6", "review_count": "", "website": "http://legal251.com/", "latitude": 22.717246, "longitude": 75.87212559999999, "maps_url": "https://www.google.com/maps/search/?api=1&query=Legal251&query_place_id=ChIJq6qqqib9YjkROrEsKNGFReA"}, {"place_id": "ChIJCfKir3b9YjkR3mhD3-Z7LmI", "name": "TECHDEFENDER ELECTRONICS CONTROL PANEL & STARTERS", "street": "3rd floor, Ellora plaza, 27, Maharani Rd, Siyaganj, Indore, Madhya Pradesh 452007, India", "phone": "", "rating": "4.9", "review_count": "", "website": "", "latitude": 22.7167513, "longitude": 75.866761, "maps_url": "https://www.google.com/maps/search/?api=1&query=TECHDEFENDER%20ELECTRONICS%20CONTROL%20PANEL%20%26%20STARTERS&query_place_id=ChIJCfKir3b9YjkR3mhD3-Z7LmI"}, {"place_id": "ChIJB4gAGA79YjkRqTGWS6BeoW0", "name": "JANTA TEA COMPANY", "street": "55, Siyaganj Main Rd, behind saify hotel, near bharat machinery, Siyaganj, Indore, Madhya Pradesh 452007, India", "phone": "+91 99266 99991", "rating": "4.1", "review_count": "", "website": "http://www.jantatea.com/", "latitude": 22.716615599999997, "longitude": 75.8643908, "maps_url": "https://www.google.com/maps/search/?api=1&query=JANTA%20TEA%20COMPANY&query_place_id=ChIJB4gAGA79YjkRqTGWS6BeoW0"}, {"place_id": "ChIJma2F-uz9YjkRpnOUyK3wDI4", "name": "Graphic Creation", "street": "17, Daulatganj Main Rd, near Chatri, Champa Bagh, Indore, Madhya Pradesh 452007, India", "phone": "+91 93290 20780", "rating": "", "review_count": "", "website": "https://graphiccreation.in/", "latitude": 22.715145, "longitude": 75.8629895, "maps_url": "https://www.google.com/maps/search/?api=1&query=Graphic%20Creation&query_place_id=ChIJma2F-uz9YjkRpnOUyK3wDI4"}, {"place_id": "ChIJc6bbsHH9YjkR_sLbIn7vuWk", "name": "It's Unicorntech", "street": "2, Ambedkar Nagar Rd, Mig Colony, New Palasia, Indore, Madhya Pradesh 452001, India", "phone": "+91 95895 72990", "rating": "", "review_count": "", "website": "http://itsunicorntech.com/", "latitude": 22.7309429, "longitude": 75.88466869999999, "maps_url": "https://www.google.com/maps/search/?api=1&query=It%27s%20Unicorntech&query_place_id=ChIJc6bbsHH9YjkR_sLbIn7vuWk"}, {"place_id": "ChIJ_aCSDAj-YjkRkZuGsXUYYOc", "name": "ALGOPULSE INFOTECH", "street": "Daulatganj, Indore, Madhya Pradesh 452007, India", "phone": "+91 96697 56944", "rating": "4.3", "review_count": "", "website": "http://thealgopulse.com/", "latitude": 22.7161708, "longitude": 75.8628133, "maps_url": "https://www.google.com/maps/search/?api=1&query=ALGOPULSE%20INFOTECH&query_place_id=ChIJ_aCSDAj-YjkRkZuGsXUYYOc"}, {"place_id": "ChIJYfrhUWD9YjkRRZPzRZPEGuo", "name": "Bluetech IT Services", "street": "", "phone": "+91 98935 09996", "rating": "4.6", "review_count": "", "website": "https://www.bluetechitservices.com/", "latitude": 14.157641199999999, "longitude": -16.7424939, "maps_url": "https://www.google.com/maps/search/?api=1&query=Bluetech%20IT%20Services&query_place_id=ChIJYfrhUWD9YjkRRZPzRZPEGuo"}, {"place_id": "ChIJf_xE8FEBDTkR8IfIOfMi45o", "name": "Dell Exclusive Store - RNT Marg, Indore", "street": "Silver Mall, RNT Marg, South Tukoganj, Indore, Madhya Pradesh 452001, India", "phone": "+91 80 4876 7050", "rating": "3.9", "review_count": "", "website": "https://www.dellretailstores.in/madhya-pradesh-indore-south-tukoganj-1288?utm_source=GMB_Lead&campaign=GMB&nav=contact", "latitude": 22.716029199999998, "longitude": 75.8726325, "maps_url": "https://www.google.com/maps/search/?api=1&query=Dell%20Exclusive%20Store%20-%20RNT%20Marg%2C%20Indore&query_place_id=ChIJf_xE8FEBDTkR8IfIOfMi45o"}, {"place_id": "ChIJqXn5UxT9YjkRZy4qVQGUdsc", "name": "Hii IT Solutions", "street": "24, 2, Yeshwant Niwas Rd, behind Manglam Gold, Nehru Park 2, New Palasia, Indore, Madhya Pradesh 452003, India", "phone": "+91 99072 99358", "rating": "5", "review_count": "", "website": "", "latitude": 22.7215155, "longitude": 75.873395, "maps_url": "https://www.google.com/maps/search/?api=1&query=Hii%20IT%20Solutions&query_place_id=ChIJqXn5UxT9YjkRZy4qVQGUdsc"}, {"place_id": "ChIJYQEAngb9YjkRJVCCclf2fgU", "name": "XYZ company", "street": "231, Govind Puri, Indore, Madhya Pradesh 452007, India", "phone": "", "rating": "", "review_count": "", "website": "", "latitude": 22.7150923, "longitude": 75.8627101, "maps_url": "https://www.google.com/maps/search/?api=1&query=XYZ%20company&query_place_id=ChIJYQEAngb9YjkRJVCCclf2fgU"}, {"place_id": "ChIJlyr05GodYzkRg5lv5iXIOwg", "name": "Techwave IT Solutions Pvt Ltd | Software Development Company in Indore | Top IT Company in Indore | India", "street": "Bhopal Motors JCB, near Panchvati, Lasudia Mori, Indore, Madhya Pradesh 453771, India", "phone": "+91 90091 55444", "rating": "", "review_count": "", "website": "http://techwaveitsolutions.com/", "latitude": 22.792078399999998, "longitude": 75.90735409999999, "maps_url": "https://www.google.com/maps/search/?api=1&query=Techwave%20IT%20Solutions%20Pvt%20Ltd%20%7C%20Software%20Development%20Company%20in%20Indore%20%7C%20Top%20IT%20Company%20in%20Indore%20%7C%20India&query_place_id=ChIJlyr05GodYzkRg5lv5iXIOwg"}]