[{"place_id": "ChIJaZZQKVb9DDkRB1x9k7ATb3U", "name": "KGN Software Solutions", "street": "108, Gali Kandle Kashan, Fatehpuri, Chandni Chowk, New Delhi, Delhi, 110006, India", "phone": "+91 80764 81454", "rating": "4.9", "review_count": "", "website": "https://kgnsoftsolutions.com/", "latitude": 28.655137, "longitude": 77.22308, "maps_url": "https://www.google.com/maps/search/?api=1&query=KGN%20Software%20Solutions&query_place_id=ChIJaZZQKVb9DDkRB1x9k7ATb3U"}, {"place_id": "ChIJ7aqqqhn9DDkRAHrHrySKo2M", "name": "TEAMWORK IT SOLUTION", "street": "4680, Shree Ji Service Ballimaran,, Chandani Chowk Delhi, New Delhi, Delhi 110006, India", "phone": "+91 98911 15747", "rating": "5", "review_count": "", "website": "", "latitude": 28.6505196, "longitude": 77.23188069999999, "maps_url": "https://www.google.com/maps/search/?api=1&query=TEAMWORK%20IT%20SOLUTION&query_place_id=ChIJ7aqqqhn9DDkRAHrHrySKo2M"}, {"place_id": "ChIJQ_oGW9r9DDkRVEcZFZZp-T4", "name": "IT SOLUTION PVT LTD", "street": "Katra Asharfi, Chandni Chowk, Delhi, 110006, India", "phone": "+91 78348 28211", "rating": "4.3", "review_count": "", "website": "", "latitude": 28.6564014, "longitude": 77.2279331, "maps_url": "https://www.google.com/maps/search/?api=1&query=IT%20SOLUTION%20PVT%20LTD&query_place_id=ChIJQ_oGW9r9DDkRVEcZFZZp-T4"}, {"place_id": "ChIJO4sr49IDDTkRALZaeWsr-oI", "name": "Iraitech | Software Development Company", "street": "Central Square Complex 3, Unit No-1051, 1st Floor, Near Filmistan, DCM chowk, Bara Hindu Rao, Kishan Ganj, Delhi, 110006, India", "phone": "+91 81301 04108", "rating": "4.1", "review_count": "", "website": "https://www.iraitech.com/", "latitude": 28.6631951, "longitude": 77.20308639999999, "maps_url": "https://www.google.com/maps/search/?api=1&query=Iraitech%20%7C%20Software%20Development%20Company&query_place_id=ChIJO4sr49IDDTkRALZaeWsr-oI"}, {"place_id": "ChIJ8bD3oe-1bTkRhQOwVrfg-vw", "name": "One Aim IT Solutions", "street": "2/41/2 , 1st Floor, Sadar Bazar , Moradabad Pahari ,TO.Delhi Cantt, Distt:, South West, New Delhi, Delhi 110006, India", "phone": "+91 89552 49714", "rating": "5", "review_count": "", "website": "https://theoneaim.in/", "latitude": 28.6580968, "longitude": 77.2124735, "maps_url": "https://www.google.com/maps/search/?api=1&query=One%20Aim%20IT%20Solutions&query_place_id=ChIJ8bD3oe-1bTkRhQOwVrfg-vw"}, {"place_id": "ChIJdfKeThb9DDkRvSuJM1M1kio", "name": "Kaizen Business Services", "street": "4047, charkhe walan, Chawri Bazar, Delhi, 110006, India", "phone": "+91 78383 33301", "rating": "5", "review_count": "", "website": "", "latitude": 28.654558299999998, "longitude": 77.2354411, "maps_url": "https://www.google.com/maps/search/?api=1&query=Kaizen%20Business%20Services&query_place_id=ChIJdfKeThb9DDkRvSuJM1M1kio"}, {"place_id": "ChIJiXUDIwz9DDkRvZmUMDLc3ys", "name": "Infycat Com", "street": "4311, Gali Bhairo Wali, Jogiwara, Chandni Chowk, New Delhi, Delhi, 110006, India", "phone": "+91 95823 23923", "rating": "3.7", "review_count": "", "website": "https://www.infycat.com/", "latitude": 28.652357, "longitude": 77.2279069, "maps_url": "https://www.google.com/maps/search/?api=1&query=Infycat%20Com&query_place_id=ChIJiXUDIwz9DDkRvZmUMDLc3ys"}, {"place_id": "ChIJd5tMGRH9DDkRN0WZeqYVfM0", "name": "United Optical Company", "street": "5974 Gali Kumran, Ballimaran North, Katra Nawab, Chandni Chowk, Delhi, 110006, India", "phone": "+91 80 4764 2809", "rating": "4.8", "review_count": "", "website": "http://unitedoptical.co.in/", "latitude": 28.654613899999998, "longitude": 77.2258283, "maps_url": "https://www.google.com/maps/search/?api=1&query=United%20Optical%20Company&query_place_id=ChIJd5tMGRH9DDkRN0WZeqYVfM0"}, {"place_id": "ChIJwcUlObj9DDkRxp-A2GtkiXc", "name": "Elpisverse", "street": "1733, 3rd floor, Dariba Kalan, Chandni Chowk, Delhi, 110006, India", "phone": "+91 83838 91067", "rating": "5", "review_count": "", "website": "https://elpisverse.com/", "latitude": 28.6556204, "longitude": 77.2334923, "maps_url": "https://www.google.com/maps/search/?api=1&query=Elpisverse&query_place_id=ChIJwcUlObj9DDkRxp-A2GtkiXc"}, {"place_id": "ChIJFeXlTZkCDTkRNw2aQAO8CNk", "name": "Himalayan IT Solutions | Best Website Designing Company in Delhi | SEO/Digital Marketing Company in Delhi NCR, India", "street": "61/4255, Padam Singh Rd, Block 29, Block 1, Regar Pura, Karol Bagh, Delhi, 110005, India", "phone": "+91 98990 98509", "rating": "3.9", "review_count": "", "website": "http://www.himalayanitsolutions.com/", "latitude": 28.649673999999997, "longitude": 77.186599, "maps_url": "https://www.google.com/maps/search/?api=1&query=Himalayan%20IT%20Solutions%20%7C%20Best%20Website%20Designing%20Company%20in%20Delhi%20%7C%20SEO/Digital%20Marketing%20Company%20in%20Delhi%20NCR%2C%20India&query_place_id=ChIJFeXlTZkCDTkRNw2aQAO8CNk"}, {"place_id": "ChIJd-3rnjD9DDkRC1ouB5NrtvU", "name": "ITI Tools Co (INDIAN TECHNOLOGY CO.)", "street": "3675, Shradhanand Marg, Chabdi Bazar, Ajmeri Gate, New Delhi, Delhi, 110006, India", "phone": "+91 98714 08551", "rating": "3.2", "review_count": "", "website": "", "latitude": 28.648723399999998, "longitude": 77.2218827, "maps_url": "https://www.google.com/maps/search/?api=1&query=ITI%20Tools%20Co%20%28INDIAN%20TECHNOLOGY%20CO.%29&query_place_id=ChIJd-3rnjD9DDkRC1ouB5NrtvU"}, {"place_id": "ChIJVVVVVRn9DDkRsE4i1ZLeEjQ", "name": "New Zen Solution", "street": "2554 Sunder Bhawan, Choori Walan, Delhi, 110006, India", "phone": "+91 99999 06547", "rating": "5", "review_count": "", "website": "https://newzensolution.com/", "latitude": 28.6536944, "longitude": 77.2347674, "maps_url": "https://www.google.com/maps/search/?api=1&query=New%20Zen%20Solution&query_place_id=ChIJVVVVVRn9DDkRsE4i1ZLeEjQ"}, {"place_id": "ChIJuS06_6T9DDkRGVwzoWf9FQc", "name": "Kamonk", "street": "Kamonk Projects Private Limited, 3645, IInd Floor, Chawri Bazar, Hauz Qazi, New Delhi, Delhi 110006, India", "phone": "", "rating": "4.5", "review_count": "", "website": "http://www.kamonk.in/", "latitude": 28.649371799999997, "longitude": 77.2274109, "maps_url": "https://www.google.com/maps/search/?api=1&query=Kamonk&query_place_id=ChIJuS06_6T9DDkRGVwzoWf9FQc"}, {"place_id": "ChIJyef3yxn9DDkRrspONxbdv00", "name": "Veer File Products-Office Spring file-index file /Practical File/Cobra Clip/myclearbag file manufacturer in Delhi", "street": "2738, Nai Sarak, Roshanpura, Chandni Chowk, Delhi, 110006, India", "phone": "+91 98997 02017", "rating": "4.5", "review_count": "", "website": "", "latitude": 28.6523842, "longitude": 77.22976799999999, "maps_url": "https://www.google.com/maps/search/?api=1&query=Veer%20File%20Products-Office%20Spring%20file-index%20file%20/Practical%20File/Cobra%20Clip/myclearbag%20file%20manufacturer%20in%20Delhi&query_place_id=ChIJyef3yxn9DDkRrspONxbdv00"}, {"place_id": "ChIJVVsDmpn9DDkR8_akqpvqKbI", "name": "Fasteners King Private Limited - Hilti Fischer Milwaukee Wurth Distributor", "street": "1st Floor, Hauz Qazi, 3438, Chawri Bazar, METRO, New Delhi, Delhi 110006, India", "phone": "+91 85058 50569", "rating": "4.9", "review_count": "", "website": "http://www.fastenersking.com/", "latitude": 28.6493932, "longitude": 77.2266758, "maps_url": "https://www.google.com/maps/search/?api=1&query=Fasteners%20King%20Private%20Limited%20-%20Hilti%20Fischer%20Milwaukee%20Wurth%20Distributor&query_place_id=ChIJVVsDmpn9DDkR8_akqpvqKbI"}, {"place_id": "ChIJowV3_Fr9DDkR5QkMEBtQP6E", "name": "Gupta Trading Company", "street": "M-4, 21/23, Kucha Chowdhary, Chandni Chowk, Delhi, 110006, India", "phone": "+91 98183 84547", "rating": "4.6", "review_count": "", "website": "", "latitude": 28.6537522, "longitude": 77.2324933, "maps_url": "https://www.google.com/maps/search/?api=1&query=Gupta%20Trading%20Company&query_place_id=ChIJowV3_Fr9DDkR5QkMEBtQP6E"}, {"place_id": "ChIJ____Gxj9DDkRwg55bIqX4zg", "name": "AAUZAAR | Batra Business Centre", "street": "3477-3478, Hauz Qazi Chowk, Bazar Sirkiwalan, Khush Dil, Chandni Chowk, New Delhi, Delhi, 110006, India", "phone": "+91 87503 38000", "rating": "4.4", "review_count": "", "website": "https://aauzaar.mini.store/", "latitude": 28.6494666, "longitude": 77.2266965, "maps_url": "https://www.google.com/maps/search/?api=1&query=AAUZAAR%20%7C%20Batra%20Business%20Centre&query_place_id=ChIJ____Gxj9DDkRwg55bIqX4zg"}, {"place_id": "ChIJKXNfQwf9DDkREw35CXMmQxo", "name": "Pankul Papers Private Limited", "street": "3768-79 1st floor, Charkhewalan, above Gujarat Namkeen, Chawri Bazar, Delhi, 110006, India", "phone": "+91 99111 57424", "rating": "3.8", "review_count": "", "website": "https://www.customizedrigidboxes.com/", "latitude": 28.650439799999997, "longitude": 77.2292552, "maps_url": "https://www.google.com/maps/search/?api=1&query=Pankul%20Papers%20Private%20Limited&query_place_id=ChIJKXNfQwf9DDkREw35CXMmQxo"}, {"place_id": "ChIJOd0erhf9DDkRA4tsxr-sW_U", "name": "Delhi Print Linkers", "street": "Shop Number 37 Chawri Bazar Near PNB Bank Main road, Delhi, 110006, India", "phone": "", "rating": "4.8", "review_count": "", "website": "https://www.handheldinkjetprinters.com/", "latitude": 28.650129699999997, "longitude": 77.2295846, "maps_url": "https://www.google.com/maps/search/?api=1&query=Delhi%20Print%20Linkers&query_place_id=ChIJOd0erhf9DDkRA4tsxr-sW_U"}, {"place_id": "ChIJV0dOYsD9DDkRzd5rdeDGRpI", "name": "Mystical Piyush Kumar Nahta", "street": "4311. Gali Bhairown Wali, Nai Sarak, Jogiwara, Delhi, 110006, India", "phone": "+91 95823 23923", "rating": "4.9", "review_count": "", "website": "http://piyush.win/profile/", "latitude": 28.653116999999998, "longitude": 77.2279518, "maps_url": "https://www.google.com/maps/search/?api=1&query=Mystical%20Piyush%20Kumar%20Nahta&query_place_id=ChIJV0dOYsD9DDkRzd5rdeDGRpI"}, {"place_id": "ChIJM3Cts6YBDTkRURzktpFYX2A", "name": "Mittal Merchandisers Co.", "street": "4879, Phatak Namak St, Bazar Sirkiwalan, Kaccha Pandit Main Bazar, Chawri Bazar, Old Delhi, New Delhi, Delhi, 110006, India", "phone": "+91 80 4896 1646", "rating": "4.4", "review_count": "", "website": "http://www.mmcfixings.com/", "latitude": 28.6492293, "longitude": 77.2257315, "maps_url": "https://www.google.com/maps/search/?api=1&query=Mittal%20Merchandisers%20Co.&query_place_id=ChIJM3Cts6YBDTkRURzktpFYX2A"}, {"place_id": "ChIJMduAwxX9DDkR7JELXl_79co", "name": "NEW INDIA MANUFACTURING COMPANY", "street": "G. B. Road, Behind Shardhanand Marg, Chowk Niarian 2851, Fasil Road, Shah Ganj, Chandni Chowk New Delhi New Delhi, Delhi, 110006, India", "phone": "+91 99991 01667", "rating": "4", "review_count": "", "website": "", "latitude": 28.6484396, "longitude": 77.2225158, "maps_url": "https://www.google.com/maps/search/?api=1&query=NEW%20INDIA%20MANUFACTURING%20COMPANY&query_place_id=ChIJMduAwxX9DDkR7JELXl_79co"}, {"place_id": "ChIJQ9JHOQj9DDkR1No3voaL0wg", "name": "Eyenic", "street": "Eyenic 4716 GROUND FLOOR, PHATAK BARH WALA, LANDMARK BHATIA STAMP, MCD NO.4703 & 4714-18, market, near BALLIMARAN, Chandni Chowk, Delhi, 110006, India", "phone": "+91 82839 01731", "rating": "4.9", "review_count": "", "website": "https://www.eyenic.in/", "latitude": 28.654497, "longitude": 77.22588569999999, "maps_url": "https://www.google.com/maps/search/?api=1&query=Eyenic&query_place_id=ChIJQ9JHOQj9DDkR1No3voaL0wg"}, {"place_id": "ChIJk8GQlhf9DDkRmLI01UvUXDc", "name": "Vijay engineering corporation", "street": "4762, first floor,, Hauz Qazi, Behind Tanga Stand, Delhi, 110006, India", "phone": "+91 95993 82992", "rating": "5", "review_count": "", "website": "http://www.vechoses.com/", "latitude": 28.649147, "longitude": 77.226131, "maps_url": "https://www.google.com/maps/search/?api=1&query=Vijay%20engineering%20corporation&query_place_id=ChIJk8GQlhf9DDkRmLI01UvUXDc"}, {"place_id": "ChIJI_Qamhn9DDkRvwMShbSpG0Q", "name": "Tayal Trading Company", "street": "2495, Chatta Shahji Rd, Chawri Bazar, Chandni Chowk, Delhi, 110006, India", "phone": "+91 96543 37123", "rating": "3.7", "review_count": "", "website": "http://www.myartme.com/", "latitude": 28.651619999999998, "longitude": 77.23115229999999, "maps_url": "https://www.google.com/maps/search/?api=1&query=Tayal%20Trading%20Company&query_place_id=ChIJI_Qamhn9DDkRvwMShbSpG0Q"}, {"place_id": "ChIJmfe9gBf9DDkRvSeVG8IIoRM", "name": "Bellstone Hitech International Ltd", "street": "3755, Chawri Bazar, Chandni Chowk, New Delhi, Delhi, 110006, India", "phone": "+91 93112 10517", "rating": "4.5", "review_count": "", "website": "http://bellstoneonline.com/", "latitude": 28.6500639, "longitude": 77.2289746, "maps_url": "https://www.google.com/maps/search/?api=1&query=Bellstone%20Hitech%20International%20Ltd&query_place_id=ChIJmfe9gBf9DDkRvSeVG8IIoRM"}, {"place_id": "ChIJ29sEPB1_U64RcVWvh_pEd2k", "name": "AR Web Designing! | Website Designing Agency in Delhi", "street": "433, Matia Mahal Rd, Bazar Matia Mahal, sarote, Old Delhi, Delhi, 110006, India", "phone": "", "rating": "5", "review_count": "", "website": "https://arwebdesigning.com/", "latitude": 28.6484556, "longitude": 77.2336476, "maps_url": "https://www.google.com/maps/search/?api=1&query=AR%20Web%20Designing%21%20%7C%20Website%20Designing%20Agency%20in%20Delhi&query_place_id=ChIJ29sEPB1_U64RcVWvh_pEd2k"}, {"place_id": "ChIJDZi38xD9DDkRYeh90Z39WaM", "name": "USHA Company Store", "street": "5571, Nai Sarak, New Krishna Cloth Market, Katra Rathi, Chandni Chowk, New Delhi, Delhi, 110006, India", "phone": "+91 98104 57119", "rating": "4.9", "review_count": "", "website": "https://www.usha.com/", "latitude": 28.655352999999998, "longitude": 77.2273215, "maps_url": "https://www.google.com/maps/search/?api=1&query=USHA%20Company%20Store&query_place_id=ChIJDZi38xD9DDkRYeh90Z39WaM"}, {"place_id": "ChIJo0lKUKH9DDkRgZ10mr4SvMQ", "name": "Komal Trading Company", "street": "4310, Second Floor, Gali Bhairo Wali, Jogiwara, Chandni Chowk, Delhi, 110006, India", "phone": "+91 11 4942 4122", "rating": "5", "review_count": "", "website": "", "latitude": 28.6531479, "longitude": 77.2279173, "maps_url": "https://www.google.com/maps/search/?api=1&query=Komal%20Trading%20Company&query_place_id=ChIJo0lKUKH9DDkRgZ10mr4SvMQ"}, {"place_id": "ChIJ____Gxj9DDkRUGO_HFuKf5Q", "name": "Royal Tube Company", "street": "3354, Bazar Sirkiwalan, Hauz Qazi, Old Delhi, Delhi, 110006, India", "phone": "+91 93122 10807", "rating": "4.8", "review_count": "", "website": "", "latitude": 28.6500941, "longitude": 77.2260733, "maps_url": "https://www.google.com/maps/search/?api=1&query=Royal%20Tube%20Company&query_place_id=ChIJ____Gxj9DDkRUGO_HFuKf5Q"}, {"place_id": "ChIJ135U6Rf9DDkRAgMjVF0gPGw", "name": "Rajender Kumar & Company", "street": "3632, Gali Piao, First Floor, Chawri Bazar, New Delhi, Delhi 110006, India", "phone": "+91 11 2327 4410", "rating": "3.2", "review_count": "", "website": "http://www.rkctrades.com/", "latitude": 28.6497338, "longitude": 77.22883639999999, "maps_url": "https://www.google.com/maps/search/?api=1&query=Rajender%20Kumar%20%26%20Company&query_place_id=ChIJ135U6Rf9DDkRAgMjVF0gPGw"}, {"place_id": "ChIJM9r7u0r9DDkRiUvt7zjjpRM", "name": "IT Executive vivek", "street": "22, Vijay Ghat, Raj Ghat, New Delhi, Delhi, 110006, India", "phone": "", "rating": "", "review_count": "", "website": "https://itexecuitive.com/", "latitude": 28.6584512, "longitude": 77.2449233, "maps_url": "https://www.google.com/maps/search/?api=1&query=IT%20Executive%20vivek&query_place_id=ChIJM9r7u0r9DDkRiUvt7zjjpRM"}, {"place_id": "ChIJP0lRBhn9DDkRlpexMsuZ66Y", "name": "Shreyansh Paper Company", "street": "Shop No - 958, Chotta Chipiwara, 1st Floor, Chawri Bazaar, Delhi, 110006, India", "phone": "+91 98684 96995", "rating": "4", "review_count": "", "website": "https://m.indiamart.com/shreyanshpapercompany/", "latitude": 28.651135, "longitude": 77.2321, "maps_url": "https://www.google.com/maps/search/?api=1&query=Shreyansh%20Paper%20Company&query_place_id=ChIJP0lRBhn9DDkRlpexMsuZ66Y"}, {"place_id": "ChIJOd0erhf9DDkR_lcjiGMEjL4", "name": "Veer & Co - Paper bags manufacturer in Delhi", "street": "303, Chawri Bazar Rd, Kucha Mir Ashiq, Manohar Market, Chawri Bazar, Old Delhi, Delhi, 110006, India", "phone": "+91 93543 87159", "rating": "4.9", "review_count": "", "website": "https://paperbagshandle.com/", "latitude": 28.6496244, "longitude": 77.231022, "maps_url": "https://www.google.com/maps/search/?api=1&query=Veer%20%26%20Co%20-%20Paper%20bags%20manufacturer%20in%20Delhi&query_place_id=ChIJOd0erhf9DDkR_lcjiGMEjL4"}, {"place_id": "ChIJEaRq6xb9DDkRokQeUIC21gI", "name": "THE MMASALA BOX CO", "street": "Jaisav Place, 5006-5008, Hamdard Marg, Bazar Sirkiwalan, Kaccha Pandit Main Bazar, Hauz Qazi, Chandni Chowk, New Delhi, Delhi, 110006, India", "phone": "+91 98710 92916", "rating": "5", "review_count": "", "website": "http://masalaboxco.com/", "latitude": 28.6510227, "longitude": 77.2247762, "maps_url": "https://www.google.com/maps/search/?api=1&query=THE%20MMASALA%20BOX%20CO&query_place_id=ChIJEaRq6xb9DDkRokQeUIC21gI"}, {"place_id": "ChIJn5lUuhj9DDkRHvwn4CiLP2Q", "name": "Glaze Impex Private Limited", "street": "Gali Garhaya, Matia Mahal Rd, Jama Masjid, Old Delhi, Delhi, 110006, India", "phone": "+91 11 2324 4236", "rating": "4.8", "review_count": "", "website": "http://www.glazeimpex.com/", "latitude": 28.649309, "longitude": 77.23374, "maps_url": "https://www.google.com/maps/search/?api=1&query=Glaze%20Impex%20Private%20Limited&query_place_id=ChIJn5lUuhj9DDkRHvwn4CiLP2Q"}, {"place_id": "ChIJPRWxvRf9DDkRPLAQdiLtKgE", "name": "Anil Trading Co.", "street": "3490, Kucha Kash Gari, Bazar Sirkiwalan, Manohar Market, Hauz Qazi, Old Delhi, Chawri Bazar, Delhi, 110006, India", "phone": "+91 11 2325 9147", "rating": "5", "review_count": "", "website": "", "latitude": 28.648901, "longitude": 77.228781, "maps_url": "https://www.google.com/maps/search/?api=1&query=Anil%20Trading%20Co.&query_place_id=ChIJPRWxvRf9DDkRPLAQdiLtKgE"}, {"place_id": "ChIJ8Xq_yRv9DDkRqtFcsqKlm8Y", "name": "Amar & Company", "street": "M63J+WWQ, 2771/A, Kinari Bazar Rd, Dharam Pura, Chandni Chowk, New Delhi, Delhi, 110006, India", "phone": "+91 81305 66081", "rating": "4.3", "review_count": "", "website": "", "latitude": 28.6548062, "longitude": 77.23235489999999, "maps_url": "https://www.google.com/maps/search/?api=1&query=Amar%20%26%20Company&query_place_id=ChIJ8Xq_yRv9DDkRqtFcsqKlm8Y"}, {"place_id": "ChIJo3zeShj9DDkRXLCmXSeY1a4", "name": "Gopal trading company", "street": "First floor barshabulla, 196, Gali batashan, Manohar Market, Chawri Bazar, Chandni Chowk, New Delhi, Delhi, 110006, India", "phone": "+91 92125 13022", "rating": "4.4", "review_count": "", "website": "", "latitude": 28.650351999999998, "longitude": 77.2305611, "maps_url": "https://www.google.com/maps/search/?api=1&query=Gopal%20trading%20company&query_place_id=ChIJo3zeShj9DDkRXLCmXSeY1a4"}, {"place_id": "ChIJOd0erhf9DDkRcro2uNUW_5U", "name": "Sohan Lal Gupta & Co", "street": "Showroom- 3660, 61, Chandni Chowk Rd, near Union Bank, Bazar Sirkiwalan, Chawri Bazar, Chandni Chowk, Delhi, 110006, India", "phone": "+91 98103 33361", "rating": "4.8", "review_count": "", "website": "https://www.slgc.in/", "latitude": 28.6494282, "longitude": 77.2275226, "maps_url": "https://www.google.com/maps/search/?api=1&query=Sohan%20Lal%20Gupta%20%26%20Co&query_place_id=ChIJOd0erhf9DDkRcro2uNUW_5U"}, {"place_id": "ChIJk3l-_SL9DDkRQx_hHJTQ8fQ", "name": "Cleaning Services in Delhi By Nobroker", "street": "2993, Masjid Khajhoor, Dharam Pura Rd, opp. Queen Cloth Shop, Dharam Pura, Chandni Chowk, New Delhi, Delhi 110006, India", "phone": "", "rating": "4.2", "review_count": "", "website": "https://www.nobroker.in/cleaning-services-in-delhi", "latitude": 28.653773299999997, "longitude": 77.2312426, "maps_url": "https://www.google.com/maps/search/?api=1&query=Cleaning%20Services%20in%20Delhi%20By%20Nobroker&query_place_id=ChIJk3l-_SL9DDkRQx_hHJTQ8fQ"}, {"place_id": "ChIJl5ZGrBD9DDkRnvEQb4lUg-w", "name": "ROOP TRADING COMPANY", "street": "5576, Nai Sarak, New Krishna Cloth Market, katra lacchi ram, Chandni Chowk, New Delhi, Delhi, 110006, India", "phone": "+91 11 2394 0190", "rating": "4", "review_count": "", "website": "", "latitude": 28.655261699999997, "longitude": 77.22729939999999, "maps_url": "https://www.google.com/maps/search/?api=1&query=ROOP%20TRADING%20COMPANY&query_place_id=ChIJl5ZGrBD9DDkRnvEQb4lUg-w"}, {"place_id": "ChIJ____Gxj9DDkRMeG3kiKjafg", "name": "Safety Solutions", "street": "4787/133 Phatak Namaki, Sumi Market, Hauz Qazi, New Delhi, Delhi 110006, India", "phone": "+91 80 4860 2188", "rating": "4.5", "review_count": "", "website": "http://www.safetysolutions.info/", "latitude": 28.6492792, "longitude": 77.225949, "maps_url": "https://www.google.com/maps/search/?api=1&query=Safety%20Solutions&query_place_id=ChIJ____Gxj9DDkRMeG3kiKjafg"}, {"place_id": "ChIJlx5-7JT9DDkRhhF-CJlswh4", "name": "SHIVANSH ENTERPRISES", "street": "C-5, Street No.3, near HANSRAJ MARKET, Block T, GAMRI EXTENSION, SUDAMAPURI, Delhi, 110053, India", "phone": "+91 88265 49483", "rating": "5", "review_count": "", "website": "", "latitude": 28.6781546, "longitude": 77.264049, "maps_url": "https://www.google.com/maps/search/?api=1&query=SHIVANSH%20ENTERPRISES&query_place_id=ChIJlx5-7JT9DDkRhhF-CJlswh4"}, {"place_id": "ChIJyef3yxn9DDkR6-lWDVrpDRY", "name": "Dhanpat Rai & Co Private Limited", "street": "1710, Nai Sarak, Dai Wara, Chandni Chowk, New Delhi, Delhi, 110006, India", "phone": "+91 11 2325 0251", "rating": "4", "review_count": "", "website": "", "latitude": 28.6506756, "longitude": 77.2301196, "maps_url": "https://www.google.com/maps/search/?api=1&query=Dhanpat%20Rai%20%26%20Co%20Private%20Limited&query_place_id=ChIJyef3yxn9DDkR6-lWDVrpDRY"}, {"place_id": "ChIJc_0tF6r9DDkRadPfA7j1z6c", "name": "Shivam Saroj", "street": "Shop No 24, Phatak Namak St, Bazar Sirkiwalan, Kaccha Pandit Main Bazar, Hauz Qazi, Chandni Chowk, New Delhi, Delhi, 110006, India", "phone": "+91 81155 66694", "rating": "", "review_count": "", "website": "", "latitude": 28.649113999999997, "longitude": 77.22581389999999, "maps_url": "https://www.google.com/maps/search/?api=1&query=Shivam%20Saroj&query_place_id=ChIJc_0tF6r9DDkRadPfA7j1z6c"}]