[{"place_id": "ChIJVVXFKfH8YjkRExiIW1ytcvk", "name": "Technorizen Software Solution | Software Development Company | Mobile Apps l AI/ML Solution l Blockchain l Digital Marketing", "street": "Sapphire House, 402 A, B, C, Sapna Sangeeta Rd, Indore, Madhya Pradesh 452001, India", "phone": "+91 78284 07092", "rating": "4.7", "review_count": "", "website": "https://technorizen.com/", "latitude": 22.702807, "longitude": 75.871596, "maps_url": "https://www.google.com/maps/search/?api=1&query=Technorizen%20Software%20Solution%20%7C%20Software%20Development%20Company%20%7C%20Mobile%20Apps%20l%20AI/ML%20Solution%20l%20Blockchain%20l%20Digital%20Marketing&query_place_id=ChIJVVXFKfH8YjkRExiIW1ytcvk"}, {"place_id": "ChIJD-y3euL8YjkRUJVUG04znCA", "name": "Web Indore It Solutions", "street": "Office No. 101 Krishna Business Pride, Tower Square, Indore, Madhya Pradesh 452014, India", "phone": "+91 89896 76628", "rating": "4.7", "review_count": "", "website": "https://www.webindore.com/", "latitude": 22.6985436, "longitude": 75.864064, "maps_url": "https://www.google.com/maps/search/?api=1&query=Web%20Indore%20It%20Solutions&query_place_id=ChIJD-y3euL8YjkRUJVUG04znCA"}, {"place_id": "ChIJNe5TxRn9YjkR1mAwULLtTHY", "name": "ThinkDebug Indore", "street": "301,302, Shanti Corporate 116, near Lotus, Snehnagar, Indore, Madhya Pradesh 452001, India", "phone": "+91 90980 02268", "rating": "4.9", "review_count": "", "website": "https://thinkdebug.com/", "latitude": 22.702656299999997, "longitude": 75.87068699999999, "maps_url": "https://www.google.com/maps/search/?api=1&query=ThinkDebug%20Indore&query_place_id=ChIJNe5TxRn9YjkR1mAwULLtTHY"}, {"place_id": "ChIJxWGUB-L8YjkRNJC3IyYytMQ", "name": "GlobalStack IT Solutions", "street": "Vikram Tower, 408,, Sapna Sangeeta Rd, Agarwal Nagar, Old Agarwal Nagar, Indore, Madhya Pradesh 452001, India", "phone": "", "rating": "4.9", "review_count": "", "website": "", "latitude": 22.7011969, "longitude": 75.8702004, "maps_url": "https://www.google.com/maps/search/?api=1&query=GlobalStack%20IT%20Solutions&query_place_id=ChIJxWGUB-L8YjkRNJC3IyYytMQ"}, {"place_id": "ChIJpySzDeD8YjkRnOV9ReOkv-A", "name": "Yuvasoft Solutions Private Limited", "street": "Pukhraj Corporate, 715&801, near होटल प्रशांत, Maa Durga Nagar, Navlakha, Indore, Madhya Pradesh 452001, India", "phone": "+91 731 408 9013", "rating": "4.1", "review_count": "", "website": "http://www.yuvasoftech.com/", "latitude": 22.7007954, "longitude": 75.87572469999999, "maps_url": "https://www.google.com/maps/search/?api=1&query=Yuvasoft%20Solutions%20Private%20Limited&query_place_id=ChIJpySzDeD8YjkRnOV9ReOkv-A"}, {"place_id": "ChIJe-CylQD9YjkRFTYuWRM59ZE", "name": "Orbit Edge Tech Solutions", "street": "303,Krishna Business Pride, Tower Square, Indore, Madhya Pradesh 452014, India", "phone": "+91 62626 29320", "rating": "5", "review_count": "", "website": "https://www.orbitedgetech.com/", "latitude": 22.6985444, "longitude": 75.8641014, "maps_url": "https://www.google.com/maps/search/?api=1&query=Orbit%20Edge%20Tech%20Solutions&query_place_id=ChIJe-CylQD9YjkRFTYuWRM59ZE"}, {"place_id": "ChIJ6dR1xeL8YjkR9zQKs7qghg0", "name": "Sixth Sense I T Solutions", "street": "Pukhraj Corporate, 403, Navlakha, Indore, Madhya Pradesh 452001, India", "phone": "+91 96173 50006", "rating": "3.9", "review_count": "", "website": "https://www.sixthsenseit.com/", "latitude": 22.7004406, "longitude": 75.8758903, "maps_url": "https://www.google.com/maps/search/?api=1&query=Sixth%20Sense%20I%20T%20Solutions&query_place_id=ChIJ6dR1xeL8YjkR9zQKs7qghg0"}, {"place_id": "ChIJ__o_Pd78YjkRhcf0xrcMOyU", "name": "Codezilla Technology & Consultancy Pvt. Ltd.", "street": "Plot no 92, Above of iWish showroom, Sapna Sangeeta Rd, near Tanishq showroom, Indore, Madhya Pradesh 452001, India", "phone": "+91 731 494 5411", "rating": "4.6", "review_count": "", "website": "https://codezilla.io/", "latitude": 22.7005084, "longitude": 75.86893839999999, "maps_url": "https://www.google.com/maps/search/?api=1&query=Codezilla%20Technology%20%26%20Consultancy%20Pvt.%20Ltd.&query_place_id=ChIJ__o_Pd78YjkRhcf0xrcMOyU"}, {"place_id": "ChIJCeN76uL8YjkRF2ptNzTjj7o", "name": "NextDay Software Solutions (OPC) Private Limited", "street": "Vatsalya Chamber, F-20, Sapna Sangeeta Rd, opposite INOX Cinema, Sindhi Colony, Indore, Madhya Pradesh 452001, India", "phone": "+91 731 400 2936", "rating": "4.1", "review_count": "", "website": "https://www.nextdaysoft.com/", "latitude": 22.6994737, "longitude": 75.8666714, "maps_url": "https://www.google.com/maps/search/?api=1&query=NextDay%20Software%20Solutions%20%28OPC%29%20Private%20Limited&query_place_id=ChIJCeN76uL8YjkRF2ptNzTjj7o"}, {"place_id": "ChIJ0z8duqf9YjkRZesKwiMv3X8", "name": "Tech DIligents Software Solutions", "street": "BM Tower, 309, Sapna Sangeeta Rd, opp. Lotus Showroom, Old Agarwal Nagar, Indore, Madhya Pradesh 452001, India", "phone": "+91 731 420 1910", "rating": "5", "review_count": "", "website": "https://techdiligents.com/", "latitude": 22.7016819, "longitude": 75.87070039999999, "maps_url": "https://www.google.com/maps/search/?api=1&query=Tech%20DIligents%20Software%20Solutions&query_place_id=ChIJ0z8duqf9YjkRZesKwiMv3X8"}, {"place_id": "ChIJ9RFvgSv9YjkRIfASksGQQHw", "name": "TECAI Software & Automation Company in Indore", "street": "3rd Floor, Shubham Corporate, SF-06, Sapna Sangeeta Rd, Sarvoday Nagar, Indore, Madhya Pradesh 452001, India", "phone": "+91 70240 31779", "rating": "5", "review_count": "", "website": "https://tecai.in/", "latitude": 22.699921399999997, "longitude": 75.8674451, "maps_url": "https://www.google.com/maps/search/?api=1&query=TECAI%20Software%20%26%20Automation%20Company%20in%20Indore&query_place_id=ChIJ9RFvgSv9YjkRIfASksGQQHw"}, {"place_id": "ChIJVVW5xeL8YjkRMZz9uBSxh1U", "name": "CANSVOLUTION", "street": "Navrang Plaza, 103-104, Sapna Sangeeta Rd, Sindhi Colony, Indore, Madhya Pradesh 452001, India", "phone": "+91 731 316 7350", "rating": "5", "review_count": "", "website": "", "latitude": 22.698782299999998, "longitude": 75.8656122, "maps_url": "https://www.google.com/maps/search/?api=1&query=CANSVOLUTION&query_place_id=ChIJVVW5xeL8YjkRMZz9uBSxh1U"}, {"place_id": "ChIJd8zCPbn9YjkRa-a2qgd-kd4", "name": "MindProve Technologies Pvt Ltd", "street": "4th Floor, Infront of, Metro Pride 6, Bus stand, 401, Janki Nagar Ave, Angad Kapoor Region, Mohan Nagar, Navlakha, Indore, Madhya Pradesh 452001, India", "phone": "+91 82486 57899", "rating": "5", "review_count": "", "website": "http://www.mindprovetech.com/", "latitude": 22.6995547, "longitude": 75.8767463, "maps_url": "https://www.google.com/maps/search/?api=1&query=MindProve%20Technologies%20Pvt%20Ltd&query_place_id=ChIJd8zCPbn9YjkRa-a2qgd-kd4"}, {"place_id": "ChIJs6_WRYb9YjkR8QI1ySHec2Y", "name": "Eleven Future Technologies", "street": "2nd floor, 11, Manish Bag Colony Rd, near Vikram Tower, Manish Baag Colony, New Agrawal Nagar, Indore, Madhya Pradesh 452002, India", "phone": "", "rating": "4.4", "review_count": "", "website": "https://elevenfuturetech.com/", "latitude": 22.7000076, "longitude": 75.87084109999999, "maps_url": "https://www.google.com/maps/search/?api=1&query=Eleven%20Future%20Technologies&query_place_id=ChIJs6_WRYb9YjkR8QI1ySHec2Y"}, {"place_id": "ChIJh4KYjz_9YjkRXxx4zrr6fa0", "name": "EverPeak IT Solution", "street": "Puma Showroom, Times squre Building, 101, Tower Square, Indore, Madhya Pradesh 452001, India", "phone": "+91 96919 12012", "rating": "5", "review_count": "", "website": "http://everpeakit.com/", "latitude": 22.697920699999997, "longitude": 75.8649492, "maps_url": "https://www.google.com/maps/search/?api=1&query=EverPeak%20IT%20Solution&query_place_id=ChIJh4KYjz_9YjkRXxx4zrr6fa0"}, {"place_id": "ChIJJbnmvuD8YjkRfTa_W29Jdmo", "name": "Unique Web World Pvt. Ltd - Digital Marketing & Website Design Development Company Indore", "street": "112 1st floor, Shakuntala Complex, AB Rd, Angad Kapoor Region, Navlakha, Indore, Madhya Pradesh 452001, India", "phone": "+91 98934 69602", "rating": "5", "review_count": "", "website": "http://www.uniquewebworld.com/", "latitude": 22.697170399999997, "longitude": 75.8754319, "maps_url": "https://www.google.com/maps/search/?api=1&query=Unique%20Web%20World%20Pvt.%20Ltd%20-%20Digital%20Marketing%20%26%20Website%20Design%20Development%20Company%20Indore&query_place_id=ChIJJbnmvuD8YjkRfTa_W29Jdmo"}, {"place_id": "ChIJh9QpKv38YjkR5dRTxvaVo78", "name": "Cruzata Technologies", "street": "2nd Floor, IDA Complex, Plot 92, Sapna Sangeeta Rd, above Reebok & Apple Showroom, Indore, Madhya Pradesh 452001, India", "phone": "+91 97133 71101", "rating": "5", "review_count": "", "website": "https://www.cruzata.com/", "latitude": 22.700546199999998, "longitude": 75.86896949999999, "maps_url": "https://www.google.com/maps/search/?api=1&query=Cruzata%20Technologies&query_place_id=ChIJh9QpKv38YjkR5dRTxvaVo78"}, {"place_id": "ChIJ90IUnU_9YjkRYjFP2K6Um9c", "name": "DigiChum Infotech LLP", "street": "Akash Deep Complex, Sapna Sangeeta Rd, Snehnagar, Indore, Madhya Pradesh 452001, India", "phone": "+91 93053 94995", "rating": "5", "review_count": "", "website": "", "latitude": 22.701012, "longitude": 75.868769, "maps_url": "https://www.google.com/maps/search/?api=1&query=DigiChum%20Infotech%20LLP&query_place_id=ChIJ90IUnU_9YjkRYjFP2K6Um9c"}, {"place_id": "ChIJGccgWbj9YjkR-4tmKYKACUw", "name": "Elderberry Tech", "street": "23C, Radha Madhva Mandir Lane, behind Sapna Sangeeta Multiplex, Sahid Bagat Singh Colony, Anand Nagar, Indore, Madhya Pradesh 452001, India", "phone": "+91 97526 90360", "rating": "3.8", "review_count": "", "website": "https://elderberrytech.com/", "latitude": 22.6977144, "longitude": 75.8672732, "maps_url": "https://www.google.com/maps/search/?api=1&query=Elderberry%20Tech&query_place_id=ChIJGccgWbj9YjkR-4tmKYKACUw"}, {"place_id": "ChIJea1ZMVH9YjkRwvcWuFy8TaM", "name": "NavTark Solutions Pvt. Ltd.", "street": "805, Pukhraj Corporate, Navlakha, Indore, Madhya Pradesh 452001, India", "phone": "+91 96699 88687", "rating": "5", "review_count": "", "website": "http://navtark.com/", "latitude": 22.700659299999998, "longitude": 75.8758989, "maps_url": "https://www.google.com/maps/search/?api=1&query=NavTark%20Solutions%20Pvt.%20Ltd.&query_place_id=ChIJea1ZMVH9YjkRwvcWuFy8TaM"}, {"place_id": "ChIJ1_HjKdznNQMRg0o0k4vN4U4", "name": "Sahu Consultancy And Services Pvt Ltd Indore", "street": "KS Heights, Sapna Sangita Rd, Snehnagar, Indore, Madhya Pradesh 452001, India", "phone": "+91 78286 90192", "rating": "5", "review_count": "", "website": "https://www.scs.com/", "latitude": 22.702041299999998, "longitude": 75.8706569, "maps_url": "https://www.google.com/maps/search/?api=1&query=Sahu%20Consultancy%20And%20Services%20Pvt%20Ltd%20Indore&query_place_id=ChIJ1_HjKdznNQMRg0o0k4vN4U4"}, {"place_id": "ChIJI_jikuL8YjkRECCb1LdqOig", "name": "Arist Automation Indore : Industrial automation, industry4. O, IIOT,Plc and scada, robotics and automation", "street": "Office 112-113, Navrang Plaza, Sapna Sangeeta Rd, above Sagar Juice, Sindhi Colony, Indore, Madhya Pradesh 452001, India", "phone": "+91 91112 25438", "rating": "4.8", "review_count": "", "website": "https://aristautomation.com/", "latitude": 22.6989451, "longitude": 75.8658545, "maps_url": "https://www.google.com/maps/search/?api=1&query=Arist%20Automation%20Indore%20%3A%20Industrial%20automation%2C%20industry4.%20O%2C%20IIOT%2CPlc%20and%20scada%2C%20robotics%20and%20automation&query_place_id=ChIJI_jikuL8YjkRECCb1LdqOig"}, {"place_id": "ChIJVVVVpR39YjkRazcWXosq1t0", "name": "Tech Rudraum Pvt. Ltd. | Mobile App Development | Cyber Security Services | E-Commerce Website Solutions | Indore", "street": "Sapphire House, G1 G4, Agrasen Square, Snehnagar, Indore, Madhya Pradesh 452001, India", "phone": "+91 91113 48348", "rating": "4.3", "review_count": "", "website": "", "latitude": 22.7027868, "longitude": 75.8716551, "maps_url": "https://www.google.com/maps/search/?api=1&query=Tech%20Rudraum%20Pvt.%20Ltd.%20%7C%20Mobile%20App%20Development%20%7C%20Cyber%20Security%20Services%20%7C%20E-Commerce%20Website%20Solutions%20%7C%20Indore&query_place_id=ChIJVVVVpR39YjkRazcWXosq1t0"}, {"place_id": "ChIJC77-6oP9YjkR2JmCx6kb9bc", "name": "Satya Kabir E-solutions Private Limited - Indore", "street": "3rd Floor, Mishika Tower, 204-205, opp. Sapna Sangeeta Road, Old Agarwal Nagar, Indore, Madhya Pradesh 452014, India", "phone": "+91 89599 77624", "rating": "5", "review_count": "", "website": "https://satyakabir.com/", "latitude": 22.7014148, "longitude": 75.8703522, "maps_url": "https://www.google.com/maps/search/?api=1&query=Satya%20Kabir%20E-solutions%20Private%20Limited%20-%20Indore&query_place_id=ChIJC77-6oP9YjkR2JmCx6kb9bc"}, {"place_id": "ChIJ_4eqS1v9YjkRQH6cbS0hBaw", "name": "Techvibes Ventures", "street": "406, Sapna Sangeeta Rd, Navlakha, Indore, Madhya Pradesh 452001, India", "phone": "+91 77413 82752", "rating": "2.2", "review_count": "", "website": "https://techvibesventures.com/", "latitude": 22.7030197, "longitude": 75.8729573, "maps_url": "https://www.google.com/maps/search/?api=1&query=Techvibes%20Ventures&query_place_id=ChIJ_4eqS1v9YjkRQH6cbS0hBaw"}, {"place_id": "ChIJtXZlQC39YjkRvMjJjHwPhwk", "name": "Adira IT Solutions", "street": "Agrasen Square, Old Agarwal Nagar, Indore, Madhya Pradesh 452001, India", "phone": "+91 77708 00119", "rating": "4.5", "review_count": "", "website": "", "latitude": 22.703602399999998, "longitude": 75.87340859999999, "maps_url": "https://www.google.com/maps/search/?api=1&query=Adira%20IT%20Solutions&query_place_id=ChIJtXZlQC39YjkRvMjJjHwPhwk"}, {"place_id": "ChIJyzzuC_j9YjkRetys0uKqfmg", "name": "UltraModern Technologies Pvt. Ltd.", "street": "626, Holani Commerce, Khatiwala Tank, Indore, Madhya Pradesh 452014, India", "phone": "+91 86400 89400", "rating": "5", "review_count": "", "website": "http://www.ultramoderntechnologies.com/", "latitude": 22.6973737, "longitude": 75.8636195, "maps_url": "https://www.google.com/maps/search/?api=1&query=UltraModern%20Technologies%20Pvt.%20Ltd.&query_place_id=ChIJyzzuC_j9YjkRetys0uKqfmg"}, {"place_id": "ChIJCWarDeD8YjkRr9TvSjBVsk4", "name": "Webwiders Software Solutions", "street": "315, Pukhraj Corporate, Near Navlakha, Janki Nagar, Indore, Madhya Pradesh 452001, India", "phone": "+91 78692 13333", "rating": "4.6", "review_count": "", "website": "https://siteadda.com/", "latitude": 22.7004029, "longitude": 75.87576159999999, "maps_url": "https://www.google.com/maps/search/?api=1&query=Webwiders%20Software%20Solutions&query_place_id=ChIJCWarDeD8YjkRr9TvSjBVsk4"}, {"place_id": "ChIJmYcOXS39YjkRsBA0R9Wq804", "name": "CloudBlitz", "street": "1st floor, IDBI BANK, Plot no, Sapna Sangeeta Rd, Tower Square, Khatiwala Tank, Indore, Madhya Pradesh 452014, India", "phone": "+91 98348 87259", "rating": "4.9", "review_count": "", "website": "https://cloudblitz.in/", "latitude": 22.6971787, "longitude": 75.8648668, "maps_url": "https://www.google.com/maps/search/?api=1&query=CloudBlitz&query_place_id=ChIJmYcOXS39YjkRsBA0R9Wq804"}, {"place_id": "ChIJV9nCKv38YjkR9xWMiyNCVjI", "name": "Virtual Support Business - Virtual Experts LLP", "street": "Office no 201-204, Sahil Siddhi Vinayak Complex, Tower Square, Swadesh Nagar, Indore, Madhya Pradesh 452001, India", "phone": "+91 97527 34938", "rating": "4.9", "review_count": "", "website": "https://virtualsupportbusiness.com/", "latitude": 22.6980038, "longitude": 75.8651139, "maps_url": "https://www.google.com/maps/search/?api=1&query=Virtual%20Support%20Business%20-%20Virtual%20Experts%20LLP&query_place_id=ChIJV9nCKv38YjkR9xWMiyNCVjI"}, {"place_id": "ChIJDc8JmN39YjkRWqaCXIXiRcM", "name": "ITHOR TECHNOLOGY LLP", "street": "10, Old Agarwal Nagar, Indore, Madhya Pradesh 452001, India", "phone": "", "rating": "", "review_count": "", "website": "https://myakhada.com/", "latitude": 22.7024735, "longitude": 75.8733058, "maps_url": "https://www.google.com/maps/search/?api=1&query=ITHOR%20TECHNOLOGY%20LLP&query_place_id=ChIJDc8JmN39YjkRWqaCXIXiRcM"}, {"place_id": "ChIJSUbRQ-D8YjkRB8lYoCPPlNU", "name": "Headway Infotech", "street": "b-20, harmony plaza opp lotus showroom, sapna sangita main road, Indore, Madhya Pradesh 452001, India", "phone": "+91 80 4804 2124", "rating": "3.6", "review_count": "", "website": "", "latitude": 22.6998417, "longitude": 75.8749611, "maps_url": "https://www.google.com/maps/search/?api=1&query=Headway%20Infotech&query_place_id=ChIJSUbRQ-D8YjkRB8lYoCPPlNU"}, {"place_id": "ChIJrwWDX6X9YjkRrQwknS1SqHs", "name": "Digital Fox Solutions", "street": "Sahil Siddhi Vinayak Plaza, 205, Tower Chauraha, Swadesh Nagar, Indore, Madhya Pradesh 452001, India", "phone": "+91 74152 00936", "rating": "5", "review_count": "", "website": "https://digitalfoxsolutions.com/", "latitude": 22.697965099999998, "longitude": 75.86507209999999, "maps_url": "https://www.google.com/maps/search/?api=1&query=Digital%20Fox%20Solutions&query_place_id=ChIJrwWDX6X9YjkRrQwknS1SqHs"}, {"place_id": "ChIJQy1c7kn9YjkRZc3pxWDoQUA", "name": "White Elephant Tech", "street": "4-I, 4-H, 5th Floor, BCM City, Navlakha Square, near CCD, Indore, Madhya Pradesh 452001, India", "phone": "+91 89829 22365", "rating": "4.6", "review_count": "", "website": "http://whiteelephanttech.com/", "latitude": 22.6975075, "longitude": 75.8772141, "maps_url": "https://www.google.com/maps/search/?api=1&query=White%20Elephant%20Tech&query_place_id=ChIJQy1c7kn9YjkRZc3pxWDoQUA"}, {"place_id": "ChIJX5wK_B39YjkR0T3nP6CfJME", "name": "Network Automation Solutions", "street": "311, Asawa Chambers, Sapna Sangeeta Rd, near Lotus Showroom, Indore, Madhya Pradesh 452001, India", "phone": "+91 98260 50302", "rating": "4.6", "review_count": "", "website": "https://www.networkautomation.in/", "latitude": 22.7019719, "longitude": 75.8704303, "maps_url": "https://www.google.com/maps/search/?api=1&query=Network%20Automation%20Solutions&query_place_id=ChIJX5wK_B39YjkR0T3nP6CfJME"}, {"place_id": "ChIJzV76K3H9YjkRNxMpp2OGMCw", "name": "Samarth Algo Software", "street": "Office No 107, Navrang Plaza, 35, Snehnagar, Indore, Madhya Pradesh 452001, India", "phone": "+91 89649 00851", "rating": "", "review_count": "", "website": "https://samarthalgosoftware.com/", "latitude": 22.698750999999998, "longitude": 75.8656419, "maps_url": "https://www.google.com/maps/search/?api=1&query=Samarth%20Algo%20Software&query_place_id=ChIJzV76K3H9YjkRNxMpp2OGMCw"}, {"place_id": "ChIJs1Ho6Gv9YjkR0gZja1JjHvI", "name": "SB IT AUTOMATION SOLUTIONS", "street": "305, Asawa Chambers, Sapna Sangeeta Rd, near Lotus Showroom, Indore, Madhya Pradesh 452001, India", "phone": "+91 96699 13521", "rating": "5", "review_count": "", "website": "", "latitude": 22.701882899999998, "longitude": 75.87040879999999, "maps_url": "https://www.google.com/maps/search/?api=1&query=SB%20IT%20AUTOMATION%20SOLUTIONS&query_place_id=ChIJs1Ho6Gv9YjkR0gZja1JjHvI"}, {"place_id": "ChIJr0FBu1H9YjkRxge4nNlCDDA", "name": "Inkcast Innovations Pvt. Ltd.", "street": "Office No. 307–308, kb mall, Sapna Sangeeta Rd, near Lotus Electronics, Snehnagar, Indore, Madhya Pradesh 452001, India", "phone": "+91 91790 72292", "rating": "4.9", "review_count": "", "website": "https://www.inkcastinnovations.com/", "latitude": 22.7018344, "longitude": 75.8702969, "maps_url": "https://www.google.com/maps/search/?api=1&query=Inkcast%20Innovations%20Pvt.%20Ltd.&query_place_id=ChIJr0FBu1H9YjkRxge4nNlCDDA"}, {"place_id": "ChIJSR3K_R39YjkR9Xa0PGoaH0U", "name": "Pacific System & Services", "street": "12, Sapna Sangeeta Rd, near Lotus store, Snehnagar, Indore, Madhya Pradesh 452001, India", "phone": "+91 94253 17980", "rating": "4", "review_count": "", "website": "http://pacificindore.com/", "latitude": 22.701957399999998, "longitude": 75.8705916, "maps_url": "https://www.google.com/maps/search/?api=1&query=Pacific%20System%20%26%20Services&query_place_id=ChIJSR3K_R39YjkR9Xa0PGoaH0U"}, {"place_id": "ChIJtXLK2vD9YjkRnDLoR4LJ9lg", "name": "Trendswink", "street": "Atulya IT Park, 604, Bhawarkua Main Rd, next to Crystal IT Park, Khandwa Naka, Sindhi Colony, Indore, Madhya Pradesh 452001, India", "phone": "", "rating": "", "review_count": "", "website": "https://trendswink.com/", "latitude": 22.7001252, "longitude": 75.8637159, "maps_url": "https://www.google.com/maps/search/?api=1&query=Trendswink&query_place_id=ChIJtXLK2vD9YjkRnDLoR4LJ9lg"}, {"place_id": "ChIJE4KhTRT9YjkRAkwvLCigDCc", "name": "Blackboard Edutech", "street": "Sapphire Square Tower, Tower Square, Panchshil Nagar, Indore, Madhya Pradesh 452001, India", "phone": "+91 83187 41280", "rating": "4.3", "review_count": "", "website": "", "latitude": 22.698379499999998, "longitude": 75.86487869999999, "maps_url": "https://www.google.com/maps/search/?api=1&query=Blackboard%20Edutech&query_place_id=ChIJE4KhTRT9YjkRAkwvLCigDCc"}, {"place_id": "ChIJAQDAB-L8YjkRenZ0u_jshms", "name": "Ashi Technologies | SEO Services and Digital Marketing Agency In Indore", "street": "3rd Floor, Vikram Tower, 442, Sapna Sangeeta Rd, Navlakha, Indore, Madhya Pradesh 452001, India", "phone": "+91 731 427 8979", "rating": "4.6", "review_count": "", "website": "https://ashitechnologies.com/", "latitude": 22.7011778, "longitude": 75.8701888, "maps_url": "https://www.google.com/maps/search/?api=1&query=Ashi%20Technologies%20%7C%20SEO%20Services%20and%20Digital%20Marketing%20Agency%20In%20Indore&query_place_id=ChIJAQDAB-L8YjkRenZ0u_jshms"}, {"place_id": "ChIJ7b0fiij9YjkRRoun8l70k5k", "name": "DigiGrains", "street": "102, Mishika Tower, Sapna Sangeeta Rd, Sarvoday Nagar, Indore, Madhya Pradesh 452001, India", "phone": "+91 91111 10009", "rating": "4.3", "review_count": "", "website": "http://www.digigrains.com/", "latitude": 22.6998252, "longitude": 75.8671646, "maps_url": "https://www.google.com/maps/search/?api=1&query=DigiGrains&query_place_id=ChIJ7b0fiij9YjkRRoun8l70k5k"}, {"place_id": "ChIJkx4oC7P9YjkRivdcqx3A4Qk", "name": "Aiminent IT Solutions", "street": "2nd floor, 6 Dravid Nagar, Footi Kothi Main Road,, above Andhra Bank, Indore, Madhya Pradesh 452009, India", "phone": "+91 731 400 5778", "rating": "4.3", "review_count": "", "website": "http://aiminent.com/", "latitude": 22.70109, "longitude": 75.8374362, "maps_url": "https://www.google.com/maps/search/?api=1&query=Aiminent%20IT%20Solutions&query_place_id=ChIJkx4oC7P9YjkRivdcqx3A4Qk"}, {"place_id": "ChIJHSoITd_9YjkRbvCOfwovrLg", "name": "AdClock Services Pvt. Ltd. - Digital Marketing Company", "street": "73/47, Sapna Sangeeta Rd, Agrawal Nagar, Old Agarwal Nagar, Indore, Madhya Pradesh 452001, India", "phone": "", "rating": "5", "review_count": "", "website": "https://adclock.in/", "latitude": 22.702041899999998, "longitude": 75.8723807, "maps_url": "https://www.google.com/maps/search/?api=1&query=AdClock%20Services%20Pvt.%20Ltd.%20-%20Digital%20Marketing%20Company&query_place_id=ChIJHSoITd_9YjkRbvCOfwovrLg"}, {"place_id": "ChIJZwjgqvv9YjkRcDzUh2djZ-I", "name": "Reliance Digital", "street": "Plot No A69, Bhawarkua Main Rd, opposite Pishori Restaurant, Tower Square, Sindhi Colony, Indore, Madhya Pradesh 452001, India", "phone": "+91 8071 889 640", "rating": "4.8", "review_count": "", "website": "https://www.reliancedigitalstores.in/reliance-digital-a69-plaza-indore-electronics-retail-and-repair-shop-bhawarkua-main-road-indore-208564/Home", "latitude": 22.6986952, "longitude": 75.8644039, "maps_url": "https://www.google.com/maps/search/?api=1&query=Reliance%20Digital&query_place_id=ChIJZwjgqvv9YjkRcDzUh2djZ-I"}, {"place_id": "ChIJNzjOLP_9YjkRknkyz1lFICM", "name": "MAKE IT MINE", "street": "MVX8+XX6, Sapna Sangeeta Rd, Patel Nagar, Indore, Madhya Pradesh 452001, India", "phone": "+91 62655 65213", "rating": "4.7", "review_count": "", "website": "", "latitude": 22.699937499999997, "longitude": 75.8674375, "maps_url": "https://www.google.com/maps/search/?api=1&query=MAKE%20IT%20MINE&query_place_id=ChIJNzjOLP_9YjkRknkyz1lFICM"}, {"place_id": "ChIJVVWlB-L8YjkRevUi3D3Q-Zo", "name": "Bajrang Agro Industries Private Limited", "street": "1st Floor, Vikram Tower, Sapna Sangeeta Rd, Old Agarwal Nagar, Indore, Madhya Pradesh 452001, India", "phone": "+91 731 422 8888", "rating": "4.2", "review_count": "", "website": "", "latitude": 22.7011778, "longitude": 75.8701889, "maps_url": "https://www.google.com/maps/search/?api=1&query=Bajrang%20Agro%20Industries%20Private%20Limited&query_place_id=ChIJVVWlB-L8YjkRevUi3D3Q-Zo"}, {"place_id": "ChIJ1d4LVNr9YjkRQm8U48paARk", "name": "OPTIMISTIC BUILDING SOLUTIONS", "street": "Office no. 302, K.B MALL, Sapna Sangeeta Rd, above porwal shop, Panchshil Nagar, Indore, Madhya Pradesh 452001, India", "phone": "", "rating": "3.7", "review_count": "", "website": "", "latitude": 22.7004122, "longitude": 75.866923, "maps_url": "https://www.google.com/maps/search/?api=1&query=OPTIMISTIC%20BUILDING%20SOLUTIONS&query_place_id=ChIJ1d4LVNr9YjkRQm8U48paARk"}, {"place_id": "ChIJ5SSVmm_9YjkRidPjzhl1VyY", "name": "Digicent web service pvt. ltd.", "street": "304, Sapna Sangeeta Rd, Ashok Nagar, Indore, Madhya Pradesh 452001, India", "phone": "+91 97535 44902", "rating": "5", "review_count": "", "website": "http://digicentwebservice.com/", "latitude": 22.700240599999997, "longitude": 75.868623, "maps_url": "https://www.google.com/maps/search/?api=1&query=Digicent%20web%20service%20pvt.%20ltd.&query_place_id=ChIJ5SSVmm_9YjkRidPjzhl1VyY"}, {"place_id": "ChIJzSvlhVX9YjkRFON6R51iLM0", "name": "LAUREL IT", "street": "capital tower, 312, Sapna Sangeeta Rd, Indore, Madhya Pradesh 452001, India", "phone": "+91 88393 39068", "rating": "4.8", "review_count": "", "website": "https://laurelit.com/", "latitude": 22.702821399999998, "longitude": 75.87181389999999, "maps_url": "https://www.google.com/maps/search/?api=1&query=LAUREL%20IT&query_place_id=ChIJzSvlhVX9YjkRFON6R51iLM0"}, {"place_id": "ChIJq6qqXuD8YjkR1sYlsfrZBmU", "name": "Neptune Farming Office", "street": "8 Mohan nagar, Navlakha Square, Janki Nagar, Indore, Madhya Pradesh 452001, India", "phone": "+91 98266 55552", "rating": "4.1", "review_count": "", "website": "http://www.neptunefarming.com/", "latitude": 22.6999846, "longitude": 75.8764352, "maps_url": "https://www.google.com/maps/search/?api=1&query=Neptune%20Farming%20Office&query_place_id=ChIJq6qqXuD8YjkR1sYlsfrZBmU"}, {"place_id": "ChIJmxIJv8b9YjkRHa7BPRHq3Qo", "name": "Teachers App | Attendance Management App | Students Attendance app", "street": "303, Sapphire Square Tower, square, Sindhi Colony, Indore, Madhya Pradesh 452001, India", "phone": "+91 87704 40466", "rating": "4.9", "review_count": "", "website": "http://www.teachersapp.in/", "latitude": 22.698379499999998, "longitude": 75.86487869999999, "maps_url": "https://www.google.com/maps/search/?api=1&query=Teachers%20App%20%7C%20Attendance%20Management%20App%20%7C%20Students%20Attendance%20app&query_place_id=ChIJmxIJv8b9YjkRHa7BPRHq3Qo"}, {"place_id": "ChIJNd55FBz9YjkR2tPe5JaHM_w", "name": "Kraft Creation", "street": "7th floor, Pukhraj Corporate, bus stand, 702, opp. Navlakha Road, Navlakha, Indore, Madhya Pradesh 452001, India", "phone": "+91 88899 77488", "rating": "5", "review_count": "", "website": "http://www.kraftcreation.com/", "latitude": 22.7003827, "longitude": 75.8759977, "maps_url": "https://www.google.com/maps/search/?api=1&query=Kraft%20Creation&query_place_id=ChIJNd55FBz9YjkR2tPe5JaHM_w"}, {"place_id": "ChIJ81xCCB79YjkRBX-KtcdMbF8", "name": "Gravity Infotech (CCTV Camera And Security Solution)", "street": "F, 28, Sapna Sangeeta Rd, Snehnagar, Indore, Madhya Pradesh 452001, India", "phone": "+91 91111 07450", "rating": "4.5", "review_count": "", "website": "https://gravity-infotech-cctv.grexa.site/", "latitude": 22.701881, "longitude": 75.8703592, "maps_url": "https://www.google.com/maps/search/?api=1&query=Gravity%20Infotech%20%28CCTV%20Camera%20And%20Security%20Solution%29&query_place_id=ChIJ81xCCB79YjkRBX-KtcdMbF8"}, {"place_id": "ChIJu_EB4x39YjkR3VwEEh4Jzuk", "name": "Lotus Electronics", "street": "13, Sapna Sangeeta Rd, Snehnagar, Indore, Madhya Pradesh 452001, India", "phone": "+91 91113 00400", "rating": "4.6", "review_count": "", "website": "https://www.lotuselectronics.com/", "latitude": 22.7020841, "longitude": 75.8706413, "maps_url": "https://www.google.com/maps/search/?api=1&query=Lotus%20Electronics&query_place_id=ChIJu_EB4x39YjkR3VwEEh4Jzuk"}, {"place_id": "ChIJY1xXMAD9YjkRpT7hsXPbveI", "name": "Hello World Institute", "street": "Infront puma showroom, Bhawarkua Main Rd, Tower Square, Transport Nagar, Indore, Madhya Pradesh 452001, India", "phone": "+91 80858 96740", "rating": "5", "review_count": "", "website": "https://www.instagram.com/hello_world_institute", "latitude": 22.697551, "longitude": 75.864723, "maps_url": "https://www.google.com/maps/search/?api=1&query=Hello%20World%20Institute&query_place_id=ChIJY1xXMAD9YjkRpT7hsXPbveI"}, {"place_id": "ChIJD_fPTR79YjkR1xcOblkv7Yg", "name": "AKAN & Company", "street": "Navrang Plaza, 208, Sapna Sangeeta Rd, Snehnagar, Indore, Madhya Pradesh 452001, India", "phone": "+91 75094 90500", "rating": "5", "review_count": "", "website": "", "latitude": 22.6989451, "longitude": 75.8658545, "maps_url": "https://www.google.com/maps/search/?api=1&query=AKAN%20%26%20Company&query_place_id=ChIJD_fPTR79YjkR1xcOblkv7Yg"}, {"place_id": "ChIJ3R9Gc0dRtSERDmI4Kk4mJJw", "name": "MedoNext", "street": "BM Tower, 213, Sapna Sangeeta Rd, Old Agarwal Nagar, Indore, Madhya Pradesh 452001, India", "phone": "+91 96309 45322", "rating": "5", "review_count": "", "website": "https://www.medonext.com/", "latitude": 22.7016819, "longitude": 75.87070039999999, "maps_url": "https://www.google.com/maps/search/?api=1&query=MedoNext&query_place_id=ChIJ3R9Gc0dRtSERDmI4Kk4mJJw"}, {"place_id": "ChIJ-dWJSTn9YjkRgfRhAtlM9fI", "name": "Sacred Sapling Consulting LLP", "street": "9, 1st Floor, Gulmarg Complex, Sapna Sangeeta Rd, Snehnagar, Indore, Madhya Pradesh 452001, India", "phone": "", "rating": "5", "review_count": "", "website": "", "latitude": 22.6995957, "longitude": 75.868033, "maps_url": "https://www.google.com/maps/search/?api=1&query=Sacred%20Sapling%20Consulting%20LLP&query_place_id=ChIJ-dWJSTn9YjkRgfRhAtlM9fI"}, {"place_id": "ChIJn0dmhMX9YjkRhyd_cqa-sKU", "name": "Maimoon Trading", "street": "Office 402, BM Tower, opp. Lotus Showroom, Old Agarwal Nagar, Indore, Madhya Pradesh 452001, India", "phone": "+91 731 499 1014", "rating": "", "review_count": "", "website": "http://www.maimoon.com/", "latitude": 22.7016819, "longitude": 75.87070039999999, "maps_url": "https://www.google.com/maps/search/?api=1&query=Maimoon%20Trading&query_place_id=ChIJn0dmhMX9YjkRhyd_cqa-sKU"}, {"place_id": "ChIJmRo4JeP8YjkRV3OOIOIlwkE", "name": "Geetika Agrawal & Co., Company Secretaries", "street": "\"Viraj\" 3, Anand Nagar, Tower Chouraha, Near ICICI Bank, opp. Talwalkars, Indore, Madhya Pradesh 452001, India", "phone": "+91 731 409 1065", "rating": "4.5", "review_count": "", "website": "", "latitude": 22.6973037, "longitude": 75.86585939999999, "maps_url": "https://www.google.com/maps/search/?api=1&query=Geetika%20Agrawal%20%26%20Co.%2C%20Company%20Secretaries&query_place_id=ChIJmRo4JeP8YjkRV3OOIOIlwkE"}, {"place_id": "ChIJmzsn0MD9YjkRRouuHFhehzs", "name": "Teqlawn", "street": "2nd Floor, Vikram Tower, Office 319- 320, Sapna Sangeeta Rd, Indore, Madhya Pradesh 452001, India", "phone": "+91 95223 49098", "rating": "4.3", "review_count": "", "website": "https://www.teqlawn.com/", "latitude": 22.7012321, "longitude": 75.8701554, "maps_url": "https://www.google.com/maps/search/?api=1&query=Teqlawn&query_place_id=ChIJmzsn0MD9YjkRRouuHFhehzs"}, {"place_id": "ChIJo_Zgysb9YjkR-UQPh37tLBA", "name": "NECB", "street": "4/5, Snehnagar, Indore, Madhya Pradesh 452001, India", "phone": "", "rating": "5", "review_count": "", "website": "", "latitude": 22.7034848, "longitude": 75.8709824, "maps_url": "https://www.google.com/maps/search/?api=1&query=NECB&query_place_id=ChIJo_Zgysb9YjkR-UQPh37tLBA"}, {"place_id": "ChIJOScOcYn9YjkRY_yjjH0MBkI", "name": "Shaikh Ji infotech - IT Company", "street": "", "phone": "+91 78695 51061", "rating": "5", "review_count": "", "website": "", "latitude": 21.0680074, "longitude": 82.7525294, "maps_url": "https://www.google.com/maps/search/?api=1&query=Shaikh%20Ji%20infotech%20-%20IT%20Company&query_place_id=ChIJOScOcYn9YjkRY_yjjH0MBkI"}, {"place_id": "ChIJsaNJ8Ej9YjkRZlwgqWEVwy8", "name": "Indrajeet's AI", "street": "Skim 47, 407, Plot no 30, Sapna Sangeeta Rd, Indore, Madhya Pradesh 452001, India", "phone": "+91 91312 90060", "rating": "5", "review_count": "", "website": "http://www.indrajeets.com/", "latitude": 22.702977399999998, "longitude": 75.8729779, "maps_url": "https://www.google.com/maps/search/?api=1&query=Indrajeet%27s%20AI&query_place_id=ChIJsaNJ8Ej9YjkRZlwgqWEVwy8"}, {"place_id": "ChIJYfrhUWD9YjkRRZPzRZPEGuo", "name": "Bluetech IT Services", "street": "", "phone": "+91 98935 09996", "rating": "4.6", "review_count": "", "website": "https://www.bluetechitservices.com/", "latitude": 14.157641199999999, "longitude": -16.7424939, "maps_url": "https://www.google.com/maps/search/?api=1&query=Bluetech%20IT%20Services&query_place_id=ChIJYfrhUWD9YjkRRZPzRZPEGuo"}, {"place_id": "ChIJBylSrUL9YjkRAh7fJbax4X8", "name": "Tekstitcher", "street": "309, Sapphire Square Tower, Square, Panchshil Nagar, Indore, Madhya Pradesh 452001, India", "phone": "+91 76971 56490", "rating": "5", "review_count": "", "website": "https://techstitcher.com/", "latitude": 22.698379499999998, "longitude": 75.86487869999999, "maps_url": "https://www.google.com/maps/search/?api=1&query=Tekstitcher&query_place_id=ChIJBylSrUL9YjkRAh7fJbax4X8"}, {"place_id": "ChIJQxzg35z9YjkRbkRg1cWH9Ek", "name": "Sabki Site Web Development Services", "street": "shubham corporate SF, 9, opposite Sapna Sangeeta Road, INOX, Indore, Madhya Pradesh 452001, India", "phone": "+91 87707 52656", "rating": "5", "review_count": "", "website": "", "latitude": 22.701083999999998, "longitude": 75.86916099999999, "maps_url": "https://www.google.com/maps/search/?api=1&query=Sabki%20Site%20Web%20Development%20Services&query_place_id=ChIJQxzg35z9YjkRbkRg1cWH9Ek"}]