{"timestamp": 1773730139.8802657, "keyword": "IT company", "location": "delhi", "cell_idx": 191, "results": [{"place_id": "0x390d1d85c77e8729:0x978e35db34d526b7", "name": "Aziels Technologies Pvt Ltd", "category": "Software company", "street": "F350, Old M B Road", "city": "near Reliance fresh", "phone": "08447968167", "website": "https://www.aziels.com/", "rating": 5, "review_count": "", "latitude": 28.5245136, "longitude": 77.1917606, "maps_url": "https://www.google.com/maps/place/?q=place_id:0x390d1d85c77e8729:0x978e35db34d526b7"}, {"place_id": "0x390d1e08d71a257f:0xea4e129d751fc99", "name": "Sukrit Infotech", "category": "Software company", "street": "1043 Ward No 8 1042/2D 2nd Floor Mehrauli Near Babar Building", "city": "Mehrauli", "phone": "01145607265", "website": "http://www.sukritinfotech.com/", "rating": 4.5, "review_count": "", "latitude": 28.517589599999997, "longitude": 77.1802435, "maps_url": "https://www.google.com/maps/place/?q=place_id:0x390d1e08d71a257f:0xea4e129d751fc99"}, {"place_id": "0x390d1f5abfb25fe1:0x7d9c4d5e159f2955", "name": "Jaimru Technology Pvt Ltd", "category": "Software company", "street": "WARD NO. 2", "city": "Plot No. 178 M 33 A/1", "phone": "07838153420", "website": "https://www.jaimru.com/", "rating": 4.9, "review_count": "", "latitude": 28.524347499999998, "longitude": 77.1731889, "maps_url": "https://www.google.com/maps/place/?q=place_id:0x390d1f5abfb25fe1:0x7d9c4d5e159f2955"}, {"place_id": "0x390ce1fb44618b65:0x8e06b2a6128352d1", "name": "Acropolis Infotech - Delhi Office", "category": "Software company", "street": "metro station gate", "city": "55, 2nd Floor, Lane 2", "phone": "09999876593", "website": "https://www.acropolisinfotech.com/", "rating": 4.6, "review_count": "", "latitude": 28.518907, "longitude": 77.2015435, "maps_url": "https://www.google.com/maps/place/?q=place_id:0x390ce1fb44618b65:0x8e06b2a6128352d1"}, {"place_id": "0x390ce1224e2234dd:0x7790e7d5f1699ce4", "name": "Razor Infotech Pvt. Ltd. ( IT solutions)", "category": "Software company", "street": "627", "city": "F/F, Westend Marg", "phone": "01145034631", "website": "http://www.razorinfotech.com/", "rating": 4.9, "review_count": "", "latitude": 28.517411, "longitude": 77.198138, "maps_url": "https://www.google.com/maps/place/?q=place_id:0x390ce1224e2234dd:0x7790e7d5f1699ce4"}, {"place_id": "0x390ce458d0000001:0xf2123bd299ec4501", "name": "IT Company India", "category": "Software company", "street": "D56", "city": "D Block, Sector 10", "phone": "09999244854", "website": "https://www.itcompanyindia.in/", "rating": 4.7, "review_count": "", "latitude": 28.589917699999997, "longitude": 77.3351153, "maps_url": "https://www.google.com/maps/place/?q=place_id:0x390ce458d0000001:0xf2123bd299ec4501"}, {"place_id": "0x390d1fcf6c34ab99:0x285f961d231b2c61", "name": "Aadiyar Infotech Private Limited", "category": "Software company", "street": "1st Floor", "city": "Pannal Building No. 2", "phone": "09810164525", "website": "https://www.aadiyar.in/", "rating": 4.9, "review_count": "", "latitude": 28.487146, "longitude": 77.185315, "maps_url": "https://www.google.com/maps/place/?q=place_id:0x390d1fcf6c34ab99:0x285f961d231b2c61"}, {"place_id": "0x390ce3c153b89811:0xe7a279685777e9ca", "name": "IT Company", "category": "Automation company", "street": "A-14", "city": "near iskcon temple", "phone": "", "website": "http://www.opuswiz.com/", "rating": 3, "review_count": "", "latitude": 28.557167, "longitude": 77.25424819999999, "maps_url": "https://www.google.com/maps/place/?q=place_id:0x390ce3c153b89811:0xe7a279685777e9ca"}, {"place_id": "0x390cfd2058cd528d:0x2a0fddd3283baba", "name": "Waabz - IT solution", "category": "Software company", "street": "623A", "city": "near purana CNG pump", "phone": "07289955848", "website": "https://waabz.com/", "rating": 4.9, "review_count": "", "latitude": 28.523557999999998, "longitude": 77.19159259999999, "maps_url": "https://www.google.com/maps/place/?q=place_id:0x390cfd2058cd528d:0x2a0fddd3283baba"}, {"place_id": "0x390d1fb30dd00ee3:0x77cfd1f858a2b9ee", "name": "Ionic Software Services", "category": "Software company", "street": "B-2/63, Africa Ave", "city": "Block A, Block B 2, Safdarjung Enclave", "phone": "08744941668", "website": "http://www.ionicsoftwares.com/", "rating": 4.7, "review_count": "", "latitude": 28.515873499999998, "longitude": 77.2044335, "maps_url": "https://www.google.com/maps/place/?q=place_id:0x390d1fb30dd00ee3:0x77cfd1f858a2b9ee"}, {"place_id": "0x390d1df079759d1f:0x8bfa70033f6c672a", "name": "NR Technoserve Pvt. Ltd.", "category": "Software company", "street": "133, Katwaria Sarai", "city": "Phase-2, Qutab Institutional Area", "phone": "07289096762", "website": "http://www.nrtechnoserve.co.in/", "rating": 4.4, "review_count": "", "latitude": 28.5413306, "longitude": 77.18495519999999, "maps_url": "https://www.google.com/maps/place/?q=place_id:0x390d1df079759d1f:0x8bfa70033f6c672a"}, {"place_id": "0x390d1fac5464bc13:0xc1ceeefce9605c16", "name": "Raotto Infotech", "category": "Software company", "street": "191/37", "city": "Ward no- 2, Nai Basti, Mehrauli", "phone": "09608979897", "website": "https://raotto.in/", "rating": 4.7, "review_count": "", "latitude": 28.5211236, "longitude": 77.1790012, "maps_url": "https://www.google.com/maps/place/?q=place_id:0x390d1fac5464bc13:0xc1ceeefce9605c16"}, {"place_id": "0x390ce12a669e824d:0xb0190490e7489d83", "name": "Minfotech India", "category": "Computer support and services", "street": "F-463/1", "city": "near PNB", "phone": "08010104747", "website": "https://www.minfotechindia.com/", "rating": 4.9, "review_count": "", "latitude": 28.523636399999997, "longitude": 77.1933018, "maps_url": "https://www.google.com/maps/place/?q=place_id:0x390ce12a669e824d:0xb0190490e7489d83"}, {"place_id": "0x390d1d97321fe647:0xa6cee18fe7d42d2b", "name": "SISL Infotech Pvt Ltd", "category": "Corporate office", "street": "81/1, 2nd Floor, Aurobindo Tower, Sri Aurobindo Marg, Adchini", "city": "Malviya Nagar", "phone": "01126700800", "website": "https://www.sislinfotech.com/", "rating": 4, "review_count": "", "latitude": 28.5353031, "longitude": 77.1985926, "maps_url": "https://www.google.com/maps/place/?q=place_id:0x390d1d97321fe647:0xa6cee18fe7d42d2b"}, {"place_id": "0x390d1ed3c6e9f579:0x322eccdb00f350d2", "name": "Techjockey", "category": "Software company", "street": "Ground floor, Habitat India", "city": "C-3", "phone": "01142213003", "website": "https://www.techjockey.com/", "rating": 4, "review_count": "", "latitude": 28.536615299999998, "longitude": 77.1902978, "maps_url": "https://www.google.com/maps/place/?q=place_id:0x390d1ed3c6e9f579:0x322eccdb00f350d2"}, {"place_id": "0x390ce3ad10000061:0xeff7e6017a22cce7", "name": "Alpinesoft IT Solutions Authorized Google Workspace Reseller", "category": "Software company", "street": "162/9 Ist Floor, KIshangarh - Gaushala Marg", "city": "Lakhi Nath Kuti, Mehrauli, Vasant Kunj", "phone": "09999011157", "website": "https://www.alpinesoftit.com/", "rating": 4.3, "review_count": "", "latitude": 28.515394399999998, "longitude": 77.16460359999999, "maps_url": "https://www.google.com/maps/place/?q=place_id:0x390ce3ad10000061:0xeff7e6017a22cce7"}, {"place_id": "0x390ce2305c00002d:0x9f7efbacdc0d8271", "name": "ICO WebTech Pvt. Ltd. - Website Designing Company in Delhi", "category": "Website designer", "street": "J E 5, Ground Floor, Khirki Extension, Malviya Nagar", "city": "New Delhi, Delhi 110017", "phone": "08447380262", "website": "https://www.icowebsolutions.com/", "rating": 4.6, "review_count": "", "latitude": 28.535594, "longitude": 77.21577099999999, "maps_url": "https://www.google.com/maps/place/?q=place_id:0x390ce2305c00002d:0x9f7efbacdc0d8271"}, {"place_id": "0x390ce227b000003f:0x68c684a3cbf810b", "name": "IT Solution INDIA", "category": "Computer support and services", "street": "Triveni Commercial Complex", "city": "Sheikh Sarai Phase 1, Sheikh Sarai", "phone": "09312209167", "website": "https://itsolutionindia.in/", "rating": 4.8, "review_count": "", "latitude": 28.5364054, "longitude": 77.22372, "maps_url": "https://www.google.com/maps/place/?q=place_id:0x390ce227b000003f:0x68c684a3cbf810b"}, {"place_id": "0x4215c6da63b4b82f:0x794ba814a6ada964", "name": "Asha Tech | Website Design, App Development & IT Solutions Delhi", "category": "Software company", "street": "no 2", "city": "195, Lane No. 1", "phone": "07531080874", "website": "https://ashatech.co.in/", "rating": 4.7, "review_count": "", "latitude": 28.519994099999998, "longitude": 77.2008791, "maps_url": "https://www.google.com/maps/place/?q=place_id:0x4215c6da63b4b82f:0x794ba814a6ada964"}, {"place_id": "0x390d1fdc3ccf485b:0x55be627f32fa2699", "name": "Cielo Ecommerce Private Limited", "category": "Software company", "street": "F-131", "city": "near H.K House", "phone": "09310420735", "website": "http://cieloecommerce.com/", "rating": 5, "review_count": "", "latitude": 28.527759999999997, "longitude": 77.192025, "maps_url": "https://www.google.com/maps/place/?q=place_id:0x390d1fdc3ccf485b:0x55be627f32fa2699"}, {"place_id": "0x390ce21425118e25:0x70fb9d80e6685fad", "name": "Ananta Business Services", "category": "Software company", "street": "125, South", "city": "Shahpur Jat, Siri Fort", "phone": "09289371171", "website": "http://www.absite.in/", "rating": 4.7, "review_count": "", "latitude": 28.5490721, "longitude": 77.2159506, "maps_url": "https://www.google.com/maps/place/?q=place_id:0x390ce21425118e25:0x70fb9d80e6685fad"}, {"place_id": "0x390d1d86a4f12173:0x3a6b42ea6f4b8260", "name": "Softvanz Technologies Private Limited", "category": "Software company", "street": "Somdutt Chamber 1", "city": "BT-22/9", "phone": "", "website": "https://softvanz.com/", "rating": 5, "review_count": "", "latitude": 28.567948899999998, "longitude": 77.1889269, "maps_url": "https://www.google.com/maps/place/?q=place_id:0x390d1d86a4f12173:0x3a6b42ea6f4b8260"}, {"place_id": "0x213278d23258ed1:0xda7ca71736196291", "name": "Astha Technologies - Top Mobile App Development Company in Delhi | Android & iOS", "category": "Software company", "street": "2ND FLOOR", "city": "55, LANE-2, Westend Marg", "phone": "", "website": "https://asthatechnologies.org/mobile-app-development-company-delhi/", "rating": 5, "review_count": "", "latitude": 28.518466099999998, "longitude": 77.19880739999999, "maps_url": "https://www.google.com/maps/place/?q=place_id:0x213278d23258ed1:0xda7ca71736196291"}, {"place_id": "0x390d1e0f47743141:0x3cc6cb5c7dfcf94b", "name": "KSR Computer Systems - IT Support & Services", "category": "Computer service", "street": "213E", "city": "Ward no- 2, Teacher Colony, Mehrauli", "phone": "09711180879", "website": "https://ksrcomputer.com/", "rating": 4.9, "review_count": "", "latitude": 28.5220417, "longitude": 77.174622, "maps_url": "https://www.google.com/maps/place/?q=place_id:0x390d1e0f47743141:0x3cc6cb5c7dfcf94b"}, {"place_id": "0x390ce10bc03ef455:0x83ef81c8ac017208", "name": "Exclserv Solutions LLP", "category": "Computer support and services", "street": "2nd Floor", "city": "F-210, Old M B Road", "phone": "07011095516", "website": "http://www.exclserv.in/", "rating": 5, "review_count": "", "latitude": 28.5238187, "longitude": 77.1942159, "maps_url": "https://www.google.com/maps/place/?q=place_id:0x390ce10bc03ef455:0x83ef81c8ac017208"}, {"place_id": "0x390ce5fdcc79e755:0x309ce99251b84ef6", "name": "Optyminds IT Solutions - Top AI and IT company I Best Digital agency in Noida | Delhi NCR | India", "category": "Software company", "street": "1st Floor", "city": "B-70", "phone": "08929075975", "website": "https://optyminds.com/", "rating": 4.9, "review_count": "", "latitude": 28.584679599999998, "longitude": 77.3135042, "maps_url": "https://www.google.com/maps/place/?q=place_id:0x390ce5fdcc79e755:0x309ce99251b84ef6"}, {"place_id": "0x390d1fa3012fc911:0x744bd65a8adfff31", "name": "Navya IT Solutions", "category": "Computer service", "street": "", "city": "", "phone": "08810694288", "website": "", "rating": 5, "review_count": "", "latitude": 28.520186, "longitude": 77.179158, "maps_url": "https://www.google.com/maps/place/?q=place_id:0x390d1fa3012fc911:0x744bd65a8adfff31"}, {"place_id": "0x390d1d9ce0eaada3:0xc5a1a0a2458099e3", "name": "CODENCREATIVE TECH PVT LTD", "category": "Software company", "street": "DDA Flat", "city": "RBI Officers Colony, Vasant Vihar", "phone": "09717047610", "website": "https://codencreative.com/", "rating": 4.9, "review_count": "", "latitude": 28.563302099999998, "longitude": 77.1519732, "maps_url": "https://www.google.com/maps/place/?q=place_id:0x390d1d9ce0eaada3:0xc5a1a0a2458099e3"}, {"place_id": "0x390d1daf5bbb6d71:0xd493e8d457a28388", "name": "DPM IT SOLUTIONS", "category": "Software company", "street": "2nd floor, madangiri", "city": "111, E-2", "phone": "09650413450", "website": "https://dpmitsolutions.com/", "rating": 5, "review_count": "", "latitude": 28.565620799999998, "longitude": 77.16005679999999, "maps_url": "https://www.google.com/maps/place/?q=place_id:0x390d1daf5bbb6d71:0xd493e8d457a28388"}, {"place_id": "0x390d165555555555:0xf57c20f7d07d8fd1", "name": "Teckinfo Solutions Pvt Ltd", "category": "Software company", "street": "1/1 BA, 3rd Floor, Mohammadpur,", "city": "Bhikaji Cama Place", "phone": "01149605500", "website": "https://www.teckinfo.com/", "rating": 4.6, "review_count": "", "latitude": 28.566004099999997, "longitude": 77.187579, "maps_url": "https://www.google.com/maps/place/?q=place_id:0x390d165555555555:0xf57c20f7d07d8fd1"}, {"place_id": "0x390ce3c50d455555:0x625e4cf2def0b6ac", "name": "Infonative Solutions Limited", "category": "Computer support and services", "street": "107, 108", "city": "DLF South Court", "phone": "08448141818", "website": "https://infonative.net/", "rating": 4.7, "review_count": "", "latitude": 28.5274255, "longitude": 77.2209031, "maps_url": "https://www.google.com/maps/place/?q=place_id:0x390ce3c50d455555:0x625e4cf2def0b6ac"}, {"place_id": "0x390d1f9ef34b79bd:0x2dc0fdd0c33d2e15", "name": "VLS Technology Private Limited", "category": "Software company", "street": "D 27A, Second Floor", "city": "60 Feet Rd", "phone": "09711200318", "website": "https://vlstechnology.com/", "rating": 5, "review_count": "", "latitude": 28.5020255, "longitude": 77.1837389, "maps_url": "https://www.google.com/maps/place/?q=place_id:0x390d1f9ef34b79bd:0x2dc0fdd0c33d2e15"}, {"place_id": "0x390d1f18f7b28d41:0x9accd4eda4ce1669", "name": "Cuberoot Technologies Pvt. Ltd", "category": "Corporate office", "street": "House, 2nd floor", "city": "Acme", "phone": "09069142350", "website": "http://www.cuberoot.co/", "rating": 5, "review_count": "", "latitude": 28.5263055, "longitude": 77.1904443, "maps_url": "https://www.google.com/maps/place/?q=place_id:0x390d1f18f7b28d41:0x9accd4eda4ce1669"}, {"place_id": "0x390ce3ae697970e9:0x8f17da213c364e35", "name": "Intello Tech AMC Pvt. Ltd.", "category": "Solar Energy Company", "street": "64", "city": "Navjeevan Vihar, basement", "phone": "09999085951", "website": "https://intello.co.in/", "rating": 5, "review_count": "", "latitude": 28.533801999999998, "longitude": 77.20024099999999, "maps_url": "https://www.google.com/maps/place/?q=place_id:0x390ce3ae697970e9:0x8f17da213c364e35"}, {"place_id": "0x2a72b8b69d7b6493:0x11251466d4d34cac", "name": "WebZonal IT Company", "category": "Website designer", "street": "Wz-258/2-3, D Block Rd", "city": "Khazan Basti, Nangal Raya, Janakpuri", "phone": "09811170903", "website": "http://webzonal.com/", "rating": 5, "review_count": "", "latitude": 28.6122102, "longitude": 77.11159549999999, "maps_url": "https://www.google.com/maps/place/?q=place_id:0x2a72b8b69d7b6493:0x11251466d4d34cac"}, {"place_id": "0x390d1e26841f4029:0xbed40d3c611d8d6", "name": "SAY 2 GET iT", "category": "Software company", "street": "83 E", "city": "DR Ambedkar Colony, Chattarpur Enclave, Chhatarpur", "phone": "09319051305", "website": "http://www.say2getit.com/", "rating": 5, "review_count": "", "latitude": 28.5028699, "longitude": 77.1887764, "maps_url": "https://www.google.com/maps/place/?q=place_id:0x390d1e26841f4029:0xbed40d3c611d8d6"}, {"place_id": "0x390d1ef642a213bb:0x4d9f2181a6a37306", "name": "iPistis Technologies Pvt. Ltd.", "category": "Software company", "street": "House No. 40, Gali No. 1, 100 feet Road", "city": "Mehrauli-Gurgaon Rd", "phone": "09953300349", "website": "https://www.ipistis.com/", "rating": 4.6, "review_count": "", "latitude": 28.494671, "longitude": 77.146427, "maps_url": "https://www.google.com/maps/place/?q=place_id:0x390d1ef642a213bb:0x4d9f2181a6a37306"}, {"place_id": "0x390d1f43f6442193:0xa633a2795caaaf9a", "name": "iT EXPERT", "category": "Computer support and services", "street": "Plot No 165", "city": "near by C.R.C Building", "phone": "09643205555", "website": "https://it-expert.grexa.site/", "rating": 5, "review_count": "", "latitude": 28.496751, "longitude": 77.163401, "maps_url": "https://www.google.com/maps/place/?q=place_id:0x390d1f43f6442193:0xa633a2795caaaf9a"}, {"place_id": "0x390d1e2fed1eed4b:0x101cd24533e257fa", "name": "SOFTLIFE Technologies Pvt. Ltd.", "category": "Software company", "street": "B-2, Block", "city": "Road", "phone": "09045199841", "website": "", "rating": 4.4, "review_count": "", "latitude": 28.4929925, "longitude": 77.18445489999999, "maps_url": "https://www.google.com/maps/place/?q=place_id:0x390d1e2fed1eed4b:0x101cd24533e257fa"}, {"place_id": "0x390d02994de5e515:0xd908bc03409a0d37", "name": "Himalayan IT Solutions | Best Website Designing Company in Delhi | SEO/Digital Marketing Company in Delhi NCR, India", "category": "Software company", "street": "61/4255, Padam Singh Rd", "city": "Block 29, Block 1, Regar Pura, Karol Bagh", "phone": "09899098509", "website": "http://www.himalayanitsolutions.com/", "rating": 3.9, "review_count": "", "latitude": 28.649673999999997, "longitude": 77.186599, "maps_url": "https://www.google.com/maps/place/?q=place_id:0x390d02994de5e515:0xd908bc03409a0d37"}, {"place_id": "0x390d1e2fed1eed4b:0x101cd24533e257fa", "name": "SOFTLIFE Technologies Pvt. Ltd.", "category": "Software company", "street": "B-2, Block", "city": "Road", "phone": "09045199841", "website": "", "rating": 4.4, "review_count": "", "latitude": 28.4929925, "longitude": 77.18445489999999, "maps_url": "https://www.google.com/maps/place/?q=place_id:0x390d1e2fed1eed4b:0x101cd24533e257fa"}, {"place_id": "0x2a72b8b69d7b6493:0x11251466d4d34cac", "name": "WebZonal IT Company", "category": "Website designer", "street": "Wz-258/2-3, D Block Rd", "city": "Khazan Basti, Nangal Raya, Janakpuri", "phone": "09811170903", "website": "http://webzonal.com/", "rating": 5, "review_count": "", "latitude": 28.6122102, "longitude": 77.11159549999999, "maps_url": "https://www.google.com/maps/place/?q=place_id:0x2a72b8b69d7b6493:0x11251466d4d34cac"}, {"place_id": "0x390d02994de5e515:0xd908bc03409a0d37", "name": "Himalayan IT Solutions | Best Website Designing Company in Delhi | SEO/Digital Marketing Company in Delhi NCR, India", "category": "Software company", "street": "61/4255, Padam Singh Rd", "city": "Block 29, Block 1, Regar Pura, Karol Bagh", "phone": "09899098509", "website": "http://www.himalayanitsolutions.com/", "rating": 3.9, "review_count": "", "latitude": 28.649673999999997, "longitude": 77.186599, "maps_url": "https://www.google.com/maps/place/?q=place_id:0x390d02994de5e515:0xd908bc03409a0d37"}, {"place_id": "0x390d1ef0be7176f7:0xd7b6061ed89097f9", "name": "Infotyke", "category": "Software company", "street": "K426, Pillar 133, MG Road, Ghitorani", "city": "New Delhi, Delhi 110030", "phone": "09953585869", "website": "https://www.infotyke.com/", "rating": 4.9, "review_count": "", "latitude": 28.4909239, "longitude": 77.1411863, "maps_url": "https://www.google.com/maps/place/?q=place_id:0x390d1ef0be7176f7:0xd7b6061ed89097f9"}, {"place_id": "0x390ce17848fee8b3:0x2b94e887e2527706", "name": "FirstStartup.in - Pvt Ltd Company Registration in Delhi, Gurgaon & Noida", "category": "Legal services", "street": "3rd Floor", "city": "K - 318", "phone": "06395622281", "website": "https://www.firststartup.in/", "rating": 5, "review_count": "", "latitude": 28.5230774, "longitude": 77.1925818, "maps_url": "https://www.google.com/maps/place/?q=place_id:0x390ce17848fee8b3:0x2b94e887e2527706"}, {"place_id": "0x390ce1e9a7083cb7:0xe2a6861849a12032", "name": "Manish Gupta", "category": "Computer consultant", "street": "On", "city": "P1A 246 (D-14 Neb Valley", "phone": "09810207228", "website": "", "rating": 4.2, "review_count": "", "latitude": 28.5105653, "longitude": 77.2097086, "maps_url": "https://www.google.com/maps/place/?q=place_id:0x390ce1e9a7083cb7:0xe2a6861849a12032"}, {"place_id": "0x41ddcb5488aa4703:0x5290c64921de1a5b", "name": "Bloatware IT Software Development Company | Game Development | Software Company in delhi", "category": "Software company", "street": "SILVER OAK FARMS", "city": "660, Mehrauli-Gurgaon Rd", "phone": "", "website": "https://bloatwareitsolutions.com/", "rating": 5, "review_count": "", "latitude": 28.4911034, "longitude": 77.1432663, "maps_url": "https://www.google.com/maps/place/?q=place_id:0x41ddcb5488aa4703:0x5290c64921de1a5b"}, {"place_id": "0x390d1e186527b451:0x3d552630d3703e21", "name": "Inca Infotech Technologies Pvt Ltd", "category": "Computer support and services", "street": "D-23/405, UGF", "city": "100 Feet Rd", "phone": "18008891907", "website": "https://www.incainfotech.com/", "rating": 3.6, "review_count": "", "latitude": 28.506226899999998, "longitude": 77.1850521, "maps_url": "https://www.google.com/maps/place/?q=place_id:0x390d1e186527b451:0x3d552630d3703e21"}, {"place_id": "0x390ce1e4317e5aab:0x5d1c04d23170494d", "name": "RoboSlog", "category": "Automation company", "street": "75/9, kishangarh", "city": "Aruna Asaf Ali Marg", "phone": "06306854780", "website": "https://roboslog.in/", "rating": 4.1, "review_count": "", "latitude": 28.5201557, "longitude": 77.163664, "maps_url": "https://www.google.com/maps/place/?q=place_id:0x390ce1e4317e5aab:0x5d1c04d23170494d"}, {"place_id": "0x390ce26dc4d4ba2d:0x9486a6d620e379f9", "name": "Akal Information Systems Ltd.", "category": "Software company", "street": "Tower J, World Trade Center", "city": "103", "phone": "01146503545", "website": "https://www.akalinfo.com/", "rating": 3.9, "review_count": "", "latitude": 28.567935499999997, "longitude": 77.1923202, "maps_url": "https://www.google.com/maps/place/?q=place_id:0x390ce26dc4d4ba2d:0x9486a6d620e379f9"}, {"place_id": "0x390d1f61836cd921:0x776e9717979fe108", "name": "Saiway Tech", "category": "Web hosting company", "street": "702", "city": "Near, Maruti Chowk", "phone": "07982506339", "website": "http://saiwaytech.com/", "rating": 4.8, "review_count": "", "latitude": 28.4924629, "longitude": 77.1411129, "maps_url": "https://www.google.com/maps/place/?q=place_id:0x390d1f61836cd921:0x776e9717979fe108"}, {"place_id": "0x390d04bf7d49dbd5:0x883e437bd64b2164", "name": "Social Eyes", "category": "Marketing agency", "street": "K-316", "city": "Chatri Wala Kuan, Lado Sarai", "phone": "09766695666", "website": "https://socialeyes.in/", "rating": 4.9, "review_count": "", "latitude": 28.523818499999997, "longitude": 77.19252569999999, "maps_url": "https://www.google.com/maps/place/?q=place_id:0x390d04bf7d49dbd5:0x883e437bd64b2164"}, {"place_id": "0x390ce200d4a8781b:0x4811b2590260a7fe", "name": "RPD Software", "category": "Website designer", "street": "3rd Floor", "city": "97/1, Sri Aurobindo Marg", "phone": "08090706048", "website": "https://rpdsoftware.com/", "rating": 5, "review_count": "", "latitude": 28.538255699999997, "longitude": 77.19827599999999, "maps_url": "https://www.google.com/maps/place/?q=place_id:0x390ce200d4a8781b:0x4811b2590260a7fe"}, {"place_id": "0x390d05e735a7a119:0x162bcd1bd1447522", "name": "Make My Business Online", "category": "Internet marketing service", "street": "F-301, 1-A 2nd floor, Ch. Prem", "city": "Himmat Singh Marg", "phone": "09999677947", "website": "https://mmbo.in/", "rating": 4.5, "review_count": "", "latitude": 28.5243684, "longitude": 77.1953413, "maps_url": "https://www.google.com/maps/place/?q=place_id:0x390d05e735a7a119:0x162bcd1bd1447522"}, {"place_id": "0x390ce215e75887b3:0xf194ea308e7cc827", "name": "ASA Corporate Catalyst India Pvt Ltd", "category": "Business management consultant", "street": "Aurobindo Tower, 81/1, Third Floor", "city": "Sri Aurobindo Marg", "phone": "01141009999", "website": "https://www.asa.in/", "rating": 4.4, "review_count": "", "latitude": 28.5355869, "longitude": 77.1980914, "maps_url": "https://www.google.com/maps/place/?q=place_id:0x390ce215e75887b3:0xf194ea308e7cc827"}, {"place_id": "0x390ce3d606c913ef:0xd246bd5631eb2cad", "name": "Delvetech", "category": "Software company", "street": "87A/1, 3rd Floor, Opp. Block N-115, G.K-1, Near Moolchand Merto", "city": "Block B, Zamrudpur, Greater Kailash", "phone": "09873895154", "website": "http://www.delvetech.co.in/", "rating": 4.1, "review_count": "", "latitude": 28.5570597, "longitude": 77.2356981, "maps_url": "https://www.google.com/maps/place/?q=place_id:0x390ce3d606c913ef:0xd246bd5631eb2cad"}, {"place_id": "0x390d1ff9a2582fa5:0xc209d3a043101e7d", "name": "Identicube Video Marketing Company", "category": "Marketing agency", "street": "Ground floor", "city": "Back side", "phone": "", "website": "https://www.identicube.in/", "rating": 4, "review_count": "", "latitude": 28.525576299999997, "longitude": 77.19090609999999, "maps_url": "https://www.google.com/maps/place/?q=place_id:0x390d1ff9a2582fa5:0xc209d3a043101e7d"}, {"place_id": "0x390cfd9627f1ef6f:0x2ceaf9a99dfc7b29", "name": "QuaintX Innovations", "category": "Software company", "street": "3rd Floor, Building", "city": "125, Savitri Nagar Rd", "phone": "07015149213", "website": "https://quaintx.com/", "rating": 5, "review_count": "", "latitude": 28.5394647, "longitude": 77.21983519999999, "maps_url": "https://www.google.com/maps/place/?q=place_id:0x390cfd9627f1ef6f:0x2ceaf9a99dfc7b29"}, {"place_id": "0xa3f7b500ba6bee9b:0xbf6f44de92b28de", "name": "Yuvocreations Private Limited ( \u092f\u0941\u0935\u094b\u0915\u094d\u0930\u093f\u090f\u0936\u0928\u094d\u0938 \u092a\u094d\u0930\u093e\u0907\u0935\u0947\u091f \u0932\u093f\u092e\u093f\u091f\u0947\u0921 ) - Website Designing & Digital Marketing Agency", "category": "Software company", "street": "Lane no.4", "city": "Khasra no. 258, Westend Marg", "phone": "07042123166", "website": "https://yuvocreations.com/", "rating": 5, "review_count": "", "latitude": 28.5169774, "longitude": 77.19925789999999, "maps_url": "https://www.google.com/maps/place/?q=place_id:0xa3f7b500ba6bee9b:0xbf6f44de92b28de"}, {"place_id": "0x390ce21e692e0283:0xa33efbc3468a3d7d", "name": "Tally Software Services", "category": "Software company", "street": "C 220/4, Savtri Nagar, Malviya Nagar", "city": "New Delhi, Delhi 110017", "phone": "09810311011", "website": "", "rating": 3.8, "review_count": "", "latitude": 28.533087, "longitude": 77.2128759, "maps_url": "https://www.google.com/maps/place/?q=place_id:0x390ce21e692e0283:0xa33efbc3468a3d7d"}, {"place_id": "0x390ce3b7c0000001:0x46ddd80ee502d937", "name": "Amtrak Technologies Private Limited", "category": "Computer support and services", "street": "6, Community Centre", "city": "East of Kailash", "phone": "01126448000", "website": "https://amtrak.co.in/", "rating": 4.4, "review_count": "", "latitude": 28.558434899999998, "longitude": 77.2463302, "maps_url": "https://www.google.com/maps/place/?q=place_id:0x390ce3b7c0000001:0x46ddd80ee502d937"}, {"place_id": "0x390ce3860c81c723:0xc5f50e43c0a86a3e", "name": "Nextr Technology", "category": "Software company", "street": "2nd Floor", "city": "1483/A-1", "phone": "09911751575", "website": "http://www.nextr.in/", "rating": 4.9, "review_count": "", "latitude": 28.574374, "longitude": 77.224284, "maps_url": "https://www.google.com/maps/place/?q=place_id:0x390ce3860c81c723:0xc5f50e43c0a86a3e"}, {"place_id": "0x390ce3cfe91504eb:0x55346c5c499223d7", "name": "CCS Computers Private Limited", "category": "Computer support and services", "street": "2nd-3rd Floor Skipper House", "city": "Nehru Place", "phone": "01126463959", "website": "http://www.ccscomputers.co.in/", "rating": 4, "review_count": "", "latitude": 28.550090599999997, "longitude": 77.2537834, "maps_url": "https://www.google.com/maps/place/?q=place_id:0x390ce3cfe91504eb:0x55346c5c499223d7"}, {"place_id": "0x390d1dfbc9ec6d19:0x52108b354c1ded83", "name": "Awfis, Ground Floor, Qutab Institutional Area", "category": "Coworking space", "street": "Ground Floor, G5PQ+G87", "city": "C 28-29", "phone": "18602586633", "website": "https://www.awfis.com/office-space/new-delhi/qutab-instituti/pro-working---kissan-bhavan/fixed", "rating": 4.2, "review_count": "", "latitude": 28.536837499999997, "longitude": 77.1872807, "maps_url": "https://www.google.com/maps/place/?q=place_id:0x390d1dfbc9ec6d19:0x52108b354c1ded83"}, {"place_id": "0x390ce45bcd61048f:0x5f6a5602f4155df7", "name": "JK Technosoft Limited", "category": "Software company", "street": "F", "city": "3", "phone": "01204606300", "website": "https://jktech.com/", "rating": 4.2, "review_count": "", "latitude": 28.5802509, "longitude": 77.31793329999999, "maps_url": "https://www.google.com/maps/place/?q=place_id:0x390ce45bcd61048f:0x5f6a5602f4155df7"}, {"place_id": "0x390d1e748ef61961:0x754ceb660996cfdb", "name": "ACS System Solutions", "category": "Software company", "street": "Kishangarh, Kishangarh Village, Vasant Kunj", "city": "New Delhi, Delhi 110070", "phone": "01149858620", "website": "http://acssystem.in/", "rating": 3.4, "review_count": "", "latitude": 28.522178699999998, "longitude": 77.1692609, "maps_url": "https://www.google.com/maps/place/?q=place_id:0x390d1e748ef61961:0x754ceb660996cfdb"}, {"place_id": "0x390ce1227ed4c549:0x74d9bcf6bfb0356b", "name": "Amala Earth Private Limited", "category": "E-commerce service", "street": "Amala Earth, 1st Floor , Block C3, Habitat India Qutub institutional Area", "city": "Katwaria Sarai", "phone": "02022042259", "website": "https://amala.earth/", "rating": 3.2, "review_count": "", "latitude": 28.5366233, "longitude": 77.1901774, "maps_url": "https://www.google.com/maps/place/?q=place_id:0x390ce1227ed4c549:0x74d9bcf6bfb0356b"}, {"place_id": "0x390d1ff9a2582fa5:0xc209d3a043101e7d", "name": "Identicube Video Marketing Company", "category": "Marketing agency", "street": "Ground floor", "city": "Back side", "phone": "", "website": "https://www.identicube.in/", "rating": 4, "review_count": "", "latitude": 28.525576299999997, "longitude": 77.19090609999999, "maps_url": "https://www.google.com/maps/place/?q=place_id:0x390d1ff9a2582fa5:0xc209d3a043101e7d"}, {"place_id": "0x390ce21c24e85b2f:0xf80cd35fedbc3cea", "name": "Cyberspace Networking Systems (P) Ltd.", "category": "Website designer", "street": "NIL-36C, Shvalik, DDA Flats, Malviya Nagar", "city": "New Delhi, Delhi 110017", "phone": "01141892901", "website": "http://www.cyberspace.in/", "rating": 3.9, "review_count": "", "latitude": 28.534816, "longitude": 77.21120789999999, "maps_url": "https://www.google.com/maps/place/?q=place_id:0x390ce21c24e85b2f:0xf80cd35fedbc3cea"}, {"place_id": "0x390ce27340995365:0x976363845854a05e", "name": "Vouchagram India Pvt. Ltd", "category": "Corporate office", "street": "3rd Floor", "city": "B-11", "phone": "18001033314", "website": "http://vouchagram.com/", "rating": 4.3, "review_count": "", "latitude": 28.539122499999998, "longitude": 77.18173, "maps_url": "https://www.google.com/maps/place/?q=place_id:0x390ce27340995365:0x976363845854a05e"}, {"place_id": "0x390d195c26bfa369:0x69bd8efd2e3a31fe", "name": "Radical Minds Technologies Pvt. Ltd.", "category": "BPO Company", "street": "368", "city": "Phase II, Udyog Vihar, Sector 20", "phone": "01244338366", "website": "http://www.radicalminds.in/", "rating": 4.2, "review_count": "", "latitude": 28.506335099999998, "longitude": 77.0877546, "maps_url": "https://www.google.com/maps/place/?q=place_id:0x390d195c26bfa369:0x69bd8efd2e3a31fe"}, {"place_id": "0x390d04bf7d49dbd5:0x883e437bd64b2164", "name": "Social Eyes", "category": "Marketing agency", "street": "K-316", "city": "Chatri Wala Kuan, Lado Sarai", "phone": "09766695666", "website": "https://socialeyes.in/", "rating": 4.9, "review_count": "", "latitude": 28.523818499999997, "longitude": 77.19252569999999, "maps_url": "https://www.google.com/maps/place/?q=place_id:0x390d04bf7d49dbd5:0x883e437bd64b2164"}, {"place_id": "0x390d1e0ec875f935:0xef80a5b902df460f", "name": "CHIPS IT SOLUTIONS", "category": "Computer repair service", "street": "Office No.2, Ground floor", "city": "41 A", "phone": "08920040917", "website": "http://chipsitsolutions.com/", "rating": 4.5, "review_count": "", "latitude": 28.522298499999998, "longitude": 77.1786144, "maps_url": "https://www.google.com/maps/place/?q=place_id:0x390d1e0ec875f935:0xef80a5b902df460f"}, {"place_id": "0x390ce23eeab015ab:0x92d6a7e8dbc46e1a", "name": "Odyssey Website Development Company", "category": "Website designer", "street": "B-59", "city": "Block B, Soami Nagar South, Soami Nagar", "phone": "09654486464", "website": "http://odysseyin.com/?utm_source=GMB&utm_medium=Organic&utm_term=Odyssey&utm_content=Listing&utm_campaign=GMB1", "rating": 3.6, "review_count": "", "latitude": 28.541823599999997, "longitude": 77.2262008, "maps_url": "https://www.google.com/maps/place/?q=place_id:0x390ce23eeab015ab:0x92d6a7e8dbc46e1a"}, {"place_id": "0x61679272b097afaf:0x2d8ff2b0d95a1e18", "name": "Busybots | RPA & Robotic Process Automation for Banking, Healthcare, AI Services & UiPath, Python Training in Delhi", "category": "Software company", "street": "1st Floor, D", "city": "25, 100 Feet Rd", "phone": "09315867465", "website": "https://www.busybots.in/", "rating": 5, "review_count": "", "latitude": 28.5055157, "longitude": 77.1852263, "maps_url": "https://www.google.com/maps/place/?q=place_id:0x61679272b097afaf:0x2d8ff2b0d95a1e18"}, {"place_id": "0x331745c76a06d77:0x3f5c561237cb7a3e", "name": "Webreachpro Technologies", "category": "Marketing agency", "street": "Phase-2", "city": "25B", "phone": "09643014632", "website": "https://webreachpro.in/", "rating": 5, "review_count": "", "latitude": 28.5415092, "longitude": 77.1842592, "maps_url": "https://www.google.com/maps/place/?q=place_id:0x331745c76a06d77:0x3f5c561237cb7a3e"}, {"place_id": "0x390ce1fb51000005:0x7a6e84a45ea4ca68", "name": "SAWERI URJA Pvt. Ltd.", "category": "Solar Energy Company", "street": "Saiyad ul Ajaib, Sainik Farm", "city": "New Delhi, Delhi 110030", "phone": "09549889644", "website": "http://www.saweriurja.com/", "rating": 4.9, "review_count": "", "latitude": 28.5192205, "longitude": 77.2009205, "maps_url": "https://www.google.com/maps/place/?q=place_id:0x390ce1fb51000005:0x7a6e84a45ea4ca68"}, {"place_id": "0x390d1e003c00a2d1:0x74a945c02c298866", "name": "Palak Ro Service", "category": "Water purification company", "street": "F-2, in Lado Sarai", "city": "near Kali Mata Mandir", "phone": "09811139725", "website": "https://www.palakro.com/", "rating": 5, "review_count": "", "latitude": 28.527251699999997, "longitude": 77.1930689, "maps_url": "https://www.google.com/maps/place/?q=place_id:0x390d1e003c00a2d1:0x74a945c02c298866"}, {"place_id": "0x390ce456aaaaaaab:0x6e4e087895622564", "name": "Klasiinn", "category": "Software company", "street": "E-506, Inder Mohan Bhardwaj Marg", "city": "Block E, Greater Kailash II, Greater Kailash", "phone": "07827882870", "website": "http://klasiinn.in/", "rating": 5, "review_count": "", "latitude": 28.5358657, "longitude": 77.2384798, "maps_url": "https://www.google.com/maps/place/?q=place_id:0x390ce456aaaaaaab:0x6e4e087895622564"}, {"place_id": "0x390ce26e078c1099:0xc1cee1eeba514c6c", "name": "Tatras Data", "category": "Database Management Company", "street": "Spacetime, Khasra 275", "city": "Buzz by", "phone": "09899892691", "website": "http://tatrasdata.com/", "rating": 4.6, "review_count": "", "latitude": 28.518542399999998, "longitude": 77.1993492, "maps_url": "https://www.google.com/maps/place/?q=place_id:0x390ce26e078c1099:0xc1cee1eeba514c6c"}, {"place_id": "0x390d1f0df92e353d:0x54e79553d987073c", "name": "Zombie Marketers | Performance Marketing | Digital Marketing | Website development company in Delhi | SEO company in Delhi", "category": "Marketing agency", "street": "89/9 Mamman House B Block 4th Floor", "city": "Kishangarh Village, Vasant Kunj", "phone": "08527273938", "website": "", "rating": 4.4, "review_count": "", "latitude": 28.5189249, "longitude": 77.1646754, "maps_url": "https://www.google.com/maps/place/?q=place_id:0x390d1f0df92e353d:0x54e79553d987073c"}, {"place_id": "0x390ce19d6aaaaaab:0x322f66cd91e8f6cd", "name": "Vikas Gupta Web Developer", "category": "Website designer", "street": "A-454 Dakshinpuri", "city": "New Delhi, Delhi 110062", "phone": "09643269244", "website": "https://itcrafterhub.com/website-developer-delhi/", "rating": 5, "review_count": "", "latitude": 28.522017599999998, "longitude": 77.2366923, "maps_url": "https://www.google.com/maps/place/?q=place_id:0x390ce19d6aaaaaab:0x322f66cd91e8f6cd"}, {"place_id": "0x390d1e01f148d623:0x7c0af41f515258df", "name": "Peter Software And Technology LLP", "category": "BPO Company", "street": "2nd Floor", "city": "Mother Dairy", "phone": "", "website": "", "rating": 5, "review_count": "", "latitude": 28.5239691, "longitude": 77.1935158, "maps_url": "https://www.google.com/maps/place/?q=place_id:0x390d1e01f148d623:0x7c0af41f515258df"}, {"place_id": "0x390ce3cfa1f3eff3:0x3b660d1c844bec22", "name": "Ilsintech Trading India Pvt. Ltd. - Splicing Machine Sales, Repair & Services in Delhi", "category": "Fiber Optic Products Supplier", "street": "F-208, Old M B Road", "city": "near HDFC Bank", "phone": "01140555954", "website": "https://www.ilsintechindia.com/", "rating": 4.3, "review_count": "", "latitude": 28.5235502, "longitude": 77.19473459999999, "maps_url": "https://www.google.com/maps/place/?q=place_id:0x390ce3cfa1f3eff3:0x3b660d1c844bec22"}, {"place_id": "0x390d1e11afc66825:0xd7b255d93c09dcb9", "name": "M S Company", "category": "Clothing store", "street": "READYMADE GALI", "city": "near BARAHMKUMARI MEDITATION CENTER", "phone": "09810323174", "website": "https://mscompanynetin.wordpress.com/", "rating": 4.5, "review_count": "", "latitude": 28.521039499999997, "longitude": 77.17818869999999, "maps_url": "https://www.google.com/maps/place/?q=place_id:0x390d1e11afc66825:0xd7b255d93c09dcb9"}, {"place_id": "0x390ce1907aabdf43:0x750ea3ae198db353", "name": "Sagacity clothing", "category": "Clothing store", "street": "1st floor", "city": "Sagacity, F-225", "phone": "09310521716", "website": "https://thesagacity.in/", "rating": 4.7, "review_count": "", "latitude": 28.5274039, "longitude": 77.1915112, "maps_url": "https://www.google.com/maps/place/?q=place_id:0x390ce1907aabdf43:0x750ea3ae198db353"}, {"place_id": "0x390d1e0e8beda9af:0x54aed15db93c3740", "name": "Ogaan - Kalka Das Marg, Mehrauli, New Delhi", "category": "Designer Clothing Store", "street": "H-5/3 & H-5/4, 1st Floor Ambawatta 1, Kalka Das Marg", "city": "Mehrauli-Gurgaon Rd", "phone": "07428341133", "website": "https://www.ogaan.com/", "rating": 4.4, "review_count": "", "latitude": 28.527658499999998, "longitude": 77.1846418, "maps_url": "https://www.google.com/maps/place/?q=place_id:0x390d1e0e8beda9af:0x54aed15db93c3740"}, {"place_id": "0x390d1d8baaaaaaab:0x81e02841f207d0f0", "name": "S SONY & COMPANY PVT. LTD", "category": "Real Estate Builders & Construction Company", "street": "G-4, ANUPAMA BUILDING II FLOOR", "city": "Hauz Khas", "phone": "01135002651", "website": "http://ssony.in/", "rating": 4.9, "review_count": "", "latitude": 28.5510508, "longitude": 77.2048471, "maps_url": "https://www.google.com/maps/place/?q=place_id:0x390d1d8baaaaaaab:0x81e02841f207d0f0"}, {"place_id": "0x390ce1be2d2a7377:0x5020cce4790298e1", "name": "AJWA KAIF PVT LTD", "category": "Computer support and services", "street": "Ground Floor", "city": "Khirki Vill", "phone": "01142502100", "website": "https://www.ajwakaif.com/", "rating": 5, "review_count": "", "latitude": 28.5309287, "longitude": 77.2194186, "maps_url": "https://www.google.com/maps/place/?q=place_id:0x390ce1be2d2a7377:0x5020cce4790298e1"}, {"place_id": "0x8335ecf853715cbf:0x10d99fb1fba2b0a8", "name": "Oceonic IT Solution Pvt Ltd", "category": "Software company", "street": "C14 C Block", "city": "JVTS Garden, Block A1, Chhatarpur", "phone": "08874000083", "website": "https://www.oceonic.co/", "rating": 3, "review_count": "", "latitude": 28.496824699999998, "longitude": 77.1828704, "maps_url": "https://www.google.com/maps/place/?q=place_id:0x8335ecf853715cbf:0x10d99fb1fba2b0a8"}, {"place_id": "0x390d1df0b86aa735:0x4d6fa3ee0ce8329c", "name": "AStar Battery, Charger, Electric Vehicles & Spares", "category": "Corporate office", "street": "124a, FF, Main Road", "city": "Katwaria Sarai", "phone": "09758538200", "website": "http://astarbattery.com/", "rating": 3.9, "review_count": "", "latitude": 28.5404466, "longitude": 77.1857691, "maps_url": "https://www.google.com/maps/place/?q=place_id:0x390d1df0b86aa735:0x4d6fa3ee0ce8329c"}, {"place_id": "0x390d1bcb61739b37:0x5721fd59ec81271d", "name": "Excellence Soft", "category": "Software company", "street": "Plot in Khno-50", "city": "4/1, Road", "phone": "09902308175", "website": "http://excellencesoft.in/", "rating": 4.5, "review_count": "", "latitude": 28.5015084, "longitude": 77.18497839999999, "maps_url": "https://www.google.com/maps/place/?q=place_id:0x390d1bcb61739b37:0x5721fd59ec81271d"}, {"place_id": "0x390d1f5bc6090061:0xe0eff80f011be6af", "name": "OOZ Global", "category": "Media company", "street": "112", "city": "1, Desu Road", "phone": "07982837256", "website": "http://www.oozglobal.in/", "rating": 3, "review_count": "", "latitude": 28.524393, "longitude": 77.17850299999999, "maps_url": "https://www.google.com/maps/place/?q=place_id:0x390d1f5bc6090061:0xe0eff80f011be6af"}, {"place_id": "0x390d1f31c7197f25:0x27695fa9c2f71e4a", "name": "Delhi Vintage Co", "category": "Vintage clothing store", "street": "Unit No.1", "city": "Lado Sarai Ext Rd", "phone": "09625363916", "website": "", "rating": 4.8, "review_count": "", "latitude": 28.5277721, "longitude": 77.1915585, "maps_url": "https://www.google.com/maps/place/?q=place_id:0x390d1f31c7197f25:0x27695fa9c2f71e4a"}, {"place_id": "0x390ce39307063999:0xb115a5e9663792f0", "name": "Eagle Hunter Solutions Limited", "category": "Security guard service", "street": "61, Kalu Sarai Rd, Sarvpriya vihar", "city": "61, Kalu Sarai Rd", "phone": "01140748000", "website": "https://eaglehuntersgroup.com/", "rating": 4, "review_count": "", "latitude": 28.542211499999997, "longitude": 77.2036753, "maps_url": "https://www.google.com/maps/place/?q=place_id:0x390ce39307063999:0xb115a5e9663792f0"}, {"place_id": "0x390ce14c8ef0539d:0xcde78f68bd4b851b", "name": "KNAP ADVISORY Company Registration and Compliance Service", "category": "Consultant", "street": "Metro Station", "city": "LGF, Building No. 2, Lane", "phone": "09311972982", "website": "https://knapadvisory.com/", "rating": 5, "review_count": "", "latitude": 28.519864799999997, "longitude": 77.201016, "maps_url": "https://www.google.com/maps/place/?q=place_id:0x390ce14c8ef0539d:0xcde78f68bd4b851b"}, {"place_id": "0x390d1f22502275b1:0x1c35090d11983641", "name": "Castingwaale", "category": "Film Production Company", "street": "F-336", "city": "near Reliance Fresh", "phone": "09999705636", "website": "", "rating": 4.6, "review_count": "", "latitude": 28.5242281, "longitude": 77.1920742, "maps_url": "https://www.google.com/maps/place/?q=place_id:0x390d1f22502275b1:0x1c35090d11983641"}, {"place_id": "0x390ce17b01e1a187:0x586fa6002747476d", "name": "OneTap AI Solutions", "category": "Software company", "street": "FIRST FLOOR", "city": "HOLI CHOWK", "phone": "07859935902", "website": "https://onetapaisolutions.com/", "rating": 5, "review_count": "", "latitude": 28.5011396, "longitude": 77.2343595, "maps_url": "https://www.google.com/maps/place/?q=place_id:0x390ce17b01e1a187:0x586fa6002747476d"}, {"place_id": "0x390ce1fdff5859e5:0x16fae08bee169b62", "name": "Claro Energy Limited", "category": "Solar Energy Company", "street": "1st & 2nd Floor", "city": "F213/A, Old M B Road", "phone": "01140571616", "website": "http://www.claroenergy.in/", "rating": 4, "review_count": "", "latitude": 28.52356, "longitude": 77.194194, "maps_url": "https://www.google.com/maps/place/?q=place_id:0x390ce1fdff5859e5:0x16fae08bee169b62"}, {"place_id": "0x390cfb4bf15a6733:0xaf50e6f3c5fb7641", "name": "Digitals Daddy: Web & App Development Company", "category": "Software company", "street": "Metro Gate No. 2", "city": "Nearest Sikandarpur", "phone": "09818286609", "website": "https://www.digitalsdaddy.com/", "rating": 4.9, "review_count": "", "latitude": 28.4847884, "longitude": 77.0922192, "maps_url": "https://www.google.com/maps/place/?q=place_id:0x390cfb4bf15a6733:0xaf50e6f3c5fb7641"}]}