[{"place_id": "ChIJO4sr49IDDTkRALZaeWsr-oI", "name": "Iraitech | Software Development Company", "street": "Central Square Complex 3, Unit No-1051, 1st Floor, Near Filmistan, DCM chowk, Bara Hindu Rao, Kishan Ganj, Delhi, 110006, India", "phone": "+91 81301 04108", "rating": "4.1", "review_count": "", "website": "https://www.iraitech.com/", "latitude": 28.6631951, "longitude": 77.20308639999999, "maps_url": "https://www.google.com/maps/search/?api=1&query=Iraitech%20%7C%20Software%20Development%20Company&query_place_id=ChIJO4sr49IDDTkRALZaeWsr-oI"}, {"place_id": "ChIJA6KtL5kCDTkR7wFe_OSD2bE", "name": "Omniscient IT Solutions Pvt. Ltd", "street": "4, 28, Saraswati Marg, Block 15A, WEA, Karol Bagh, New Delhi, Delhi, 110005, India", "phone": "+91 98110 27310", "rating": "4.6", "review_count": "", "website": "https://www.omniscientitsolutions.com/", "latitude": 28.646959, "longitude": 77.1882229, "maps_url": "https://www.google.com/maps/search/?api=1&query=Omniscient%20IT%20Solutions%20Pvt.%20Ltd&query_place_id=ChIJA6KtL5kCDTkR7wFe_OSD2bE"}, {"place_id": "ChIJPR796sD9DDkRLo5M9V9l1nA", "name": "Binarysoft Technologies (We bring IT)", "street": "1st Floor, 1626/33, Block 27F, Naiwala, Karol Bagh, Delhi, 110005, India", "phone": "+91 92054 71661", "rating": "5", "review_count": "", "website": "http://www.binarysoft.com/", "latitude": 28.647633, "longitude": 77.19496199999999, "maps_url": "https://www.google.com/maps/search/?api=1&query=Binarysoft%20Technologies%20%28We%20bring%20IT%29&query_place_id=ChIJPR796sD9DDkRLo5M9V9l1nA"}, {"place_id": "ChIJ9-p_gfEDDTkRjfK5cSlzKWM", "name": "Telvisio Solutions", "street": "8873/14B, 2nd Floor, Shidi Pura, Karol Bagh, New Delhi, Delhi 110005, India", "phone": "", "rating": "4.9", "review_count": "", "website": "https://www.telvisiosolutions.com/", "latitude": 28.656169, "longitude": 77.2022787, "maps_url": "https://www.google.com/maps/search/?api=1&query=Telvisio%20Solutions&query_place_id=ChIJ9-p_gfEDDTkRjfK5cSlzKWM"}, {"place_id": "ChIJ8bD3oe-1bTkRhQOwVrfg-vw", "name": "One Aim IT Solutions", "street": "2/41/2 , 1st Floor, Sadar Bazar , Moradabad Pahari ,TO.Delhi Cantt, Distt:, South West, New Delhi, Delhi 110006, India", "phone": "+91 89552 49714", "rating": "5", "review_count": "", "website": "https://theoneaim.in/", "latitude": 28.6580968, "longitude": 77.2124735, "maps_url": "https://www.google.com/maps/search/?api=1&query=One%20Aim%20IT%20Solutions&query_place_id=ChIJ8bD3oe-1bTkRhQOwVrfg-vw"}, {"place_id": "ChIJFeXlTZkCDTkRNw2aQAO8CNk", "name": "Himalayan IT Solutions | Best Website Designing Company in Delhi | SEO/Digital Marketing Company in Delhi NCR, India", "street": "61/4255, Padam Singh Rd, Block 29, Block 1, Regar Pura, Karol Bagh, Delhi, 110005, India", "phone": "+91 98990 98509", "rating": "3.9", "review_count": "", "website": "http://www.himalayanitsolutions.com/", "latitude": 28.649673999999997, "longitude": 77.186599, "maps_url": "https://www.google.com/maps/search/?api=1&query=Himalayan%20IT%20Solutions%20%7C%20Best%20Website%20Designing%20Company%20in%20Delhi%20%7C%20SEO/Digital%20Marketing%20Company%20in%20Delhi%20NCR%2C%20India&query_place_id=ChIJFeXlTZkCDTkRNw2aQAO8CNk"}, {"place_id": "ChIJB6AZSUD9DDkRuApv-5TZXZg", "name": "MMI Softwares Pvt. Ltd.", "street": "B-A4, 9/54, Namdhari Chamber, Desh Bandhu Gupta Rd, Block 53, Karol Bagh, New Delhi, Delhi 110005, India", "phone": "+91 99714 76501", "rating": "4.6", "review_count": "", "website": "http://www.mmsoftwares.com/", "latitude": 28.6536804, "longitude": 77.1916753, "maps_url": "https://www.google.com/maps/search/?api=1&query=MMI%20Softwares%20Pvt.%20Ltd.&query_place_id=ChIJB6AZSUD9DDkRuApv-5TZXZg"}, {"place_id": "ChIJUX61TOUCDTkRPmeqyd2Pcps", "name": "IT Solutions & Services (ITSS)", "street": "T–2425 Street Number 21, Baljeet Nagar, West Patel Nagar, New Delhi, Delhi 110008, India", "phone": "+91 88004 19462", "rating": "4.7", "review_count": "", "website": "https://www.itssin.com/", "latitude": 28.6576111, "longitude": 77.160708, "maps_url": "https://www.google.com/maps/search/?api=1&query=IT%20Solutions%20%26%20Services%20%28ITSS%29&query_place_id=ChIJUX61TOUCDTkRPmeqyd2Pcps"}, {"place_id": "ChIJXUaNbIEDDTkRGeQ542Caims", "name": "Paper Code Technologies", "street": "T-1871 D, Ashok Nagar Uppar Ridge Road Jhandewalan, Karol Bagh, New Delhi, Delhi 110055, India", "phone": "+91 85958 85110", "rating": "4.9", "review_count": "", "website": "https://papercodetech.com/", "latitude": 28.647361, "longitude": 77.2016883, "maps_url": "https://www.google.com/maps/search/?api=1&query=Paper%20Code%20Technologies&query_place_id=ChIJXUaNbIEDDTkRGeQ542Caims"}, {"place_id": "ChIJuzZ3usj9DDkR5Q91Qz7GlDc", "name": "Busy Infotech Pvt. Ltd.", "street": "3, Rani Jhansi Rd, Block E 4, Jhandewalan Extension, Karol Bagh, New Delhi, Delhi 110055, India", "phone": "+91 11 4096 4096", "rating": "4.6", "review_count": "", "website": "https://busy.in/", "latitude": 28.6454408, "longitude": 77.2042627, "maps_url": "https://www.google.com/maps/search/?api=1&query=Busy%20Infotech%20Pvt.%20Ltd.&query_place_id=ChIJuzZ3usj9DDkR5Q91Qz7GlDc"}, {"place_id": "ChIJVdkZih79DDkR_dClCtK2ZkU", "name": "SoftGiant Technologies - Custom Software Development & Best eCommmerce Development Company in Delhi, India", "street": "T-1871 D, 2/F, Ashok Nagar Uppar Ridge Road Jhandewalan, Karol Bagh, New Delhi, Delhi 110055, India", "phone": "+91 85958 85110", "rating": "5", "review_count": "", "website": "http://www.softgianttech.com/", "latitude": 28.647350699999997, "longitude": 77.2016845, "maps_url": "https://www.google.com/maps/search/?api=1&query=SoftGiant%20Technologies%20-%20Custom%20Software%20Development%20%26%20Best%20eCommmerce%20Development%20Company%20in%20Delhi%2C%20India&query_place_id=ChIJVdkZih79DDkR_dClCtK2ZkU"}, {"place_id": "ChIJZ2xfwgT9DDkRwtcD9JCo5Qc", "name": "Universe Infotech - Computer Laptop Printer Repair Service Karol Bagh Delhi", "street": "18A/11 shop no 2 near Shidipura Police Choki, Dori Walan, Karol Bagh, New Delhi, Delhi 110005, India", "phone": "+91 96505 14911", "rating": "4.5", "review_count": "", "website": "https://universe-infotech.blogspot.com/", "latitude": 28.6568234, "longitude": 77.19925599999999, "maps_url": "https://www.google.com/maps/search/?api=1&query=Universe%20Infotech%20-%20Computer%20Laptop%20Printer%20Repair%20Service%20Karol%20Bagh%20Delhi&query_place_id=ChIJZ2xfwgT9DDkRwtcD9JCo5Qc"}, {"place_id": "ChIJVSDU85wCDTkR3TEe80XmjVY", "name": "AI Micro Mind®Technology", "street": "3rd Floor, 16/448, Block I, Building Number, Military Rd, Karol Bagh, New Delhi, Delhi, 110005, India", "phone": "+91 98183 53030", "rating": "4.8", "review_count": "", "website": "http://micromind.in/", "latitude": 28.656936299999998, "longitude": 77.1817737, "maps_url": "https://www.google.com/maps/search/?api=1&query=AI%20Micro%20Mind%C2%AETechnology&query_place_id=ChIJVSDU85wCDTkR3TEe80XmjVY"}, {"place_id": "ChIJCdwjeUv9DDkRSs9WJ7tQaSY", "name": "Big Feathers Technology", "street": "8577, New Rohtak Rd, Ratan Nagar, Karol Bagh, Delhi, 110005, India", "phone": "+91 86907 20398", "rating": "4.9", "review_count": "", "website": "https://www.thebigfeathers.com/", "latitude": 28.657151, "longitude": 77.1959542, "maps_url": "https://www.google.com/maps/search/?api=1&query=Big%20Feathers%20Technology&query_place_id=ChIJCdwjeUv9DDkRSs9WJ7tQaSY"}, {"place_id": "ChIJtXMHQGj9DDkRRE43pKtyAYM", "name": "Dvayweb Consultancy Services Pvt. Ltd.", "street": "Rani Jhansi Rd, Block E 4, Jhandewalan Extension, Jhandewalan, New Delhi, Delhi 110055, India", "phone": "+91 98730 30060", "rating": "4.6", "review_count": "", "website": "https://dvayweb.com/", "latitude": 28.645454599999997, "longitude": 77.2042455, "maps_url": "https://www.google.com/maps/search/?api=1&query=Dvayweb%20Consultancy%20Services%20Pvt.%20Ltd.&query_place_id=ChIJtXMHQGj9DDkRRE43pKtyAYM"}, {"place_id": "ChIJL4BtX1wdDTkRIiNTpELCuuM", "name": "Nobilitas Infotech Pvt. Ltd. - IT Solutions Company", "street": "Padma Tower II, 210, Rajendra Place, New Delhi, Delhi 110005, India", "phone": "+91 84483 84926", "rating": "5", "review_count": "", "website": "https://www.nobilitasinfotech.com/", "latitude": 28.6451836, "longitude": 77.1780375, "maps_url": "https://www.google.com/maps/search/?api=1&query=Nobilitas%20Infotech%20Pvt.%20Ltd.%20-%20IT%20Solutions%20Company&query_place_id=ChIJL4BtX1wdDTkRIiNTpELCuuM"}, {"place_id": "ChIJ6fogp5QCDTkRX_8pAuL_gew", "name": "it company", "street": "Block 31/25, Block 31, East Patel Nagar, Patel Nagar, New Delhi, Delhi, 110008, India", "phone": "+91 98189 02645", "rating": "", "review_count": "", "website": "", "latitude": 28.6477211, "longitude": 77.1727298, "maps_url": "https://www.google.com/maps/search/?api=1&query=it%20company&query_place_id=ChIJ6fogp5QCDTkRX_8pAuL_gew"}, {"place_id": "ChIJC3MN3zb9DDkR-JxtEG9cQg0", "name": "I. T. Solutions", "street": "Gate No. 8, A-6, 1st Floor, Inner Circle, Above Post office, near ICICI Bank, Bon Ton and Metro, Connaught Place, New Delhi, Delhi 110001, India", "phone": "+91 11 4152 3242", "rating": "4.9", "review_count": "", "website": "http://www.itsolutioncp.com/", "latitude": 28.6324367, "longitude": 77.2183441, "maps_url": "https://www.google.com/maps/search/?api=1&query=I.%20T.%20Solutions&query_place_id=ChIJC3MN3zb9DDkR-JxtEG9cQg0"}, {"place_id": "ChIJEZi4U8HjDDkRyul3V2h5ouc", "name": "IT Company", "street": "A-14, near iskcon temple, Block A, APB Garhi, Vasant Vihar, New Delhi, Delhi 110065, India", "phone": "", "rating": "3", "review_count": "", "website": "http://www.opuswiz.com/", "latitude": 28.557167, "longitude": 77.25424819999999, "maps_url": "https://www.google.com/maps/search/?api=1&query=IT%20Company&query_place_id=ChIJEZi4U8HjDDkRyul3V2h5ouc"}, {"place_id": "ChIJX6wveBH9DDkRdlgL1cJt1u8", "name": "MatrixEnterprises (Matrix e Store)", "street": "T-508, 2nd Floor, Chemlian Road, Md. Ismail Marg, near Fire Station Bullding, Sadar Bazaar, New Delhi, Delhi 110006, India", "phone": "+91 98918 64086", "rating": "4.6", "review_count": "", "website": "http://matrixestore.blogspot.com/2025/08/matrixestore-best-laptop-sale-service.html", "latitude": 28.656912199999997, "longitude": 77.20494, "maps_url": "https://www.google.com/maps/search/?api=1&query=MatrixEnterprises%20%28Matrix%20e%20Store%29&query_place_id=ChIJX6wveBH9DDkRdlgL1cJt1u8"}, {"place_id": "ChIJSy2Jhp4CDTkR_0QSNabY9kM", "name": "Digital Marketing Agency, Software Development Company, SEO Services Company in Delhi", "street": "3rd Floor, 16/448, Block - I, Building Number, Military Rd, Karol Bagh, New Delhi, Delhi 110005, India", "phone": "+91 98183 53030", "rating": "5", "review_count": "", "website": "https://www.micromind.in/", "latitude": 28.655144999999997, "longitude": 77.18114899999999, "maps_url": "https://www.google.com/maps/search/?api=1&query=Digital%20Marketing%20Agency%2C%20Software%20Development%20Company%2C%20SEO%20Services%20Company%20in%20Delhi&query_place_id=ChIJSy2Jhp4CDTkR_0QSNabY9kM"}, {"place_id": "ChIJuWskegkDDTkRSafi6i1BF40", "name": "Whitevision OPC Private Limited", "street": "8840/14 Shidi Pura Raja lane, New Rohtak Rd, Karol Bagh, Delhi 110005, India", "phone": "+91 89296 96227", "rating": "4.9", "review_count": "", "website": "http://www.whitevision.org.in/", "latitude": 28.655195, "longitude": 77.20140479999999, "maps_url": "https://www.google.com/maps/search/?api=1&query=Whitevision%20OPC%20Private%20Limited&query_place_id=ChIJuWskegkDDTkRSafi6i1BF40"}, {"place_id": "ChIJJS2nYJoCDTkR8ZKgzjgdREU", "name": "Payroll Software Companies", "street": "4/28, Ground Floor, Saraswati Marg, W.E.A, Karol Bagh, New Delhi, Delhi 110005, India", "phone": "+91 97111 95490", "rating": "4.3", "review_count": "", "website": "", "latitude": 28.6484551, "longitude": 77.1875826, "maps_url": "https://www.google.com/maps/search/?api=1&query=Payroll%20Software%20Companies&query_place_id=ChIJJS2nYJoCDTkR8ZKgzjgdREU"}, {"place_id": "ChIJb5jN_Hr9DDkR0BjOu2rK6OY", "name": "UNIQUE ADD SYSTEMS", "street": "8358, 1st Floor, L.R House Model Basti, Maharaja Agrasem Marg, near Filmistan Cinema, New Delhi, Delhi 110006, India", "phone": "+91 99105 09674", "rating": "5", "review_count": "", "website": "", "latitude": 28.658334699999997, "longitude": 77.2043377, "maps_url": "https://www.google.com/maps/search/?api=1&query=UNIQUE%20ADD%20SYSTEMS&query_place_id=ChIJb5jN_Hr9DDkR0BjOu2rK6OY"}, {"place_id": "ChIJy7DDiosDDTkRPkiXRAOvmGQ", "name": "FUTURE ENERGY", "street": "2C, 19, New Rohtak Rd, Block 57, Karol Bagh, New Delhi, Delhi, 110005, India", "phone": "+91 98719 67776", "rating": "4.7", "review_count": "", "website": "http://futureenergy.co.in/", "latitude": 28.6547368, "longitude": 77.1996736, "maps_url": "https://www.google.com/maps/search/?api=1&query=FUTURE%20ENERGY&query_place_id=ChIJy7DDiosDDTkRPkiXRAOvmGQ"}, {"place_id": "ChIJhQA24pwCDTkRWfXhsKxWWBU", "name": "AJS Software Technologies", "street": "24-B/5, D.B. Gupta Road, Block 24 B, Dev Nagar, Karol Bagh, New Delhi, Delhi, 110005, India", "phone": "+91 11 4524 4577", "rating": "4.1", "review_count": "", "website": "https://www.ajssoft.com/", "latitude": 28.657653, "longitude": 77.1841926, "maps_url": "https://www.google.com/maps/search/?api=1&query=AJS%20Software%20Technologies&query_place_id=ChIJhQA24pwCDTkRWfXhsKxWWBU"}, {"place_id": "ChIJEeEztHD9DDkR-3Ga-fthgow", "name": "Mobile Skin Software", "street": "47, Rani Jhansi Rd, Motia Khan, Jhandewalan, New Delhi, Delhi 110055, India", "phone": "+91 95552 63344", "rating": "4.7", "review_count": "", "website": "http://mobileskinsoftware.com/", "latitude": 28.649371199999997, "longitude": 77.2056171, "maps_url": "https://www.google.com/maps/search/?api=1&query=Mobile%20Skin%20Software&query_place_id=ChIJEeEztHD9DDkR-3Ga-fthgow"}, {"place_id": "ChIJVVVVxWT9DDkRA57hSYFmoNs", "name": "Montbold", "street": "Gali No. 2, 11099A, E Park Rd, Block 69D, Dori Walan, Karol Bagh, New Delhi, Delhi, 110005, India", "phone": "+91 98101 81537", "rating": "4.6", "review_count": "", "website": "https://montbold.com/", "latitude": 28.6559173, "longitude": 77.1999605, "maps_url": "https://www.google.com/maps/search/?api=1&query=Montbold&query_place_id=ChIJVVVVxWT9DDkRA57hSYFmoNs"}, {"place_id": "ChIJo-JOclX9DDkRQncupICBg88", "name": "ACORPORATE-X", "street": "XVI/67-68, Faiz Rd, Block 69D, Dori Walan, Karol Bagh, Delhi, 110005, India", "phone": "", "rating": "4.9", "review_count": "", "website": "http://www.acorporatex.com/", "latitude": 28.655192399999997, "longitude": 77.2001526, "maps_url": "https://www.google.com/maps/search/?api=1&query=ACORPORATE-X&query_place_id=ChIJo-JOclX9DDkRQncupICBg88"}, {"place_id": "ChIJiwPCn1cDDTkRZReajY3KiX0", "name": "Appfinz Technologies", "street": "Nr Deep Chand Bandhu Hospital, B590 Ground Floor, Bunkar Colony, Phase 4, Ashok Vihar, New Delhi, Delhi 110052, India", "phone": "+91 83407 25097", "rating": "4.8", "review_count": "", "website": "https://www.appfinz.com/", "latitude": 28.682956299999997, "longitude": 77.17736959999999, "maps_url": "https://www.google.com/maps/search/?api=1&query=Appfinz%20Technologies&query_place_id=ChIJiwPCn1cDDTkRZReajY3KiX0"}, {"place_id": "ChIJuWHhgOADDTkRnxxopj0gupQ", "name": "Accuwisetech IT Solution & Digital Marketing Agency", "street": "Metro Station Patel Nagar, 2/15, station, West Patel Nagar, New Delhi, Delhi, 110008, India", "phone": "", "rating": "4.9", "review_count": "", "website": "https://accuwisetech.com/", "latitude": 28.645363, "longitude": 77.1688322, "maps_url": "https://www.google.com/maps/search/?api=1&query=Accuwisetech%20IT%20Solution%20%26%20Digital%20Marketing%20Agency&query_place_id=ChIJuWHhgOADDTkRnxxopj0gupQ"}, {"place_id": "ChIJve_HJ2b9DDkRzJphaUssbtE", "name": "Manu Info Solutions", "street": "51, Rani Jhansi Rd, Motia Khan, Paharganj, New Delhi, Delhi 110055, India", "phone": "+91 87001 32566", "rating": "5", "review_count": "", "website": "http://www.manuinfosolutions.com/", "latitude": 28.6490059, "longitude": 77.2058175, "maps_url": "https://www.google.com/maps/search/?api=1&query=Manu%20Info%20Solutions&query_place_id=ChIJve_HJ2b9DDkRzJphaUssbtE"}, {"place_id": "ChIJx8Q1bgD9DDkRoN62b4DX48A", "name": "Print Hub india", "street": "Raja In 8846/14B, near D- Mart, Sidipura, Karol Bagh, New Delhi, Delhi, 110005, India", "phone": "", "rating": "4.9", "review_count": "", "website": "https://www.instagram.com/print_hub.in?igsh=bW91dzRleWYyODN3&utm_source=qr", "latitude": 28.6553978, "longitude": 77.2017067, "maps_url": "https://www.google.com/maps/search/?api=1&query=Print%20Hub%20india&query_place_id=ChIJx8Q1bgD9DDkRoN62b4DX48A"}, {"place_id": "ChIJ__8vhTQCDTkRUWfmHwih9g0", "name": "Wingify", "street": "KLJ TOWER, North, Netaji Subhash Place, Pitampura, Delhi, 110034, India", "phone": "+91 11 4764 0497", "rating": "4.4", "review_count": "", "website": "https://wingify.com/", "latitude": 28.6911475, "longitude": 77.1509423, "maps_url": "https://www.google.com/maps/search/?api=1&query=Wingify&query_place_id=ChIJ__8vhTQCDTkRUWfmHwih9g0"}, {"place_id": "ChIJ5TlwUR4BDTkRTJpgkqgah9c", "name": "Top #1 Website Company in delhi", "street": "P56H+9CP, Commercial Complex, Gopal Nagar, Model Town, near Akash Cinema, Azadpur, Delhi, 110033, India", "phone": "", "rating": "4.6", "review_count": "", "website": "", "latitude": 28.7109375, "longitude": 77.1785625, "maps_url": "https://www.google.com/maps/search/?api=1&query=Top%20%231%20Website%20Company%20in%20delhi&query_place_id=ChIJ5TlwUR4BDTkRTJpgkqgah9c"}, {"place_id": "ChIJV1VVlS8BDTkRTf1pyX4xjSw", "name": "Gifts & Promotions International", "street": "10954, 1st Floor, Gali No. 5, Block 69D, Dori Walan, Karol Bagh, New Delhi, Delhi, 110005, India", "phone": "+91 78383 20714", "rating": "4.9", "review_count": "", "website": "https://www.allcorporategifts.com/", "latitude": 28.6563682, "longitude": 77.20081189999999, "maps_url": "https://www.google.com/maps/search/?api=1&query=Gifts%20%26%20Promotions%20International&query_place_id=ChIJV1VVlS8BDTkRTf1pyX4xjSw"}, {"place_id": "ChIJZXK0MAD9DDkRBywMwGuav3Q", "name": "RBR GLOBAL INDUSTRIES", "street": "A13, Idgah Rd, near Kabir Mandir, Police Colony, Sarai Khalil, Sadar Bazaar, Filmistan, Delhi, 110006, India", "phone": "+91 73039 39157", "rating": "5", "review_count": "", "website": "https://www.rbrglobalindustries.com/", "latitude": 28.655368, "longitude": 77.20501139999999, "maps_url": "https://www.google.com/maps/search/?api=1&query=RBR%20GLOBAL%20INDUSTRIES&query_place_id=ChIJZXK0MAD9DDkRBywMwGuav3Q"}, {"place_id": "ChIJxcvergPzOiARgiBYu4ztaEU", "name": "SHASHI GLOBAL INDUSTRIES PVT LTD", "street": "Ground Floor, Landmark : Chaudhry, 8684, Phool Singh Wali Gali, Sidipura, Sidhi Pura, New Delhi, Delhi, 110005, India", "phone": "+91 95554 07794", "rating": "4.9", "review_count": "", "website": "http://www.shashiglobal.com/", "latitude": 28.655624, "longitude": 77.20243099999999, "maps_url": "https://www.google.com/maps/search/?api=1&query=SHASHI%20GLOBAL%20INDUSTRIES%20PVT%20LTD&query_place_id=ChIJxcvergPzOiARgiBYu4ztaEU"}, {"place_id": "ChIJU427Z5b9DDkRyRJSrIGGDcc", "name": "Three brothers A Giftco Export Company", "street": "14B, 8905, Sidipura, Karol Bagh, New Delhi, Delhi, 110005, India", "phone": "+91 83839 60760", "rating": "5", "review_count": "", "website": "https://www.threebrothers.in/", "latitude": 28.6560879, "longitude": 77.2022466, "maps_url": "https://www.google.com/maps/search/?api=1&query=Three%20brothers%20A%20Giftco%20Export%20Company&query_place_id=ChIJU427Z5b9DDkRyRJSrIGGDcc"}, {"place_id": "ChIJf4qFUmP9DDkRVGIVYxUrxNE", "name": "T-Shirt Manufacturer Company India", "street": "T-180, kabristan Wali gali, near filmistan, Model Basti, Kishan Ganj, Delhi, 110005, India", "phone": "+91 81301 19564", "rating": "5", "review_count": "", "website": "https://tshirts.ashg.co.in/", "latitude": 28.6576466, "longitude": 77.2029697, "maps_url": "https://www.google.com/maps/search/?api=1&query=T-Shirt%20Manufacturer%20Company%20India&query_place_id=ChIJf4qFUmP9DDkRVGIVYxUrxNE"}, {"place_id": "ChIJl5geAqLjDDkRGQx9atNSvyg", "name": "It Softtech - Website Designing and Development Company in Delhi, India", "street": "149, Ring Rd, opp. Maharani Bagh, Kilokri, Phase 1, Hari Nagar Ashram, New Delhi, Delhi 110014, India", "phone": "+91 98100 56177", "rating": "5", "review_count": "", "website": "", "latitude": 28.5763395, "longitude": 77.2640869, "maps_url": "https://www.google.com/maps/search/?api=1&query=It%20Softtech%20-%20Website%20Designing%20and%20Development%20Company%20in%20Delhi%2C%20India&query_place_id=ChIJl5geAqLjDDkRGQx9atNSvyg"}, {"place_id": "ChIJQZpy1WT9DDkR8I56DgKSZY8", "name": "Madaan Pen Co.", "street": "8744, Ist Floor, Central, Sidipura, Karol Bagh, New Delhi, Delhi, 110005, India", "phone": "+91 98992 71727", "rating": "4", "review_count": "", "website": "", "latitude": 28.6562198, "longitude": 77.2031535, "maps_url": "https://www.google.com/maps/search/?api=1&query=Madaan%20Pen%20Co.&query_place_id=ChIJQZpy1WT9DDkR8I56DgKSZY8"}, {"place_id": "ChIJ42_gUAD9DDkRbgnKjTldVgc", "name": "SSK PRODUCTS INDIA", "street": "M642+XHC, Phool Wali Gali, Manakpura, Kishan Ganj, New Delhi, Delhi, 110005, India", "phone": "", "rating": "4.6", "review_count": "", "website": "", "latitude": 28.6574396, "longitude": 77.20138229999999, "maps_url": "https://www.google.com/maps/search/?api=1&query=SSK%20PRODUCTS%20INDIA&query_place_id=ChIJ42_gUAD9DDkRbgnKjTldVgc"}, {"place_id": "ChIJX9eDUEX9DDkRoR6efKRhUnw", "name": "Anu & Company", "street": "2nd Floor, 10703, Jhandewalan Rd, Nabi Karim, Paharganj, New Delhi, Delhi, 110055, India", "phone": "+91 87004 80022", "rating": "4.8", "review_count": "", "website": "https://anucompany.in/", "latitude": 28.651619699999998, "longitude": 77.2130291, "maps_url": "https://www.google.com/maps/search/?api=1&query=Anu%20%26%20Company&query_place_id=ChIJX9eDUEX9DDkRoR6efKRhUnw"}, {"place_id": "ChIJKxG8fhn9DDkRl9APQDrFRsc", "name": "Sharp Trading Co.", "street": "8733/14B, Sidipura, Karol Bagh, New Delhi, Delhi, 110005, India", "phone": "+91 88609 00921", "rating": "4.6", "review_count": "", "website": "http://www.indiamart.com/sharptradingco/", "latitude": 28.656406999999998, "longitude": 77.2028421, "maps_url": "https://www.google.com/maps/search/?api=1&query=Sharp%20Trading%20Co.&query_place_id=ChIJKxG8fhn9DDkRl9APQDrFRsc"}, {"place_id": "ChIJbddiUkP9DDkR1vSuZkmSrg8", "name": "dm2print Corporate Gifts", "street": "10300, 1st floor, E Park Rd, near Sethi Paneer, Karol Bagh, New Delhi, Delhi 110005, India", "phone": "+91 78083 30833", "rating": "4.8", "review_count": "", "website": "https://dm2print.com/", "latitude": 28.6577716, "longitude": 77.2020952, "maps_url": "https://www.google.com/maps/search/?api=1&query=dm2print%20Corporate%20Gifts&query_place_id=ChIJbddiUkP9DDkR1vSuZkmSrg8"}, {"place_id": "ChIJJz3pnFv9DDkR8h89ImI6S2o", "name": "Corporate Gifts - Annaya Creations I Promotional Products", "street": "Plot No 12, Model Basti, Karol Bagh, New Delhi, Delhi, 110005, India", "phone": "+91 70530 66666", "rating": "4.9", "review_count": "", "website": "http://www.annayacreations.in/", "latitude": 28.657754599999997, "longitude": 77.2033568, "maps_url": "https://www.google.com/maps/search/?api=1&query=Corporate%20Gifts%20-%20Annaya%20Creations%20I%20Promotional%20Products&query_place_id=ChIJJz3pnFv9DDkR8h89ImI6S2o"}, {"place_id": "ChIJ0Ql-EWL9DDkRWb24ujA3NdY", "name": "Web Design, Digital Marketing, Software & Mobile App Development.", "street": "", "phone": "", "rating": "3.7", "review_count": "", "website": "", "latitude": 28.692404999999997, "longitude": 77.090042, "maps_url": "https://www.google.com/maps/search/?api=1&query=Web%20Design%2C%20Digital%20Marketing%2C%20Software%20%26%20Mobile%20App%20Development.&query_place_id=ChIJ0Ql-EWL9DDkRWb24ujA3NdY"}, {"place_id": "ChIJo8dzC9gEDTkRw8dUVUcU_2M", "name": "Bluehorse Entertainment Private Limited", "street": "10902, E Park Rd, Block, near Shani Mandir, Manakpura, Karol Bagh, New Delhi, Delhi 110005, India", "phone": "+91 80 3717 4281", "rating": "4.7", "review_count": "", "website": "http://www.bluehorsee.com/", "latitude": 28.656672, "longitude": 77.2009483, "maps_url": "https://www.google.com/maps/search/?api=1&query=Bluehorse%20Entertainment%20Private%20Limited&query_place_id=ChIJo8dzC9gEDTkRw8dUVUcU_2M"}, {"place_id": "ChIJG2Y2P6j-DDkR7uRmh78VN4k", "name": "IT Solution", "street": "P7CG+RPF, Mahalaxmi Vihar, Phase 7, Block A, Shiv Vihar, Karawal Nagar, Delhi, 110090, India", "phone": "+91 98182 31784", "rating": "5", "review_count": "", "website": "", "latitude": 28.722054399999998, "longitude": 77.2768011, "maps_url": "https://www.google.com/maps/search/?api=1&query=IT%20Solution&query_place_id=ChIJG2Y2P6j-DDkR7uRmh78VN4k"}, {"place_id": "ChIJQ7hGp2T9DDkRQzKF-SCK1pU", "name": "Strategy4GMAT (S4G)", "street": "11012/4, E Park Rd, Block 69D, Dori Walan, Karol Bagh, New Delhi, Delhi, 110005, India", "phone": "+91 70872 34600", "rating": "4.9", "review_count": "", "website": "http://www.strategy4gmat.com/", "latitude": 28.6551653, "longitude": 77.2002801, "maps_url": "https://www.google.com/maps/search/?api=1&query=Strategy4GMAT%20%28S4G%29&query_place_id=ChIJQ7hGp2T9DDkRQzKF-SCK1pU"}, {"place_id": "ChIJc80Hk_0DDTkRzeDGAgk6Ino", "name": "Web Cloud Technology", "street": "3A/74 W.E.A, Sat Nagar, Karol Bagh, New Delhi, Delhi 110005, India", "phone": "+91 88823 24811", "rating": "4.4", "review_count": "", "website": "https://webcloudtechnology.in/", "latitude": 28.6465632, "longitude": 77.1824149, "maps_url": "https://www.google.com/maps/search/?api=1&query=Web%20Cloud%20Technology&query_place_id=ChIJc80Hk_0DDTkRzeDGAgk6Ino"}, {"place_id": "ChIJB75WPjP9DDkRSI8lS_7lUcU", "name": "Adco International Private Limited - Bag Manufacturers in Delhi | Leather Bags | Laptop Bags | PU File Folder", "street": "Office - 10889, 2nd Floor, shidipura, E Park Rd, Karol Bagh, New Delhi, Delhi 110005, India", "phone": "", "rating": "4.8", "review_count": "", "website": "https://adcointernational.co.in/", "latitude": 28.6566875, "longitude": 77.2013547, "maps_url": "https://www.google.com/maps/search/?api=1&query=Adco%20International%20Private%20Limited%20-%20Bag%20Manufacturers%20in%20Delhi%20%7C%20Leather%20Bags%20%7C%20Laptop%20Bags%20%7C%20PU%20File%20Folder&query_place_id=ChIJB75WPjP9DDkRSI8lS_7lUcU"}, {"place_id": "ChIJb1_nATj9DDkRQ5r5ioNGYH0", "name": "Faiz Industries", "street": "Sidipura, Karol Bagh, Delhi, 110005, India", "phone": "+91 89204 21941", "rating": "5", "review_count": "", "website": "", "latitude": 28.6563342, "longitude": 77.2027114, "maps_url": "https://www.google.com/maps/search/?api=1&query=Faiz%20Industries&query_place_id=ChIJb1_nATj9DDkRQ5r5ioNGYH0"}, {"place_id": "ChIJFzkmDJ4CDTkRUPQffEmKRE0", "name": "Pune Bag Factory | Trolley, Laptop, School Bags Manufacturer & Wholesaler in Delhi", "street": "No. 8662, 8662, 14/b, Building, Sidipura, Karol Bagh, New Delhi, Delhi 110005, India", "phone": "+91 99716 58232", "rating": "4.8", "review_count": "", "website": "http://www.brandmerchandising.in/", "latitude": 28.656587899999998, "longitude": 77.2022465, "maps_url": "https://www.google.com/maps/search/?api=1&query=Pune%20Bag%20Factory%20%7C%20Trolley%2C%20Laptop%2C%20School%20Bags%20Manufacturer%20%26%20Wholesaler%20in%20Delhi&query_place_id=ChIJFzkmDJ4CDTkRUPQffEmKRE0"}, {"place_id": "ChIJE_4Tci0dyAYRsVXvsz3K03g", "name": "Asquare Consulting Group", "street": "2745, 2nd Floor, Gali Number 23, Beadonpura, Karol Bagh, Delhi, 110005, India", "phone": "+91 11 4654 2628", "rating": "4.8", "review_count": "", "website": "", "latitude": 28.6516213, "longitude": 77.1919178, "maps_url": "https://www.google.com/maps/search/?api=1&query=Asquare%20Consulting%20Group&query_place_id=ChIJE_4Tci0dyAYRsVXvsz3K03g"}, {"place_id": "ChIJMdS-2MH9DDkRWqrKNBhBnfo", "name": "PRINTMAN ASSOCIATES PVT LTD", "street": "8743, MAIN MARKET, Central, Sidipura, Karol Bagh, New Delhi, Delhi, 110005, India", "phone": "", "rating": "4.1", "review_count": "", "website": "http://www.printmanindia.com/", "latitude": 28.6562849, "longitude": 77.20305499999999, "maps_url": "https://www.google.com/maps/search/?api=1&query=PRINTMAN%20ASSOCIATES%20PVT%20LTD&query_place_id=ChIJMdS-2MH9DDkRWqrKNBhBnfo"}, {"place_id": "ChIJf0vgss3jDDkRXzr2g_p_rkM", "name": "GIBS (Global IT Business Solutions)", "street": "15A Basement, Golf Apartments, near Sujan Singh Park, Khan Market, Sujan Singh Park, New Delhi, Delhi 110003, India", "phone": "+91 98112 26600", "rating": "4.9", "review_count": "", "website": "https://gibsit.com/", "latitude": 28.5991413, "longitude": 77.2288398, "maps_url": "https://www.google.com/maps/search/?api=1&query=GIBS%20%28Global%20IT%20Business%20Solutions%29&query_place_id=ChIJf0vgss3jDDkRXzr2g_p_rkM"}, {"place_id": "ChIJd_Lbthj9DDkR8UknTMZ8LOk", "name": "CCTV CAMERA SERVICE IN DELHI-CAMTECH CCTVs", "street": "filmstan road, Bara Hindu Rao, Kishan Ganj, Delhi, 110006, India", "phone": "+91 92136 17527", "rating": "4.8", "review_count": "", "website": "https://cctv-camera-service.grexa.site/", "latitude": 28.658137, "longitude": 77.2057785, "maps_url": "https://www.google.com/maps/search/?api=1&query=CCTV%20CAMERA%20SERVICE%20IN%20DELHI-CAMTECH%20CCTVs&query_place_id=ChIJd_Lbthj9DDkR8UknTMZ8LOk"}, {"place_id": "ChIJ30pGziMTFgQRpUN9k_pVjjQ", "name": "Tech Variant - website design company in delhi & digital Marketing company in delhi", "street": "Gate Number 2, Mandi Metro Station, A-98, near by model town 3, Commercial Complex, Azadpur, Delhi, 110033, India", "phone": "", "rating": "4.7", "review_count": "", "website": "https://techvariant.in/", "latitude": 28.710400999999997, "longitude": 77.1783337, "maps_url": "https://www.google.com/maps/search/?api=1&query=Tech%20Variant%20-%20website%20design%20company%20in%20delhi%20%26%20digital%20Marketing%20company%20in%20delhi&query_place_id=ChIJ30pGziMTFgQRpUN9k_pVjjQ"}, {"place_id": "ChIJ6xUe1WT9DDkR6-1bZo-j2-o", "name": "Pen Drives India", "street": "8733, Gali Number 14 B, Karol Bagh, New Delhi, Delhi 110005, India", "phone": "+91 98115 77944", "rating": "4.8", "review_count": "", "website": "http://pendrivesindia.in/", "latitude": 28.6563059, "longitude": 77.202986, "maps_url": "https://www.google.com/maps/search/?api=1&query=Pen%20Drives%20India&query_place_id=ChIJ6xUe1WT9DDkR6-1bZo-j2-o"}, {"place_id": "ChIJTy1NevICDTkRhO3F83P7-IY", "name": "MACO IT SERVICES PVT. LTD", "street": "Bungalow Plot No. 2, Block 1, West Patel Nagar, Patel Nagar, Delhi, 110008, India", "phone": "+91 93100 39250", "rating": "5", "review_count": "", "website": "https://macoitservices.com/", "latitude": 28.650661399999997, "longitude": 77.16037659999999, "maps_url": "https://www.google.com/maps/search/?api=1&query=MACO%20IT%20SERVICES%20PVT.%20LTD&query_place_id=ChIJTy1NevICDTkRhO3F83P7-IY"}, {"place_id": "ChIJVVVVIHv9DDkRTdrJyzG7ubk", "name": "Auto-ON", "street": "8, New, behind Filmistan Cinema, Model Basti, Kishan Ganj, New Delhi, Delhi 110006, India", "phone": "+91 81248 85583", "rating": "4.8", "review_count": "", "website": "https://www.auto-on.in/", "latitude": 28.6578971, "longitude": 77.2047577, "maps_url": "https://www.google.com/maps/search/?api=1&query=Auto-ON&query_place_id=ChIJVVVVIHv9DDkRTdrJyzG7ubk"}, {"place_id": "ChIJKZrBF939DDkRn1cn8YZQvSo", "name": "DT IT Services", "street": "11232, Block 69D, Dori Walan, Karol Bagh, New Delhi, Delhi, 110005, India", "phone": "", "rating": "", "review_count": "", "website": "", "latitude": 28.656361699999998, "longitude": 77.19913079999999, "maps_url": "https://www.google.com/maps/search/?api=1&query=DT%20IT%20Services&query_place_id=ChIJKZrBF939DDkRn1cn8YZQvSo"}, {"place_id": "ChIJdXCN3EEDDTkRoJINk8_fM1A", "name": "Ennod - IT Solutions", "street": "12-a/14, Saraswati Marg, Block 12A, WEA, Karol Bagh, New Delhi, Delhi, 110005, India", "phone": "+91 93105 55260", "rating": "", "review_count": "", "website": "https://ennod.com/", "latitude": 28.646982899999998, "longitude": 77.18712169999999, "maps_url": "https://www.google.com/maps/search/?api=1&query=Ennod%20-%20IT%20Solutions&query_place_id=ChIJdXCN3EEDDTkRoJINk8_fM1A"}, {"place_id": "ChIJidsRUk_9DDkRta3OjVzwovg", "name": "digital gifts", "street": "11255/33, Gali Number 2, Block 69D, Dori Walan, Karol Bagh, Delhi, 110005, India", "phone": "", "rating": "4.6", "review_count": "", "website": "https://corporategiftinghub.com/", "latitude": 28.6562137, "longitude": 77.1999144, "maps_url": "https://www.google.com/maps/search/?api=1&query=digital%20gifts&query_place_id=ChIJidsRUk_9DDkRta3OjVzwovg"}, {"place_id": "ChIJOZd2wWIDDTkRMdyNCdCtCIQ", "name": "Groot Infotech", "street": "Padma Tower II, 502, Rajendra Place, New Delhi, Delhi 110005, India", "phone": "+91 85273 53508", "rating": "", "review_count": "", "website": "https://www.grootinfotech.com/", "latitude": 28.6451836, "longitude": 77.1780375, "maps_url": "https://www.google.com/maps/search/?api=1&query=Groot%20Infotech&query_place_id=ChIJOZd2wWIDDTkRMdyNCdCtCIQ"}, {"place_id": "ChIJM9r7u0r9DDkRiUvt7zjjpRM", "name": "IT Executive vivek", "street": "22, Vijay Ghat, Raj Ghat, New Delhi, Delhi, 110006, India", "phone": "", "rating": "", "review_count": "", "website": "https://itexecuitive.com/", "latitude": 28.6584512, "longitude": 77.2449233, "maps_url": "https://www.google.com/maps/search/?api=1&query=IT%20Executive%20vivek&query_place_id=ChIJM9r7u0r9DDkRiUvt7zjjpRM"}]