{"timestamp": 1773731501.5723894, "keyword": "IT company", "location": "delhi", "cell_idx": 491, "results": [{"place_id": "0x46d12742e05e473:0x5264b13ac6fcef02", "name": "Info Tech India", "category": "Software company", "street": "KAILASH BUILDING", "city": "1212, KG Marg", "phone": "", "website": "https://infotechindia.in/", "rating": 5, "review_count": "", "latitude": 28.629473299999997, "longitude": 77.22220159999999, "maps_url": "https://www.google.com/maps/place/?q=place_id:0x46d12742e05e473:0x5264b13ac6fcef02"}, {"place_id": "0x390ce458d0000001:0xf2123bd299ec4501", "name": "IT Company India", "category": "Software company", "street": "D56", "city": "D Block, Sector 10", "phone": "09999244854", "website": "https://www.itcompanyindia.in/", "rating": 4.7, "review_count": "", "latitude": 28.589917699999997, "longitude": 77.3351153, "maps_url": "https://www.google.com/maps/place/?q=place_id:0x390ce458d0000001:0xf2123bd299ec4501"}, {"place_id": "0x390d03d2e32b8b3b:0x82fa2b6b795ab600", "name": "Iraitech | Software Development Company", "category": "Software company", "street": "Central Square Complex 3, Unit No-1051, 1st Floor, Near Filmistan, DCM chowk", "city": "Bara Hindu Rao, Kishan Ganj", "phone": "08130104108", "website": "https://www.iraitech.com/", "rating": 4.1, "review_count": "", "latitude": 28.6631951, "longitude": 77.20308639999999, "maps_url": "https://www.google.com/maps/place/?q=place_id:0x390d03d2e32b8b3b:0x82fa2b6b795ab600"}, {"place_id": "0x390cfd36df0d730b:0xd425c6f106d9cf8", "name": "I. T. Solutions", "category": "Software company", "street": "Gate No. 8", "city": "A-6, 1st Floor, Inner Circle, Above Post office", "phone": "01141523242", "website": "http://www.itsolutioncp.com/", "rating": 4.9, "review_count": "", "latitude": 28.6324367, "longitude": 77.2183441, "maps_url": "https://www.google.com/maps/place/?q=place_id:0x390cfd36df0d730b:0xd425c6f106d9cf8"}, {"place_id": "0x390ce3c153b89811:0xe7a279685777e9ca", "name": "IT Company", "category": "Automation company", "street": "A-14", "city": "near iskcon temple", "phone": "", "website": "http://www.opuswiz.com/", "rating": 3, "review_count": "", "latitude": 28.557167, "longitude": 77.25424819999999, "maps_url": "https://www.google.com/maps/place/?q=place_id:0x390ce3c153b89811:0xe7a279685777e9ca"}, {"place_id": "0x390cfd4b1d3ba695:0xb16c2090d9df4e5c", "name": "Infocera IT", "category": "Software company", "street": "First Floor", "city": "Block-L", "phone": "", "website": "https://infocera.in/", "rating": 4.7, "review_count": "", "latitude": 28.634275499999998, "longitude": 77.2217273, "maps_url": "https://www.google.com/maps/place/?q=place_id:0x390cfd4b1d3ba695:0xb16c2090d9df4e5c"}, {"place_id": "0x390ce1597b5509e5:0xfd8209b937b44d3c", "name": "IT Solutions India Private Limited", "category": "Software company", "street": "D-88/5", "city": "Pocket D, Okhla Phase I, Okhla Industrial Estate", "phone": "09810017429", "website": "https://www.itsipl.com/", "rating": 4.2, "review_count": "", "latitude": 28.520146, "longitude": 77.280431, "maps_url": "https://www.google.com/maps/place/?q=place_id:0x390ce1597b5509e5:0xfd8209b937b44d3c"}, {"place_id": "0x390d02994de5e515:0xd908bc03409a0d37", "name": "Himalayan IT Solutions | Best Website Designing Company in Delhi | SEO/Digital Marketing Company in Delhi NCR, India", "category": "Software company", "street": "61/4255, Padam Singh Rd", "city": "Block 29, Block 1, Regar Pura, Karol Bagh", "phone": "09899098509", "website": "http://www.himalayanitsolutions.com/", "rating": 3.9, "review_count": "", "latitude": 28.649673999999997, "longitude": 77.186599, "maps_url": "https://www.google.com/maps/place/?q=place_id:0x390d02994de5e515:0xd908bc03409a0d37"}, {"place_id": "0x390cfd036e191a13:0x7161661be3c6477", "name": "Posistrength Software Solution Pvt.Ltd.", "category": "Software company", "street": "Workingdom,E-13/29, First Floor", "city": "Harsha Bhawan", "phone": "08983205821", "website": "https://www.posistrength.com/", "rating": 4.9, "review_count": "", "latitude": 28.6326204, "longitude": 77.22187869999999, "maps_url": "https://www.google.com/maps/place/?q=place_id:0x390cfd036e191a13:0x7161661be3c6477"}, {"place_id": "0x390ce2e52043e633:0x3ed44d79ea4bd91c", "name": "Wirecto", "category": "Software company", "street": "Triloki Colony", "city": "C-49", "phone": "09716670074", "website": "https://wirecto.app/", "rating": 5, "review_count": "", "latitude": 28.575404799999998, "longitude": 77.2250054, "maps_url": "https://www.google.com/maps/place/?q=place_id:0x390ce2e52043e633:0x3ed44d79ea4bd91c"}, {"place_id": "0x390d1d86a4f12173:0x3a6b42ea6f4b8260", "name": "Softvanz Technologies Private Limited", "category": "Software company", "street": "Somdutt Chamber 1", "city": "BT-22/9", "phone": "", "website": "https://softvanz.com/", "rating": 5, "review_count": "", "latitude": 28.567948899999998, "longitude": 77.1889269, "maps_url": "https://www.google.com/maps/place/?q=place_id:0x390d1d86a4f12173:0x3a6b42ea6f4b8260"}, {"place_id": "0x390cfd554ee63851:0xea2adb2e36e4ce16", "name": "Globe Alley Tech. - Software Development Company", "category": "Software company", "street": "J6JG+6RW", "city": "119", "phone": "09910710140", "website": "http://globealley.us/", "rating": 4.9, "review_count": "", "latitude": 28.6306084, "longitude": 77.22708829999999, "maps_url": "https://www.google.com/maps/place/?q=place_id:0x390cfd554ee63851:0xea2adb2e36e4ce16"}, {"place_id": "0x390cfcac5aaaaaed:0xa20ab2e7b400180", "name": "\ud835\udc68\ud835\udc76 \ud835\udc7a\ud835\udc90\ud835\udc87\ud835\udc95\ud835\udc98\ud835\udc82\ud835\udc93\ud835\udc86 \ud835\udc7a\ud835\udc90\ud835\udc8d\ud835\udc96\ud835\udc95\ud835\udc8a\ud835\udc90\ud835\udc8f Website Designing company-website development company-product promotion and ERP development company", "category": "Software company", "street": "1B", "city": "S-505", "phone": "01142603444", "website": "https://aosoftwaresolution.com/", "rating": 4.8, "review_count": "", "latitude": 28.6287195, "longitude": 77.2766171, "maps_url": "https://www.google.com/maps/place/?q=place_id:0x390cfcac5aaaaaed:0xa20ab2e7b400180"}, {"place_id": "0x390d1d84709c66e7:0xb821a251a16fae09", "name": "IT Works @ Siyaram", "category": "Software company", "street": "404", "city": "BHIKAJI CAMA PLACE", "phone": "01143178782", "website": "http://www.garruda.co.in/", "rating": 4.8, "review_count": "", "latitude": 28.567508399999998, "longitude": 77.18817349999999, "maps_url": "https://www.google.com/maps/place/?q=place_id:0x390d1d84709c66e7:0xb821a251a16fae09"}, {"place_id": "0x2a72b8b69d7b6493:0x11251466d4d34cac", "name": "WebZonal IT Company", "category": "Website designer", "street": "Wz-258/2-3, D Block Rd", "city": "Khazan Basti, Nangal Raya, Janakpuri", "phone": "09811170903", "website": "http://webzonal.com/", "rating": 5, "review_count": "", "latitude": 28.6122102, "longitude": 77.11159549999999, "maps_url": "https://www.google.com/maps/place/?q=place_id:0x2a72b8b69d7b6493:0x11251466d4d34cac"}, {"place_id": "0x390ce5fdcc79e755:0x309ce99251b84ef6", "name": "Optyminds IT Solutions - Top AI and IT company I Best Digital agency in Noida | Delhi NCR | India", "category": "Software company", "street": "1st Floor", "city": "B-70", "phone": "08929075975", "website": "https://optyminds.com/", "rating": 4.9, "review_count": "", "latitude": 28.584679599999998, "longitude": 77.3135042, "maps_url": "https://www.google.com/maps/place/?q=place_id:0x390ce5fdcc79e755:0x309ce99251b84ef6"}, {"place_id": "0x390cfd36664c4e63:0xcce34350707b204e", "name": "DataSlexIndia | On-Demand Software Development Company", "category": "Software company", "street": "210,211,212 BMC House, N1", "city": "Middle Cir", "phone": "01124845172", "website": "https://dataslexindia.com/", "rating": 5, "review_count": "", "latitude": 28.630570499999997, "longitude": 77.2198088, "maps_url": "https://www.google.com/maps/place/?q=place_id:0x390cfd36664c4e63:0xcce34350707b204e"}, {"place_id": "0x390cfdc8ba7736bb:0x3794c63e43750fe5", "name": "Busy Infotech Pvt. Ltd.", "category": "Software company", "street": "3, Rani Jhansi Rd", "city": "Block E 4, Jhandewalan Extension, Karol Bagh", "phone": "01140964096", "website": "https://busy.in/", "rating": 4.6, "review_count": "", "latitude": 28.6454408, "longitude": 77.2042627, "maps_url": "https://www.google.com/maps/place/?q=place_id:0x390cfdc8ba7736bb:0x3794c63e43750fe5"}, {"place_id": "0x390ce40fadd91f5f:0xa4f54ec4626d7b8b", "name": "Techpertz IT Solutions", "category": "Software company", "street": "2nd Floor", "city": "Aman Apartment", "phone": "09958894786", "website": "https://techpertz.com/", "rating": 5, "review_count": "", "latitude": 28.5527172, "longitude": 77.2979446, "maps_url": "https://www.google.com/maps/place/?q=place_id:0x390ce40fadd91f5f:0xa4f54ec4626d7b8b"}, {"place_id": "0x390d029a60a72d25:0x45441d38cea092f1", "name": "Payroll Software Companies", "category": "Software company", "street": "4/28, Ground Floor", "city": "Saraswati Marg", "phone": "09711195490", "website": "", "rating": 4.3, "review_count": "", "latitude": 28.6484551, "longitude": 77.1875826, "maps_url": "https://www.google.com/maps/place/?q=place_id:0x390d029a60a72d25:0x45441d38cea092f1"}, {"place_id": "0x390ce3c7b85554e5:0x34e439c15e247631", "name": "HAUT IT Solutions Pvt. Ltd", "category": "Software company", "street": "390", "city": "Sant Nagar, East of Kailash", "phone": "09934753003", "website": "http://www.hautitsolutions.com/", "rating": 4.3, "review_count": "", "latitude": 28.554910099999997, "longitude": 77.25111249999999, "maps_url": "https://www.google.com/maps/place/?q=place_id:0x390ce3c7b85554e5:0x34e439c15e247631"}, {"place_id": "0x390cfd35391deb71:0xdbdd1388c7dc51b6", "name": "Jak Software Pvt Ltd", "category": "Software company", "street": "52 Janpath", "city": "New Delhi, Delhi 110001", "phone": "07827249056", "website": "http://www.jaksoftware.co.in/", "rating": 4.4, "review_count": "", "latitude": 28.627537999999998, "longitude": 77.21878989999999, "maps_url": "https://www.google.com/maps/place/?q=place_id:0x390cfd35391deb71:0xdbdd1388c7dc51b6"}, {"place_id": "0x390ce161ceec9d85:0x952e8b11295dfe85", "name": "HYBEC IT SOLUTION", "category": "Software company", "street": "National Small Industries Corporation", "city": "Block F, Okhla Phase III, Okhla Industrial Estate", "phone": "01149128591", "website": "http://www.hybecitsolutions.com/", "rating": 4.8, "review_count": "", "latitude": 28.5490569, "longitude": 77.2674236, "maps_url": "https://www.google.com/maps/place/?q=place_id:0x390ce161ceec9d85:0x952e8b11295dfe85"}, {"place_id": "0x390ce3094f4a9af1:0xdc21c66946b829ad", "name": "BAUDHYANTRAM IT Solutions | Website Designing | Web Development | Software Company in Delhi", "category": "Software company", "street": "H82 2nd Floor", "city": "opposite Bengali Sweet Center", "phone": "07900899996", "website": "http://www.baudhyantram.in/", "rating": 4.8, "review_count": "", "latitude": 28.5695803, "longitude": 77.221047, "maps_url": "https://www.google.com/maps/place/?q=place_id:0x390ce3094f4a9af1:0xdc21c66946b829ad"}, {"place_id": "0x390ce53481761be1:0x1aafac47f908e48e", "name": "SoftiCation Technology Pvt. Ltd.", "category": "Software company", "street": "Vipin Houese", "city": "A-20", "phone": "", "website": "https://www.softication.com/", "rating": 4.8, "review_count": "", "latitude": 28.636336399999998, "longitude": 77.284949, "maps_url": "https://www.google.com/maps/place/?q=place_id:0x390ce53481761be1:0x1aafac47f908e48e"}, {"place_id": "0x390d1daf5bbb6d71:0xd493e8d457a28388", "name": "DPM IT SOLUTIONS", "category": "Software company", "street": "2nd floor, madangiri", "city": "111, E-2", "phone": "09650413450", "website": "https://dpmitsolutions.com/", "rating": 5, "review_count": "", "latitude": 28.565620799999998, "longitude": 77.16005679999999, "maps_url": "https://www.google.com/maps/place/?q=place_id:0x390d1daf5bbb6d71:0xd493e8d457a28388"}, {"place_id": "0x390d1d9ce0eaada3:0xc5a1a0a2458099e3", "name": "CODENCREATIVE TECH PVT LTD", "category": "Software company", "street": "DDA Flat", "city": "RBI Officers Colony, Vasant Vihar", "phone": "09717047610", "website": "https://codencreative.com/", "rating": 4.9, "review_count": "", "latitude": 28.563302099999998, "longitude": 77.1519732, "maps_url": "https://www.google.com/maps/place/?q=place_id:0x390d1d9ce0eaada3:0xc5a1a0a2458099e3"}, {"place_id": "0x390d03adaef37299:0xd8b343093deaee7", "name": "Ruminate IT Solution | Best software company in Delhi NCR | IT Software company", "category": "Software company", "street": "C-64", "city": "Pocket B, Hari Nagar", "phone": "09625650376", "website": "https://www.ruminateitsolution.com/", "rating": 5, "review_count": "", "latitude": 28.628819, "longitude": 77.10428399999999, "maps_url": "https://www.google.com/maps/place/?q=place_id:0x390d03adaef37299:0xd8b343093deaee7"}, {"place_id": "0x390d165555555555:0xf57c20f7d07d8fd1", "name": "Teckinfo Solutions Pvt Ltd", "category": "Software company", "street": "1/1 BA, 3rd Floor, Mohammadpur,", "city": "Bhikaji Cama Place", "phone": "01149605500", "website": "https://www.teckinfo.com/", "rating": 4.6, "review_count": "", "latitude": 28.566004099999997, "longitude": 77.187579, "maps_url": "https://www.google.com/maps/place/?q=place_id:0x390d165555555555:0xf57c20f7d07d8fd1"}, {"place_id": "0x390ce1fb44618b65:0x8e06b2a6128352d1", "name": "Acropolis Infotech - Delhi Office", "category": "Software company", "street": "metro station gate", "city": "55, 2nd Floor, Lane 2", "phone": "09999876593", "website": "https://www.acropolisinfotech.com/", "rating": 4.6, "review_count": "", "latitude": 28.518907, "longitude": 77.2015435, "maps_url": "https://www.google.com/maps/place/?q=place_id:0x390ce1fb44618b65:0x8e06b2a6128352d1"}, {"place_id": "0x390cfc7f7271ed19:0x6aff6965beeaba2e", "name": "Web Development Company in Delhi | EVG Software Solutions", "category": "Software company", "street": "D-247 / 4A", "city": "Mandawali", "phone": "09899996058", "website": "http://evgsoftware.in/", "rating": 4.3, "review_count": "", "latitude": 28.629258699999998, "longitude": 77.2900343, "maps_url": "https://www.google.com/maps/place/?q=place_id:0x390cfc7f7271ed19:0x6aff6965beeaba2e"}, {"place_id": "0x390ce44609d8fd9b:0x9c680f27679610f6", "name": "Crestech Software", "category": "Software company", "street": "Plot No. D, Vyapar Marg", "city": "D Block, Sector 2", "phone": "08826666755", "website": "https://www.crestechsoftware.com/", "rating": 3.6, "review_count": "", "latitude": 28.5836924, "longitude": 77.3166213, "maps_url": "https://www.google.com/maps/place/?q=place_id:0x390ce44609d8fd9b:0x9c680f27679610f6"}, {"place_id": "0x390d029cf3d42055:0x568de645f31e31dd", "name": "AI Micro Mind\u00aeTechnology", "category": "Software company", "street": "3rd Floor, 16/448", "city": "Block I, Building Number", "phone": "09818353030", "website": "http://micromind.in/", "rating": 4.8, "review_count": "", "latitude": 28.656936299999998, "longitude": 77.1817737, "maps_url": "https://www.google.com/maps/place/?q=place_id:0x390d029cf3d42055:0x568de645f31e31dd"}, {"place_id": "0x390ce25e81555555:0xf93f773552127f47", "name": "SANEKT SOFTWARE SOLUTION", "category": "Software company", "street": "Top floor", "city": "H 11", "phone": "01141589565", "website": "http://sanekt.com/", "rating": 5, "review_count": "", "latitude": 28.571361, "longitude": 77.221733, "maps_url": "https://www.google.com/maps/place/?q=place_id:0x390ce25e81555555:0xf93f773552127f47"}, {"place_id": "0x390ce3a1fa7275f1:0x2c792339bc369536", "name": "Ezeetech Solutions", "category": "Software company", "street": "149-A, 1st Floor", "city": "Baba House Complex", "phone": "01149901562", "website": "https://ezeetechonline.com/", "rating": 4.9, "review_count": "", "latitude": 28.576534199999998, "longitude": 77.26283029999999, "maps_url": "https://www.google.com/maps/place/?q=place_id:0x390ce3a1fa7275f1:0x2c792339bc369536"}, {"place_id": "0x4ebf586dbe4d7c09:0x968455c83bf5226c", "name": "Anchor IT Solutions- App Development | Website Development | Digital Marketing", "category": "Software company", "street": "4", "city": "Vinoba Puri, Lajpat Nagar II, Lajpat Nagar", "phone": "07678658584", "website": "", "rating": 4.8, "review_count": "", "latitude": 28.566371399999998, "longitude": 77.2486924, "maps_url": "https://www.google.com/maps/place/?q=place_id:0x4ebf586dbe4d7c09:0x968455c83bf5226c"}, {"place_id": "0x390ce3512b42e945:0xe8ce9b06e1651251", "name": "Instant IT services - Best Hardware & Software Related Services", "category": "Software company", "street": "koli camp", "city": "69B", "phone": "09804836325", "website": "", "rating": 4.7, "review_count": "", "latitude": 28.5758728, "longitude": 77.2565554, "maps_url": "https://www.google.com/maps/place/?q=place_id:0x390ce3512b42e945:0xe8ce9b06e1651251"}, {"place_id": "0x390ce3003fffffe3:0x1dd892a28603e769", "name": "Corporate Infotech Pvt Ltd.", "category": "Software company", "street": "E-81", "city": "E Block, Sector 6", "phone": "1800116474", "website": "https://cipl.org.in/", "rating": 4.4, "review_count": "", "latitude": 28.5937284, "longitude": 77.3206974, "maps_url": "https://www.google.com/maps/place/?q=place_id:0x390ce3003fffffe3:0x1dd892a28603e769"}, {"place_id": "0x390ce3a2021e9897:0x28bf52d36a7d0c19", "name": "It Softtech - Website Designing and Development Company in Delhi, India", "category": "Internet marketing service", "street": "149, Ring Rd", "city": "opp. Maharani Bagh", "phone": "09810056177", "website": "", "rating": 5, "review_count": "", "latitude": 28.5763395, "longitude": 77.2640869, "maps_url": "https://www.google.com/maps/place/?q=place_id:0x390ce3a2021e9897:0x28bf52d36a7d0c19"}, {"place_id": "0x390feda4c4f56aed:0x2277b287e38fc0ec", "name": "Dizivan IT Solutions Pvt Ltd- App Development & Digital Marketing Company", "category": "Software company", "street": "near Metro Station New Ashok Nagar", "city": "Block B, New Ashok Nagar", "phone": "09142092979", "website": "https://dizivan.com/", "rating": 5, "review_count": "", "latitude": 28.5891575, "longitude": 77.3020624, "maps_url": "https://www.google.com/maps/place/?q=place_id:0x390feda4c4f56aed:0x2277b287e38fc0ec"}]}