{"timestamp": 1773729565.4251254, "keyword": "IT company", "location": "delhi", "cell_idx": 107, "results": [{"place_id": "0x390d1eae85ccf623:0x54035fa35ac08dff", "name": "Maurya Infotech Services", "category": "Corporate office", "street": "110038", "city": "Harjokri, Rajokri Village, Rajokri", "phone": "08130644447", "website": "https://www.mauryainfotech.in/", "rating": 4.4, "review_count": "", "latitude": 28.513019999999997, "longitude": 77.108795, "maps_url": "https://www.google.com/maps/place/?q=place_id:0x390d1eae85ccf623:0x54035fa35ac08dff"}, {"place_id": "0x390d192ead051335:0x1f45fb98e90cc397", "name": "Honeysha Technologies, Software Company in Gurgaon, Digital Marketing Agency in Gurgaon", "category": "Software company", "street": "Cyber City", "city": "U-79/18, Rd Number 79", "phone": "07692079000", "website": "https://honeyshatech.com/", "rating": 4.5, "review_count": "", "latitude": 28.4900566, "longitude": 77.09324459999999, "maps_url": "https://www.google.com/maps/place/?q=place_id:0x390d192ead051335:0x1f45fb98e90cc397"}, {"place_id": "0x390d1c154aba0acd:0xc90313ce54cb43e9", "name": "Midas IT Services India Pvt Ltd", "category": "Software company", "street": "L", "city": "42", "phone": "", "website": "http://www.midaswebtech.com/", "rating": 4.6, "review_count": "", "latitude": 28.545162299999998, "longitude": 77.12531, "maps_url": "https://www.google.com/maps/place/?q=place_id:0x390d1c154aba0acd:0xc90313ce54cb43e9"}, {"place_id": "0x390d19298db2fb35:0xcaa0d46737c4561c", "name": "MLM Software Developer | Sunny citrix", "category": "Software company", "street": "office no 427C, 4th floor, vashisht complex", "city": "Sikanderpur", "phone": "07906059336", "website": "http://sunnycitrix.com/", "rating": 4.8, "review_count": "", "latitude": 28.4816798, "longitude": 77.09770569999999, "maps_url": "https://www.google.com/maps/place/?q=place_id:0x390d19298db2fb35:0xcaa0d46737c4561c"}, {"place_id": "0x390ce458d0000001:0xf2123bd299ec4501", "name": "IT Company India", "category": "Software company", "street": "D56", "city": "D Block, Sector 10", "phone": "09999244854", "website": "https://www.itcompanyindia.in/", "rating": 4.7, "review_count": "", "latitude": 28.589917699999997, "longitude": 77.3351153, "maps_url": "https://www.google.com/maps/place/?q=place_id:0x390ce458d0000001:0xf2123bd299ec4501"}, {"place_id": "0x390d19abbe8a5671:0x7f9eaed758fb59ee", "name": "Appcods", "category": "Software company", "street": "2nd Floor, Enkay Square, Plot 448-A", "city": "NH8", "phone": "08010888273", "website": "", "rating": 5, "review_count": "", "latitude": 28.4970438, "longitude": 77.08564129999999, "maps_url": "https://www.google.com/maps/place/?q=place_id:0x390d19abbe8a5671:0x7f9eaed758fb59ee"}, {"place_id": "0x390d1923af5d91ed:0xbe103b16161f5631", "name": "Condeco Software Private Limited", "category": "Software company", "street": "Tower C", "city": "4th floor building 10", "phone": "01244760150", "website": "http://www.condecosoftware.com/apac", "rating": 4.3, "review_count": "", "latitude": 28.4940696, "longitude": 77.0885457, "maps_url": "https://www.google.com/maps/place/?q=place_id:0x390d1923af5d91ed:0xbe103b16161f5631"}, {"place_id": "0x390d181b03ac9f6f:0x3ec5a92a519f94ad", "name": "Daffodil Software", "category": "Software company", "street": "9th Floor, Tower B1, DLF", "city": "World Tech Park", "phone": "01246817000", "website": "https://www.daffodilsw.com/", "rating": 4.1, "review_count": "", "latitude": 28.465191599999997, "longitude": 77.0564785, "maps_url": "https://www.google.com/maps/place/?q=place_id:0x390d181b03ac9f6f:0x3ec5a92a519f94ad"}, {"place_id": "0x390d191100000001:0x424476192b3b5b5b", "name": "Binary Semantics Limited", "category": "Software company", "street": "PLot no", "city": "38", "phone": "08929156505", "website": "https://www.binarysemantics.com/", "rating": 3.7, "review_count": "", "latitude": 28.5018823, "longitude": 77.0701466, "maps_url": "https://www.google.com/maps/place/?q=place_id:0x390d191100000001:0x424476192b3b5b5b"}, {"place_id": "0x390d1c3fadaf436b:0x7da80df34b6cc628", "name": "Acelema It Solutions Pvt. Ltd", "category": "Software company", "street": "L 357, 1st Floor", "city": "Gurgaon - Delhi Expy", "phone": "09015904466", "website": "https://www.acelema.com/", "rating": 5, "review_count": "", "latitude": 28.5456917, "longitude": 77.1231365, "maps_url": "https://www.google.com/maps/place/?q=place_id:0x390d1c3fadaf436b:0x7da80df34b6cc628"}, {"place_id": "0x390d195e4483ae05:0xec67b2579bb38803", "name": "eXtendCode - Software Development Company", "category": "Software company", "street": "Plot 63, Second Floor, Udyog Vihar Phase -1,", "city": "Gurugram, Haryana 122016", "phone": "01244261219", "website": "http://www.extendcode.com/", "rating": 4.1, "review_count": "", "latitude": 28.514535199999997, "longitude": 77.0815075, "maps_url": "https://www.google.com/maps/place/?q=place_id:0x390d195e4483ae05:0xec67b2579bb38803"}, {"place_id": "0x390d192ca95aaaab:0xc152e62b92cf35b4", "name": "ISMEDU Software Solutions Pvt. Ltd.", "category": "Software company", "street": "204, 2nd Floor", "city": "GLOBAL BUSINESS PARK", "phone": "09205444090", "website": "https://www.ismedusoftsol.com/", "rating": 5, "review_count": "", "latitude": 28.4807173, "longitude": 77.1020856, "maps_url": "https://www.google.com/maps/place/?q=place_id:0x390d192ca95aaaab:0xc152e62b92cf35b4"}, {"place_id": "0x390d19440bc59efb:0xda6549686148f7b4", "name": "PerfectionGeeks Technologies", "category": "Software company", "street": "Plot 378-379, Udyog Vihar Phase 4 Rd", "city": "near nokia building", "phone": "08920947884", "website": "http://www.perfectiongeeks.com/", "rating": 4.9, "review_count": "", "latitude": 28.5002221, "longitude": 77.0730516, "maps_url": "https://www.google.com/maps/place/?q=place_id:0x390d19440bc59efb:0xda6549686148f7b4"}, {"place_id": "0x390cfd00fd453a1b:0x9b04afa48c2538ec", "name": "Inwoin Technologies Pvt. Ltd.", "category": "Software company", "street": "Building No. 309", "city": "310", "phone": "", "website": "http://www.inwoin.com/", "rating": 4.5, "review_count": "", "latitude": 28.4999559, "longitude": 77.07965879999999, "maps_url": "https://www.google.com/maps/place/?q=place_id:0x390cfd00fd453a1b:0x9b04afa48c2538ec"}, {"place_id": "0x390d1993bd871777:0x59b8dceaab966d6e", "name": "Web & Mobile App Development Company in Gurgaon - WEBIENT TECHNOLOGIES", "category": "Software company", "street": "97, 2nd Floor", "city": "Udyog Vihar Phase V Rd", "phone": "09075069326", "website": "https://webienttechnologies.in/", "rating": 5, "review_count": "", "latitude": 28.4993746, "longitude": 77.0833406, "maps_url": "https://www.google.com/maps/place/?q=place_id:0x390d1993bd871777:0x59b8dceaab966d6e"}, {"place_id": "0x390d191598f48ef3:0x70991b4ff870f05d", "name": "Shree Partners LLC", "category": "Software company", "street": "1, Tower A, Building, Cyber City", "city": "Corporate Edge Level", "phone": "01246728815", "website": "https://www.shreepartners.com/", "rating": 4.3, "review_count": "", "latitude": 28.4936018, "longitude": 77.088325, "maps_url": "https://www.google.com/maps/place/?q=place_id:0x390d191598f48ef3:0x70991b4ff870f05d"}, {"place_id": "0x390d19c0a0e4ab65:0xcf4b9dba58a7ccd7", "name": "Leapwork India Private Limited", "category": "Software company", "street": "10th, Cyber Hub, Cyber City", "city": "DLF Building 10C", "phone": "35251414", "website": "https://www.leapwork.com/", "rating": 5, "review_count": "", "latitude": 28.4936018, "longitude": 77.088325, "maps_url": "https://www.google.com/maps/place/?q=place_id:0x390d19c0a0e4ab65:0xcf4b9dba58a7ccd7"}, {"place_id": "0x390d195c57ccd5e1:0x1b2c706c8f63247e", "name": "Byteprojects - Technologies", "category": "Software company", "street": "Skootr Offices", "city": "PlotNo. 264", "phone": "07876435599", "website": "http://byteprojects.in/", "rating": 4.8, "review_count": "", "latitude": 28.5101685, "longitude": 77.0828891, "maps_url": "https://www.google.com/maps/place/?q=place_id:0x390d195c57ccd5e1:0x1b2c706c8f63247e"}, {"place_id": "0x390d192f80e784d3:0x2c271ddf93d663b4", "name": "Tranciscolabs | Mobile App Development Company | Web Development Company", "category": "Software company", "street": "Park", "city": "RGREP", "phone": "09580174570", "website": "https://tranciscolabs.com/", "rating": 4.4, "review_count": "", "latitude": 28.4695091, "longitude": 77.06860209999999, "maps_url": "https://www.google.com/maps/place/?q=place_id:0x390d192f80e784d3:0x2c271ddf93d663b4"}, {"place_id": "0x390d19316748a39b:0x427bebf40160d8ac", "name": "Construe IT Solutions Pvt. Ltd.", "category": "Software company", "street": "R # 3", "city": "56/10", "phone": "08130713756", "website": "http://www.construesol.com/", "rating": 4, "review_count": "", "latitude": 28.489741799999997, "longitude": 77.0963127, "maps_url": "https://www.google.com/maps/place/?q=place_id:0x390d19316748a39b:0x427bebf40160d8ac"}, {"place_id": "0x390d19437cb628b3:0x12e71803eb09ac16", "name": "Clavax Technologies", "category": "Software company", "street": "727", "city": "Udyog Vihar, Phase 5", "phone": "+18444252829", "website": "http://www.clavax.com/", "rating": 4.1, "review_count": "", "latitude": 28.5052123, "longitude": 77.0850025, "maps_url": "https://www.google.com/maps/place/?q=place_id:0x390d19437cb628b3:0x12e71803eb09ac16"}, {"place_id": "0x390d195c26bfa369:0x69bd8efd2e3a31fe", "name": "Radical Minds Technologies Pvt. Ltd.", "category": "BPO Company", "street": "368", "city": "Phase II, Udyog Vihar, Sector 20", "phone": "01244338366", "website": "http://www.radicalminds.in/", "rating": 4.2, "review_count": "", "latitude": 28.506335099999998, "longitude": 77.0877546, "maps_url": "https://www.google.com/maps/place/?q=place_id:0x390d195c26bfa369:0x69bd8efd2e3a31fe"}, {"place_id": "0x390d193854a9b805:0xeb675c7a6d5768f7", "name": "Cvent India", "category": "Software company", "street": "19th Floor Building", "city": "No.14C", "phone": "0008001008934", "website": "https://careers.cvent.com/", "rating": 4.3, "review_count": "", "latitude": 28.4968638, "longitude": 77.0941567, "maps_url": "https://www.google.com/maps/place/?q=place_id:0x390d193854a9b805:0xeb675c7a6d5768f7"}, {"place_id": "0x390ce3c153b89811:0xe7a279685777e9ca", "name": "IT Company", "category": "Automation company", "street": "A-14", "city": "near iskcon temple", "phone": "", "website": "http://www.opuswiz.com/", "rating": 3, "review_count": "", "latitude": 28.557167, "longitude": 77.25424819999999, "maps_url": "https://www.google.com/maps/place/?q=place_id:0x390ce3c153b89811:0xe7a279685777e9ca"}, {"place_id": "0x390d190e50732f89:0xe8ba9bfa95bf2fd1", "name": "Webloop Technik India Pvt Ltd", "category": "Software company", "street": "104,second floor A S Tower", "city": "Sikanderpur", "phone": "09958692076", "website": "http://weblooptechnik.com/", "rating": 4.9, "review_count": "", "latitude": 28.4818027, "longitude": 77.09696129999999, "maps_url": "https://www.google.com/maps/place/?q=place_id:0x390d190e50732f89:0xe8ba9bfa95bf2fd1"}, {"place_id": "0x390d1946a4b0d01f:0xab23cbaa408b3b9c", "name": "Tagbin Services Pvt. Ltd. \u2013 Best AI & Experiential Tech Company in Gurgaon", "category": "Software company", "street": "3rd Floor, Wing A, Enkay Centre", "city": "Vaniya Kunj", "phone": "08178112682", "website": "https://tagbin.in/", "rating": 4.2, "review_count": "", "latitude": 28.4974691, "longitude": 77.08654609999999, "maps_url": "https://www.google.com/maps/place/?q=place_id:0x390d1946a4b0d01f:0xab23cbaa408b3b9c"}, {"place_id": "0x390cfd33760cce1f:0xd3d1b298923c285", "name": "Material India", "category": "Software company", "street": "DLF Cyber Greens", "city": "12th Floor, Tower C", "phone": "01244942491", "website": "https://materialplus.srijan.net/", "rating": 4.3, "review_count": "", "latitude": 28.4937047, "longitude": 77.092933, "maps_url": "https://www.google.com/maps/place/?q=place_id:0x390cfd33760cce1f:0xd3d1b298923c285"}, {"place_id": "0x390ce3ad10000061:0xeff7e6017a22cce7", "name": "Alpinesoft IT Solutions Authorized Google Workspace Reseller", "category": "Software company", "street": "162/9 Ist Floor, KIshangarh - Gaushala Marg", "city": "Lakhi Nath Kuti, Mehrauli, Vasant Kunj", "phone": "09999011157", "website": "https://www.alpinesoftit.com/", "rating": 4.3, "review_count": "", "latitude": 28.515394399999998, "longitude": 77.16460359999999, "maps_url": "https://www.google.com/maps/place/?q=place_id:0x390ce3ad10000061:0xeff7e6017a22cce7"}, {"place_id": "0x390d19361c56cecd:0x50517af3dc928d70", "name": "Mycom", "category": "Software company", "street": "7th Floor", "city": "Building 8b", "phone": "01244508000", "website": "http://www.mycom-osi.com/", "rating": 4.3, "review_count": "", "latitude": 28.4982059, "longitude": 77.0900367, "maps_url": "https://www.google.com/maps/place/?q=place_id:0x390d19361c56cecd:0x50517af3dc928d70"}, {"place_id": "0x41ddcb5488aa4703:0x5290c64921de1a5b", "name": "Bloatware IT Software Development Company | Game Development | Software Company in delhi", "category": "Software company", "street": "SILVER OAK FARMS", "city": "660, Mehrauli-Gurgaon Rd", "phone": "", "website": "https://bloatwareitsolutions.com/", "rating": 5, "review_count": "", "latitude": 28.4911034, "longitude": 77.1432663, "maps_url": "https://www.google.com/maps/place/?q=place_id:0x41ddcb5488aa4703:0x5290c64921de1a5b"}, {"place_id": "0x390ce3b5c2a11543:0xc4df0cd95534bf85", "name": "LimeTray", "category": "Software company", "street": "2nd Floor", "city": "815", "phone": "", "website": "https://limetray.com/", "rating": 3.6, "review_count": "", "latitude": 28.5015508, "longitude": 77.08626919999999, "maps_url": "https://www.google.com/maps/place/?q=place_id:0x390ce3b5c2a11543:0xc4df0cd95534bf85"}, {"place_id": "0x390d195b233aaaab:0x416cb7b74c179f86", "name": "Trantor Software Pvt Ltd.", "category": "Corporate office", "street": "2nd floor, 91 Springboard, Business Hub Private Limited", "city": "Cabin 2", "phone": "06506467818", "website": "http://trantorinc.com/", "rating": 4.1, "review_count": "", "latitude": 28.486732399999998, "longitude": 77.0745902, "maps_url": "https://www.google.com/maps/place/?q=place_id:0x390d195b233aaaab:0x416cb7b74c179f86"}, {"place_id": "0x390d196aa65f2787:0x206eea180dde1151", "name": "Targus Technologies", "category": "Software company", "street": "S&A Tower First Floor, Plot 5", "city": "6 and 7", "phone": "01244742300", "website": "http://www.targustech.com/", "rating": 4.1, "review_count": "", "latitude": 28.4914788, "longitude": 77.07879179999999, "maps_url": "https://www.google.com/maps/place/?q=place_id:0x390d196aa65f2787:0x206eea180dde1151"}, {"place_id": "0x390d1be7f1a44f95:0x84524a5425f8930d", "name": "InfraDost Technologies Pvt Ltd.- Microsoft Adobe Corel Draw & Security Solution Provider", "category": "Software company", "street": "Gurgaon - Delhi Expy", "city": "Block B, Mahipalpur Village, Mahipalpur", "phone": "08287792542", "website": "http://www.infradost.com/", "rating": 4.6, "review_count": "", "latitude": 28.5485743, "longitude": 77.1264697, "maps_url": "https://www.google.com/maps/place/?q=place_id:0x390d1be7f1a44f95:0x84524a5425f8930d"}, {"place_id": "0x390ce1877a5ef8eb:0xd5abb94a30425144", "name": "Plusone Technologies Private Limited", "category": "Software company", "street": "Phase IV, Udyog Vihar, Sector 18", "city": "Gurugram, Haryana 122015", "phone": "09891387094", "website": "https://www.plusonetech.co/", "rating": 4.7, "review_count": "", "latitude": 28.4941475, "longitude": 77.0808448, "maps_url": "https://www.google.com/maps/place/?q=place_id:0x390ce1877a5ef8eb:0xd5abb94a30425144"}, {"place_id": "0x390d1960c2b8367f:0xd2d30e45ac71acea", "name": "Vorombetech Solutions - Top IT & Digitalization Service Company in Gurugram", "category": "Software company", "street": "249", "city": "Phase IV, Udyog Vihar, Sector 19", "phone": "", "website": "https://vorombetech.com/", "rating": 4.8, "review_count": "", "latitude": 28.4941475, "longitude": 77.0808448, "maps_url": "https://www.google.com/maps/place/?q=place_id:0x390d1960c2b8367f:0xd2d30e45ac71acea"}, {"place_id": "0x390d1d925cb370f5:0x9e5f79cffe269b7a", "name": "Techshades IT Consultants \u2013 Digital Marketing Agency", "category": "Software company", "street": "Office No-215, 1st Floor", "city": "Sukhma Tower", "phone": "", "website": "https://techshades.in/", "rating": 5, "review_count": "", "latitude": 28.5432161, "longitude": 77.1238233, "maps_url": "https://www.google.com/maps/place/?q=place_id:0x390d1d925cb370f5:0x9e5f79cffe269b7a"}, {"place_id": "0x390d1f2a83be863f:0x22122c85372f8f0c", "name": "Shorthills AI", "category": "Software company", "street": "Ambience Mall", "city": "Ambience Island, DLF Phase 3, Sector 24", "phone": "", "website": "http://www.shorthills.ai/", "rating": 4.7, "review_count": "", "latitude": 28.5028136, "longitude": 77.0970957, "maps_url": "https://www.google.com/maps/place/?q=place_id:0x390d1f2a83be863f:0x22122c85372f8f0c"}, {"place_id": "0x390d19174792f4db:0xcb5f589caa71b6e7", "name": "Knocial India Limited", "category": "Software company", "street": "60B", "city": "Udyog Vihar, Sector 22", "phone": "09354120847", "website": "https://www.knocialindia.com/", "rating": 4.7, "review_count": "", "latitude": 28.504239499999997, "longitude": 77.0651981, "maps_url": "https://www.google.com/maps/place/?q=place_id:0x390d19174792f4db:0xcb5f589caa71b6e7"}, {"place_id": "0x2a72b8b69d7b6493:0x11251466d4d34cac", "name": "WebZonal IT Company", "category": "Website designer", "street": "Wz-258/2-3, D Block Rd", "city": "Khazan Basti, Nangal Raya, Janakpuri", "phone": "09811170903", "website": "http://webzonal.com/", "rating": 5, "review_count": "", "latitude": 28.6122102, "longitude": 77.11159549999999, "maps_url": "https://www.google.com/maps/place/?q=place_id:0x2a72b8b69d7b6493:0x11251466d4d34cac"}, {"place_id": "0x390d19d6fada2dbb:0xf471019497f6cda8", "name": "Suvrin Technologies|Website Development | eCommerce & Mobile App Development company", "category": "Software company", "street": "P1/55", "city": "Mushedpur, DLF Phase 2, Sector 25", "phone": "09811021616", "website": "https://www.suvrin.com/", "rating": 3.9, "review_count": "", "latitude": 28.4872941, "longitude": 77.0874865, "maps_url": "https://www.google.com/maps/place/?q=place_id:0x390d19d6fada2dbb:0xf471019497f6cda8"}, {"place_id": "0x390d1b0076c735ad:0x13551f319095520a", "name": "Aftab IT information technology", "category": "Computer Hardware Company", "street": "C58", "city": "D Block, Kapas Hera Estate", "phone": "", "website": "", "rating": 5, "review_count": "", "latitude": 28.5221669, "longitude": 77.08510989999999, "maps_url": "https://www.google.com/maps/place/?q=place_id:0x390d1b0076c735ad:0x13551f319095520a"}, {"place_id": "0x390d1f61836cd921:0x776e9717979fe108", "name": "Saiway Tech", "category": "Web hosting company", "street": "702", "city": "Near, Maruti Chowk", "phone": "07982506339", "website": "http://saiwaytech.com/", "rating": 4.8, "review_count": "", "latitude": 28.4924629, "longitude": 77.1411129, "maps_url": "https://www.google.com/maps/place/?q=place_id:0x390d1f61836cd921:0x776e9717979fe108"}, {"place_id": "0x4156579e876131e7:0x356c887f8dac5e97", "name": "Haaditech Private Limited", "category": "Software company", "street": "Gate No. 04", "city": "Ambience Mall", "phone": "", "website": "https://www.haaditech.com/", "rating": 5, "review_count": "", "latitude": 28.5057491, "longitude": 77.0960972, "maps_url": "https://www.google.com/maps/place/?q=place_id:0x4156579e876131e7:0x356c887f8dac5e97"}, {"place_id": "0x390d193b91020b5f:0x29f92a3eb636e978", "name": "Upbeat IT Solutions", "category": "Computer support and services", "street": "Chanderlok, DLF Phase IV", "city": "Gurugram, Haryana 122002", "phone": "08851731423", "website": "https://em77v8.webwave.dev/", "rating": 5, "review_count": "", "latitude": 28.4749868, "longitude": 77.0804268, "maps_url": "https://www.google.com/maps/place/?q=place_id:0x390d193b91020b5f:0x29f92a3eb636e978"}, {"place_id": "0x390d190b8996b54d:0xa4d9ad7263547701", "name": "Company", "category": "Corporate office", "street": "The Coworking Space", "city": "A-14/15 DLF Phase 1, Sector 26 A Truworx", "phone": "01140844560", "website": "https://www.quickcompany.in/", "rating": 4.1, "review_count": "", "latitude": 28.474366699999997, "longitude": 77.0943154, "maps_url": "https://www.google.com/maps/place/?q=place_id:0x390d190b8996b54d:0xa4d9ad7263547701"}, {"place_id": "0x390d193c3a36e523:0xe68f8d2568faeaad", "name": "Espire Infolabs Pvt. Ltd.", "category": "Software company", "street": "486 & 487", "city": "Phase III, Udyog Vihar III, Sector 20", "phone": "01247173000", "website": "http://www.espire.com/", "rating": 4.1, "review_count": "", "latitude": 28.5119516, "longitude": 77.0899661, "maps_url": "https://www.google.com/maps/place/?q=place_id:0x390d193c3a36e523:0xe68f8d2568faeaad"}, {"place_id": "0x390d195b3d68bfd5:0x33d426418fb46db7", "name": "Kockpit Analytics Pvt. Ltd", "category": "Corporate office", "street": "No.1", "city": "Bhikaji Cama Place, Rama Krishna Puram", "phone": "09599080265", "website": "", "rating": 4.7, "review_count": "", "latitude": 28.508890599999997, "longitude": 77.087429, "maps_url": "https://www.google.com/maps/place/?q=place_id:0x390d195b3d68bfd5:0x33d426418fb46db7"}, {"place_id": "0x390d1938bd6d1407:0x67e9acb6425a6fce", "name": "Razornext - A Razorpod Group Company", "category": "Software company", "street": "First Floor", "city": "Plot 300, Udyog Vihar II Rd", "phone": "", "website": "https://razornext.com/", "rating": 5, "review_count": "", "latitude": 28.5071789, "longitude": 77.087616, "maps_url": "https://www.google.com/maps/place/?q=place_id:0x390d1938bd6d1407:0x67e9acb6425a6fce"}, {"place_id": "0x390d19404f4f65d5:0xc7a5e785eb2e8ef6", "name": "Infodart Technologies Ltd", "category": "Software company", "street": "2nd floor", "city": "plot no 254", "phone": "", "website": "https://www.infodartglobal.com/", "rating": 4, "review_count": "", "latitude": 28.4979135, "longitude": 77.0815518, "maps_url": "https://www.google.com/maps/place/?q=place_id:0x390d19404f4f65d5:0xc7a5e785eb2e8ef6"}, {"place_id": "0x65afd373fe4cb277:0xb57ca7e757c2def3", "name": "Eimager -Employees Background Verification SaaS", "category": "Software company", "street": "GF 5", "city": "672, Mehrauli-Gurgaon Rd", "phone": "", "website": "https://eimager.com/", "rating": 5, "review_count": "", "latitude": 28.4911376, "longitude": 77.1398955, "maps_url": "https://www.google.com/maps/place/?q=place_id:0x65afd373fe4cb277:0xb57ca7e757c2def3"}, {"place_id": "0x390d1938452c2409:0x8d88478bebae8aef", "name": "Dassault Syst\u00e8mes", "category": "Software company", "street": "5th Floor, Dlf Cyber Hub", "city": "Building 8C", "phone": "01244577100", "website": "https://www.3ds.com/3dexperience?utm_campaign=202204_glo_corp_gmb_en&utm_medium=referral&utm_source=gmb&utm_term=3DSCOM_GUR", "rating": 4.4, "review_count": "", "latitude": 28.4951464, "longitude": 77.0886317, "maps_url": "https://www.google.com/maps/place/?q=place_id:0x390d1938452c2409:0x8d88478bebae8aef"}, {"place_id": "0x390d192fc20b97e7:0x3048b25634f6d955", "name": "Nagarro", "category": "Software company", "street": "Plot 6B, Sub. Major Laxmi Chand Rd", "city": "Maruti Udyog, Sector 18", "phone": "", "website": "https://www.nagarro.com/en", "rating": 4.5, "review_count": "", "latitude": 28.491098599999997, "longitude": 77.0673492, "maps_url": "https://www.google.com/maps/place/?q=place_id:0x390d192fc20b97e7:0x3048b25634f6d955"}, {"place_id": "0x390d19345bcdc4f3:0x61d5221ed2c17f35", "name": "Cognizant", "category": "Software company", "street": "Tower C, SEZ Building, Building No 6, 5th & 6th Floor DLF C yber City Rd W Block", "city": "Near Shankar Chowk", "phone": "", "website": "http://www.cognizant.com/india", "rating": 4.1, "review_count": "", "latitude": 28.4964521, "longitude": 77.096576, "maps_url": "https://www.google.com/maps/place/?q=place_id:0x390d19345bcdc4f3:0x61d5221ed2c17f35"}, {"place_id": "0x390d19aabe7d692b:0xd6ac9bdd0332d56c", "name": "Sirion", "category": "Software company", "street": "8th floor", "city": "One Qube", "phone": "01244915400", "website": "http://www.sirion.ai/", "rating": 4.2, "review_count": "", "latitude": 28.4855172, "longitude": 77.07554449999999, "maps_url": "https://www.google.com/maps/place/?q=place_id:0x390d19aabe7d692b:0xd6ac9bdd0332d56c"}, {"place_id": "0x390d195b180061c3:0xbc2dc26222ba3801", "name": "Team Computers Pvt Ltd", "category": "Software company", "street": "5th floor", "city": "Plot no. 278", "phone": "18001024200", "website": "https://www.teamcomputers.com/", "rating": 4.3, "review_count": "", "latitude": 28.508890599999997, "longitude": 77.087429, "maps_url": "https://www.google.com/maps/place/?q=place_id:0x390d195b180061c3:0xbc2dc26222ba3801"}, {"place_id": "0x390d1f5abfb25fe1:0x7d9c4d5e159f2955", "name": "Jaimru Technology Pvt Ltd", "category": "Software company", "street": "WARD NO. 2", "city": "Plot No. 178 M 33 A/1", "phone": "07838153420", "website": "https://www.jaimru.com/", "rating": 4.9, "review_count": "", "latitude": 28.524347499999998, "longitude": 77.1731889, "maps_url": "https://www.google.com/maps/place/?q=place_id:0x390d1f5abfb25fe1:0x7d9c4d5e159f2955"}, {"place_id": "0x390d19414b0e5321:0xf7a5ae3e08b20907", "name": "Real Time Data Services Pvt. Ltd.", "category": "Corporate office", "street": "809-A", "city": "Phase V, Udyog Vihar, Sector 19", "phone": "01244018891", "website": "https://www.myrealdata.in/", "rating": 3.8, "review_count": "", "latitude": 28.5007093, "longitude": 77.08505699999999, "maps_url": "https://www.google.com/maps/place/?q=place_id:0x390d19414b0e5321:0xf7a5ae3e08b20907"}, {"place_id": "0x390d192a43d18f13:0x8bbba9dab452c924", "name": "Eon Networks Pvt Ltd", "category": "Computer support and services", "street": "733, Udyog Vihar Phase V Rd", "city": "Phase V, Udyog Vihar, Sector 19", "phone": "09810644642", "website": "http://eonconnects.net/", "rating": 4.5, "review_count": "", "latitude": 28.5046906, "longitude": 77.0857224, "maps_url": "https://www.google.com/maps/place/?q=place_id:0x390d192a43d18f13:0x8bbba9dab452c924"}, {"place_id": "0x390d1959e54e0cdb:0x7120a86a0b29095e", "name": "Gurgaon SEO Company", "category": "Website designer", "street": "First Floor Plot", "city": "270, Udyog Vihar II Rd", "phone": "", "website": "", "rating": 2, "review_count": "", "latitude": 28.5074082, "longitude": 77.08512379999999, "maps_url": "https://www.google.com/maps/place/?q=place_id:0x390d1959e54e0cdb:0x7120a86a0b29095e"}, {"place_id": "0x390d193628f9608b:0x33567585d2e83dc3", "name": "EXL Service India", "category": "Software company", "street": "Tower D", "city": "Building No. 14", "phone": "01246144700", "website": "https://www.exlservice.com/locations", "rating": 4.3, "review_count": "", "latitude": 28.4969382, "longitude": 77.0944075, "maps_url": "https://www.google.com/maps/place/?q=place_id:0x390d193628f9608b:0x33567585d2e83dc3"}, {"place_id": "0x390d19361c56cecd:0x50517af3dc928d70", "name": "Mycom", "category": "Software company", "street": "7th Floor", "city": "Building 8b", "phone": "01244508000", "website": "http://www.mycom-osi.com/", "rating": 4.3, "review_count": "", "latitude": 28.4982059, "longitude": 77.0900367, "maps_url": "https://www.google.com/maps/place/?q=place_id:0x390d19361c56cecd:0x50517af3dc928d70"}, {"place_id": "0x390d195b180061c3:0xbc2dc26222ba3801", "name": "Team Computers Pvt Ltd", "category": "Software company", "street": "5th floor", "city": "Plot no. 278", "phone": "18001024200", "website": "https://www.teamcomputers.com/", "rating": 4.3, "review_count": "", "latitude": 28.508890599999997, "longitude": 77.087429, "maps_url": "https://www.google.com/maps/place/?q=place_id:0x390d195b180061c3:0xbc2dc26222ba3801"}, {"place_id": "0x390d1ecbd11590b3:0x1069271b47b670cf", "name": "Resource Development International (I)Pvt. Ltd.", "category": "Human resource consulting", "street": "V12/19, Lane No. 12", "city": "DLF Phase 3, Sector 24", "phone": "01244546700", "website": "", "rating": 4.2, "review_count": "", "latitude": 28.495721099999997, "longitude": 77.1083481, "maps_url": "https://www.google.com/maps/place/?q=place_id:0x390d1ecbd11590b3:0x1069271b47b670cf"}, {"place_id": "0x390d19916fd475e3:0xab11b8e56af5ef50", "name": "Prometric Technologies Pvt. Ltd.", "category": "Computer Rental Agency", "street": "1/25, DLF Cyber City Rd", "city": "DLF Phase 3, Sector 26", "phone": "09871803096", "website": "https://prometric.co.in/rental-laptop-gurugram/", "rating": 5, "review_count": "", "latitude": 28.4968489, "longitude": 77.0968192, "maps_url": "https://www.google.com/maps/place/?q=place_id:0x390d19916fd475e3:0xab11b8e56af5ef50"}, {"place_id": "0x390d195b233aaaab:0x416cb7b74c179f86", "name": "Trantor Software Pvt Ltd.", "category": "Corporate office", "street": "2nd floor, 91 Springboard, Business Hub Private Limited", "city": "Cabin 2", "phone": "06506467818", "website": "http://trantorinc.com/", "rating": 4.1, "review_count": "", "latitude": 28.486732399999998, "longitude": 77.0745902, "maps_url": "https://www.google.com/maps/place/?q=place_id:0x390d195b233aaaab:0x416cb7b74c179f86"}, {"place_id": "0x390d1938452c2409:0x8d88478bebae8aef", "name": "Dassault Syst\u00e8mes", "category": "Software company", "street": "5th Floor, Dlf Cyber Hub", "city": "Building 8C", "phone": "01244577100", "website": "https://www.3ds.com/3dexperience?utm_campaign=202204_glo_corp_gmb_en&utm_medium=referral&utm_source=gmb&utm_term=3DSCOM_GUR", "rating": 4.4, "review_count": "", "latitude": 28.4951464, "longitude": 77.0886317, "maps_url": "https://www.google.com/maps/place/?q=place_id:0x390d1938452c2409:0x8d88478bebae8aef"}, {"place_id": "0x390d1f4effffffff:0xcfc715ac63417946", "name": "Bechtel India Private Limited", "category": "Corporate office", "street": "244-245", "city": "Phase IV, Udyog Vihar, Knowledge Park", "phone": "01244098000", "website": "http://www.bechtel.com/", "rating": 4.4, "review_count": "", "latitude": 28.4956277, "longitude": 77.0839426, "maps_url": "https://www.google.com/maps/place/?q=place_id:0x390d1f4effffffff:0xcfc715ac63417946"}, {"place_id": "0x390d1911d421d143:0x92c91a53bc3f541c", "name": "North West Carrying Company LLP", "category": "Logistics service", "street": "805-806, 8 Floor", "city": "DLF City Court", "phone": "08527258200", "website": "http://www.nwccindia.com/", "rating": 3.7, "review_count": "", "latitude": 28.482979999999998, "longitude": 77.0956906, "maps_url": "https://www.google.com/maps/place/?q=place_id:0x390d1911d421d143:0x92c91a53bc3f541c"}, {"place_id": "0x390d192fc20b97e7:0x3048b25634f6d955", "name": "Nagarro", "category": "Software company", "street": "Plot 6B, Sub. Major Laxmi Chand Rd", "city": "Maruti Udyog, Sector 18", "phone": "", "website": "https://www.nagarro.com/en", "rating": 4.5, "review_count": "", "latitude": 28.491098599999997, "longitude": 77.0673492, "maps_url": "https://www.google.com/maps/place/?q=place_id:0x390d192fc20b97e7:0x3048b25634f6d955"}, {"place_id": "0x390d19de25578495:0xff6c46f138e28fa1", "name": "Uniqfiling Corporate Advisors LLP - Company Registration in Gurgaon | Trademark Registration", "category": "Legal services", "street": "449, GF, Housing Board Colony, Saraswati Vihar", "city": "Sector 28, Chakkarpur", "phone": "08104651686", "website": "https://www.facebook.com/profile.php?id=61578199436799", "rating": 5, "review_count": "", "latitude": 28.474321099999997, "longitude": 77.082363, "maps_url": "https://www.google.com/maps/place/?q=place_id:0x390d19de25578495:0xff6c46f138e28fa1"}, {"place_id": "0x390d1f2a83be863f:0x22122c85372f8f0c", "name": "Shorthills AI", "category": "Software company", "street": "Ambience Mall", "city": "Ambience Island, DLF Phase 3, Sector 24", "phone": "", "website": "http://www.shorthills.ai/", "rating": 4.7, "review_count": "", "latitude": 28.5028136, "longitude": 77.0970957, "maps_url": "https://www.google.com/maps/place/?q=place_id:0x390d1f2a83be863f:0x22122c85372f8f0c"}, {"place_id": "0x390d19dfb39b6f23:0x6331828b46c4b60b", "name": "Maxicus, Gurgaon", "category": "Software company", "street": "Plot No 86", "city": "Phase IV, Udyog Vihar, Sector 18", "phone": "09877098771", "website": "https://maxicus.com/", "rating": 4.3, "review_count": "", "latitude": 28.495188, "longitude": 77.08169099999999, "maps_url": "https://www.google.com/maps/place/?q=place_id:0x390d19dfb39b6f23:0x6331828b46c4b60b"}, {"place_id": "0x390cfd33760cce1f:0xd3d1b298923c285", "name": "Material India", "category": "Software company", "street": "DLF Cyber Greens", "city": "12th Floor, Tower C", "phone": "01244942491", "website": "https://materialplus.srijan.net/", "rating": 4.3, "review_count": "", "latitude": 28.4937047, "longitude": 77.092933, "maps_url": "https://www.google.com/maps/place/?q=place_id:0x390cfd33760cce1f:0xd3d1b298923c285"}, {"place_id": "0x390d1ef0919a57e1:0xb9b5e2798652bedb", "name": "Pacific Security Force Pvt. Ltd.", "category": "Security guard service", "street": "", "city": "", "phone": "07704753355", "website": "http://www.pacificsecurityforce.com/", "rating": 5, "review_count": "", "latitude": 21.0680074, "longitude": 82.7525294, "maps_url": "https://www.google.com/maps/place/?q=place_id:0x390d1ef0919a57e1:0xb9b5e2798652bedb"}, {"place_id": "0x390d193feaaaaaab:0x7a36da7465a8aea3", "name": "SoftAge Information Technology Limited", "category": "Corporate office", "street": "204", "city": "Phase IV, Udyog Vihar, Sector 18", "phone": "09999886622", "website": "http://www.softage.net/", "rating": 4.3, "review_count": "", "latitude": 28.496942699999998, "longitude": 77.0796953, "maps_url": "https://www.google.com/maps/place/?q=place_id:0x390d193feaaaaaab:0x7a36da7465a8aea3"}, {"place_id": "0x390d192a43d18f13:0x8bbba9dab452c924", "name": "Eon Networks Pvt Ltd", "category": "Computer support and services", "street": "733, Udyog Vihar Phase V Rd", "city": "Phase V, Udyog Vihar, Sector 19", "phone": "09810644642", "website": "http://eonconnects.net/", "rating": 4.5, "review_count": "", "latitude": 28.5046906, "longitude": 77.0857224, "maps_url": "https://www.google.com/maps/place/?q=place_id:0x390d192a43d18f13:0x8bbba9dab452c924"}, {"place_id": "0x390d19448756e679:0x1ce14c7872f51302", "name": "BayOne Techno Advisors,Pvt Ltd", "category": "Corporate office", "street": "883, Udyog Vihar Phase V Rd", "city": "Phase V, Udyog Vihar, Sector 19", "phone": "", "website": "", "rating": 4.4, "review_count": "", "latitude": 28.5036153, "longitude": 77.0868732, "maps_url": "https://www.google.com/maps/place/?q=place_id:0x390d19448756e679:0x1ce14c7872f51302"}, {"place_id": "0x390d1910da46a7db:0x18c0a10a69f503f8", "name": "Coforge", "category": "Corporate office", "street": "5th & 6th Floor", "city": "Plot No-13", "phone": "02240103100", "website": "https://www.coforge.com/", "rating": 3.9, "review_count": "", "latitude": 28.4915973, "longitude": 77.07432709999999, "maps_url": "https://www.google.com/maps/place/?q=place_id:0x390d1910da46a7db:0x18c0a10a69f503f8"}, {"place_id": "0x390d19c4f81c373b:0x569790526001fe47", "name": "Pasenture Technologies - Web Development Company in Gurugram, Software Development Company in Gurgaon for CRM & Saas Software", "category": "Software company", "street": "2nd Floor", "city": "90, IDC", "phone": "09717197498", "website": "https://pasenture.in/", "rating": 4, "review_count": "", "latitude": 28.4716508, "longitude": 77.0509349, "maps_url": "https://www.google.com/maps/place/?q=place_id:0x390d19c4f81c373b:0x569790526001fe47"}, {"place_id": "0x390d1f659e341e09:0xd88af0c1a7ecbdf8", "name": "Biswass IT Services Pvt. Ltd.", "category": "Software company", "street": "House No 590 1st Floor, ArjanGarh", "city": "BabaMoholla, Aya Nagar", "phone": "", "website": "https://www.biswass.com/", "rating": 4.8, "review_count": "", "latitude": 28.4766589, "longitude": 77.13484439999999, "maps_url": "https://www.google.com/maps/place/?q=place_id:0x390d1f659e341e09:0xd88af0c1a7ecbdf8"}, {"place_id": "0x390d195abaaaaaab:0x70637331b211cdbf", "name": "ARCIS e Services Pvt. Ltd", "category": "BPO Company", "street": "415", "city": "Udyog Vihar III, Sector 20", "phone": "01242398392", "website": "https://www.arcisindia.com/", "rating": 3.8, "review_count": "", "latitude": 28.508582399999998, "longitude": 77.08945299999999, "maps_url": "https://www.google.com/maps/place/?q=place_id:0x390d195abaaaaaab:0x70637331b211cdbf"}, {"place_id": "0x390d19c4f81c373b:0x569790526001fe47", "name": "Pasenture Technologies - Web Development Company in Gurugram, Software Development Company in Gurgaon for CRM & Saas Software", "category": "Software company", "street": "2nd Floor", "city": "90, IDC", "phone": "09717197498", "website": "https://pasenture.in/", "rating": 4, "review_count": "", "latitude": 28.4716508, "longitude": 77.0509349, "maps_url": "https://www.google.com/maps/place/?q=place_id:0x390d19c4f81c373b:0x569790526001fe47"}, {"place_id": "0x390d19ad585bba37:0xc7a1380f3c30571a", "name": "Wroffy Technologies Pvt Ltd", "category": "Software company", "street": "304", "city": "Vipul Business Park", "phone": "01244349014", "website": "https://www.wroffy.com/", "rating": 4.3, "review_count": "", "latitude": 28.4226457, "longitude": 77.0376039, "maps_url": "https://www.google.com/maps/place/?q=place_id:0x390d19ad585bba37:0xc7a1380f3c30571a"}, {"place_id": "0x390cfbbbf146ce71:0x51bfc1aafd719a57", "name": "Sentiss Pharma Pvt Ltd", "category": "Pharmaceutical company", "street": "261", "city": "Phase IV, Udyog Vihar, Sector 18", "phone": "01244951100", "website": "http://www.sentisspharma.com/", "rating": 4.6, "review_count": "", "latitude": 28.4980507, "longitude": 77.0806636, "maps_url": "https://www.google.com/maps/place/?q=place_id:0x390cfbbbf146ce71:0x51bfc1aafd719a57"}, {"place_id": "0x390d192fdd6391fd:0x97dc08ef19529114", "name": "Sunrisers Hosting - Web Hosting Company", "category": "Web hosting company", "street": "Delhi - Jaipur Expy", "city": "near Sarhol", "phone": "08595104872", "website": "https://www.sunrisershosting.com/", "rating": 4.8, "review_count": "", "latitude": 28.500808799999998, "longitude": 77.09104889999999, "maps_url": "https://www.google.com/maps/place/?q=place_id:0x390d192fdd6391fd:0x97dc08ef19529114"}, {"place_id": "0x390d193629340953:0xe1a3aaf4c76afd36", "name": "Concentrix", "category": "Corporate office", "street": "17th Floor", "city": "DLF Building", "phone": "", "website": "https://www.concentrix.com/", "rating": 4.4, "review_count": "", "latitude": 28.496898899999998, "longitude": 77.0942848, "maps_url": "https://www.google.com/maps/place/?q=place_id:0x390d193629340953:0xe1a3aaf4c76afd36"}, {"place_id": "0x390d195b82955c11:0x4ac608c95db239fa", "name": "Worxpertise (Edge Business Solutions Pvt. Ltd.)", "category": "Business to business service", "street": "4th Floor, WING-B", "city": "AIHP Tower", "phone": "", "website": "https://worxpertise.com/", "rating": 4.1, "review_count": "", "latitude": 28.497374899999997, "longitude": 77.0827276, "maps_url": "https://www.google.com/maps/place/?q=place_id:0x390d195b82955c11:0x4ac608c95db239fa"}, {"place_id": "0x390d19e854fa073d:0x677e7dea662c5747", "name": "Salesforce", "category": "Software company", "street": "8a, DLF Cyber City Rd", "city": "DLF Cyber City, DLF Phase 2, Sector 24", "phone": "", "website": "https://www.salesforce.com/", "rating": 4.4, "review_count": "", "latitude": 28.4955507, "longitude": 77.089473, "maps_url": "https://www.google.com/maps/place/?q=place_id:0x390d19e854fa073d:0x677e7dea662c5747"}, {"place_id": "0x390d195b87642aeb:0xd4032c82e2d16d15", "name": "Dyninno India", "category": "Corporate office", "street": "Cyber City", "city": "Building no 7 A, 6th Floor", "phone": "", "website": "https://dyninno.com/", "rating": 4.5, "review_count": "", "latitude": 28.4927954, "longitude": 77.091972, "maps_url": "https://www.google.com/maps/place/?q=place_id:0x390d195b87642aeb:0xd4032c82e2d16d15"}, {"place_id": "0x390d19384000000f:0xdae06636dc69e80", "name": "Ramboll India Private Limited", "category": "Engineering consultant", "street": "Level 17 Building No. 5 Tower B", "city": "DLF Cyber City, Phase - III", "phone": "01244611999", "website": "https://www.ramboll.com/contact-us/india", "rating": 4.5, "review_count": "", "latitude": 28.4897983, "longitude": 77.0923114, "maps_url": "https://www.google.com/maps/place/?q=place_id:0x390d19384000000f:0xdae06636dc69e80"}, {"place_id": "0x390d1f239a1396cb:0x3b719bdd83cd499f", "name": "Aadhya Enterprises", "category": "Internet cafe", "street": "Shop No-03", "city": "Shani Bazar", "phone": "", "website": "", "rating": 4.6, "review_count": "", "latitude": 28.512670399999998, "longitude": 77.11025699999999, "maps_url": "https://www.google.com/maps/place/?q=place_id:0x390d1f239a1396cb:0x3b719bdd83cd499f"}, {"place_id": "0x390d195d0d8bbaeb:0x879480fbc713a400", "name": "MJS eSTORE", "category": "Software company", "street": "223-224", "city": "Udyog Vihar Phase 1, Udyog Vihar, Sector 20", "phone": "", "website": "", "rating": 4.1, "review_count": "", "latitude": 28.509130799999998, "longitude": 77.08123619999999, "maps_url": "https://www.google.com/maps/place/?q=place_id:0x390d195d0d8bbaeb:0x879480fbc713a400"}, {"place_id": "0x390d19ce1f2130e9:0x557e814a1e7a0f7b", "name": "Needle ads- digital Marketing company in gurgaon lead generation services in gurgaon", "category": "Software company", "street": "Cyber City", "city": "DLF Cyber City, DLF Phase 3, Sector 24", "phone": "08750500075", "website": "https://www.theneedleads.com/", "rating": 5, "review_count": "", "latitude": 28.4936018, "longitude": 77.088325, "maps_url": "https://www.google.com/maps/place/?q=place_id:0x390d19ce1f2130e9:0x557e814a1e7a0f7b"}, {"place_id": "0x390d195a7c8a06a7:0x34d8dddb7a7933ed", "name": "VDC Technologies Private Limited", "category": "Engineering consultant", "street": "2nd floor", "city": "Plot no 29", "phone": "01244281413", "website": "http://vdcint.com/", "rating": 3.5, "review_count": "", "latitude": 28.514978, "longitude": 77.080433, "maps_url": "https://www.google.com/maps/place/?q=place_id:0x390d195a7c8a06a7:0x34d8dddb7a7933ed"}, {"place_id": "0x390d194bf2be36f1:0x817847852ba94ad1", "name": "Panasonic India Pvt Ltd", "category": "Corporate office", "street": "12th Floor, Ambience Tower, NH-8", "city": "Ambience Island, DLF Phase 3, Sector 24", "phone": "01244871300", "website": "http://panasonic.com/in", "rating": 3.9, "review_count": "", "latitude": 28.5021323, "longitude": 77.0984999, "maps_url": "https://www.google.com/maps/place/?q=place_id:0x390d194bf2be36f1:0x817847852ba94ad1"}, {"place_id": "0x390d1eae8e904e39:0x41ad96ea371a4416", "name": "Mohit Electronics Service", "category": "Electronics repair shop", "street": "Gali No.1", "city": "Harjokri, Rajokri", "phone": "09811657605", "website": "", "rating": 4.4, "review_count": "", "latitude": 28.5140906, "longitude": 77.1070964, "maps_url": "https://www.google.com/maps/place/?q=place_id:0x390d1eae8e904e39:0x41ad96ea371a4416"}, {"place_id": "0x390d1910da46a7db:0x18c0a10a69f503f8", "name": "Coforge", "category": "Corporate office", "street": "5th & 6th Floor", "city": "Plot No-13", "phone": "02240103100", "website": "https://www.coforge.com/", "rating": 3.9, "review_count": "", "latitude": 28.4915973, "longitude": 77.07432709999999, "maps_url": "https://www.google.com/maps/place/?q=place_id:0x390d1910da46a7db:0x18c0a10a69f503f8"}, {"place_id": "0x390d193feaaaaaab:0x7a36da7465a8aea3", "name": "SoftAge Information Technology Limited", "category": "Corporate office", "street": "204", "city": "Phase IV, Udyog Vihar, Sector 18", "phone": "09999886622", "website": "http://www.softage.net/", "rating": 4.3, "review_count": "", "latitude": 28.496942699999998, "longitude": 77.0796953, "maps_url": "https://www.google.com/maps/place/?q=place_id:0x390d193feaaaaaab:0x7a36da7465a8aea3"}, {"place_id": "0x390d19a6d0cd5b3f:0xfcb2ab3c1c513941", "name": "Avighnity Technologies | Digital Marketing, PPC, Social Media, Website Designing, SEO Agency in Gurgaon", "category": "Software company", "street": "Building 96, First Floor", "city": "Udyog Vihar Phase 1, Udyog Vihar, Sector 20", "phone": "08595364679", "website": "https://www.avighnity.com/", "rating": 4.3, "review_count": "", "latitude": 28.5116326, "longitude": 77.083787, "maps_url": "https://www.google.com/maps/place/?q=place_id:0x390d19a6d0cd5b3f:0xfcb2ab3c1c513941"}]}