{"timestamp": 1773731427.1118553, "keyword": "IT company", "location": "delhi", "cell_idx": 373, "results": [{"place_id": "0x390ce151a8ab9b8b:0x7674c42ea5047d37", "name": "Alliance Infotech Private Limited", "category": "Software company", "street": "Floor, A", "city": "First", "phone": "", "website": "https://alliance-infotech.com/", "rating": 3.6, "review_count": "", "latitude": 28.5740895, "longitude": 77.2382775, "maps_url": "https://www.google.com/maps/place/?q=place_id:0x390ce151a8ab9b8b:0x7674c42ea5047d37"}, {"place_id": "0x390ce458d0000001:0xf2123bd299ec4501", "name": "IT Company India", "category": "Software company", "street": "D56", "city": "D Block, Sector 10", "phone": "09999244854", "website": "https://www.itcompanyindia.in/", "rating": 4.7, "review_count": "", "latitude": 28.589917699999997, "longitude": 77.3351153, "maps_url": "https://www.google.com/maps/place/?q=place_id:0x390ce458d0000001:0xf2123bd299ec4501"}, {"place_id": "0x390cddbfe1b33167:0x14a30a30a08e2383", "name": "Techimpero", "category": "Software company", "street": "Basement B", "city": "27", "phone": "08750760279", "website": "http://www.techimpero.com/", "rating": 4.6, "review_count": "", "latitude": 28.574403099999998, "longitude": 77.24038999999999, "maps_url": "https://www.google.com/maps/place/?q=place_id:0x390cddbfe1b33167:0x14a30a30a08e2383"}, {"place_id": "0x390ce3b48e27a563:0x4ec8ae3c524366b", "name": "iSOFT INDIA TECHNOLOGIES", "category": "Software company", "street": "E-168|169, Amar Colony, Lajpat Nagar", "city": "New Delhi, Delhi 110024", "phone": "09717978320", "website": "", "rating": 4.9, "review_count": "", "latitude": 28.5657368, "longitude": 77.23946029999999, "maps_url": "https://www.google.com/maps/place/?q=place_id:0x390ce3b48e27a563:0x4ec8ae3c524366b"}, {"place_id": "0x4ebf586dbe4d7c09:0x968455c83bf5226c", "name": "Anchor IT Solutions- App Development | Website Development | Digital Marketing", "category": "Software company", "street": "4", "city": "Vinoba Puri, Lajpat Nagar II, Lajpat Nagar", "phone": "07678658584", "website": "", "rating": 4.8, "review_count": "", "latitude": 28.566371399999998, "longitude": 77.2486924, "maps_url": "https://www.google.com/maps/place/?q=place_id:0x4ebf586dbe4d7c09:0x968455c83bf5226c"}, {"place_id": "0x390ce253aff37669:0xf91518fb23847381", "name": "Repotech Systems India Private Limited", "category": "Computer store", "street": "C-113, Lajpat Nagar, Part-I", "city": "near Defence Colony Flyover", "phone": "01141727722", "website": "", "rating": 4.5, "review_count": "", "latitude": 28.5773029, "longitude": 77.2390813, "maps_url": "https://www.google.com/maps/place/?q=place_id:0x390ce253aff37669:0xf91518fb23847381"}, {"place_id": "0x390ce25115555555:0xf9e9c5274d4eb8b1", "name": "Trinity Touch Pvt. Ltd - Corporate Office", "category": "Manufacturer", "street": "D-10", "city": "Block D, Defence Colony", "phone": "01171200900", "website": "https://www.trinitytouch.com/", "rating": 4, "review_count": "", "latitude": 28.5760464, "longitude": 77.2382319, "maps_url": "https://www.google.com/maps/place/?q=place_id:0x390ce25115555555:0xf9e9c5274d4eb8b1"}, {"place_id": "0x390ce3ab86f5194f:0xb871f462aaec25b", "name": "Regard Network Solution Ltd", "category": "Corporate office", "street": "G37", "city": "Block G, Lajpat Nagar I, Lajpat Nagar", "phone": "09873160371", "website": "http://www.regardnetwork.com/", "rating": 4.9, "review_count": "", "latitude": 28.5745355, "longitude": 77.2439182, "maps_url": "https://www.google.com/maps/place/?q=place_id:0x390ce3ab86f5194f:0xb871f462aaec25b"}, {"place_id": "0x390ce396d46f7b85:0x7d3174dd46d8163", "name": "Infomedia Web Solutions", "category": "Software company", "street": "2nd Floor", "city": "B-63", "phone": "01141719159", "website": "http://www.iws.in/", "rating": 5, "review_count": "", "latitude": 28.5755172, "longitude": 77.2390808, "maps_url": "https://www.google.com/maps/place/?q=place_id:0x390ce396d46f7b85:0x7d3174dd46d8163"}, {"place_id": "0x390ce3aa3a0e9663:0xe4a3bb8adf93b7ea", "name": "Magica Facility Management Services (I) Pvt Ltd", "category": "Property management company", "street": "I-3, Lajpat Nagar 1st (near jal vihar bus terminal Block I", "city": "Lajpat Nagar 1, Lajpat Nagar", "phone": "09891199568", "website": "", "rating": 4.4, "review_count": "", "latitude": 28.5775604, "longitude": 77.24403649999999, "maps_url": "https://www.google.com/maps/place/?q=place_id:0x390ce3aa3a0e9663:0xe4a3bb8adf93b7ea"}, {"place_id": "0x390ce3fa30cb5c19:0xc2b9c3fe8db1dd54", "name": "KIREN SMART SERVICES", "category": "Software company", "street": "D-196, New", "city": "G/F, Lajpat Nagar I, Lajpat Nagar", "phone": "09873907360", "website": "https://kirensmartservices.com/", "rating": 4.1, "review_count": "", "latitude": 28.5785903, "longitude": 77.2423422, "maps_url": "https://www.google.com/maps/place/?q=place_id:0x390ce3fa30cb5c19:0xc2b9c3fe8db1dd54"}, {"place_id": "0x390ce3ad9aaaaaab:0xcd1d6f28c3a14398", "name": "Team Building Pro - Corporate Team Building Company in Delhi NCR", "category": "Corporate office", "street": "1st-Floor", "city": "B-94", "phone": "09871030465", "website": "https://teambuildingpro.in/", "rating": 4.9, "review_count": "", "latitude": 28.5744208, "longitude": 77.23969579999999, "maps_url": "https://www.google.com/maps/place/?q=place_id:0x390ce3ad9aaaaaab:0xcd1d6f28c3a14398"}, {"place_id": "0x390ce3e0d9819b1f:0x5130a9fcffa51881", "name": "iCyberPro Private Limited", "category": "Software company", "street": "G37 L G F", "city": "Part-1, Lajpat Nagar", "phone": "01140586135", "website": "http://www.icyberpro.com/", "rating": 4, "review_count": "", "latitude": 28.574482999999997, "longitude": 77.2443179, "maps_url": "https://www.google.com/maps/place/?q=place_id:0x390ce3e0d9819b1f:0x5130a9fcffa51881"}, {"place_id": "0x390ce3248e830509:0xd7a953f1bdcfc1bb", "name": "shree jee computers", "category": "Computer store", "street": "shop no 32", "city": "Flyover Market", "phone": "09810910098", "website": "", "rating": 5, "review_count": "", "latitude": 28.5772513, "longitude": 77.2382514, "maps_url": "https://www.google.com/maps/place/?q=place_id:0x390ce3248e830509:0xd7a953f1bdcfc1bb"}, {"place_id": "0x390ce23380a529cb:0x8904d3487ff7cc2f", "name": "Uboard India Limited", "category": "Electronics manufacturer", "street": "basement", "city": "E 179", "phone": "01141086999", "website": "http://www.uboardindia.com/", "rating": 4.5, "review_count": "", "latitude": 28.5748951, "longitude": 77.2421301, "maps_url": "https://www.google.com/maps/place/?q=place_id:0x390ce23380a529cb:0x8904d3487ff7cc2f"}, {"place_id": "0x390ce342ff509623:0xa36bb8b2ffc30660", "name": "Cloudstrats", "category": "Computer support and services", "street": "C-1", "city": "Block C, Lajpat Nagar I, Lajpat Nagar", "phone": "", "website": "http://www.cloudstrats.com/", "rating": 3, "review_count": "", "latitude": 28.577239, "longitude": 77.241252, "maps_url": "https://www.google.com/maps/place/?q=place_id:0x390ce342ff509623:0xa36bb8b2ffc30660"}, {"place_id": "0x390ce254bf57265b:0x505e0e887ce03175", "name": "Brand Visage Communications Pvt. Ltd.", "category": "Website designer", "street": "2nd & 3rd floor", "city": "A-120", "phone": "09717580410", "website": "https://brandvisage.com/", "rating": 4.5, "review_count": "", "latitude": 28.5742624, "longitude": 77.23923049999999, "maps_url": "https://www.google.com/maps/place/?q=place_id:0x390ce254bf57265b:0x505e0e887ce03175"}, {"place_id": "0x390ce3e76f454143:0x2db07b83acbd0867", "name": "Media Mosiac OPC Private Limited", "category": "Software company", "street": "3rd Floor", "city": "D-152", "phone": "09810122333", "website": "https://mediamosiac.com/", "rating": 4.9, "review_count": "", "latitude": 28.5782447, "longitude": 77.2425171, "maps_url": "https://www.google.com/maps/place/?q=place_id:0x390ce3e76f454143:0x2db07b83acbd0867"}, {"place_id": "0x390ce3aac4b09ff5:0xd34911ec054581e4", "name": "MAGNUS BRAND SOLUTIONS | Best Digital Printing Service Providers in Delhi.", "category": "Digital printer", "street": "D-103", "city": "Block D, Lajpat Nagar I, Lajpat Nagar", "phone": "09891913033", "website": "https://api.whatsapp.com/send/?phone=919891913033&text&type=phone_number&app_absent=0", "rating": 4.7, "review_count": "", "latitude": 28.5776723, "longitude": 77.2415005, "maps_url": "https://www.google.com/maps/place/?q=place_id:0x390ce3aac4b09ff5:0xd34911ec054581e4"}, {"place_id": "0x390ce31349456885:0x688956f3b83da8ef", "name": "Servexa AI", "category": "Software company", "street": "1st Floor", "city": "C70", "phone": "", "website": "https://www.servexa.store/", "rating": 5, "review_count": "", "latitude": 28.578234199999997, "longitude": 77.2394442, "maps_url": "https://www.google.com/maps/place/?q=place_id:0x390ce31349456885:0x688956f3b83da8ef"}, {"place_id": "0x390ce3ab6aaaaaad:0x67678fb5a9ac765", "name": "AAA Capital Services Private Limited", "category": "Corporate office", "street": "House number 143", "city": "144", "phone": "01146070000", "website": "http://aaacapitalservices.com/", "rating": 4.3, "review_count": "", "latitude": 28.5755205, "longitude": 77.2419522, "maps_url": "https://www.google.com/maps/place/?q=place_id:0x390ce3ab6aaaaaad:0x67678fb5a9ac765"}, {"place_id": "0x390d1d95680f6469:0x5880c301a57cb7e5", "name": "CUMIQ PHARMACEUTICALS", "category": "Pharmaceutical company", "street": "D-42, Ground Floor", "city": "Shiniwas Puri, Block D, Saket", "phone": "07583861111", "website": "http://cumiq.com/", "rating": 5, "review_count": "", "latitude": 28.5746172, "longitude": 77.2383969, "maps_url": "https://www.google.com/maps/place/?q=place_id:0x390d1d95680f6469:0x5880c301a57cb7e5"}, {"place_id": "0x390ce3aabe3be0eb:0xa1c1b5482c128a5f", "name": "Expert De Tours Pvt Ltd - Corporate MICE Events & Travel Management Services", "category": "Event management company", "street": "1st Floor", "city": "B-94", "phone": "09871030465", "website": "https://expertdetours.com/", "rating": 4.9, "review_count": "", "latitude": 28.5745817, "longitude": 77.2390889, "maps_url": "https://www.google.com/maps/place/?q=place_id:0x390ce3aabe3be0eb:0xa1c1b5482c128a5f"}, {"place_id": "0x390ce3fe3a17deab:0x891279d1579f23f1", "name": "Super Smelly", "category": "FMCG Manufacturer", "street": "1st Floor", "city": "C-1", "phone": "09843780077", "website": "", "rating": 4.8, "review_count": "", "latitude": 28.5772555, "longitude": 77.24155429999999, "maps_url": "https://www.google.com/maps/place/?q=place_id:0x390ce3fe3a17deab:0x891279d1579f23f1"}, {"place_id": "0x390cfd20939bc883:0x32b80e94b7431028", "name": "Sun & Social", "category": "Internet marketing service", "street": "C- 174, GF", "city": "Block C, Lajpat Nagar I, Lajpat Nagar", "phone": "09922002402", "website": "https://www.sunandsocial.com/", "rating": 4.9, "review_count": "", "latitude": 28.5774665, "longitude": 77.2397831, "maps_url": "https://www.google.com/maps/place/?q=place_id:0x390cfd20939bc883:0x32b80e94b7431028"}, {"place_id": "0x390ce3e7f5983fe1:0xe3635e6a38944dd5", "name": "JJ India Services", "category": "Consultant", "street": "second floor", "city": "B-108", "phone": "09891250774", "website": "", "rating": 4.8, "review_count": "", "latitude": 28.5748118, "longitude": 77.2391959, "maps_url": "https://www.google.com/maps/place/?q=place_id:0x390ce3e7f5983fe1:0xe3635e6a38944dd5"}, {"place_id": "0x390ce3b26afb6f45:0x9c7aff2d5088bf4", "name": "Eye Telefilms Pvt Ltd", "category": "Mortgage broker", "street": "3rd Floor", "city": "A-128", "phone": "09910944111", "website": "", "rating": 3.7, "review_count": "", "latitude": 28.5742811, "longitude": 77.2405651, "maps_url": "https://www.google.com/maps/place/?q=place_id:0x390ce3b26afb6f45:0x9c7aff2d5088bf4"}, {"place_id": "0x390cfb8f03cb6359:0x15f4b8ef52df4919", "name": "Brighten HVAC Services", "category": "HVAC contractor", "street": "D-106", "city": "Lajpat Nagar I, Lajpat Nagar", "phone": "09818947171", "website": "", "rating": 4.8, "review_count": "", "latitude": 28.577879, "longitude": 77.241507, "maps_url": "https://www.google.com/maps/place/?q=place_id:0x390cfb8f03cb6359:0x15f4b8ef52df4919"}, {"place_id": "0x390ce2554080dcfb:0xab54639cbf8719e4", "name": "Goosebumps Brand Solutions Pvt. Ltd.", "category": "Advertising agency", "street": "C-61", "city": "Block C, Lajpat Nagar I, Lajpat Nagar", "phone": "01129810368", "website": "http://www.goosebumps.co.in/", "rating": 4.3, "review_count": "", "latitude": 28.5781629, "longitude": 77.239334, "maps_url": "https://www.google.com/maps/place/?q=place_id:0x390ce2554080dcfb:0xab54639cbf8719e4"}, {"place_id": "0x390ce25304e987a1:0x9883905c6c688cd0", "name": "Mayank Chopra & Company, Chartered Accountants", "category": "Certified public accountant", "street": "ground floor", "city": "B-23", "phone": "09711187962", "website": "https://youtube.com/channel/UCQQSRyllGpD3_ikSvGjfwRw", "rating": 5, "review_count": "", "latitude": 28.5744381, "longitude": 77.2399812, "maps_url": "https://www.google.com/maps/place/?q=place_id:0x390ce25304e987a1:0x9883905c6c688cd0"}, {"place_id": "0x390ce39b30fab329:0x26cb1e316f5cbbdd", "name": "Earlyfit Health Private Limited", "category": "Wellness program", "street": "Basement G-80", "city": "Block G, Lajpat Nagar I, Lajpat Nagar", "phone": "", "website": "http://www.early.fit/", "rating": 4.7, "review_count": "", "latitude": 28.574762399999997, "longitude": 77.2457464, "maps_url": "https://www.google.com/maps/place/?q=place_id:0x390ce39b30fab329:0x26cb1e316f5cbbdd"}, {"place_id": "0x390ce3a03755879f:0xcda33660e1f11277", "name": "Kumar Personnel Services Pvt. Ltd.", "category": "Consultant", "street": "2nd Floor", "city": "B-219", "phone": "09871122762", "website": "https://www.kumarservicesindia.com/", "rating": 3.5, "review_count": "", "latitude": 28.575278899999997, "longitude": 77.24142789999999, "maps_url": "https://www.google.com/maps/place/?q=place_id:0x390ce3a03755879f:0xcda33660e1f11277"}, {"place_id": "0x390ce3b3c6aaaab3:0xd5c9eb88018fc3f2", "name": "Shagun Computers & Communications", "category": "Computer repair service", "street": "", "city": "", "phone": "09910985993", "website": "https://service.fairdeals365.com/", "rating": 3.5, "review_count": "", "latitude": 28.572833, "longitude": 77.23891909999999, "maps_url": "https://www.google.com/maps/place/?q=place_id:0x390ce3b3c6aaaab3:0xd5c9eb88018fc3f2"}, {"place_id": "0x390ce3aa4ada8809:0x87c5036936cdc386", "name": "SK IT Technologies", "category": "Software company", "street": "H-I-130, 131", "city": "Lajpat Nagar I", "phone": "09899832763", "website": "", "rating": "", "review_count": "", "latitude": 28.5772716, "longitude": 77.2446801, "maps_url": "https://www.google.com/maps/place/?q=place_id:0x390ce3aa4ada8809:0x87c5036936cdc386"}, {"place_id": "0x390ce3ac77ceffff:0x2af2b7e2518077a9", "name": "Quick Media IT Solutions", "category": "Software company", "street": "F-123", "city": "F Block, Lajpat Nagar I, Lado Sarai", "phone": "09953619216", "website": "", "rating": "", "review_count": "", "latitude": 28.574249199999997, "longitude": 77.2442535, "maps_url": "https://www.google.com/maps/place/?q=place_id:0x390ce3ac77ceffff:0x2af2b7e2518077a9"}, {"place_id": "0x390ce34df15b6023:0x1c1f8cf62c84d024", "name": "KickShip Logistics Solutions", "category": "Courier service", "street": "E-205", "city": "Block E, Lajpat Nagar I, Lajpat Nagar", "phone": "07570001757", "website": "https://kickship.in/", "rating": 5, "review_count": "", "latitude": 28.574182999999998, "longitude": 77.24308599999999, "maps_url": "https://www.google.com/maps/place/?q=place_id:0x390ce34df15b6023:0x1c1f8cf62c84d024"}, {"place_id": "0x390ce336524203b1:0xa309f87413b4feb1", "name": "Faith Group", "category": "Medical supply store", "street": "E 107", "city": "Block B, Lajpat Nagar I, Lajpat Nagar", "phone": "", "website": "http://www.faithgroup.co.in/", "rating": 4.8, "review_count": "", "latitude": 28.574453, "longitude": 77.24140729999999, "maps_url": "https://www.google.com/maps/place/?q=place_id:0x390ce336524203b1:0xa309f87413b4feb1"}, {"place_id": "0x390ce3933668f397:0x244ceae67747ad76", "name": "A.S. EDUTECH HR Consultant", "category": "Employment consultant", "street": "B-33, Birbal Rd", "city": "Block B, Lajpat Nagar I, Lajpat Nagar", "phone": "01129826224", "website": "https://asedutech.com/", "rating": 4, "review_count": "", "latitude": 28.5743777, "longitude": 77.2398884, "maps_url": "https://www.google.com/maps/place/?q=place_id:0x390ce3933668f397:0x244ceae67747ad76"}, {"place_id": "0x390ce3d4d323ae77:0xc1ebcde8daf4b96a", "name": "Royal mesh mosquito net for door and window", "category": "Door manufacturer", "street": "G-36 basement", "city": "Block G, part -1, Lajpat Nagar", "phone": "08860100400", "website": "http://royalmesh.in/", "rating": 4.8, "review_count": "", "latitude": 28.574482099999997, "longitude": 77.244323, "maps_url": "https://www.google.com/maps/place/?q=place_id:0x390ce3d4d323ae77:0xc1ebcde8daf4b96a"}, {"place_id": "0x390ce39dfe60b8c7:0xe12daf30aa86fcd9", "name": "Ice-Box AC Solution", "category": "Air conditioning repair service", "street": "Shop no. 842", "city": "near Krishna Market", "phone": "07678578132", "website": "https://ac-service-center.com/ice-box-ac-solution/", "rating": 5, "review_count": "", "latitude": 28.5760009, "longitude": 77.2420568, "maps_url": "https://www.google.com/maps/place/?q=place_id:0x390ce39dfe60b8c7:0xe12daf30aa86fcd9"}, {"place_id": "0x390ce3b1a5555551:0x361348dffb8c47ba", "name": "Indjapink", "category": "Travel agency", "street": "Ground Floor", "city": "B-91", "phone": "09350013934", "website": "http://www.indjapink.co.in/", "rating": 2.7, "review_count": "", "latitude": 28.574520399999997, "longitude": 77.23963169999999, "maps_url": "https://www.google.com/maps/place/?q=place_id:0x390ce3b1a5555551:0x361348dffb8c47ba"}, {"place_id": "0x390ce3201e24a4b5:0xf4434f184fe61c22", "name": "9 O'CLOCK MEDIA", "category": "Marketing agency", "street": "C 20", "city": "near Lajpat Nagar Metro Station", "phone": "09955657556", "website": "https://www.9oclockmedia.com/", "rating": 4.4, "review_count": "", "latitude": 28.5771512, "longitude": 77.2402079, "maps_url": "https://www.google.com/maps/place/?q=place_id:0x390ce3201e24a4b5:0xf4434f184fe61c22"}, {"place_id": "0x390ce31de3d8c9bd:0x9fb2f1f29a8a1900", "name": "Mint Relocation Packers And Movers", "category": "Moving and storage service", "street": "18, Market No.3", "city": "Chitranjan Park", "phone": "09821779823", "website": "https://mintrelocationpackers.com/packers-and-movers-Chitranjan-Park-New-Delhi/", "rating": 4.8, "review_count": "", "latitude": 28.5754423, "longitude": 77.2413986, "maps_url": "https://www.google.com/maps/place/?q=place_id:0x390ce31de3d8c9bd:0x9fb2f1f29a8a1900"}, {"place_id": "0x390ce394526059d9:0xd9bc1c2340786554", "name": "Logistics Insider", "category": "Media house", "street": "3rd floor", "city": "D-218", "phone": "09971516225", "website": "http://www.logisticsinsider.in/", "rating": 5, "review_count": "", "latitude": 28.5742668, "longitude": 77.2399069, "maps_url": "https://www.google.com/maps/place/?q=place_id:0x390ce394526059d9:0xd9bc1c2340786554"}, {"place_id": "0x390ce3cade5a6131:0x8555a65420072dd8", "name": "Delhi EyeZone Pvt Ltd", "category": "Surgical Products Wholesaler", "street": "Ground Floor", "city": "D-114, Dr Ramlal Verma Marg", "phone": "09560104510", "website": "http://www.dezpl.com/", "rating": 4.8, "review_count": "", "latitude": 28.577757, "longitude": 77.2414988, "maps_url": "https://www.google.com/maps/place/?q=place_id:0x390ce3cade5a6131:0x8555a65420072dd8"}, {"place_id": "0x390ce32da11fdb8f:0xf42808c526f93949", "name": "Highland Excursions India Pvt. Ltd.", "category": "Tour operator", "street": "First Floor", "city": "B-111", "phone": "09070050050", "website": "https://highlandexcursionsindia.com/", "rating": 5, "review_count": "", "latitude": 28.5751742, "longitude": 77.23904069999999, "maps_url": "https://www.google.com/maps/place/?q=place_id:0x390ce32da11fdb8f:0xf42808c526f93949"}, {"place_id": "0x390ce254a669154b:0xc953b15cb9ee5456", "name": "Vin Grace", "category": "Mobility equipment supplier", "street": "A-111", "city": "Block A, Lajpat Nagar I, Lajpat Nagar", "phone": "09811147550", "website": "https://www.vingrace.com/", "rating": 4.5, "review_count": "", "latitude": 28.5742728, "longitude": 77.2393955, "maps_url": "https://www.google.com/maps/place/?q=place_id:0x390ce254a669154b:0xc953b15cb9ee5456"}, {"place_id": "0x390ce32e382683af:0x7fbc83400be16c52", "name": "SAUCIER", "category": "Warehouse", "street": "D- 145", "city": "Part - 1", "phone": "", "website": "", "rating": 5, "review_count": "", "latitude": 28.575263699999997, "longitude": 77.24161529999999, "maps_url": "https://www.google.com/maps/place/?q=place_id:0x390ce32e382683af:0x7fbc83400be16c52"}, {"place_id": "0x390ce3ab5b08f5f1:0xbd42d57dea5727a9", "name": "Travel World Trip Pvt Ltd", "category": "Travel agency", "street": "A 128", "city": "Block B, Lajpat Nagar I, Lajpat Nagar", "phone": "01141414124", "website": "http://www.travelworldtrip.com/", "rating": 5, "review_count": "", "latitude": 28.5744208, "longitude": 77.23969579999999, "maps_url": "https://www.google.com/maps/place/?q=place_id:0x390ce3ab5b08f5f1:0xbd42d57dea5727a9"}, {"place_id": "0x390ce35e3af6d567:0x11cd18f1bea735a6", "name": "Niva Bupa Health Insurance Company Limited - Registered Office", "category": "Insurance company", "street": "First Floor", "city": "C-98", "phone": "18003093333", "website": "https://health-insurance-nearme.nivabupa.com/niva-bupa-health-insurance-company-limited-registered-office-insurance-company-lajpat-nagar-1-new-delhi-200923/Home", "rating": 1.6, "review_count": "", "latitude": 28.577271, "longitude": 77.2392272, "maps_url": "https://www.google.com/maps/place/?q=place_id:0x390ce35e3af6d567:0x11cd18f1bea735a6"}, {"place_id": "0x390ce3ab75281663:0x6e8b8161cdf8c52d", "name": "Bornlife Artificial Limbs Center", "category": "Orthotics & Prosthetics Centre", "street": "Ground floor", "city": "Infront of krishna Market Gurudwara", "phone": "07703813639", "website": "https://www.bornlife.in/", "rating": 4.9, "review_count": 1245, "latitude": 28.5761811, "longitude": 77.2432985, "maps_url": "https://www.google.com/maps/place/?q=place_id:0x390ce3ab75281663:0x6e8b8161cdf8c52d"}, {"place_id": "0x390ce254af400001:0x4b43e2a6d8441fb2", "name": "Rangjogi", "category": "Design agency", "street": "H-120", "city": "Block H, Lajpat Nagar I, Lajpat Nagar", "phone": "09899912182", "website": "", "rating": 4.9, "review_count": "", "latitude": 28.577408799999997, "longitude": 77.2435831, "maps_url": "https://www.google.com/maps/place/?q=place_id:0x390ce254af400001:0x4b43e2a6d8441fb2"}, {"place_id": "0x390ce25382f232cb:0x2ff3f074a70e801b", "name": "Dass Photo Electronics ( Canon Image Square )", "category": "Camera store", "street": "C 97, Lala Lajpat Rai Rd", "city": "opposite Defence Colony Flyover", "phone": "09811089753", "website": "http://justcameras.in/", "rating": 4.8, "review_count": "", "latitude": 28.577511899999998, "longitude": 77.2389993, "maps_url": "https://www.google.com/maps/place/?q=place_id:0x390ce25382f232cb:0x2ff3f074a70e801b"}, {"place_id": "0x390ce3abb3a0ab11:0x2ffd54356c03edd6", "name": "AJ Atelier Architects", "category": "Architect", "street": "H-55, LGF", "city": "Block H, Lajpat Nagar I, Lajpat Nagar", "phone": "07860828689", "website": "", "rating": 4.7, "review_count": "", "latitude": 28.577002999999998, "longitude": 77.244355, "maps_url": "https://www.google.com/maps/place/?q=place_id:0x390ce3abb3a0ab11:0x2ffd54356c03edd6"}, {"place_id": "0x390ce391e64b942d:0x90dca1c88099e466", "name": "Le Florence Weddings", "category": "Wedding planner", "street": "1st Floor", "city": "A 106", "phone": "08882692082", "website": "http://www.leflorenceweddings.com/", "rating": 4.5, "review_count": "", "latitude": 28.578791499999998, "longitude": 77.2391778, "maps_url": "https://www.google.com/maps/place/?q=place_id:0x390ce391e64b942d:0x90dca1c88099e466"}, {"place_id": "0x390ce3abb3a0ab11:0x2ffd54356c03edd6", "name": "AJ Atelier Architects", "category": "Architect", "street": "H-55, LGF", "city": "Block H, Lajpat Nagar I, Lajpat Nagar", "phone": "07860828689", "website": "", "rating": 4.7, "review_count": "", "latitude": 28.577002999999998, "longitude": 77.244355, "maps_url": "https://www.google.com/maps/place/?q=place_id:0x390ce3abb3a0ab11:0x2ffd54356c03edd6"}, {"place_id": "0x390ce391e64b942d:0x90dca1c88099e466", "name": "Le Florence Weddings", "category": "Wedding planner", "street": "1st Floor", "city": "A 106", "phone": "08882692082", "website": "http://www.leflorenceweddings.com/", "rating": 4.5, "review_count": "", "latitude": 28.578791499999998, "longitude": 77.2391778, "maps_url": "https://www.google.com/maps/place/?q=place_id:0x390ce391e64b942d:0x90dca1c88099e466"}, {"place_id": "0x390ce3ab5078d5a7:0xdbc2c38b3db27198", "name": "A.K. Computer Centre", "category": "Print shop", "street": "B 175", "city": "Block B, Lajpat Nagar I, Lajpat Nagar", "phone": "09811281251", "website": "", "rating": 4.8, "review_count": "", "latitude": 28.5748067, "longitude": 77.2412504, "maps_url": "https://www.google.com/maps/place/?q=place_id:0x390ce3ab5078d5a7:0xdbc2c38b3db27198"}, {"place_id": "0x390d1ac639696983:0x85bcfd85099bf961", "name": "Sonyo Management Consultants", "category": "Employment agency", "street": "1st Floor", "city": "B-104", "phone": "01142170000", "website": "http://www.sonyocareers.com/", "rating": 2.9, "review_count": "", "latitude": 28.5770238, "longitude": 77.2433108, "maps_url": "https://www.google.com/maps/place/?q=place_id:0x390d1ac639696983:0x85bcfd85099bf961"}, {"place_id": "0x390ce2549c6cf911:0xb0b64e8bd738c1fb", "name": "Tata Capital Housing Finance Limited", "category": "Financial institution", "street": "No B36, 1st & 2nd Floor", "city": "Lajpat Nagar", "phone": "18602676060", "website": "https://branches.tatacapital.com/tata-capital-housing-finance-limited-delhi-lajpat-nagar-financial-institutions-lajpat-nagar-new-delhi-92226/Home?utm_source=locator&utm_medium=googleplaces", "rating": 2.2, "review_count": "", "latitude": 28.5742607, "longitude": 77.2383543, "maps_url": "https://www.google.com/maps/place/?q=place_id:0x390ce2549c6cf911:0xb0b64e8bd738c1fb"}, {"place_id": "0x390ce384e014f203:0x72b81ac986e754a5", "name": "UClean Dry Cleaner", "category": "Dry cleaner", "street": "Shop No. 2 B", "city": "Krishna Market, Block G, Lajpat Nagar I, Lajpat Nagar", "phone": "09220524500", "website": "https://uclean.in/", "rating": 4.8, "review_count": "", "latitude": 28.5754731, "longitude": 77.243332, "maps_url": "https://www.google.com/maps/place/?q=place_id:0x390ce384e014f203:0x72b81ac986e754a5"}, {"place_id": "0x390ce3ab74cacdf1:0xe708090e85940ae6", "name": "Shankar Photostat", "category": "Print shop", "street": "Shop No-4", "city": "E-167", "phone": "01141726802", "website": "", "rating": 4.8, "review_count": "", "latitude": 28.574793399999997, "longitude": 77.2415527, "maps_url": "https://www.google.com/maps/place/?q=place_id:0x390ce3ab74cacdf1:0xe708090e85940ae6"}, {"place_id": "0x390ce3fc4baef06f:0x68701edfdf6d56f1", "name": "Authentic School Of Knowledge (Event Management Institute | Digital Marketing Institute | Personality Development Institute)", "category": "Educational institution", "street": "A 121", "city": "1", "phone": "09871264599", "website": "https://www.authenticschoolofknowledge.com/", "rating": 5, "review_count": "", "latitude": 28.5744208, "longitude": 77.23969579999999, "maps_url": "https://www.google.com/maps/place/?q=place_id:0x390ce3fc4baef06f:0x68701edfdf6d56f1"}, {"place_id": "0x390ce25515e28cc1:0x82ab2644aa00fc9d", "name": "Aircruise Travels Pvt. Ltd.", "category": "Travel agency", "street": "C 101 - 102", "city": "Block B, Lajpat Nagar I, Lajpat Nagar", "phone": "01146556000", "website": "https://aircruise.co.in/", "rating": 3.8, "review_count": "", "latitude": 28.5744208, "longitude": 77.23969579999999, "maps_url": "https://www.google.com/maps/place/?q=place_id:0x390ce25515e28cc1:0x82ab2644aa00fc9d"}, {"place_id": "0x390ce3ab818e69ff:0xd9dd3878fc49e965", "name": "Sanjay Photostat", "category": "Print shop", "street": "Ground Floor", "city": "G-44", "phone": "", "website": "https://www.google.com/search?q=Sanjay%20Photostat&rlz=1C1CHBD_enIN907IN907&oq=SA&aqs=chrome.0.69i59j46i67j69i57j69i59j0i67j46i67j69i60j69i61.2623j0j7&sourceid=chrome&ie=UTF-8&ludocid=15698765968363350373&lsig=AB86z5UkCeLbcBQVRwbN42VlqCGF&ved=2ahUKEwiB4sby_N31AhX3SGwGHel4AnYQrMcEegQIAxAF", "rating": 4.9, "review_count": "", "latitude": 28.574617099999998, "longitude": 77.24365139999999, "maps_url": "https://www.google.com/maps/place/?q=place_id:0x390ce3ab818e69ff:0xd9dd3878fc49e965"}, {"place_id": "0x390ce3b48e27a55f:0x9c9fe41bab237ce2", "name": "Trackon Express ( Courier & Cargo )", "category": "Courier service", "street": "E-205", "city": "above Trackon Couriers", "phone": "09811186123", "website": "http://www.trackonexpress.com/", "rating": 3.7, "review_count": "", "latitude": 28.574268999999997, "longitude": 77.2431618, "maps_url": "https://www.google.com/maps/place/?q=place_id:0x390ce3b48e27a55f:0x9c9fe41bab237ce2"}, {"place_id": "0x390ce3ab5951fb5f:0x5a9f1d00250c50c6", "name": "JSB Health & Fitness Pvt Ltd || Body Massagers & Fitness Equipment", "category": "Massage supply store", "street": "E-106, Lajpat Nagar-1, Krishna Market", "city": "New Delhi, Delhi 110024", "phone": "08010402110", "website": "https://jsbhealthcare.co.in/", "rating": 4.5, "review_count": "", "latitude": 28.5743515, "longitude": 77.2415834, "maps_url": "https://www.google.com/maps/place/?q=place_id:0x390ce3ab5951fb5f:0x5a9f1d00250c50c6"}, {"place_id": "0x390ce3f26d742367:0x59fe168f20eb094b", "name": "Wadhwa & Co.", "category": "Law firm", "street": "Third Floor", "city": "C-104", "phone": "", "website": "https://www.wadhwalawgroup.com/", "rating": 5, "review_count": "", "latitude": 28.5779878, "longitude": 77.2389907, "maps_url": "https://www.google.com/maps/place/?q=place_id:0x390ce3f26d742367:0x59fe168f20eb094b"}, {"place_id": "0x390ce356c1ac3823:0x31dd91d5b12c73c7", "name": "AVIT LIFESTYLE", "category": "Furniture store", "street": "level - 3", "city": "D 7", "phone": "09891188316", "website": "http://www.avitlifestyle.com/", "rating": 4.8, "review_count": "", "latitude": 28.5767322, "longitude": 77.2381839, "maps_url": "https://www.google.com/maps/place/?q=place_id:0x390ce356c1ac3823:0x31dd91d5b12c73c7"}, {"place_id": "0x390ce3ac8209b6bb:0x93a60f8d6e35ce96", "name": "Jumbo Courier & Cargo", "category": "Courier service", "street": "E-205", "city": "Block E, Lajpat Nagar I, Lajpat Nagar", "phone": "09811187123", "website": "http://www.jumbocourier.com/", "rating": 4.3, "review_count": "", "latitude": 28.574181799999998, "longitude": 77.2430856, "maps_url": "https://www.google.com/maps/place/?q=place_id:0x390ce3ac8209b6bb:0x93a60f8d6e35ce96"}, {"place_id": "0x390ce3b4732c3727:0xc7b55e4aaa5a078a", "name": "Raj International", "category": "Courier service", "street": "E205, Banphul Marg", "city": "Block E, Lajpat Nagar I, Lajpat Nagar", "phone": "09811188123", "website": "http://www.rajinternational.in/", "rating": 4.4, "review_count": "", "latitude": 28.574282399999998, "longitude": 77.243164, "maps_url": "https://www.google.com/maps/place/?q=place_id:0x390ce3b4732c3727:0xc7b55e4aaa5a078a"}, {"place_id": "0x390ce3ae87ed6759:0x22b0a629995f94dc", "name": "All", "category": "Water utility company", "street": "Jal Vihar", "city": "S70/6", "phone": "08595458505", "website": "", "rating": 3.5, "review_count": "", "latitude": 28.5771864, "longitude": 77.2465098, "maps_url": "https://www.google.com/maps/place/?q=place_id:0x390ce3ae87ed6759:0x22b0a629995f94dc"}, {"place_id": "0x390cfb833c91bad1:0x139352c3c009ae18", "name": "Kriss Juris & Co", "category": "Legal services", "street": "Lower Ground Floor", "city": "C-87", "phone": "09958891040", "website": "https://krissjurisnco.com/", "rating": 5, "review_count": "", "latitude": 28.5776512, "longitude": 77.239418, "maps_url": "https://www.google.com/maps/place/?q=place_id:0x390cfb833c91bad1:0x139352c3c009ae18"}, {"place_id": "0x390ce32f5e99af25:0x2d46d8ea4c7d729a", "name": "The Hatch Project Pvt. Ltd", "category": "Public relations firm", "street": "", "city": "", "phone": "09953137673", "website": "https://www.linkedin.com/company/thehatchproject/", "rating": 3.9, "review_count": "", "latitude": 21.0680074, "longitude": 82.7525294, "maps_url": "https://www.google.com/maps/place/?q=place_id:0x390ce32f5e99af25:0x2d46d8ea4c7d729a"}, {"place_id": "0x390ce25522cb4b0d:0x6e526583e5d18622", "name": "Gulshan Estate Agents \u2013 Real Estate Consultants", "category": "Real estate agent", "street": "C-115, Opp Defence Colony Flyover Market", "city": "Lajpat Nagar I", "phone": "09810101323", "website": "https://www.gulshanestate.co.in/", "rating": 4.7, "review_count": "", "latitude": 28.5772956, "longitude": 77.2390183, "maps_url": "https://www.google.com/maps/place/?q=place_id:0x390ce25522cb4b0d:0x6e526583e5d18622"}, {"place_id": "0x390ce3b45fc2bd37:0xb6493f398d677b59", "name": "AAR TAX INDIA\u2122", "category": "Legal services", "street": "C 153", "city": "near Central Market", "phone": "07428747474", "website": "https://aartaxindia.com/", "rating": 5, "review_count": "", "latitude": 28.578130599999998, "longitude": 77.24073369999999, "maps_url": "https://www.google.com/maps/place/?q=place_id:0x390ce3b45fc2bd37:0xb6493f398d677b59"}, {"place_id": "0x390d1d8baaaaaaab:0x125a0a91b17df577", "name": "Carnation Holidays", "category": "Tour operator", "street": "B-63", "city": "Lajpat Nagar - 1", "phone": "01146100200", "website": "http://www.carnationtravels.com/", "rating": 4, "review_count": "", "latitude": 28.5755895, "longitude": 77.2391119, "maps_url": "https://www.google.com/maps/place/?q=place_id:0x390d1d8baaaaaaab:0x125a0a91b17df577"}, {"place_id": "0x390ce3ac865b8961:0x75207e31eb187a44", "name": "Patnaik and Associates", "category": "Law firm", "street": "Second Floor", "city": "B-97", "phone": "01129811137", "website": "http://sangrampatnaik.com/", "rating": 4.4, "review_count": "", "latitude": 28.5747435, "longitude": 77.2391486, "maps_url": "https://www.google.com/maps/place/?q=place_id:0x390ce3ac865b8961:0x75207e31eb187a44"}, {"place_id": "0x390ce334c418af87:0x993334fad816dd56", "name": "Sai Fruits & Vegetables", "category": "Fruits Wholesaler", "street": "Shop No 36", "city": "Krishna Market, Block D, Lajpat Nagar I, Lajpat Nagar", "phone": "08448425721", "website": "http://www.saifruitshop.com/", "rating": 5, "review_count": "", "latitude": 28.5752341, "longitude": 77.24296509999999, "maps_url": "https://www.google.com/maps/place/?q=place_id:0x390ce334c418af87:0x993334fad816dd56"}, {"place_id": "0x390ce3b2886ebe4d:0xfc6ce3e2614d8356", "name": "Alroz Aviation Air Hostess Training Institute | Air Hostess Course, BBA Course, BSc Aviation", "category": "Aviation training institute", "street": "1st Floor", "city": "B-113", "phone": "09582309117", "website": "https://alrozaviation.com/", "rating": 4.4, "review_count": "", "latitude": 28.5757612, "longitude": 77.239201, "maps_url": "https://www.google.com/maps/place/?q=place_id:0x390ce3b2886ebe4d:0xfc6ce3e2614d8356"}, {"place_id": "0x390ce7be9117dd55:0xf0d211aa017c9a94", "name": "Saif Bartender Services", "category": "Bar", "street": "I I - 3", "city": "Block B, Part - 1, Lajpat Nagar", "phone": "09810793470", "website": "", "rating": 4.9, "review_count": "", "latitude": 28.5744208, "longitude": 77.23969579999999, "maps_url": "https://www.google.com/maps/place/?q=place_id:0x390ce7be9117dd55:0xf0d211aa017c9a94"}, {"place_id": "0x25aab5346245edf3:0x73069c69d088519b", "name": "Adaptive IT-School ERP, Software", "category": "Software company", "street": "", "city": "", "phone": "", "website": "https://www.adaptiveitsystems.com/", "rating": "", "review_count": "", "latitude": 40.266869, "longitude": -47.802320699999996, "maps_url": "https://www.google.com/maps/place/?q=place_id:0x25aab5346245edf3:0x73069c69d088519b"}, {"place_id": "0x390ce3aa4ada8809:0x87c5036936cdc386", "name": "SK IT Technologies", "category": "Software company", "street": "H-I-130, 131", "city": "Lajpat Nagar I", "phone": "09899832763", "website": "", "rating": "", "review_count": "", "latitude": 28.5772716, "longitude": 77.2446801, "maps_url": "https://www.google.com/maps/place/?q=place_id:0x390ce3aa4ada8809:0x87c5036936cdc386"}, {"place_id": "0x390ce3ac77ceffff:0x2af2b7e2518077a9", "name": "Quick Media IT Solutions", "category": "Software company", "street": "F-123", "city": "F Block, Lajpat Nagar I, Lado Sarai", "phone": "09953619216", "website": "", "rating": "", "review_count": "", "latitude": 28.574249199999997, "longitude": 77.2442535, "maps_url": "https://www.google.com/maps/place/?q=place_id:0x390ce3ac77ceffff:0x2af2b7e2518077a9"}, {"place_id": "0x390ce39bacc15e3d:0x963808d97eaaf5ac", "name": "KHLI EXPORT PRIVATE LIMITED", "category": "Import export company", "street": "Basment Floor", "city": "B 56", "phone": "", "website": "http://www.khli.in/", "rating": 4.8, "review_count": "", "latitude": 28.5754478, "longitude": 77.2398031, "maps_url": "https://www.google.com/maps/place/?q=place_id:0x390ce39bacc15e3d:0x963808d97eaaf5ac"}, {"place_id": "0x390ce3aa605a805f:0xcf599b3361f63b0b", "name": "Parsoli Tours & Hospitality Pvt Ltd", "category": "Tour operator", "street": "3RD FLOOR", "city": "I 52 B", "phone": "01146121499", "website": "", "rating": 4.6, "review_count": "", "latitude": 28.5790088, "longitude": 77.24399249999999, "maps_url": "https://www.google.com/maps/place/?q=place_id:0x390ce3aa605a805f:0xcf599b3361f63b0b"}, {"place_id": "0x390ce3ad5f45af7b:0xd63776754c7c503c", "name": "Quartz Legal Associates", "category": "Lawyer", "street": "2nd Floor", "city": "A-117", "phone": "", "website": "http://www.quartzlegalassociates.com/", "rating": 4.8, "review_count": "", "latitude": 28.5742165, "longitude": 77.2399927, "maps_url": "https://www.google.com/maps/place/?q=place_id:0x390ce3ad5f45af7b:0xd63776754c7c503c"}]}