{"timestamp": 1773731485.5492449, "keyword": "IT company", "location": "delhi", "cell_idx": 462, "results": [{"place_id": "0x390ce458d0000001:0xf2123bd299ec4501", "name": "IT Company India", "category": "Software company", "street": "D56", "city": "D Block, Sector 10", "phone": "09999244854", "website": "https://www.itcompanyindia.in/", "rating": 4.7, "review_count": "", "latitude": 28.589917699999997, "longitude": 77.3351153, "maps_url": "https://www.google.com/maps/place/?q=place_id:0x390ce458d0000001:0xf2123bd299ec4501"}, {"place_id": "0x390d0328a549c17d:0x3b9e359999e2cd2f", "name": "Total IT Software Solutions", "category": "Software company", "street": "WZ-248, Plot No. 7, IInd Floor", "city": "Inder Puri", "phone": "09350515096", "website": "http://tiss.co.in/", "rating": 4.4, "review_count": "", "latitude": 28.6319838, "longitude": 77.14855709999999, "maps_url": "https://www.google.com/maps/place/?q=place_id:0x390d0328a549c17d:0x3b9e359999e2cd2f"}, {"place_id": "0x390ce21b8d636751:0xda2fa1d06a704eab", "name": "Prinknest Technology LLP", "category": "Software company", "street": "1st Floor", "city": "RZ 122 D, Plot No.1", "phone": "08076833804", "website": "https://prinknest.com/", "rating": 4.8, "review_count": "", "latitude": 28.606828, "longitude": 77.0816226, "maps_url": "https://www.google.com/maps/place/?q=place_id:0x390ce21b8d636751:0xda2fa1d06a704eab"}, {"place_id": "0x390d1d9e6d7a37ff:0xb2ddba3a08b61c05", "name": "VB Infotech India Pvt.Ltd", "category": "Software company", "street": "CB-255 1st Floor", "city": "Petrol Pump", "phone": "01125776294", "website": "http://vbinfotech.in/", "rating": 3.8, "review_count": "", "latitude": 28.6213534, "longitude": 77.1350617, "maps_url": "https://www.google.com/maps/place/?q=place_id:0x390d1d9e6d7a37ff:0xb2ddba3a08b61c05"}, {"place_id": "0x390ce3c153b89811:0xe7a279685777e9ca", "name": "IT Company", "category": "Automation company", "street": "A-14", "city": "near iskcon temple", "phone": "", "website": "http://www.opuswiz.com/", "rating": 3, "review_count": "", "latitude": 28.557167, "longitude": 77.25424819999999, "maps_url": "https://www.google.com/maps/place/?q=place_id:0x390ce3c153b89811:0xe7a279685777e9ca"}, {"place_id": "0x2a72b8b69d7b6493:0x11251466d4d34cac", "name": "WebZonal IT Company", "category": "Website designer", "street": "Wz-258/2-3, D Block Rd", "city": "Khazan Basti, Nangal Raya, Janakpuri", "phone": "09811170903", "website": "http://webzonal.com/", "rating": 5, "review_count": "", "latitude": 28.6122102, "longitude": 77.11159549999999, "maps_url": "https://www.google.com/maps/place/?q=place_id:0x2a72b8b69d7b6493:0x11251466d4d34cac"}, {"place_id": "0x390ce1597b5509e5:0xfd8209b937b44d3c", "name": "IT Solutions India Private Limited", "category": "Software company", "street": "D-88/5", "city": "Pocket D, Okhla Phase I, Okhla Industrial Estate", "phone": "09810017429", "website": "https://www.itsipl.com/", "rating": 4.2, "review_count": "", "latitude": 28.520146, "longitude": 77.280431, "maps_url": "https://www.google.com/maps/place/?q=place_id:0x390ce1597b5509e5:0xfd8209b937b44d3c"}, {"place_id": "0x390d1ca8de94abb1:0xc070687f1d5f8558", "name": "Bita Infotech IT Solutions:: Website Designing & Development Company", "category": "Software company", "street": "Rz-31 B, Street No. 5", "city": "Block M, West Sagarpur, Sagar Pur", "phone": "08178256664", "website": "https://bitainfotech.com/", "rating": 4.7, "review_count": "", "latitude": 28.6056495, "longitude": 77.1012293, "maps_url": "https://www.google.com/maps/place/?q=place_id:0x390d1ca8de94abb1:0xc070687f1d5f8558"}, {"place_id": "0x390d0306a5205339:0xc8417239bcfe9f11", "name": "RSS INFOTECH PVT.LTD", "category": "Software company", "street": "1st floor, Didar Complex", "city": "6 DLE Industrial Area office no -128,129", "phone": "09953134732", "website": "https://www.rssindia.com/", "rating": 4.5, "review_count": "", "latitude": 28.656828299999997, "longitude": 77.1425177, "maps_url": "https://www.google.com/maps/place/?q=place_id:0x390d0306a5205339:0xc8417239bcfe9f11"}, {"place_id": "0x390d02994de5e515:0xd908bc03409a0d37", "name": "Himalayan IT Solutions | Best Website Designing Company in Delhi | SEO/Digital Marketing Company in Delhi NCR, India", "category": "Website designer", "street": "61/4255, Padam Singh Rd", "city": "Block 29, Block 1, Regar Pura, Karol Bagh", "phone": "09899098509", "website": "http://www.himalayanitsolutions.com/", "rating": 3.9, "review_count": "", "latitude": 28.649673999999997, "longitude": 77.186599, "maps_url": "https://www.google.com/maps/place/?q=place_id:0x390d02994de5e515:0xd908bc03409a0d37"}, {"place_id": "0x390d013ca8ac1387:0x8a0db85b518267d5", "name": "NexGen Innovators", "category": "Website designer", "street": "114B, 3rd floor, Dwarka Mor", "city": "New Delhi, Delhi 110059", "phone": "", "website": "https://www.nexgi.com/", "rating": 4.9, "review_count": "", "latitude": 28.618961, "longitude": 77.0322202, "maps_url": "https://www.google.com/maps/place/?q=place_id:0x390d013ca8ac1387:0x8a0db85b518267d5"}, {"place_id": "0x390d1dc539fc39dd:0xa8d421a9d22cb256", "name": "India best website development company", "category": "Software company", "street": "RZ74, RZ Rd", "city": "Hans Park, Block RZ, Sagarpur East, Sagar Pur", "phone": "", "website": "https://techbuddy31.co.in/", "rating": 5, "review_count": "", "latitude": 28.6054396, "longitude": 77.1082699, "maps_url": "https://www.google.com/maps/place/?q=place_id:0x390d1dc539fc39dd:0xa8d421a9d22cb256"}, {"place_id": "0x390d1d86a4f12173:0x3a6b42ea6f4b8260", "name": "Softvanz Technologies Private Limited", "category": "Software company", "street": "Somdutt Chamber 1", "city": "BT-22/9", "phone": "", "website": "https://softvanz.com/", "rating": 5, "review_count": "", "latitude": 28.567948899999998, "longitude": 77.1889269, "maps_url": "https://www.google.com/maps/place/?q=place_id:0x390d1d86a4f12173:0x3a6b42ea6f4b8260"}, {"place_id": "0x390d1ca9e50d176d:0x9986a01a4b66bca0", "name": "VUnify Technology Private Limited", "category": "Software company", "street": "WZ-13H, Aggarwal Sweets Rd", "city": "near New", "phone": "", "website": "https://vunify.in/", "rating": 4.8, "review_count": "", "latitude": 28.6079093, "longitude": 77.1023304, "maps_url": "https://www.google.com/maps/place/?q=place_id:0x390d1ca9e50d176d:0x9986a01a4b66bca0"}, {"place_id": "0x390d03adaef37299:0xd8b343093deaee7", "name": "Ruminate IT Solution | Best software company in Delhi NCR | IT Software company", "category": "Software company", "street": "C-64", "city": "Pocket B, Hari Nagar", "phone": "09625650376", "website": "https://www.ruminateitsolution.com/", "rating": 5, "review_count": "", "latitude": 28.628819, "longitude": 77.10428399999999, "maps_url": "https://www.google.com/maps/place/?q=place_id:0x390d03adaef37299:0xd8b343093deaee7"}, {"place_id": "0x390d1d9ce0eaada3:0xc5a1a0a2458099e3", "name": "CODENCREATIVE TECH PVT LTD", "category": "Software company", "street": "DDA Flat", "city": "RBI Officers Colony, Vasant Vihar", "phone": "09717047610", "website": "https://codencreative.com/", "rating": 4.9, "review_count": "", "latitude": 28.563302099999998, "longitude": 77.1519732, "maps_url": "https://www.google.com/maps/place/?q=place_id:0x390d1d9ce0eaada3:0xc5a1a0a2458099e3"}, {"place_id": "0x390ce5fdcc79e755:0x309ce99251b84ef6", "name": "Optyminds IT Solutions - Top AI and IT company I Best Digital agency in Noida | Delhi NCR | India", "category": "Software company", "street": "1st Floor", "city": "B-70", "phone": "08929075975", "website": "https://optyminds.com/", "rating": 4.9, "review_count": "", "latitude": 28.584679599999998, "longitude": 77.3135042, "maps_url": "https://www.google.com/maps/place/?q=place_id:0x390ce5fdcc79e755:0x309ce99251b84ef6"}, {"place_id": "0x390d1daf5bbb6d71:0xd493e8d457a28388", "name": "DPM IT SOLUTIONS", "category": "Software company", "street": "2nd floor, madangiri", "city": "111, E-2", "phone": "09650413450", "website": "https://dpmitsolutions.com/", "rating": 5, "review_count": "", "latitude": 28.565620799999998, "longitude": 77.16005679999999, "maps_url": "https://www.google.com/maps/place/?q=place_id:0x390d1daf5bbb6d71:0xd493e8d457a28388"}, {"place_id": "0x390d1b0ad6565c37:0x9ee772d45ffed70d", "name": "IOTtech Softwares", "category": "Software company", "street": "First & Second Floor", "city": "Lucky Plaza", "phone": "08034798583", "website": "", "rating": 4.9, "review_count": "", "latitude": 28.5847981, "longitude": 77.07323199999999, "maps_url": "https://www.google.com/maps/place/?q=place_id:0x390d1b0ad6565c37:0x9ee772d45ffed70d"}, {"place_id": "0x390d049f5674e4b5:0xd958160a9013b45e", "name": "BI InfoTech Pvt Ltd", "category": "Software company", "street": "12/4, Jail Rd", "city": "Prem Nagar, Janakpuri", "phone": "08766248464", "website": "https://www.biinfotech.com/", "rating": 4.5, "review_count": "", "latitude": 28.6357547, "longitude": 77.0950907, "maps_url": "https://www.google.com/maps/place/?q=place_id:0x390d049f5674e4b5:0xd958160a9013b45e"}, {"place_id": "0x390feda4c4f56aed:0x2277b287e38fc0ec", "name": "Dizivan IT Solutions Pvt Ltd- App Development & Digital Marketing Company", "category": "Software company", "street": "near Metro Station New Ashok Nagar", "city": "Block B, New Ashok Nagar", "phone": "09142092979", "website": "https://dizivan.com/", "rating": 5, "review_count": "", "latitude": 28.5891575, "longitude": 77.3020624, "maps_url": "https://www.google.com/maps/place/?q=place_id:0x390feda4c4f56aed:0x2277b287e38fc0ec"}, {"place_id": "0x390d029cf3d42055:0x568de645f31e31dd", "name": "AI Micro Mind\u00aeTechnology", "category": "Software company", "street": "3rd Floor, 16/448", "city": "Block I, Building Number", "phone": "09818353030", "website": "http://micromind.in/", "rating": 4.8, "review_count": "", "latitude": 28.656936299999998, "longitude": 77.1817737, "maps_url": "https://www.google.com/maps/place/?q=place_id:0x390d029cf3d42055:0x568de645f31e31dd"}, {"place_id": "0x390ce3003fffffe3:0x1dd892a28603e769", "name": "Corporate Infotech Pvt Ltd.", "category": "Corporate office", "street": "E-81", "city": "E Block, Sector 6", "phone": "1800116474", "website": "https://cipl.org.in/", "rating": 4.4, "review_count": "", "latitude": 28.5937284, "longitude": 77.3206974, "maps_url": "https://www.google.com/maps/place/?q=place_id:0x390ce3003fffffe3:0x1dd892a28603e769"}, {"place_id": "0x390d04a42f2b3e7b:0x35404d3b1a67431e", "name": "Softlink Systems", "category": "Computer Hardware Company", "street": "3RD FLOOR", "city": "C-164", "phone": "09810634438", "website": "http://www.softlinksystems.co.in/", "rating": 4.3, "review_count": "", "latitude": 28.6203471, "longitude": 77.12007969999999, "maps_url": "https://www.google.com/maps/place/?q=place_id:0x390d04a42f2b3e7b:0x35404d3b1a67431e"}, {"place_id": "0x390d0311d537942f:0x5fc0e277b0c34fc0", "name": "Indian Top Companies", "category": "Business to business service", "street": "Rama Rd", "city": "near Kirti Nagar, Industrial Area", "phone": "09587408451", "website": "https://www.indiantopcompanies.com/am/", "rating": 5, "review_count": "", "latitude": 28.6569078, "longitude": 77.1468873, "maps_url": "https://www.google.com/maps/place/?q=place_id:0x390d0311d537942f:0x5fc0e277b0c34fc0"}, {"place_id": "0x390d036a16f841d9:0x9b91311b1453f4c0", "name": "Zon Tec Solutions", "category": "Software company", "street": "3rd Floor", "city": "302 - 302 A, West", "phone": "09599902185", "website": "https://zontecsolutions.com/", "rating": 4.1, "review_count": "", "latitude": 28.6382303, "longitude": 77.1205162, "maps_url": "https://www.google.com/maps/place/?q=place_id:0x390d036a16f841d9:0x9b91311b1453f4c0"}, {"place_id": "0x390d03e4a46e95b1:0x6fde9f4de8dfc36e", "name": "Nethues Technologies (P) Ltd.", "category": "Software company", "street": "203-204, 2nd Floor, Aggarwal City Plaza", "city": "Mangalam Place, Rohini", "phone": "01147567701", "website": "https://www.nethues.com/", "rating": 4.1, "review_count": "", "latitude": 28.7005016, "longitude": 77.11672999999999, "maps_url": "https://www.google.com/maps/place/?q=place_id:0x390d03e4a46e95b1:0x6fde9f4de8dfc36e"}, {"place_id": "0x29182cd90b477205:0xafbdc18388b8d100", "name": "Ananta Technology - IT Company", "category": "Web hosting company", "street": "RZB-214, Old Mehrauli Rd", "city": "Palam Colony, Part - I, Raj Nagar", "phone": "", "website": "https://anantatechnology.com/", "rating": 5, "review_count": "", "latitude": 28.584313899999998, "longitude": 77.0862543, "maps_url": "https://www.google.com/maps/place/?q=place_id:0x29182cd90b477205:0xafbdc18388b8d100"}, {"place_id": "0x390d03579fc2038b:0x7d89ca8d8d9a1765", "name": "Appfinz Technologies", "category": "Marketing agency", "street": "Nr Deep Chand Bandhu Hospital", "city": "B590 Ground Floor", "phone": "08340725097", "website": "https://www.appfinz.com/", "rating": 4.8, "review_count": "", "latitude": 28.682956299999997, "longitude": 77.17736959999999, "maps_url": "https://www.google.com/maps/place/?q=place_id:0x390d03579fc2038b:0x7d89ca8d8d9a1765"}, {"place_id": "0x390ce26dc4d4ba2d:0x9486a6d620e379f9", "name": "Akal Information Systems Ltd.", "category": "Software company", "street": "Tower J, World Trade Center", "city": "103", "phone": "01146503545", "website": "https://www.akalinfo.com/", "rating": 3.9, "review_count": "", "latitude": 28.567935499999997, "longitude": 77.1923202, "maps_url": "https://www.google.com/maps/place/?q=place_id:0x390ce26dc4d4ba2d:0x9486a6d620e379f9"}, {"place_id": "0x390d1be7f1a44f95:0x84524a5425f8930d", "name": "InfraDost Technologies Pvt Ltd.- Microsoft Adobe Corel Draw & Security Solution Provider", "category": "Computer support and services", "street": "Gurgaon - Delhi Expy", "city": "Block B, Mahipalpur Village, Mahipalpur", "phone": "08287792542", "website": "http://www.infradost.com/", "rating": 4.6, "review_count": "", "latitude": 28.5485743, "longitude": 77.1264697, "maps_url": "https://www.google.com/maps/place/?q=place_id:0x390d1be7f1a44f95:0x84524a5425f8930d"}, {"place_id": "0x390d0295dfbe951f:0xd11e46b9abc48457", "name": "Webtel Electrosoft Ltd.", "category": "Software company", "street": "1st Floor, Rattan Jyoti Building", "city": "110-114", "phone": "01145054000", "website": "https://webtel.in/", "rating": 3.9, "review_count": "", "latitude": 28.644031199999997, "longitude": 77.1772288, "maps_url": "https://www.google.com/maps/place/?q=place_id:0x390d0295dfbe951f:0xd11e46b9abc48457"}, {"place_id": "0x390cfcad2d191127:0x83c805201ec0a98e", "name": "IT Nucleus", "category": "Website designer", "street": "310, 3rd Floor, S-524, Aggarwal House Opp-Metro Pillar 27", "city": "School Block shakarpur, Laxmi Nagar", "phone": "01143001828", "website": "http://www.itnucleus.com/", "rating": 4.9, "review_count": "", "latitude": 28.629542599999997, "longitude": 77.2766257, "maps_url": "https://www.google.com/maps/place/?q=place_id:0x390cfcad2d191127:0x83c805201ec0a98e"}, {"place_id": "0x20616dbf813c03ef:0xc8fd1ca47f902e9e", "name": "Bloatware IT Software Company | website Designing Company | Software Company | MLM |CRM | Android Apps", "category": "Software company", "street": "C1", "city": "Rama Park", "phone": "08920750797", "website": "https://bloatwareitsolutions.com/", "rating": 4.5, "review_count": "", "latitude": 28.621265599999997, "longitude": 77.0324943, "maps_url": "https://www.google.com/maps/place/?q=place_id:0x20616dbf813c03ef:0xc8fd1ca47f902e9e"}, {"place_id": "0x390d0331f8fa9037:0xbf316ec71fe5896d", "name": "Web Development Company in South West Delhi - MSN Technologies", "category": "Software company", "street": "Mahatma Gandhi Rd", "city": "Block WZ, Naraina", "phone": "08800388071", "website": "http://www.msntechnologies.org/", "rating": 5, "review_count": "", "latitude": 28.621692, "longitude": 77.1363598, "maps_url": "https://www.google.com/maps/place/?q=place_id:0x390d0331f8fa9037:0xbf316ec71fe5896d"}, {"place_id": "0x390d1f5abfb25fe1:0x7d9c4d5e159f2955", "name": "Jaimru Technology Pvt Ltd", "category": "Website designer", "street": "WARD NO. 2", "city": "Plot No. 178 M 33 A/1", "phone": "07838153420", "website": "https://www.jaimru.com/", "rating": 4.9, "review_count": "", "latitude": 28.524347499999998, "longitude": 77.1731889, "maps_url": "https://www.google.com/maps/place/?q=place_id:0x390d1f5abfb25fe1:0x7d9c4d5e159f2955"}, {"place_id": "0x390ce45bcd61048f:0x5f6a5602f4155df7", "name": "JK Technosoft Limited", "category": "Software company", "street": "F", "city": "3", "phone": "01204606300", "website": "https://jktech.com/", "rating": 4.2, "review_count": "", "latitude": 28.5802509, "longitude": 77.31793329999999, "maps_url": "https://www.google.com/maps/place/?q=place_id:0x390ce45bcd61048f:0x5f6a5602f4155df7"}, {"place_id": "0x390d0234852fffff:0xdf6a1081fe66751", "name": "Wingify", "category": "Software company", "street": "KLJ TOWER", "city": "North", "phone": "01147640497", "website": "https://wingify.com/", "rating": 4.4, "review_count": "", "latitude": 28.6911475, "longitude": 77.1509423, "maps_url": "https://www.google.com/maps/place/?q=place_id:0x390d0234852fffff:0xdf6a1081fe66751"}, {"place_id": "0x390d191598f48ef3:0x70991b4ff870f05d", "name": "Shree Partners LLC", "category": "Software company", "street": "1, Tower A, Building, Cyber City", "city": "Corporate Edge Level", "phone": "01246728815", "website": "https://www.shreepartners.com/", "rating": 4.3, "review_count": "", "latitude": 28.4936018, "longitude": 77.088325, "maps_url": "https://www.google.com/maps/place/?q=place_id:0x390d191598f48ef3:0x70991b4ff870f05d"}, {"place_id": "0x390d0302af76c545:0x97d6a46d40086acd", "name": "Solarman Technology Project Pvt Ltd - Digital Marketing Company in Delhi, India |Software Development Company | IT Company", "category": "Internet marketing service", "street": "6/14", "city": "Block 5, Kirti Nagar Industrial Area, Kirti Nagar", "phone": "07428086779", "website": "https://solarmantech.in/", "rating": 5, "review_count": "", "latitude": 28.6517841, "longitude": 77.14799649999999, "maps_url": "https://www.google.com/maps/place/?q=place_id:0x390d0302af76c545:0x97d6a46d40086acd"}, {"place_id": "0x390d036a16f841d9:0x9b91311b1453f4c0", "name": "Zon Tec Solutions", "category": "Software company", "street": "3rd Floor", "city": "302 - 302 A, West", "phone": "09599902185", "website": "https://zontecsolutions.com/", "rating": 4.1, "review_count": "", "latitude": 28.6382303, "longitude": 77.1205162, "maps_url": "https://www.google.com/maps/place/?q=place_id:0x390d036a16f841d9:0x9b91311b1453f4c0"}, {"place_id": "0x390d05f6807aba3f:0x8d4dbf179623854a", "name": "Erp Software Company Delhi | Crm Software Development Company in Delhi", "category": "Software company", "street": "3 Floor", "city": "B-77", "phone": "09266518819", "website": "https://www.weblyticsinfotech.com/crm-software-in-delhi.php", "rating": 5, "review_count": "", "latitude": 28.6150725, "longitude": 77.0341376, "maps_url": "https://www.google.com/maps/place/?q=place_id:0x390d05f6807aba3f:0x8d4dbf179623854a"}, {"place_id": "0x390d03e4a46e95b1:0x6fde9f4de8dfc36e", "name": "Nethues Technologies (P) Ltd.", "category": "Software company", "street": "203-204, 2nd Floor, Aggarwal City Plaza", "city": "Mangalam Place, Rohini", "phone": "01147567701", "website": "https://www.nethues.com/", "rating": 4.1, "review_count": "", "latitude": 28.7005016, "longitude": 77.11672999999999, "maps_url": "https://www.google.com/maps/place/?q=place_id:0x390d03e4a46e95b1:0x6fde9f4de8dfc36e"}, {"place_id": "0x29182cd90b477205:0xafbdc18388b8d100", "name": "Ananta Technology - IT Company", "category": "Web hosting company", "street": "RZB-214, Old Mehrauli Rd", "city": "Palam Colony, Part - I, Raj Nagar", "phone": "", "website": "https://anantatechnology.com/", "rating": 5, "review_count": "", "latitude": 28.584313899999998, "longitude": 77.0862543, "maps_url": "https://www.google.com/maps/place/?q=place_id:0x29182cd90b477205:0xafbdc18388b8d100"}, {"place_id": "0x390d05c8987801e5:0x128e04dce6c4cbc4", "name": "Matrix Infotech Solution | Software Development Company", "category": "Software company", "street": "j j", "city": "Dwarka Mor, Block WE, Mohan Garden, Razapur Khurd", "phone": "08920817059", "website": "http://www.matrixinfotechsolution.com/", "rating": 3.9, "review_count": "", "latitude": 28.637037, "longitude": 77.0291258, "maps_url": "https://www.google.com/maps/place/?q=place_id:0x390d05c8987801e5:0x128e04dce6c4cbc4"}, {"place_id": "0x390d03579fc2038b:0x7d89ca8d8d9a1765", "name": "Appfinz Technologies", "category": "Marketing agency", "street": "Nr Deep Chand Bandhu Hospital", "city": "B590 Ground Floor", "phone": "08340725097", "website": "https://www.appfinz.com/", "rating": 4.8, "review_count": "", "latitude": 28.682956299999997, "longitude": 77.17736959999999, "maps_url": "https://www.google.com/maps/place/?q=place_id:0x390d03579fc2038b:0x7d89ca8d8d9a1765"}, {"place_id": "0x390ce26dc4d4ba2d:0x9486a6d620e379f9", "name": "Akal Information Systems Ltd.", "category": "Software company", "street": "Tower J, World Trade Center", "city": "103", "phone": "01146503545", "website": "https://www.akalinfo.com/", "rating": 3.9, "review_count": "", "latitude": 28.567935499999997, "longitude": 77.1923202, "maps_url": "https://www.google.com/maps/place/?q=place_id:0x390ce26dc4d4ba2d:0x9486a6d620e379f9"}, {"place_id": "0x41ddcb5488aa4703:0x5290c64921de1a5b", "name": "Bloatware IT Software Development Company | Game Development | Software Company in delhi", "category": "Software company", "street": "SILVER OAK FARMS", "city": "660, Mehrauli-Gurgaon Rd", "phone": "", "website": "https://bloatwareitsolutions.com/", "rating": 5, "review_count": "", "latitude": 28.4911034, "longitude": 77.1432663, "maps_url": "https://www.google.com/maps/place/?q=place_id:0x41ddcb5488aa4703:0x5290c64921de1a5b"}, {"place_id": "0x390d1be7f1a44f95:0x84524a5425f8930d", "name": "InfraDost Technologies Pvt Ltd.- Microsoft Adobe Corel Draw & Security Solution Provider", "category": "Computer support and services", "street": "Gurgaon - Delhi Expy", "city": "Block B, Mahipalpur Village, Mahipalpur", "phone": "08287792542", "website": "http://www.infradost.com/", "rating": 4.6, "review_count": "", "latitude": 28.5485743, "longitude": 77.1264697, "maps_url": "https://www.google.com/maps/place/?q=place_id:0x390d1be7f1a44f95:0x84524a5425f8930d"}, {"place_id": "0x390d0295dfbe951f:0xd11e46b9abc48457", "name": "Webtel Electrosoft Ltd.", "category": "Software company", "street": "1st Floor, Rattan Jyoti Building", "city": "110-114", "phone": "01145054000", "website": "https://webtel.in/", "rating": 3.9, "review_count": "", "latitude": 28.644031199999997, "longitude": 77.1772288, "maps_url": "https://www.google.com/maps/place/?q=place_id:0x390d0295dfbe951f:0xd11e46b9abc48457"}, {"place_id": "0x390cfcad2d191127:0x83c805201ec0a98e", "name": "IT Nucleus", "category": "Website designer", "street": "310, 3rd Floor, S-524, Aggarwal House Opp-Metro Pillar 27", "city": "School Block shakarpur, Laxmi Nagar", "phone": "01143001828", "website": "http://www.itnucleus.com/", "rating": 4.9, "review_count": "", "latitude": 28.629542599999997, "longitude": 77.2766257, "maps_url": "https://www.google.com/maps/place/?q=place_id:0x390cfcad2d191127:0x83c805201ec0a98e"}, {"place_id": "0x20616dbf813c03ef:0xc8fd1ca47f902e9e", "name": "Bloatware IT Software Company | website Designing Company | Software Company | MLM |CRM | Android Apps", "category": "Software company", "street": "C1", "city": "Rama Park", "phone": "08920750797", "website": "https://bloatwareitsolutions.com/", "rating": 4.5, "review_count": "", "latitude": 28.621265599999997, "longitude": 77.0324943, "maps_url": "https://www.google.com/maps/place/?q=place_id:0x20616dbf813c03ef:0xc8fd1ca47f902e9e"}, {"place_id": "0x390d0331f8fa9037:0xbf316ec71fe5896d", "name": "Web Development Company in South West Delhi - MSN Technologies", "category": "Software company", "street": "Mahatma Gandhi Rd", "city": "Block WZ, Naraina", "phone": "08800388071", "website": "http://www.msntechnologies.org/", "rating": 5, "review_count": "", "latitude": 28.621692, "longitude": 77.1363598, "maps_url": "https://www.google.com/maps/place/?q=place_id:0x390d0331f8fa9037:0xbf316ec71fe5896d"}, {"place_id": "0x390d04bf231d4979:0xa2cd2b7e8bfd68ff", "name": "TN Infotech Pvt. Ltd.", "category": "Computer Hardware Company", "street": "E-594, FIRST FLOOR", "city": "Ramphal Chowk Rd", "phone": "09810782194", "website": "http://tninfotech.net/", "rating": 5, "review_count": "", "latitude": 28.585736699999998, "longitude": 77.0719481, "maps_url": "https://www.google.com/maps/place/?q=place_id:0x390d04bf231d4979:0xa2cd2b7e8bfd68ff"}, {"place_id": "0x390d1f5abfb25fe1:0x7d9c4d5e159f2955", "name": "Jaimru Technology Pvt Ltd", "category": "Website designer", "street": "WARD NO. 2", "city": "Plot No. 178 M 33 A/1", "phone": "07838153420", "website": "https://www.jaimru.com/", "rating": 4.9, "review_count": "", "latitude": 28.524347499999998, "longitude": 77.1731889, "maps_url": "https://www.google.com/maps/place/?q=place_id:0x390d1f5abfb25fe1:0x7d9c4d5e159f2955"}, {"place_id": "0x390ce45bcd61048f:0x5f6a5602f4155df7", "name": "JK Technosoft Limited", "category": "Software company", "street": "F", "city": "3", "phone": "01204606300", "website": "https://jktech.com/", "rating": 4.2, "review_count": "", "latitude": 28.5802509, "longitude": 77.31793329999999, "maps_url": "https://www.google.com/maps/place/?q=place_id:0x390ce45bcd61048f:0x5f6a5602f4155df7"}, {"place_id": "0x390d0234852fffff:0xdf6a1081fe66751", "name": "Wingify", "category": "Software company", "street": "KLJ TOWER", "city": "North", "phone": "01147640497", "website": "https://wingify.com/", "rating": 4.4, "review_count": "", "latitude": 28.6911475, "longitude": 77.1509423, "maps_url": "https://www.google.com/maps/place/?q=place_id:0x390d0234852fffff:0xdf6a1081fe66751"}, {"place_id": "0x390d191598f48ef3:0x70991b4ff870f05d", "name": "Shree Partners LLC", "category": "Software company", "street": "1, Tower A, Building, Cyber City", "city": "Corporate Edge Level", "phone": "01246728815", "website": "https://www.shreepartners.com/", "rating": 4.3, "review_count": "", "latitude": 28.4936018, "longitude": 77.088325, "maps_url": "https://www.google.com/maps/place/?q=place_id:0x390d191598f48ef3:0x70991b4ff870f05d"}, {"place_id": "0x390d0302af76c545:0x97d6a46d40086acd", "name": "Solarman Technology Project Pvt Ltd - Digital Marketing Company in Delhi, India |Software Development Company | IT Company", "category": "Internet marketing service", "street": "6/14", "city": "Block 5, Kirti Nagar Industrial Area, Kirti Nagar", "phone": "07428086779", "website": "https://solarmantech.in/", "rating": 5, "review_count": "", "latitude": 28.6517841, "longitude": 77.14799649999999, "maps_url": "https://www.google.com/maps/place/?q=place_id:0x390d0302af76c545:0x97d6a46d40086acd"}, {"place_id": "0x390d011e517039e5:0xd7871aa892609a4c", "name": "Top #1 Website Company in delhi", "category": "Software company", "street": "P56H+9CP, Commercial Complex, Gopal Nagar, Model Town", "city": "near Akash Cinema", "phone": "", "website": "", "rating": 4.6, "review_count": "", "latitude": 28.7109375, "longitude": 77.1785625, "maps_url": "https://www.google.com/maps/place/?q=place_id:0x390d011e517039e5:0xd7871aa892609a4c"}, {"place_id": "0x390d046b34a557d1:0xf6c1b8839a2cbd9c", "name": "Pact Systems Private Limited", "category": "Software company", "street": "305-306, Third Floor, Dimension Vardhman Plaza, Rohtak Road,", "city": "Inder Encalve, Delhi 110087", "phone": "09711929711", "website": "http://www.pacts.in/", "rating": 4.4, "review_count": "", "latitude": 28.678994499999998, "longitude": 77.0837766, "maps_url": "https://www.google.com/maps/place/?q=place_id:0x390d046b34a557d1:0xf6c1b8839a2cbd9c"}, {"place_id": "0x390d051e7ddd1931:0x90aefcd9adf3fb48", "name": "It solutions 4 India", "category": "Computer support and services", "street": "tilak nagar 1/1 3 rd floor vishal mega mart", "city": "New Delhi, Delhi 110058", "phone": "09711347474", "website": "https://www.itsolution4india.com/", "rating": 4.1, "review_count": "", "latitude": 28.6353108, "longitude": 77.0928445, "maps_url": "https://www.google.com/maps/place/?q=place_id:0x390d051e7ddd1931:0x90aefcd9adf3fb48"}, {"place_id": "0x390d1df0721e08c5:0x49d5fd4648a33c2d", "name": "Nibble Software | Website Design & Development | Travel Web API & CRM | SEO, SMO, Paid Ads, Amazon & Flipkart Marketing", "category": "Website designer", "street": "4th Floor", "city": "Moolchand Tower", "phone": "09971066697", "website": "https://www.nibblesoftware.com/", "rating": 4.8, "review_count": "", "latitude": 28.6000862, "longitude": 77.0818018, "maps_url": "https://www.google.com/maps/place/?q=place_id:0x390d1df0721e08c5:0x49d5fd4648a33c2d"}, {"place_id": "0x390d02d212f08dbf:0xc03e229e3f2b1a5e", "name": "Expert Professional Services", "category": "Computer support and services", "street": "Traffic Police Headquarters", "city": "WZ Block", "phone": "07011279379", "website": "https://sites.google.com/view/expros/eps", "rating": 5, "review_count": "", "latitude": 28.6230594, "longitude": 77.1579647, "maps_url": "https://www.google.com/maps/place/?q=place_id:0x390d02d212f08dbf:0xc03e229e3f2b1a5e"}, {"place_id": "0x390cfd35391deb71:0xdbdd1388c7dc51b6", "name": "Jak Software Pvt Ltd", "category": "Software company", "street": "52 Janpath", "city": "New Delhi, Delhi 110001", "phone": "07827249056", "website": "http://www.jaksoftware.co.in/", "rating": 4.4, "review_count": "", "latitude": 28.627537999999998, "longitude": 77.21878989999999, "maps_url": "https://www.google.com/maps/place/?q=place_id:0x390cfd35391deb71:0xdbdd1388c7dc51b6"}, {"place_id": "0x390ce3db460cee5f:0x47a6e8d4aa56a40f", "name": "Injoria Technologies: Website, Custome Software, Mobile Apps Development company", "category": "Computer support and services", "street": "Second Floor", "city": "Pandav Nagar Complex", "phone": "09911177045", "website": "", "rating": 4.5, "review_count": "", "latitude": 28.6215884, "longitude": 77.2842872, "maps_url": "https://www.google.com/maps/place/?q=place_id:0x390ce3db460cee5f:0x47a6e8d4aa56a40f"}, {"place_id": "0x390d1960c2b8367f:0xd2d30e45ac71acea", "name": "Vorombetech Solutions - Top IT & Digitalization Service Company in Gurugram", "category": "Software company", "street": "249", "city": "Phase IV, Udyog Vihar, Sector 19", "phone": "", "website": "https://vorombetech.com/", "rating": 4.8, "review_count": "", "latitude": 28.4941475, "longitude": 77.0808448, "maps_url": "https://www.google.com/maps/place/?q=place_id:0x390d1960c2b8367f:0xd2d30e45ac71acea"}, {"place_id": "0x390d0180d850ad91:0x310f92d3faf7aa32", "name": "Click IT Solution", "category": "Website designer", "street": "2nd floor, Meenakshi Garden", "city": "113", "phone": "09818733195", "website": "https://clickitsolution.com/", "rating": 4.6, "review_count": "", "latitude": 28.6396417, "longitude": 77.1038289, "maps_url": "https://www.google.com/maps/place/?q=place_id:0x390d0180d850ad91:0x310f92d3faf7aa32"}, {"place_id": "0x390d195c26bfa369:0x69bd8efd2e3a31fe", "name": "Radical Minds Technologies Pvt. Ltd.", "category": "BPO Company", "street": "368", "city": "Phase II, Udyog Vihar, Sector 20", "phone": "01244338366", "website": "http://www.radicalminds.in/", "rating": 4.2, "review_count": "", "latitude": 28.506335099999998, "longitude": 77.0877546, "maps_url": "https://www.google.com/maps/place/?q=place_id:0x390d195c26bfa369:0x69bd8efd2e3a31fe"}, {"place_id": "0x4161323ce464adf:0x348e55fa937d43a5", "name": "Tech Variant - website design company in delhi & digital Marketing company in delhi", "category": "Website designer", "street": "Gate Number 2", "city": "Mandi Metro Station", "phone": "", "website": "https://techvariant.in/", "rating": 4.7, "review_count": "", "latitude": 28.710400999999997, "longitude": 77.1783337, "maps_url": "https://www.google.com/maps/place/?q=place_id:0x4161323ce464adf:0x348e55fa937d43a5"}, {"place_id": "0x390ce3cfe91504eb:0x55346c5c499223d7", "name": "CCS Computers Private Limited", "category": "Computer support and services", "street": "2nd-3rd Floor Skipper House", "city": "Nehru Place", "phone": "01126463959", "website": "http://www.ccscomputers.co.in/", "rating": 4, "review_count": "", "latitude": 28.550090599999997, "longitude": 77.2537834, "maps_url": "https://www.google.com/maps/place/?q=place_id:0x390ce3cfe91504eb:0x55346c5c499223d7"}, {"place_id": "0x390d04a6b086db01:0x61dd710dd30b9aae", "name": "Aps Web Hub - Website Desinging Company", "category": "Website designer", "street": "GA6, Mother Dairy Road", "city": "Shiv Nagar, Jail Road", "phone": "07838904326", "website": "http://www.apswebhub.com/", "rating": 4.9, "review_count": "", "latitude": 28.628489, "longitude": 77.0983706, "maps_url": "https://www.google.com/maps/place/?q=place_id:0x390d04a6b086db01:0x61dd710dd30b9aae"}, {"place_id": "0x390ce3d606c913ef:0xd246bd5631eb2cad", "name": "Delvetech", "category": "Computer support and services", "street": "87A/1, 3rd Floor, Opp. Block N-115, G.K-1, Near Moolchand Merto", "city": "Block B, Zamrudpur, Greater Kailash", "phone": "09873895154", "website": "http://www.delvetech.co.in/", "rating": 4.1, "review_count": "", "latitude": 28.5570597, "longitude": 77.2356981, "maps_url": "https://www.google.com/maps/place/?q=place_id:0x390ce3d606c913ef:0xd246bd5631eb2cad"}, {"place_id": "0x390d0348be373921:0xdab0e6afc72090d6", "name": "\ud835\udc16\ud835\udc1e\ud835\udc1b\ud835\udc24\ud835\udc1a\ud835\udc2b\ud835\udc2d \ud835\udc03\ud835\udc22\ud835\udc20\ud835\udc22\ud835\udc2d\ud835\udc1a\ud835\udc25 \ud835\udc0f\ud835\udc2f\ud835\udc2d. \ud835\udc0b\ud835\udc2d\ud835\udc1d", "category": "Website designer", "street": "2nd Floor", "city": "C-127", "phone": "09711110321", "website": "https://webkartindia.com/", "rating": 4.9, "review_count": "", "latitude": 28.628981399999997, "longitude": 77.1369867, "maps_url": "https://www.google.com/maps/place/?q=place_id:0x390d0348be373921:0xdab0e6afc72090d6"}, {"place_id": "0x390d055ab880b807:0xcb5c025daa2b2795", "name": "Tech Web Mantra", "category": "Software company", "street": "B-77", "city": "near Dwarka Mor Metro Station", "phone": "09871521039", "website": "https://www.techwebmantra.com/", "rating": 5, "review_count": "", "latitude": 28.614187899999997, "longitude": 77.0362179, "maps_url": "https://www.google.com/maps/place/?q=place_id:0x390d055ab880b807:0xcb5c025daa2b2795"}, {"place_id": "0x390d1b3f00d047f7:0x9b0acbc6decfed67", "name": "VBage Tech", "category": "Website designer", "street": "WZ-330", "city": "Palam Village, Palam", "phone": "08383889042", "website": "https://www.vbagetech.com/", "rating": 4.5, "review_count": "", "latitude": 28.589986099999997, "longitude": 77.0768539, "maps_url": "https://www.google.com/maps/place/?q=place_id:0x390d1b3f00d047f7:0x9b0acbc6decfed67"}, {"place_id": "0x390d037f627bbd9b:0x31a49b3f2fe3ddbf", "name": "Control F Solutions", "category": "Computer support and services", "street": "3rd Floor", "city": "Backside of Shiv Naresh Sportswear Showroom", "phone": "09599786121", "website": "https://controlf.co.in/it-rental/", "rating": 4.9, "review_count": "", "latitude": 28.654606599999997, "longitude": 77.14817459999999, "maps_url": "https://www.google.com/maps/place/?q=place_id:0x390d037f627bbd9b:0x31a49b3f2fe3ddbf"}, {"place_id": "0x390d1cad7521ef55:0xaa50cd44a9094aef", "name": "IndiaDataServices - #1 Reliable Data Entry, Product Upload, Data Mining, Catalog Processing, Data Extraction Provider Company", "category": "Data Entry Service Provider", "street": "WZ-340 Nangal Raya Near Lajwanti Garden Chowk", "city": "New Delhi, Delhi 110046", "phone": "01140347936", "website": "http://www.indiadataservices.com/", "rating": 4.9, "review_count": "", "latitude": 28.614197899999997, "longitude": 77.107978, "maps_url": "https://www.google.com/maps/place/?q=place_id:0x390d1cad7521ef55:0xaa50cd44a9094aef"}, {"place_id": "0x390cfea83f36661b:0x893715bf8766e4ee", "name": "IT Solution", "category": "Software company", "street": "P7CG+RPF", "city": "Mahalaxmi Vihar, Phase 7, Block A, Shiv Vihar, Karawal Nagar", "phone": "09818231784", "website": "", "rating": 5, "review_count": "", "latitude": 28.722054399999998, "longitude": 77.2768011, "maps_url": "https://www.google.com/maps/place/?q=place_id:0x390cfea83f36661b:0x893715bf8766e4ee"}, {"place_id": "0xac577056c2b5ff3d:0xaf00253141553d04", "name": "Devnotam | IT Company", "category": "Internet marketing service", "street": "", "city": "", "phone": "", "website": "https://devnotam.com/", "rating": 5, "review_count": "", "latitude": 28.692404999999997, "longitude": 77.090042, "maps_url": "https://www.google.com/maps/place/?q=place_id:0xac577056c2b5ff3d:0xaf00253141553d04"}, {"place_id": "0x390d0331c8429b3d:0x6d904922071ab01", "name": "Go Houze Infra", "category": "Real Estate Builders & Construction Company", "street": "Gate no 2, metro", "city": "shop no. 2", "phone": "09810657474", "website": "http://www.gohouze.in/", "rating": 4.8, "review_count": "", "latitude": 28.6233366, "longitude": 77.1368616, "maps_url": "https://www.google.com/maps/place/?q=place_id:0x390d0331c8429b3d:0x6d904922071ab01"}, {"place_id": "0x390cfd4b7923dc09:0x266950bb2756cf4a", "name": "Big Feathers Technology", "category": "Computer support and services", "street": "8577, New Rohtak Rd", "city": "Ratan Nagar, Karol Bagh", "phone": "08690720398", "website": "https://www.thebigfeathers.com/", "rating": 4.9, "review_count": "", "latitude": 28.657151, "longitude": 77.1959542, "maps_url": "https://www.google.com/maps/place/?q=place_id:0x390cfd4b7923dc09:0x266950bb2756cf4a"}, {"place_id": "0x390d1baaff346a7b:0x1b774913c94bd822", "name": "Ontech Digital Technologies Pvt. Ltd.", "category": "Website designer", "street": "3rd floor", "city": "Shyam Kunj Tower", "phone": "08802377021", "website": "https://ontechdigital.com/", "rating": 5, "review_count": "", "latitude": 28.5994429, "longitude": 77.0819152, "maps_url": "https://www.google.com/maps/place/?q=place_id:0x390d1baaff346a7b:0x1b774913c94bd822"}, {"place_id": "0x390ce44efef427e7:0x4d0a10522519f65e", "name": "Omnie Solutions (I) Pvt Ltd", "category": "Software company", "street": "D-108", "city": "Sector 2, D Block, Sector 2", "phone": "09266754671", "website": "https://www.omniesolutions.com/", "rating": 3.4, "review_count": "", "latitude": 28.583485, "longitude": 77.316155, "maps_url": "https://www.google.com/maps/place/?q=place_id:0x390ce44efef427e7:0x4d0a10522519f65e"}, {"place_id": "0x390d1b6807b97c57:0xb6dc40e91d71681f", "name": "Algo2bots Infotech", "category": "Software company", "street": "WZ-291, Street Number 8", "city": "Sadh Nagar I, Sadh Nagar, Palam", "phone": "09911447760", "website": "http://algo2botsinfotech.com/", "rating": 5, "review_count": "", "latitude": 28.587672599999998, "longitude": 77.09199129999999, "maps_url": "https://www.google.com/maps/place/?q=place_id:0x390d1b6807b97c57:0xb6dc40e91d71681f"}, {"place_id": "0x390d03ff3a6ee899:0xf355d89c9f801013", "name": "Esafe Hi-Tech Solutions Pvt. Ltd.", "category": "Computer networking service", "street": "4/52 , 3rd Floor", "city": "Shankar Road, Old Rajinder Nagar", "phone": "08800015155", "website": "https://esafesolutions.org/", "rating": 5, "review_count": "", "latitude": 28.6378399, "longitude": 77.1810955, "maps_url": "https://www.google.com/maps/place/?q=place_id:0x390d03ff3a6ee899:0xf355d89c9f801013"}, {"place_id": "0x390d04c81b580d5f:0x7fdb4665cb5fe9ae", "name": "Digital Molecule Pvt Ltd - Best Digital Marketing Company in Delhi", "category": "Website designer", "street": "6th Floor, Mahatta Tower", "city": "611/612", "phone": "09811039524", "website": "https://www.digitalmolecule.in/", "rating": 4.8, "review_count": "", "latitude": 28.6299779, "longitude": 77.0907905, "maps_url": "https://www.google.com/maps/place/?q=place_id:0x390d04c81b580d5f:0x7fdb4665cb5fe9ae"}, {"place_id": "0x390cfd355ca0fea9:0x1f2be0f1ef6dbdcf", "name": "Vayam Technologies Ltd.", "category": "Corporate office", "street": "Thapar House", "city": "124, Janpath Ln", "phone": "01147101200", "website": "https://www.vayamtech.com/", "rating": 3.8, "review_count": "", "latitude": 28.624508, "longitude": 77.21805499999999, "maps_url": "https://www.google.com/maps/place/?q=place_id:0x390cfd355ca0fea9:0x1f2be0f1ef6dbdcf"}, {"place_id": "0x390d1b44dac29e85:0xd19c8cf2057c43e8", "name": "AVC Dotfy LLP", "category": "Software company", "street": "C-157, Janak Cinema Community Center Janakpuri Janak Cinema Community Center", "city": "110056", "phone": "09821830895", "website": "https://dotfy.in/", "rating": 4.7, "review_count": "", "latitude": 28.6114547, "longitude": 77.0945327, "maps_url": "https://www.google.com/maps/place/?q=place_id:0x390d1b44dac29e85:0xd19c8cf2057c43e8"}, {"place_id": "0x390d032effffffff:0x1c5ad375d43bd19b", "name": "International Electronics & Communication Systems Pvt Ltd.", "category": "Audio visual equipment supplier", "street": "Block C, Naraina Vihar, Naraina", "city": "New Delhi, Delhi 110028", "phone": "01143222333", "website": "http://iecsindia.com/", "rating": 4.4, "review_count": "", "latitude": 28.6256746, "longitude": 77.14347889999999, "maps_url": "https://www.google.com/maps/place/?q=place_id:0x390d032effffffff:0x1c5ad375d43bd19b"}, {"place_id": "0x390d031b8d98800b:0x972af31c5ad01a4", "name": "Leeway BPO", "category": "BPO Company", "street": "A-2/9, 3rd Floor, WHS Marble Market", "city": "New Delhi, Delhi 110015", "phone": "09319282969", "website": "http://www.leewayinternational.com/", "rating": 3.7, "review_count": "", "latitude": 28.633461699999998, "longitude": 77.1322222, "maps_url": "https://www.google.com/maps/place/?q=place_id:0x390d031b8d98800b:0x972af31c5ad01a4"}, {"place_id": "0x390d05d445f3b1f9:0x7e3d03d10ec5ca89", "name": "Softlab Systems", "category": "Software company", "street": "C4F/208", "city": "Block C4A, Block C4F, Janakpuri", "phone": "09811128799", "website": "http://www.softlabsys.com/", "rating": 4.6, "review_count": "", "latitude": 28.6171388, "longitude": 77.09032979999999, "maps_url": "https://www.google.com/maps/place/?q=place_id:0x390d05d445f3b1f9:0x7e3d03d10ec5ca89"}, {"place_id": "0x390ce459e2a3a42f:0xdda2e042090c2c72", "name": "InfiCare Technologies Pvt. Ltd", "category": "Software company", "street": "D-92 Second/Third floor", "city": "Sector 2", "phone": "09711265591", "website": "http://www.inficaretech.com/", "rating": 3.9, "review_count": "", "latitude": 28.582936099999998, "longitude": 77.3175146, "maps_url": "https://www.google.com/maps/place/?q=place_id:0x390ce459e2a3a42f:0xdda2e042090c2c72"}, {"place_id": "0x390d03241dea8c3f:0x67f259f9475056f1", "name": "Digital Vyapar Bharat - Website Designer in Delhi | Web Development Company | Website & Google Promotion Service", "category": "Website designer", "street": "B block Mansarover Garden, Kirti Nagar Near Punjabi Bagh, Rajouri Garden, Mayapuri, Moti Nagar, Basai Raja Garden, tagore garden, Kirti nagar Lawrence road, Pitampura", "city": "NSP", "phone": "", "website": "https://digitalvyaparbharat.com/", "rating": 5, "review_count": "", "latitude": 28.642208099999998, "longitude": 77.135635, "maps_url": "https://www.google.com/maps/place/?q=place_id:0x390d03241dea8c3f:0x67f259f9475056f1"}, {"place_id": "0x4d5c2e2e4a2e4f41:0x9773cf50b9c9bc3", "name": "Hamari Technology - IT Infrastructure & Hardware Support Company", "category": "Computer support and services", "street": "", "city": "", "phone": "09560581661", "website": "https://hamaritechnology.com/", "rating": 5, "review_count": "", "latitude": 28.5936474, "longitude": 77.17272439999999, "maps_url": "https://www.google.com/maps/place/?q=place_id:0x4d5c2e2e4a2e4f41:0x9773cf50b9c9bc3"}, {"place_id": "0x390d05645ab5e62b:0xd240ffde135445f4", "name": "Adjoint Infocom Private Limited", "category": "Internet marketing service", "street": "Second Floor", "city": "WZ- 294", "phone": "", "website": "https://www.adjointinfocom.com/", "rating": 4.4, "review_count": "", "latitude": 28.6274493, "longitude": 77.1002505, "maps_url": "https://www.google.com/maps/place/?q=place_id:0x390d05645ab5e62b:0xd240ffde135445f4"}, {"place_id": "0x390d1ed3c6e9f579:0x322eccdb00f350d2", "name": "Techjockey", "category": "Software company", "street": "Ground floor, Habitat India", "city": "C-3", "phone": "01142213003", "website": "https://www.techjockey.com/", "rating": 4, "review_count": "", "latitude": 28.536615299999998, "longitude": 77.1902978, "maps_url": "https://www.google.com/maps/place/?q=place_id:0x390d1ed3c6e9f579:0x322eccdb00f350d2"}, {"place_id": "0x390d02ff5ed65555:0x176cccfe937e263e", "name": "Koenig Solutions Pvt. Ltd", "category": "Software Training Institute", "street": "DSM-640-641, 6th Floor", "city": "DLF Towers Shivaji Marg", "phone": "08095073333", "website": "https://www.koenig-solutions.com/", "rating": 4, "review_count": "", "latitude": 28.662896099999998, "longitude": 77.1531562, "maps_url": "https://www.google.com/maps/place/?q=place_id:0x390d02ff5ed65555:0x176cccfe937e263e"}, {"place_id": "0x390d1d13ebffffe1:0xe35273206cc9bd89", "name": "Detective Guru Rahul Rai Gupta - Secret Watch Detectives Pvt. Ltd.", "category": "Private investigator", "street": "284, 3rd Floor", "city": "Satya Niketan", "phone": "08826267700", "website": "https://secretwatchdetectives.com/", "rating": 4.9, "review_count": "", "latitude": 28.588499799999997, "longitude": 77.1687652, "maps_url": "https://www.google.com/maps/place/?q=place_id:0x390d1d13ebffffe1:0xe35273206cc9bd89"}, {"place_id": "0x390d03fd9307cd73:0x7a223a0902c6e0cd", "name": "Web Cloud Technology", "category": "Marketing agency", "street": "3A/74 W.E.A", "city": "Sat Nagar, Karol Bagh", "phone": "08882324811", "website": "https://webcloudtechnology.in/", "rating": 4.4, "review_count": "", "latitude": 28.6465632, "longitude": 77.1824149, "maps_url": "https://www.google.com/maps/place/?q=place_id:0x390d03fd9307cd73:0x7a223a0902c6e0cd"}, {"place_id": "0x8f1069178017e329:0x8e55f45c66419ec3", "name": "ZionSoft Tech It Solution LLP", "category": "Software company", "street": "PLOT NO.C 92 and 93 A", "city": "Block C, Vishwas Park, Uttam Nagar", "phone": "08810456468", "website": "https://zionsoftit.com/", "rating": "", "review_count": "", "latitude": 28.610937, "longitude": 77.0568282, "maps_url": "https://www.google.com/maps/place/?q=place_id:0x8f1069178017e329:0x8e55f45c66419ec3"}, {"place_id": "0x390d02fc536bcc9b:0x4b19d1b0d5137e88", "name": "Brainwork Technologies - Best Digital Marketing Company in Delhi | SEO, PPC & SMM Services in India | Social Media Agency", "category": "Internet marketing service", "street": "Industrial Area", "city": "A-70", "phone": "01145781159", "website": "https://www.brainworkindia.net/", "rating": 4, "review_count": "", "latitude": 28.6557861, "longitude": 77.1498697, "maps_url": "https://www.google.com/maps/place/?q=place_id:0x390d02fc536bcc9b:0x4b19d1b0d5137e88"}, {"place_id": "0x390d1c6bcfd37a51:0xe65828997af7f8dd", "name": "Ernst and Young Global Limited", "category": "Business management consultant", "street": "3rd & 6th Floor, Wing A & B Worldmark-1 Indira Gandhi International Airport Hospitality", "city": "Opp Holiday Inn", "phone": "", "website": "http://ey.com/", "rating": 4.6, "review_count": "", "latitude": 28.5504197, "longitude": 77.1220802, "maps_url": "https://www.google.com/maps/place/?q=place_id:0x390d1c6bcfd37a51:0xe65828997af7f8dd"}, {"place_id": "0x390cfb4bf15a6733:0xaf50e6f3c5fb7641", "name": "Digitals Daddy: Web & App Development Company", "category": "Website designer", "street": "Metro Gate No. 2", "city": "Nearest Sikandarpur", "phone": "09818286609", "website": "https://www.digitalsdaddy.com/", "rating": 4.9, "review_count": "", "latitude": 28.4847884, "longitude": 77.0922192, "maps_url": "https://www.google.com/maps/place/?q=place_id:0x390cfb4bf15a6733:0xaf50e6f3c5fb7641"}, {"place_id": "0x390d0338eaaaaaab:0x9d30fbb7b7135c8a", "name": "Pearl Engineering Co.", "category": "Manufacturer", "street": "Block B, Mayapuri Industrial Area Phase I, Mayapuri", "city": "New Delhi, Delhi 110064", "phone": "", "website": "http://pearlengineeringco.com/", "rating": 4.6, "review_count": "", "latitude": 28.6249035, "longitude": 77.1225839, "maps_url": "https://www.google.com/maps/place/?q=place_id:0x390d0338eaaaaaab:0x9d30fbb7b7135c8a"}, {"place_id": "0x390d033b40000007:0xdb42a942ee496b4d", "name": "STORY Experiences", "category": "Business to business service", "street": "Ihdp Business Park", "city": "Plot No-7", "phone": "09811665328", "website": "http://storyexp.com/", "rating": 4.2, "review_count": "", "latitude": 28.6344504, "longitude": 77.1394566, "maps_url": "https://www.google.com/maps/place/?q=place_id:0x390d033b40000007:0xdb42a942ee496b4d"}, {"place_id": "0x390d02efaf79b961:0x413607f4cfba5420", "name": "Support Star Corporate Services Pvt. Ltd", "category": "Corporate office", "street": "Cottage No 19, Lower Ground Floor", "city": "West Patel Nagar, Patel Nagar", "phone": "07042627575", "website": "", "rating": 4.2, "review_count": "", "latitude": 28.6500426, "longitude": 77.1623192, "maps_url": "https://www.google.com/maps/place/?q=place_id:0x390d02efaf79b961:0x413607f4cfba5420"}, {"place_id": "0x390d1db0aef40171:0xb748a2e6079dd53d", "name": "YB INFORMATICS", "category": "Computer support and services", "street": "43, Poorvi Marg", "city": "Block A, Vasant Vihar", "phone": "09650920040", "website": "http://www.ybinformatics.com/", "rating": 5, "review_count": "", "latitude": 28.560817399999998, "longitude": 77.1666408, "maps_url": "https://www.google.com/maps/place/?q=place_id:0x390d1db0aef40171:0xb748a2e6079dd53d"}, {"place_id": "0x390d193c3a36e523:0xe68f8d2568faeaad", "name": "Espire Infolabs Pvt. Ltd.", "category": "Software company", "street": "486 & 487", "city": "Phase III, Udyog Vihar III, Sector 20", "phone": "01247173000", "website": "http://www.espire.com/", "rating": 4.1, "review_count": "", "latitude": 28.5119516, "longitude": 77.0899661, "maps_url": "https://www.google.com/maps/place/?q=place_id:0x390d193c3a36e523:0xe68f8d2568faeaad"}, {"place_id": "0x390d03029a249235:0xc99a89423a1e5358", "name": "Labotek", "category": "Corporate office", "street": "4/25", "city": "Block 4, Kirti Nagar Industrial Area, Kirti Nagar", "phone": "01141426169", "website": "https://www.labotek.in/", "rating": 4.1, "review_count": "", "latitude": 28.6528273, "longitude": 77.147831, "maps_url": "https://www.google.com/maps/place/?q=place_id:0x390d03029a249235:0xc99a89423a1e5358"}, {"place_id": "0x390d1b0010fc2321:0x12e9154c815cf007", "name": "Prashant Dwivedi IT company", "category": "Warehouse", "street": "G3P5+GVC", "city": "Nayak Pura, Bijwasan", "phone": "", "website": "", "rating": "", "review_count": "", "latitude": 28.536316, "longitude": 77.059649, "maps_url": "https://www.google.com/maps/place/?q=place_id:0x390d1b0010fc2321:0x12e9154c815cf007"}, {"place_id": "0x4f6402c2da16ff95:0xd3b65b0e189f65b0", "name": "Radiant Technologies - E-commerce Website Development & Designing Company, Digital Marketing, Customized CRM", "category": "Software company", "street": "Second Floor", "city": "WZ 10B, Asalatpur Rd", "phone": "09999886194", "website": "https://techradiant.net/", "rating": 4.5, "review_count": "", "latitude": 28.6217926, "longitude": 77.0763157, "maps_url": "https://www.google.com/maps/place/?q=place_id:0x4f6402c2da16ff95:0xd3b65b0e189f65b0"}, {"place_id": "0x390d1b80fb9da03d:0xd77ea97dd9a2aa4a", "name": "Nextwebi IT Solutions Pvt Ltd", "category": "Website designer", "street": "45, Street Number 2", "city": "Palam Extension, Sector 7 Dwarka, Dwarka", "phone": "08904240871", "website": "", "rating": 5, "review_count": "", "latitude": 28.5945388, "longitude": 77.0857647, "maps_url": "https://www.google.com/maps/place/?q=place_id:0x390d1b80fb9da03d:0xd77ea97dd9a2aa4a"}, {"place_id": "0x390d03281871ef51:0x87d05ae5b85adc52", "name": "CRCIT INFOTECH PVT LTD", "category": "Software company", "street": "RZ B-4, Pankha Rd", "city": "opposite Janak Cinema Complex", "phone": "09599884630", "website": "", "rating": 4.9, "review_count": "", "latitude": 28.7321179, "longitude": 77.0297145, "maps_url": "https://www.google.com/maps/place/?q=place_id:0x390d03281871ef51:0x87d05ae5b85adc52"}, {"place_id": "0x390d1e748ef61961:0x754ceb660996cfdb", "name": "ACS System Solutions", "category": "Software company", "street": "Kishangarh, Kishangarh Village, Vasant Kunj", "city": "New Delhi, Delhi 110070", "phone": "01149858620", "website": "http://acssystem.in/", "rating": 3.4, "review_count": "", "latitude": 28.522178699999998, "longitude": 77.1692609, "maps_url": "https://www.google.com/maps/place/?q=place_id:0x390d1e748ef61961:0x754ceb660996cfdb"}, {"place_id": "0x390d04baa7b0c615:0x2ad47d69d0088e39", "name": "Logical Canvas Private Limited", "category": "Software company", "street": "110-D First Floor", "city": "West", "phone": "09582422605", "website": "http://www.logicalcanvas.com/", "rating": 4.8, "review_count": "", "latitude": 28.629441, "longitude": 77.082135, "maps_url": "https://www.google.com/maps/place/?q=place_id:0x390d04baa7b0c615:0x2ad47d69d0088e39"}, {"place_id": "0x390d1beab5f939a5:0xd07351c1e71e3065", "name": "WEBSITE DESIGNING COMPANY IN DELHI Nipl", "category": "Software company", "street": "j block", "city": "Rz 92/211, Gali No. 8", "phone": "09136336466", "website": "", "rating": "", "review_count": "", "latitude": 28.601472899999997, "longitude": 77.0896984, "maps_url": "https://www.google.com/maps/place/?q=place_id:0x390d1beab5f939a5:0xd07351c1e71e3065"}, {"place_id": "0x390d033b40000001:0xb482dab7f5cf34d", "name": "Germanium Technologies Limited", "category": "BPO Company", "street": "C-106/7", "city": "Industrial Area Phase I, Block C, Naraina Industrial Area Phase 1, Naraina", "phone": "01125807301", "website": "http://germaniumindia.com/", "rating": 4, "review_count": "", "latitude": 28.631273399999998, "longitude": 77.1355713, "maps_url": "https://www.google.com/maps/place/?q=place_id:0x390d033b40000001:0xb482dab7f5cf34d"}, {"place_id": "0x390d1b9d7c55f8d9:0xfca04ada599b2113", "name": "Best Software And Website Development Company", "category": "Software company", "street": "110059, Uttam Nagar", "city": "Block B, Bharat Vihar, Madhu Vihar", "phone": "08210512097", "website": "", "rating": 3, "review_count": "", "latitude": 28.6071529, "longitude": 77.0596844, "maps_url": "https://www.google.com/maps/place/?q=place_id:0x390d1b9d7c55f8d9:0xfca04ada599b2113"}, {"place_id": "0x390ce3c87abeddd9:0xa68500e49b658474", "name": "IT Magnum Opus", "category": "Computer support and services", "street": "P-31", "city": "Sriniwaspuri Extn, Block Q, Private Colony, Sri Niwaspuri", "phone": "", "website": "https://www.itmo.in/", "rating": 4.8, "review_count": "", "latitude": 28.5626805, "longitude": 77.2597913, "maps_url": "https://www.google.com/maps/place/?q=place_id:0x390ce3c87abeddd9:0xa68500e49b658474"}, {"place_id": "0x390d1d1323b91801:0x5a4843b2de9c70a6", "name": "SCG Contracts India Pvt. Ltd", "category": "Real Estate Builders & Construction Company", "street": "240, 3rd & 4th Floor, Satya Niketan", "city": "Ring Road", "phone": "01146032435", "website": "http://scgindia.com/", "rating": 4.4, "review_count": "", "latitude": 28.587790799999997, "longitude": 77.1703265, "maps_url": "https://www.google.com/maps/place/?q=place_id:0x390d1d1323b91801:0x5a4843b2de9c70a6"}]}