{"timestamp": 1773728863.3386776, "keyword": "IT company", "location": "delhi", "cell_idx": 3, "results": [{"place_id": "0x390d19b16c22074d:0xb7aa66f4ef5dcc8b", "name": "Workido It Technologies | Best Software & Digital Marketing Company In Gurgaon", "category": "Software company", "street": "Shop No 3, Lover", "city": "MGF Metropolitan Mall", "phone": "09773532524", "website": "https://workidoittech.com/", "rating": 5, "review_count": "", "latitude": 28.478627099999997, "longitude": 77.08212, "maps_url": "https://www.google.com/maps/place/?q=place_id:0x390d19b16c22074d:0xb7aa66f4ef5dcc8b"}, {"place_id": "0x390d195b233aaaab:0x416cb7b74c179f86", "name": "Trantor Software Pvt Ltd.", "category": "Corporate office", "street": "2nd floor, 91 Springboard, Business Hub Private Limited", "city": "Cabin 2", "phone": "06506467818", "website": "http://trantorinc.com/", "rating": 4.1, "review_count": "", "latitude": 28.486732399999998, "longitude": 77.0745902, "maps_url": "https://www.google.com/maps/place/?q=place_id:0x390d195b233aaaab:0x416cb7b74c179f86"}, {"place_id": "0x390d233423cb9d69:0xa575a6f599ef7db6", "name": "Proswl Technology Private Limited", "category": "Software company", "street": "90B, Delhi - Jaipur Expy", "city": "Udyog Vihar, Sector 18", "phone": "01244271015", "website": "https://proswl.com/", "rating": 5, "review_count": "", "latitude": 28.485295999999998, "longitude": 77.0746961, "maps_url": "https://www.google.com/maps/place/?q=place_id:0x390d233423cb9d69:0xa575a6f599ef7db6"}, {"place_id": "0x390d19aabe7d692b:0xd6ac9bdd0332d56c", "name": "Sirion", "category": "Software company", "street": "8th floor", "city": "One Qube", "phone": "01244915400", "website": "http://www.sirion.ai/", "rating": 4.2, "review_count": "", "latitude": 28.4855172, "longitude": 77.07554449999999, "maps_url": "https://www.google.com/maps/place/?q=place_id:0x390d19aabe7d692b:0xd6ac9bdd0332d56c"}, {"place_id": "0x390d192ead051335:0x1f45fb98e90cc397", "name": "Honeysha Technologies, Software Company in Gurgaon, Digital Marketing Agency in Gurgaon", "category": "Software company", "street": "Cyber City", "city": "U-79/18, Rd Number 79", "phone": "07692079000", "website": "https://honeyshatech.com/", "rating": 4.5, "review_count": "", "latitude": 28.4900566, "longitude": 77.09324459999999, "maps_url": "https://www.google.com/maps/place/?q=place_id:0x390d192ead051335:0x1f45fb98e90cc397"}, {"place_id": "0x390d193ff211b3fb:0xd964ffb67296e058", "name": "IStrat Software Pvt. Ltd.", "category": "Software company", "street": "90D,", "city": "Udyog Vihar Phase IV, Sector 18", "phone": "01244121000", "website": "", "rating": 3.8, "review_count": "", "latitude": 28.485205399999998, "longitude": 77.0740924, "maps_url": "https://www.google.com/maps/place/?q=place_id:0x390d193ff211b3fb:0xd964ffb67296e058"}, {"place_id": "0x390d1923af5d91ed:0xbe103b16161f5631", "name": "Condeco Software Private Limited", "category": "Software company", "street": "Tower C", "city": "4th floor building 10", "phone": "01244760150", "website": "http://www.condecosoftware.com/apac", "rating": 4.3, "review_count": "", "latitude": 28.4940696, "longitude": 77.0885457, "maps_url": "https://www.google.com/maps/place/?q=place_id:0x390d1923af5d91ed:0xbe103b16161f5631"}, {"place_id": "0x390d1927c918c30d:0x77c4c1a35f67593b", "name": "Ajath Infotech | Mobile App Development Company", "category": "Software company", "street": "WeWork DLF Forum, Cybercity", "city": "Phase III", "phone": "07838518049", "website": "", "rating": 4.9, "review_count": "", "latitude": 28.4969054, "longitude": 77.0918947, "maps_url": "https://www.google.com/maps/place/?q=place_id:0x390d1927c918c30d:0x77c4c1a35f67593b"}, {"place_id": "0x390d181b03ac9f6f:0x3ec5a92a519f94ad", "name": "Daffodil Software", "category": "Software company", "street": "9th Floor, Tower B1, DLF", "city": "World Tech Park", "phone": "01246817000", "website": "https://www.daffodilsw.com/", "rating": 4.1, "review_count": "", "latitude": 28.465191599999997, "longitude": 77.0564785, "maps_url": "https://www.google.com/maps/place/?q=place_id:0x390d181b03ac9f6f:0x3ec5a92a519f94ad"}, {"place_id": "0x390d192a585e5b83:0x6566a13566025172", "name": "Monocept Consulting Pvt. Ltd.", "category": "Software company", "street": "21B", "city": "Sector 18", "phone": "", "website": "https://monocept.com/", "rating": 4.3, "review_count": "", "latitude": 28.486732399999998, "longitude": 77.0745902, "maps_url": "https://www.google.com/maps/place/?q=place_id:0x390d192a585e5b83:0x6566a13566025172"}, {"place_id": "0x390d1925bac61d8d:0x7f955bcbf9f9dbec", "name": "LUFICK TECHNOLOGY PVT. LTD.", "category": "Software company", "street": "91Springboard", "city": "90b, Delhi - Jaipur Expy", "phone": "", "website": "http://lufick.com/", "rating": 4.8, "review_count": "", "latitude": 28.484876999999997, "longitude": 77.0745347, "maps_url": "https://www.google.com/maps/place/?q=place_id:0x390d1925bac61d8d:0x7f955bcbf9f9dbec"}, {"place_id": "0x390d191100000001:0x83e113ab96f792a6", "name": "Aithent Technologies Private Limited", "category": "Software company", "street": "Plot 8 & 9", "city": "Electronic City, Udyog Vihar, Sector 18", "phone": "01244514600", "website": "", "rating": 4.3, "review_count": "", "latitude": 28.4992287, "longitude": 77.0683609, "maps_url": "https://www.google.com/maps/place/?q=place_id:0x390d191100000001:0x83e113ab96f792a6"}, {"place_id": "0x390d19298db2fb35:0xcaa0d46737c4561c", "name": "MLM Software Developer | Sunny citrix", "category": "Software company", "street": "office no 427C, 4th floor, vashisht complex", "city": "Sikanderpur", "phone": "07906059336", "website": "http://sunnycitrix.com/", "rating": 4.8, "review_count": "", "latitude": 28.4816798, "longitude": 77.09770569999999, "maps_url": "https://www.google.com/maps/place/?q=place_id:0x390d19298db2fb35:0xcaa0d46737c4561c"}, {"place_id": "0x390d19d6fada2dbb:0xf471019497f6cda8", "name": "Suvrin Technologies|Website Development | eCommerce & Mobile App Development company", "category": "Software company", "street": "P1/55", "city": "Mushedpur, DLF Phase 2, Sector 25", "phone": "09811021616", "website": "https://www.suvrin.com/", "rating": 3.9, "review_count": "", "latitude": 28.4872941, "longitude": 77.0874865, "maps_url": "https://www.google.com/maps/place/?q=place_id:0x390d19d6fada2dbb:0xf471019497f6cda8"}, {"place_id": "0x390d192f80e784d3:0x2c271ddf93d663b4", "name": "Tranciscolabs | Mobile App Development Company | Web Development Company", "category": "Software company", "street": "Park", "city": "RGREP", "phone": "09580174570", "website": "https://tranciscolabs.com/", "rating": 4.4, "review_count": "", "latitude": 28.4695091, "longitude": 77.06860209999999, "maps_url": "https://www.google.com/maps/place/?q=place_id:0x390d192f80e784d3:0x2c271ddf93d663b4"}, {"place_id": "0x390d195669b14167:0xdc35ef304e38e313", "name": "DianApps- Top Mobile App Development Company in Gurgaon, India", "category": "Software company", "street": "2nd Floor, Plot No. 8&9", "city": "Phase IV, Sector 18", "phone": "09351584693", "website": "https://dianapps.com/", "rating": 4.6, "review_count": "", "latitude": 28.4909952, "longitude": 77.07843629999999, "maps_url": "https://www.google.com/maps/place/?q=place_id:0x390d195669b14167:0xdc35ef304e38e313"}, {"place_id": "0x390d196aa65f2787:0x206eea180dde1151", "name": "Targus Technologies", "category": "Software company", "street": "S&A Tower First Floor, Plot 5", "city": "6 and 7", "phone": "01244742300", "website": "http://www.targustech.com/", "rating": 4.1, "review_count": "", "latitude": 28.4914788, "longitude": 77.07879179999999, "maps_url": "https://www.google.com/maps/place/?q=place_id:0x390d196aa65f2787:0x206eea180dde1151"}, {"place_id": "0x390d2292473358e7:0x8571b3368423910b", "name": "HelioNext", "category": "BPO Company", "street": "Plot No", "city": "91springboard Cabin No. 0.53 Ground Floor", "phone": "01244343434", "website": "", "rating": 3.9, "review_count": "", "latitude": 28.4852952, "longitude": 77.0746995, "maps_url": "https://www.google.com/maps/place/?q=place_id:0x390d2292473358e7:0x8571b3368423910b"}, {"place_id": "0x39735bb77a3bd121:0x32e038c8034a8b92", "name": "GSV SYSTEMS PVT LTD", "category": "Software company", "street": "90B, Delhi - Jaipur Expy", "city": "Udyog Vihar, Sector 18", "phone": "07065478478", "website": "http://gsvsystems.com/", "rating": 5, "review_count": "", "latitude": 28.4852968, "longitude": 77.07470459999999, "maps_url": "https://www.google.com/maps/place/?q=place_id:0x39735bb77a3bd121:0x32e038c8034a8b92"}, {"place_id": "0x390d190b899cfae3:0xd132d31dc71068b1", "name": "telecrm", "category": "Software company", "street": "91springboard NH8-Udyog Vihar", "city": "90B, Delhi - Jaipur Expy", "phone": "01206852143", "website": "https://telecrm.in/", "rating": 4.4, "review_count": "", "latitude": 28.485253399999998, "longitude": 77.0746592, "maps_url": "https://www.google.com/maps/place/?q=place_id:0x390d190b899cfae3:0xd132d31dc71068b1"}, {"place_id": "0x390d191100000001:0x424476192b3b5b5b", "name": "Binary Semantics Limited", "category": "Software company", "street": "PLot no", "city": "38", "phone": "08929156505", "website": "https://www.binarysemantics.com/", "rating": 3.7, "review_count": "", "latitude": 28.5018823, "longitude": 77.0701466, "maps_url": "https://www.google.com/maps/place/?q=place_id:0x390d191100000001:0x424476192b3b5b5b"}, {"place_id": "0x390d1923866aaaab:0xc1853657ec2a1ee9", "name": "PROTATECH", "category": "Software company", "street": "7th Floor, East Wing", "city": "Jmd Regent Square", "phone": "01242570305", "website": "https://www.protatech.com/", "rating": 4.1, "review_count": "", "latitude": 28.4809995, "longitude": 77.08495599999999, "maps_url": "https://www.google.com/maps/place/?q=place_id:0x390d1923866aaaab:0xc1853657ec2a1ee9"}, {"place_id": "0x390d1917379d3b71:0xea88733c986ff71e", "name": "Swift AMS", "category": "Software company", "street": "Elfinnord Technologies Private Limited", "city": "90B, Delhi - Jaipur Expy", "phone": "07743008221", "website": "http://swiftams.com/", "rating": 5, "review_count": "", "latitude": 28.4852907, "longitude": 77.0747018, "maps_url": "https://www.google.com/maps/place/?q=place_id:0x390d1917379d3b71:0xea88733c986ff71e"}, {"place_id": "0x390d192339c95cdf:0x48126251f4963f65", "name": "Srchout Software Mobile Application Development Company", "category": "Software company", "street": "Plot No. 8 & 9", "city": "Phase IV, Udyog Vihar, Sector 18", "phone": "08005282881", "website": "https://srchoutsoftware.com/", "rating": 3.7, "review_count": "", "latitude": 28.4909952, "longitude": 77.07843629999999, "maps_url": "https://www.google.com/maps/place/?q=place_id:0x390d192339c95cdf:0x48126251f4963f65"}, {"place_id": "0xa2ccc18b2a371883:0x6bdb0b436d6fd4e9", "name": "Factacy.Ai", "category": "Software company", "street": "90B", "city": "Udyog Vihar, Sector 18", "phone": "", "website": "https://www.factacy.ai/", "rating": 4.9, "review_count": "", "latitude": 28.4852952, "longitude": 77.0746995, "maps_url": "https://www.google.com/maps/place/?q=place_id:0xa2ccc18b2a371883:0x6bdb0b436d6fd4e9"}, {"place_id": "0x390d19370bc3f1f5:0x576e1f9f5215ce5e", "name": "iE3 Innovations Pvt. Ltd.", "category": "Software company", "street": "2nd Floor, Tower C", "city": "DLF Cyber Greens", "phone": "01244852920", "website": "https://www.ie3innovations.com/", "rating": 4.8, "review_count": "", "latitude": 28.4937342, "longitude": 77.09272039999999, "maps_url": "https://www.google.com/maps/place/?q=place_id:0x390d19370bc3f1f5:0x576e1f9f5215ce5e"}, {"place_id": "0x390d1939ab5eed67:0xae2a9877515f2ac9", "name": "SSP India Private Limited", "category": "Software company", "street": "5th Floor Tower A, Building 10", "city": "Cowrks India Private Limited, DLF Phase 2", "phone": "", "website": "", "rating": 4, "review_count": "", "latitude": 28.4946509, "longitude": 77.0870061, "maps_url": "https://www.google.com/maps/place/?q=place_id:0x390d1939ab5eed67:0xae2a9877515f2ac9"}, {"place_id": "0x390d19171c5769bd:0x39a2ac8ecb96bb9c", "name": "Genpact", "category": "Software company", "street": "PLOT 22", "city": "Udyog Vihar, Sector 18", "phone": "", "website": "http://www.genpact.com/", "rating": 4.1, "review_count": "", "latitude": 28.4867068, "longitude": 77.0760523, "maps_url": "https://www.google.com/maps/place/?q=place_id:0x390d19171c5769bd:0x39a2ac8ecb96bb9c"}, {"place_id": "0x390d191598f48ef3:0x70991b4ff870f05d", "name": "Shree Partners LLC", "category": "Software company", "street": "1, Tower A, Building, Cyber City", "city": "Corporate Edge Level", "phone": "01246728815", "website": "https://www.shreepartners.com/", "rating": 4.3, "review_count": "", "latitude": 28.4936018, "longitude": 77.088325, "maps_url": "https://www.google.com/maps/place/?q=place_id:0x390d191598f48ef3:0x70991b4ff870f05d"}, {"place_id": "0x390d1915fa5d766d:0x1d92c0eb013cd4f2", "name": "FIS Global Business Solutions India Pvt. Ltd.", "category": "Corporate office", "street": "402, I Park, Plot No. 15", "city": "Phase IV", "phone": "01243927500", "website": "https://www.fisglobal.com/", "rating": 4.1, "review_count": "", "latitude": 28.490092899999997, "longitude": 77.078841, "maps_url": "https://www.google.com/maps/place/?q=place_id:0x390d1915fa5d766d:0x1d92c0eb013cd4f2"}, {"place_id": "0x390d193b91020b5f:0x29f92a3eb636e978", "name": "Upbeat IT Solutions", "category": "Computer support and services", "street": "Chanderlok, DLF Phase IV", "city": "Gurugram, Haryana 122002", "phone": "08851731423", "website": "https://em77v8.webwave.dev/", "rating": 5, "review_count": "", "latitude": 28.4749868, "longitude": 77.0804268, "maps_url": "https://www.google.com/maps/place/?q=place_id:0x390d193b91020b5f:0x29f92a3eb636e978"}, {"place_id": "0x390d192fc20b97e7:0x3048b25634f6d955", "name": "Nagarro", "category": "Software company", "street": "Plot 6B, Sub. Major Laxmi Chand Rd", "city": "Maruti Udyog, Sector 18", "phone": "", "website": "https://www.nagarro.com/en", "rating": 4.5, "review_count": "", "latitude": 28.491098599999997, "longitude": 77.0673492, "maps_url": "https://www.google.com/maps/place/?q=place_id:0x390d192fc20b97e7:0x3048b25634f6d955"}, {"place_id": "0x390d1930100c2bf3:0xfa156630d396fef9", "name": "Clifox Corporation", "category": "Computer support and services", "street": "Unit No. 212", "city": "Park N Shop Complex", "phone": "07699931555", "website": "http://www.clifox.com/", "rating": 3.4, "review_count": "", "latitude": 28.480138399999998, "longitude": 77.07557829999999, "maps_url": "https://www.google.com/maps/place/?q=place_id:0x390d1930100c2bf3:0xfa156630d396fef9"}, {"place_id": "0x390d190cfd949d25:0xdc7e5f42908706d7", "name": "Keyideas Infotech Private Limited", "category": "Software company", "street": "3rd floor", "city": "PLATINA TOWER", "phone": "09999403715", "website": "https://www.keyideasinfotech.com/", "rating": 4.7, "review_count": "", "latitude": 28.480505599999997, "longitude": 77.0926411, "maps_url": "https://www.google.com/maps/place/?q=place_id:0x390d190cfd949d25:0xdc7e5f42908706d7"}, {"place_id": "0x390d192f9a7891eb:0xfb0cf509b0ef2002", "name": "Tofler", "category": "Corporate office", "street": "Gurgaon - Delhi Expy", "city": "Heritage City, Sector 25", "phone": "", "website": "https://www.tofler.in/", "rating": 4.2, "review_count": "", "latitude": 28.4847386, "longitude": 77.07693499999999, "maps_url": "https://www.google.com/maps/place/?q=place_id:0x390d192f9a7891eb:0xfb0cf509b0ef2002"}, {"place_id": "0x390d1960c2b8367f:0xd2d30e45ac71acea", "name": "Vorombetech Solutions - Top IT & Digitalization Service Company in Gurugram", "category": "Software company", "street": "249", "city": "Phase IV, Udyog Vihar, Sector 19", "phone": "", "website": "https://vorombetech.com/", "rating": 4.8, "review_count": "", "latitude": 28.4941475, "longitude": 77.0808448, "maps_url": "https://www.google.com/maps/place/?q=place_id:0x390d1960c2b8367f:0xd2d30e45ac71acea"}, {"place_id": "0x390d1936bc055d11:0xbfc47f040482fb05", "name": "Zeabros India - Software Development, Mobile App Development & Digital Marketing", "category": "Software company", "street": "U 79", "city": "Basement", "phone": "09650702656", "website": "https://zeabro.com/", "rating": 4.8, "review_count": "", "latitude": 28.489956099999997, "longitude": 77.0931775, "maps_url": "https://www.google.com/maps/place/?q=place_id:0x390d1936bc055d11:0xbfc47f040482fb05"}, {"place_id": "0x390d1992b64dc217:0xe57a5c7fd7646159", "name": "Persistent Systems Limited", "category": "Software company", "street": "18th Floor", "city": "DLF Building No. 5 Tower C", "phone": "", "website": "https://www.persistent.com/", "rating": 4.5, "review_count": "", "latitude": 28.489249899999997, "longitude": 77.091971, "maps_url": "https://www.google.com/maps/place/?q=place_id:0x390d1992b64dc217:0xe57a5c7fd7646159"}, {"place_id": "0x390d1946a37ac745:0x8677ea0f43eee9f7", "name": "Satc Marketing", "category": "Software company", "street": "90B, Delhi - Jaipur Expy", "city": "Udyog Vihar, Sector 18", "phone": "", "website": "", "rating": 4.2, "review_count": "", "latitude": 28.485253399999998, "longitude": 77.0746592, "maps_url": "https://www.google.com/maps/place/?q=place_id:0x390d1946a37ac745:0x8677ea0f43eee9f7"}, {"place_id": "0x390ce1877a5ef8eb:0xd5abb94a30425144", "name": "Plusone Technologies Private Limited", "category": "Software company", "street": "Phase IV, Udyog Vihar, Sector 18", "city": "Gurugram, Haryana 122015", "phone": "09891387094", "website": "https://www.plusonetech.co/", "rating": 4.7, "review_count": "", "latitude": 28.4941475, "longitude": 77.0808448, "maps_url": "https://www.google.com/maps/place/?q=place_id:0x390ce1877a5ef8eb:0xd5abb94a30425144"}, {"place_id": "0x390d1992b64dc217:0xe57a5c7fd7646159", "name": "Persistent Systems Limited", "category": "Software company", "street": "18th Floor", "city": "DLF Building No. 5 Tower C", "phone": "", "website": "https://www.persistent.com/", "rating": 4.5, "review_count": "", "latitude": 28.489249899999997, "longitude": 77.091971, "maps_url": "https://www.google.com/maps/place/?q=place_id:0x390d1992b64dc217:0xe57a5c7fd7646159"}, {"place_id": "0x390d1946a37ac745:0x8677ea0f43eee9f7", "name": "Satc Marketing", "category": "Software company", "street": "90B, Delhi - Jaipur Expy", "city": "Udyog Vihar, Sector 18", "phone": "", "website": "", "rating": 4.2, "review_count": "", "latitude": 28.485253399999998, "longitude": 77.0746592, "maps_url": "https://www.google.com/maps/place/?q=place_id:0x390d1946a37ac745:0x8677ea0f43eee9f7"}, {"place_id": "0x390ce1877a5ef8eb:0xd5abb94a30425144", "name": "Plusone Technologies Private Limited", "category": "Software company", "street": "Phase IV, Udyog Vihar, Sector 18", "city": "Gurugram, Haryana 122015", "phone": "09891387094", "website": "https://www.plusonetech.co/", "rating": 4.7, "review_count": "", "latitude": 28.4941475, "longitude": 77.0808448, "maps_url": "https://www.google.com/maps/place/?q=place_id:0x390ce1877a5ef8eb:0xd5abb94a30425144"}, {"place_id": "0x390d04bf6a8be0ff:0x68df2ab3c78d2209", "name": "Engenia Technologies Private Limited", "category": "Software company", "street": "Creators Gurukul", "city": "Main Road", "phone": "09811854684", "website": "http://www.engeniatech.com/", "rating": 4, "review_count": "", "latitude": 28.485681, "longitude": 77.0945246, "maps_url": "https://www.google.com/maps/place/?q=place_id:0x390d04bf6a8be0ff:0x68df2ab3c78d2209"}, {"place_id": "0x390ce58c7403e0a1:0x2a35ba3fcd3ecb95", "name": "Akhil Systems Pvt Ltd - Electronic Medical Records Software, Best Hospital Software India, Hospital Management Software", "category": "Software company", "street": "5th Floor", "city": "Incuspaze Building", "phone": "08448799453", "website": "https://akhilsystems.com/", "rating": 3.4, "review_count": "", "latitude": 28.4914019, "longitude": 77.0771321, "maps_url": "https://www.google.com/maps/place/?q=place_id:0x390ce58c7403e0a1:0x2a35ba3fcd3ecb95"}, {"place_id": "0x390d19316748a39b:0x427bebf40160d8ac", "name": "Construe IT Solutions Pvt. Ltd.", "category": "Software company", "street": "R # 3", "city": "56/10", "phone": "08130713756", "website": "http://www.construesol.com/", "rating": 4, "review_count": "", "latitude": 28.489741799999997, "longitude": 77.0963127, "maps_url": "https://www.google.com/maps/place/?q=place_id:0x390d19316748a39b:0x427bebf40160d8ac"}, {"place_id": "0x390d193e3496e041:0xdacae04ce23c8b2f", "name": "Incedo software Plot 109", "category": "Software company", "street": "Plot No. 109", "city": "Phase IV, Udyog Vihar, Sector 18", "phone": "", "website": "http://incedoinc.com/", "rating": 4.4, "review_count": "", "latitude": 28.4925768, "longitude": 77.08060619999999, "maps_url": "https://www.google.com/maps/place/?q=place_id:0x390d193e3496e041:0xdacae04ce23c8b2f"}, {"place_id": "0x390d1964921a1d9b:0x1fde406005cf8a72", "name": "Software Development Company in Gurgaon | Metafrone", "category": "Software company", "street": "M-45, First Floor", "city": "Mehrauli-Gurgaon Rd", "phone": "09811004471", "website": "http://www.insoftsys.com/", "rating": 5, "review_count": "", "latitude": 28.4693562, "longitude": 77.0441388, "maps_url": "https://www.google.com/maps/place/?q=place_id:0x390d1964921a1d9b:0x1fde406005cf8a72"}, {"place_id": "0x390ce458d0000001:0xf2123bd299ec4501", "name": "IT Company India", "category": "Software company", "street": "D56", "city": "D Block, Sector 10", "phone": "09999244854", "website": "https://www.itcompanyindia.in/", "rating": 4.7, "review_count": "", "latitude": 28.589917699999997, "longitude": 77.3351153, "maps_url": "https://www.google.com/maps/place/?q=place_id:0x390ce458d0000001:0xf2123bd299ec4501"}, {"place_id": "0x390d190c70e68313:0x9a31707c52c698b1", "name": "Simplybuy Solutions Pvt Ltd", "category": "Industrial equipment supplier", "street": "90B, Delhi - Jaipur Expy", "city": "Udyog Vihar, Sector 18", "phone": "01243548783", "website": "https://simplybuy.co/", "rating": 4.9, "review_count": "", "latitude": 28.485295299999997, "longitude": 77.0746994, "maps_url": "https://www.google.com/maps/place/?q=place_id:0x390d190c70e68313:0x9a31707c52c698b1"}, {"place_id": "0x390d195ff81062b1:0x3ef6cd063a0b270a", "name": "App Garage: App Developer Gurgaon Delhi | Mobile App Development Company Gurgaon Delhi", "category": "Software company", "street": "90B, Delhi - Jaipur Expy", "city": "Udyog Vihar, Sector 18", "phone": "09990620005", "website": "", "rating": "", "review_count": "", "latitude": 28.4852599, "longitude": 77.07469669999999, "maps_url": "https://www.google.com/maps/place/?q=place_id:0x390d195ff81062b1:0x3ef6cd063a0b270a"}, {"place_id": "0x390d1946a4b0d01f:0xab23cbaa408b3b9c", "name": "Tagbin Services Pvt. Ltd. \u2013 Best AI & Experiential Tech Company in Gurgaon", "category": "Software company", "street": "3rd Floor, Wing A, Enkay Centre", "city": "Vaniya Kunj", "phone": "08178112682", "website": "https://tagbin.in/", "rating": 4.2, "review_count": "", "latitude": 28.4974691, "longitude": 77.08654609999999, "maps_url": "https://www.google.com/maps/place/?q=place_id:0x390d1946a4b0d01f:0xab23cbaa408b3b9c"}, {"place_id": "0x390d19ee90b21901:0x4725d1fdce098037", "name": "GoodChorus Technologies LLP", "category": "Software company", "street": "K10/44", "city": "Phase I, DLF Phase 2, Sector 25", "phone": "09289119201", "website": "https://goodchorus.com/", "rating": "", "review_count": "", "latitude": 28.483774699999998, "longitude": 77.0836183, "maps_url": "https://www.google.com/maps/place/?q=place_id:0x390d19ee90b21901:0x4725d1fdce098037"}, {"place_id": "0x390d190b8996b54d:0xa4d9ad7263547701", "name": "Company", "category": "Corporate office", "street": "The Coworking Space", "city": "A-14/15 DLF Phase 1, Sector 26 A Truworx", "phone": "01140844560", "website": "https://www.quickcompany.in/", "rating": 4.1, "review_count": "", "latitude": 28.474366699999997, "longitude": 77.0943154, "maps_url": "https://www.google.com/maps/place/?q=place_id:0x390d190b8996b54d:0xa4d9ad7263547701"}, {"place_id": "0x390ce18cddf14577:0x70314701f8d76d96", "name": "NMDSOFT SOFTWARE & NETWORK PVT LTD", "category": "Software company", "street": "55-56, Mehrauli-Gurgaon Rd", "city": "U Block, DLF Phase 3, Sector 24", "phone": "02240375751", "website": "https://www.nmdsoft.co.in/", "rating": 5, "review_count": "", "latitude": 28.4861491, "longitude": 77.0953779, "maps_url": "https://www.google.com/maps/place/?q=place_id:0x390ce18cddf14577:0x70314701f8d76d96"}, {"place_id": "0x390ce459b25d056f:0x3334681b3bc0750b", "name": "Refract Consulting", "category": "Business management consultant", "street": "90b, Delhi - Jaipur Expy", "city": "Sector 18", "phone": "09958545605", "website": "http://www.refractconsulting.com/", "rating": 4.5, "review_count": "", "latitude": 28.485295299999997, "longitude": 77.0746994, "maps_url": "https://www.google.com/maps/place/?q=place_id:0x390ce459b25d056f:0x3334681b3bc0750b"}, {"place_id": "0x390d19174792f4db:0xcb5f589caa71b6e7", "name": "Knocial India Limited", "category": "Software company", "street": "60B", "city": "Udyog Vihar, Sector 22", "phone": "09354120847", "website": "https://www.knocialindia.com/", "rating": 4.7, "review_count": "", "latitude": 28.504239499999997, "longitude": 77.0651981, "maps_url": "https://www.google.com/maps/place/?q=place_id:0x390d19174792f4db:0xcb5f589caa71b6e7"}, {"place_id": "0x390cfb4bf15a6733:0xaf50e6f3c5fb7641", "name": "Digitals Daddy: Web & App Development Company", "category": "Software company", "street": "Metro Gate No. 2", "city": "Nearest Sikandarpur", "phone": "09818286609", "website": "https://www.digitalsdaddy.com/", "rating": 4.9, "review_count": "", "latitude": 28.4847884, "longitude": 77.0922192, "maps_url": "https://www.google.com/maps/place/?q=place_id:0x390cfb4bf15a6733:0xaf50e6f3c5fb7641"}, {"place_id": "0x390d198687bc63f7:0x51356068f2f7b5e0", "name": "Future Generation Technology Pvt Ltd.", "category": "Solar Energy Company", "street": "90B, Delhi - Jaipur Expy", "city": "Udyog Vihar, Sector 18", "phone": "07982040176", "website": "http://www.futuregentec.com/", "rating": 3.7, "review_count": "", "latitude": 28.4853009, "longitude": 77.0746616, "maps_url": "https://www.google.com/maps/place/?q=place_id:0x390d198687bc63f7:0x51356068f2f7b5e0"}, {"place_id": "0x390d19361c56cecd:0x50517af3dc928d70", "name": "Mycom", "category": "Software company", "street": "7th Floor", "city": "Building 8b", "phone": "01244508000", "website": "http://www.mycom-osi.com/", "rating": 4.3, "review_count": "", "latitude": 28.4982059, "longitude": 77.0900367, "maps_url": "https://www.google.com/maps/place/?q=place_id:0x390d19361c56cecd:0x50517af3dc928d70"}, {"place_id": "0x390d193774cedf33:0x6db4012b17cc1449", "name": "Webmark & Marketing Experts Pvt Ltd", "category": "Internet marketing service", "street": "90B, Delhi - Jaipur Expy", "city": "Udyog Vihar, Sector 18", "phone": "08218422161", "website": "https://wamexs.in/", "rating": 4.6, "review_count": "", "latitude": 28.485253399999998, "longitude": 77.0746592, "maps_url": "https://www.google.com/maps/place/?q=place_id:0x390d193774cedf33:0x6db4012b17cc1449"}, {"place_id": "0x390d190b899cfae3:0xe298eaa323b9ba3e", "name": "Acelot Innovation Private Limited", "category": "Business management consultant", "street": "90 B Delhi \u2013 Jaipur Expy, Udyog Vihar, Sector 18 Gurugram \u2013 122018", "city": "Gurugram, Haryana 122015", "phone": "09205309509", "website": "https://acelotacademy.com/", "rating": 4.7, "review_count": "", "latitude": 28.485295299999997, "longitude": 77.0746994, "maps_url": "https://www.google.com/maps/place/?q=place_id:0x390d190b899cfae3:0xe298eaa323b9ba3e"}, {"place_id": "0x390d191739606bdb:0x356102035aa7c82a", "name": "FRVelion Oils India Private Limited", "category": "Oil & natural gas company", "street": "Ground Floor", "city": "91 Springboard", "phone": "09711441842", "website": "", "rating": 4.9, "review_count": "", "latitude": 28.485295299999997, "longitude": 77.0746994, "maps_url": "https://www.google.com/maps/place/?q=place_id:0x390d191739606bdb:0x356102035aa7c82a"}, {"place_id": "0x390d19e36c0ab6f7:0x167ea392a76c1503", "name": "91Springboard 90B Udyog Vihar, Gurugarm", "category": "Corporate office", "street": "90B, Delhi - Jaipur Expy", "city": "Udyog Vihar, Sector 18", "phone": "09597519191", "website": "https://www.91springboard.com/co-working-office-space-gurugram/udyog-vihar/", "rating": 4.4, "review_count": "", "latitude": 28.485295299999997, "longitude": 77.0746994, "maps_url": "https://www.google.com/maps/place/?q=place_id:0x390d19e36c0ab6f7:0x167ea392a76c1503"}, {"place_id": "0x390d1f4effffffff:0xcfc715ac63417946", "name": "Bechtel India Private Limited", "category": "Corporate office", "street": "244-245", "city": "Phase IV, Udyog Vihar, Knowledge Park", "phone": "01244098000", "website": "http://www.bechtel.com/", "rating": 4.4, "review_count": "", "latitude": 28.4956277, "longitude": 77.0839426, "maps_url": "https://www.google.com/maps/place/?q=place_id:0x390d1f4effffffff:0xcfc715ac63417946"}, {"place_id": "0x390d1928bf0ee619:0x4a1faf273bc35756", "name": "KVR TECHNOLOGIES", "category": "Computer support and services", "street": "Plot No - K5A/6", "city": "K Block", "phone": "09711448955", "website": "", "rating": 4.9, "review_count": "", "latitude": 28.4827332, "longitude": 77.0813879, "maps_url": "https://www.google.com/maps/place/?q=place_id:0x390d1928bf0ee619:0x4a1faf273bc35756"}, {"place_id": "0x390d18ce27ca477b:0x9d2e03335940763e", "name": "Sankyu India Logistics & Engineering Pvt. Ltd.", "category": "Logistics service", "street": "Sewa Corporate Park Office No 409, 4th Floor", "city": "Mehrauli-Gurgaon Rd", "phone": "01247176600", "website": "https://www.sankyu.co.jp/en/", "rating": 4.7, "review_count": "", "latitude": 28.4792158, "longitude": 77.07403529999999, "maps_url": "https://www.google.com/maps/place/?q=place_id:0x390d18ce27ca477b:0x9d2e03335940763e"}, {"place_id": "0x390d19fbd8f1fa87:0xb27b10cb2b8673c6", "name": "IPS TECHNOLOGIES - eCommerce Development | Mobile App Development", "category": "E-commerce service", "street": "K-13/21", "city": "DLF Phase 2, Sector 25", "phone": "08076504088", "website": "", "rating": "", "review_count": "", "latitude": 28.482839, "longitude": 77.0827702, "maps_url": "https://www.google.com/maps/place/?q=place_id:0x390d19fbd8f1fa87:0xb27b10cb2b8673c6"}, {"place_id": "0x390d19f86d348d65:0x6ed29f361ed5b8fc", "name": "PASSERIDAE TECHNOLOGIES PRIVATE LIMITED", "category": "Software company", "street": "90B, Delhi - Jaipur Expy", "city": "Udyog Vihar, Sector 18", "phone": "", "website": "https://passeridae.io/", "rating": 4.8, "review_count": "", "latitude": 28.485295299999997, "longitude": 77.0746994, "maps_url": "https://www.google.com/maps/place/?q=place_id:0x390d19f86d348d65:0x6ed29f361ed5b8fc"}, {"place_id": "0x390d19345bcdc4f3:0x61d5221ed2c17f35", "name": "Cognizant", "category": "Software company", "street": "Tower C, SEZ Building, Building No 6, 5th & 6th Floor DLF C yber City Rd W Block", "city": "Near Shankar Chowk", "phone": "", "website": "http://www.cognizant.com/india", "rating": 4.1, "review_count": "", "latitude": 28.4964521, "longitude": 77.096576, "maps_url": "https://www.google.com/maps/place/?q=place_id:0x390d19345bcdc4f3:0x61d5221ed2c17f35"}, {"place_id": "0x390d193ecc502b85:0x2c5fe89818cf7ec2", "name": "METAGUISE OPERATIONS", "category": "Metal construction company", "street": "Basement", "city": "K9/46", "phone": "09811604449", "website": "https://metaguise.com/", "rating": 4.4, "review_count": "", "latitude": 28.4840309, "longitude": 77.0846507, "maps_url": "https://www.google.com/maps/place/?q=place_id:0x390d193ecc502b85:0x2c5fe89818cf7ec2"}, {"place_id": "0x390d19c4f81c373b:0x569790526001fe47", "name": "Pasenture Technologies - Web Development Company in Gurugram, Software Development Company in Gurgaon for CRM & Saas Software", "category": "Software company", "street": "2nd Floor", "city": "90, IDC", "phone": "09717197498", "website": "https://pasenture.in/", "rating": 4, "review_count": "", "latitude": 28.4716508, "longitude": 77.0509349, "maps_url": "https://www.google.com/maps/place/?q=place_id:0x390d19c4f81c373b:0x569790526001fe47"}, {"place_id": "0x390d193c3a36fabd:0x8bd7aacd8793bdb7", "name": "Orange Business Services", "category": "Public relations firm", "street": "Infinity Tower 8, Tower B", "city": "DLF Cyber City, DLF Phase 2, Sector 25", "phone": "", "website": "http://www.orange-business.com/", "rating": 4.5, "review_count": "", "latitude": 28.495814199999998, "longitude": 77.0910088, "maps_url": "https://www.google.com/maps/place/?q=place_id:0x390d193c3a36fabd:0x8bd7aacd8793bdb7"}, {"place_id": "0x390d1936fbd0260b:0xd8fc7f91729f3242", "name": "TaxRodo", "category": "Accounting firm", "street": "90B, Delhi - Jaipur Expy", "city": "Sector 18", "phone": "09141888444", "website": "https://www.taxrodo.com/", "rating": 4.8, "review_count": "", "latitude": 28.485295299999997, "longitude": 77.0746994, "maps_url": "https://www.google.com/maps/place/?q=place_id:0x390d1936fbd0260b:0xd8fc7f91729f3242"}, {"place_id": "0x390d19158765706b:0x7940981b18929c00", "name": "Infogix International Pvt. Ltd.", "category": "Software company", "street": "5 th floor", "city": "Tower 10", "phone": "01244802900", "website": "https://www.infogix.com/", "rating": 4, "review_count": "", "latitude": 28.4945511, "longitude": 77.08714619999999, "maps_url": "https://www.google.com/maps/place/?q=place_id:0x390d19158765706b:0x7940981b18929c00"}, {"place_id": "0x390d196cb4155001:0xc76da6f9bbfe3d2c", "name": "Buzzworks Business Services Pvt. Ltd", "category": "Employment center", "street": "Unit No-512, 5th Floor", "city": "MGF Metropolis Mall", "phone": "", "website": "https://buzzworks.com/", "rating": 3.4, "review_count": "", "latitude": 28.4806852, "longitude": 77.0801922, "maps_url": "https://www.google.com/maps/place/?q=place_id:0x390d196cb4155001:0xc76da6f9bbfe3d2c"}, {"place_id": "0x390d19ce1f2130e9:0x557e814a1e7a0f7b", "name": "Needle ads- digital Marketing company in gurgaon lead generation services in gurgaon", "category": "Software company", "street": "Cyber City", "city": "DLF Cyber City, DLF Phase 3, Sector 24", "phone": "08750500075", "website": "https://www.theneedleads.com/", "rating": 5, "review_count": "", "latitude": 28.4936018, "longitude": 77.088325, "maps_url": "https://www.google.com/maps/place/?q=place_id:0x390d19ce1f2130e9:0x557e814a1e7a0f7b"}, {"place_id": "0x390d19007f5a8461:0xeb19ef181fedccf9", "name": "DLF Smartworks Centre, Gurugram", "category": "Corporate office", "street": "3 ZONE, COMMERCIAL BUILDING BLOCK", "city": "AMEX II", "phone": "", "website": "https://www.dlf.in/offices/gurugram/dlfcybercity", "rating": 5, "review_count": "", "latitude": 28.4859221, "longitude": 77.0804478, "maps_url": "https://www.google.com/maps/place/?q=place_id:0x390d19007f5a8461:0xeb19ef181fedccf9"}, {"place_id": "0x390d19e8dee283f1:0x28ec2c7acd637e33", "name": "Grefet Systems India Private Limited", "category": "Aluminium Supplier", "street": "90B, Delhi - Jaipur Expy", "city": "Udyog Vihar, Sector 18", "phone": "08800616009", "website": "https://www.grefet.com/", "rating": 4.3, "review_count": "", "latitude": 28.485253399999998, "longitude": 77.0746592, "maps_url": "https://www.google.com/maps/place/?q=place_id:0x390d19e8dee283f1:0x28ec2c7acd637e33"}, {"place_id": "0x390d19be4ae5ef63:0xa4a7fcfb04a1e4cd", "name": "Teleperformance", "category": "Software company", "street": "96", "city": "Phase IV, Udyog Vihar, Sector 18", "phone": "01244221050", "website": "http://teleperformance.com/", "rating": 3.8, "review_count": "", "latitude": 28.492676699999997, "longitude": 77.0793487, "maps_url": "https://www.google.com/maps/place/?q=place_id:0x390d19be4ae5ef63:0xa4a7fcfb04a1e4cd"}, {"place_id": "0x390d19c4f81c373b:0x569790526001fe47", "name": "Pasenture Technologies - Web Development Company in Gurugram, Software Development Company in Gurgaon for CRM & Saas Software", "category": "Software company", "street": "2nd Floor", "city": "90, IDC", "phone": "09717197498", "website": "https://pasenture.in/", "rating": 4, "review_count": "", "latitude": 28.4716508, "longitude": 77.0509349, "maps_url": "https://www.google.com/maps/place/?q=place_id:0x390d19c4f81c373b:0x569790526001fe47"}, {"place_id": "0x390d193c3a36fabd:0x8bd7aacd8793bdb7", "name": "Orange Business Services", "category": "Public relations firm", "street": "Infinity Tower 8, Tower B", "city": "DLF Cyber City, DLF Phase 2, Sector 25", "phone": "", "website": "http://www.orange-business.com/", "rating": 4.5, "review_count": "", "latitude": 28.495814199999998, "longitude": 77.0910088, "maps_url": "https://www.google.com/maps/place/?q=place_id:0x390d193c3a36fabd:0x8bd7aacd8793bdb7"}, {"place_id": "0x390d1936fbd0260b:0xd8fc7f91729f3242", "name": "TaxRodo", "category": "Accounting firm", "street": "90B, Delhi - Jaipur Expy", "city": "Sector 18", "phone": "09141888444", "website": "https://www.taxrodo.com/", "rating": 4.8, "review_count": "", "latitude": 28.485295299999997, "longitude": 77.0746994, "maps_url": "https://www.google.com/maps/place/?q=place_id:0x390d1936fbd0260b:0xd8fc7f91729f3242"}, {"place_id": "0x41ddcb5488aa4703:0x5290c64921de1a5b", "name": "Bloatware IT Software Development Company | Game Development | Software Company in delhi", "category": "Software company", "street": "SILVER OAK FARMS", "city": "660, Mehrauli-Gurgaon Rd", "phone": "", "website": "https://bloatwareitsolutions.com/", "rating": 5, "review_count": "", "latitude": 28.4911034, "longitude": 77.1432663, "maps_url": "https://www.google.com/maps/place/?q=place_id:0x41ddcb5488aa4703:0x5290c64921de1a5b"}, {"place_id": "0x390d19158765706b:0x7940981b18929c00", "name": "Infogix International Pvt. Ltd.", "category": "Software company", "street": "5 th floor", "city": "Tower 10", "phone": "01244802900", "website": "https://www.infogix.com/", "rating": 4, "review_count": "", "latitude": 28.4945511, "longitude": 77.08714619999999, "maps_url": "https://www.google.com/maps/place/?q=place_id:0x390d19158765706b:0x7940981b18929c00"}, {"place_id": "0x390d196cb4155001:0xc76da6f9bbfe3d2c", "name": "Buzzworks Business Services Pvt. Ltd", "category": "Employment center", "street": "Unit No-512, 5th Floor", "city": "MGF Metropolis Mall", "phone": "", "website": "https://buzzworks.com/", "rating": 3.4, "review_count": "", "latitude": 28.4806852, "longitude": 77.0801922, "maps_url": "https://www.google.com/maps/place/?q=place_id:0x390d196cb4155001:0xc76da6f9bbfe3d2c"}, {"place_id": "0x390d19ce1f2130e9:0x557e814a1e7a0f7b", "name": "Needle ads- digital Marketing company in gurgaon lead generation services in gurgaon", "category": "Software company", "street": "Cyber City", "city": "DLF Cyber City, DLF Phase 3, Sector 24", "phone": "08750500075", "website": "https://www.theneedleads.com/", "rating": 5, "review_count": "", "latitude": 28.4936018, "longitude": 77.088325, "maps_url": "https://www.google.com/maps/place/?q=place_id:0x390d19ce1f2130e9:0x557e814a1e7a0f7b"}, {"place_id": "0x390d19007f5a8461:0xeb19ef181fedccf9", "name": "DLF Smartworks Centre, Gurugram", "category": "Corporate office", "street": "3 ZONE, COMMERCIAL BUILDING BLOCK", "city": "AMEX II", "phone": "", "website": "https://www.dlf.in/offices/gurugram/dlfcybercity", "rating": 5, "review_count": "", "latitude": 28.4859221, "longitude": 77.0804478, "maps_url": "https://www.google.com/maps/place/?q=place_id:0x390d19007f5a8461:0xeb19ef181fedccf9"}, {"place_id": "0x390d19e8dee283f1:0x28ec2c7acd637e33", "name": "Grefet Systems India Private Limited", "category": "Aluminium Supplier", "street": "90B, Delhi - Jaipur Expy", "city": "Udyog Vihar, Sector 18", "phone": "08800616009", "website": "https://www.grefet.com/", "rating": 4.3, "review_count": "", "latitude": 28.485253399999998, "longitude": 77.0746592, "maps_url": "https://www.google.com/maps/place/?q=place_id:0x390d19e8dee283f1:0x28ec2c7acd637e33"}, {"place_id": "0x390d19be4ae5ef63:0xa4a7fcfb04a1e4cd", "name": "Teleperformance", "category": "Software company", "street": "96", "city": "Phase IV, Udyog Vihar, Sector 18", "phone": "01244221050", "website": "http://teleperformance.com/", "rating": 3.8, "review_count": "", "latitude": 28.492676699999997, "longitude": 77.0793487, "maps_url": "https://www.google.com/maps/place/?q=place_id:0x390d19be4ae5ef63:0xa4a7fcfb04a1e4cd"}, {"place_id": "0x390d195b82955c11:0x4ac608c95db239fa", "name": "Worxpertise (Edge Business Solutions Pvt. Ltd.)", "category": "Business to business service", "street": "4th Floor, WING-B", "city": "AIHP Tower", "phone": "", "website": "https://worxpertise.com/", "rating": 4.1, "review_count": "", "latitude": 28.497374899999997, "longitude": 77.0827276, "maps_url": "https://www.google.com/maps/place/?q=place_id:0x390d195b82955c11:0x4ac608c95db239fa"}, {"place_id": "0x390d1960c16f0ec5:0x15fa9773257324c", "name": "V Pacx", "category": "Packaging company", "street": "90B, Delhi - Jaipur Expy", "city": "Udyog, Sector 18", "phone": "09654508123", "website": "http://www.vpacx.com/", "rating": 4.4, "review_count": "", "latitude": 28.485253399999998, "longitude": 77.0746592, "maps_url": "https://www.google.com/maps/place/?q=place_id:0x390d1960c16f0ec5:0x15fa9773257324c"}, {"place_id": "0x390d197cd2449a03:0x662a4ed70d3556d9", "name": "Ajarow", "category": "Software company", "street": "90-B, Delhi - Jaipur Expy", "city": "Sector 18", "phone": "07303230204", "website": "", "rating": 4.6, "review_count": "", "latitude": 28.485295299999997, "longitude": 77.0746994, "maps_url": "https://www.google.com/maps/place/?q=place_id:0x390d197cd2449a03:0x662a4ed70d3556d9"}, {"place_id": "0x390d193feaaaaaab:0x7a36da7465a8aea3", "name": "SoftAge Information Technology Limited", "category": "Corporate office", "street": "204", "city": "Phase IV, Udyog Vihar, Sector 18", "phone": "09999886622", "website": "http://www.softage.net/", "rating": 4.3, "review_count": "", "latitude": 28.496942699999998, "longitude": 77.0796953, "maps_url": "https://www.google.com/maps/place/?q=place_id:0x390d193feaaaaaab:0x7a36da7465a8aea3"}, {"place_id": "0x390d195c3fffffff:0x94e4780ed51b3afe", "name": "India-Israel Innovation HUB", "category": "Business management consultant", "street": "29, 1st Floor", "city": "Udyog Vihar, Phase I", "phone": "01244042332", "website": "http://india-israel-innovation.org/", "rating": 4.5, "review_count": "", "latitude": 28.4853193, "longitude": 77.0747281, "maps_url": "https://www.google.com/maps/place/?q=place_id:0x390d195c3fffffff:0x94e4780ed51b3afe"}, {"place_id": "0x390d19830ce5c9d7:0x5385457a422ff7f5", "name": "The AdCode", "category": "Marketing agency", "street": "25, Cassia Marg", "city": "DLF Phase 2, Sector 25", "phone": "07838844747", "website": "http://www.theadcode.com/", "rating": 4.9, "review_count": "", "latitude": 28.4829711, "longitude": 77.0804471, "maps_url": "https://www.google.com/maps/place/?q=place_id:0x390d19830ce5c9d7:0x5385457a422ff7f5"}, {"place_id": "0x390d19a9e9dbe321:0x3fc23ed31ff55358", "name": "Frankfinn Aviation Head Office", "category": "Corporate office", "street": "Plot No, 21A", "city": "Sector 18", "phone": "18002587332", "website": "https://www.frankfinn.com/?utm_source=Organic&utm_medium=GMB", "rating": 3.7, "review_count": "", "latitude": 28.4868271, "longitude": 77.0753809, "maps_url": "https://www.google.com/maps/place/?q=place_id:0x390d19a9e9dbe321:0x3fc23ed31ff55358"}, {"place_id": "0x390d193628f9608b:0x33567585d2e83dc3", "name": "EXL Service India", "category": "Software company", "street": "Tower D", "city": "Building No. 14", "phone": "01246144700", "website": "https://www.exlservice.com/locations", "rating": 4.3, "review_count": "", "latitude": 28.4969382, "longitude": 77.0944075, "maps_url": "https://www.google.com/maps/place/?q=place_id:0x390d193628f9608b:0x33567585d2e83dc3"}, {"place_id": "0x390d195b87642aeb:0xd4032c82e2d16d15", "name": "Dyninno India", "category": "Corporate office", "street": "Cyber City", "city": "Building no 7 A, 6th Floor", "phone": "", "website": "https://dyninno.com/", "rating": 4.5, "review_count": "", "latitude": 28.4927954, "longitude": 77.091972, "maps_url": "https://www.google.com/maps/place/?q=place_id:0x390d195b87642aeb:0xd4032c82e2d16d15"}, {"place_id": "0x390cef865649cbcd:0x2e0403ac866ade0a", "name": "Kisaan Se Kitchen Tak", "category": "Agricultural service", "street": "21-B", "city": "Sector 18", "phone": "08103203303", "website": "http://kskt.in/", "rating": 4.6, "review_count": "", "latitude": 28.486757299999997, "longitude": 77.07530469999999, "maps_url": "https://www.google.com/maps/place/?q=place_id:0x390cef865649cbcd:0x2e0403ac866ade0a"}]}