{"timestamp": 1773729713.0266593, "keyword": "IT company", "location": "delhi", "cell_idx": 128, "results": [{"place_id": "0x390d195e4483ae05:0xec67b2579bb38803", "name": "eXtendCode - Software Development Company", "category": "Software company", "street": "Plot 63, Second Floor, Udyog Vihar Phase -1,", "city": "Gurugram, Haryana 122016", "phone": "01244261219", "website": "http://www.extendcode.com/", "rating": 4.1, "review_count": "", "latitude": 28.514535199999997, "longitude": 77.0815075, "maps_url": "https://www.google.com/maps/place/?q=place_id:0x390d195e4483ae05:0xec67b2579bb38803"}, {"place_id": "0x390d195b3d2c83ab:0x3dedc435b1e10e51", "name": "Gemini Solutions pvt ltd", "category": "Software company", "street": "Plot No. 119", "city": "Udyog Vihar, Phase I, Sector 20", "phone": "08800998042", "website": "https://geminisolutions.com/", "rating": 4.2, "review_count": "", "latitude": 28.5133342, "longitude": 77.08256279999999, "maps_url": "https://www.google.com/maps/place/?q=place_id:0x390d195b3d2c83ab:0x3dedc435b1e10e51"}, {"place_id": "0x390d19f36f09bccb:0x922b9ed67b679fb8", "name": "Webdecorum | Best Web Development Company in India", "category": "Software company", "street": "7th Floor", "city": "108", "phone": "09599110321", "website": "https://www.webdecorum.com/", "rating": 4.9, "review_count": "", "latitude": 28.5161558, "longitude": 77.08289289999999, "maps_url": "https://www.google.com/maps/place/?q=place_id:0x390d19f36f09bccb:0x922b9ed67b679fb8"}, {"place_id": "0x390d1dcb22bede17:0xaa69daaeb6f9f53", "name": "Redesys Innovative Pvt Ltd", "category": "Computer support and services", "street": "108", "city": "Udyog Vihar Phase 1, Udyog Vihar, Sector 20", "phone": "09540094851", "website": "http://www.redesys.co.in/", "rating": 4.8, "review_count": "", "latitude": 28.516242599999998, "longitude": 77.0828938, "maps_url": "https://www.google.com/maps/place/?q=place_id:0x390d1dcb22bede17:0xaa69daaeb6f9f53"}, {"place_id": "0x390d1905cf9418ab:0x68c73ef2c55c6a92", "name": "Dixinfotech | Best Web Development Company in Gurgaon", "category": "Software company", "street": "Plot No. 96, 1st Floor", "city": "Udyog Vihar Phase 1, Sector 20", "phone": "09717106162", "website": "https://www.dixinfotech.com/website-designing-company-in-gurgaon", "rating": 5, "review_count": "", "latitude": 28.5169219, "longitude": 77.0803425, "maps_url": "https://www.google.com/maps/place/?q=place_id:0x390d1905cf9418ab:0x68c73ef2c55c6a92"}, {"place_id": "0x390d19d155fd7831:0xb84c7cac6f448e8", "name": "Radical Minds Technologies Pvt. Ltd.", "category": "BPO Company", "street": "108", "city": "Udyog Vihar Phase 1, Udyog Vihar, Sector 20", "phone": "", "website": "https://radicalminds.in/", "rating": 4.2, "review_count": "", "latitude": 28.516151999999998, "longitude": 77.0829746, "maps_url": "https://www.google.com/maps/place/?q=place_id:0x390d19d155fd7831:0xb84c7cac6f448e8"}, {"place_id": "0x390d190018547ec1:0x1b3da1b41abb5aba", "name": "Octopus Tech - Web Design & Call Center Outsourcing", "category": "Corporate office", "street": "Dundahera Village, Sector 20", "city": "Gurugram, Haryana 122016", "phone": "01244178078", "website": "https://www.theoctopustech.com/", "rating": 3.8, "review_count": "", "latitude": 28.5159158, "longitude": 77.0810874, "maps_url": "https://www.google.com/maps/place/?q=place_id:0x390d190018547ec1:0x1b3da1b41abb5aba"}, {"place_id": "0x390d19472c0ed765:0x3448f98cc74febf6", "name": "Vichara Technology", "category": "Software company", "street": "Infotech Center", "city": "Old Delhi Gurugram Rd", "phone": "08887631346", "website": "http://www.vichara.com/", "rating": 4.1, "review_count": "", "latitude": 28.5110438, "longitude": 77.07454489999999, "maps_url": "https://www.google.com/maps/place/?q=place_id:0x390d19472c0ed765:0x3448f98cc74febf6"}, {"place_id": "0x390d19f4b550a8d5:0x4ea60370034178d0", "name": "HCLTech", "category": "Software company", "street": "1st and 2nd Floor", "city": "Candor Tech Space Gate", "phone": "", "website": "https://www.hcltech.com/geo-presence/india", "rating": 4.4, "review_count": "", "latitude": 28.5151547, "longitude": 77.0752493, "maps_url": "https://www.google.com/maps/place/?q=place_id:0x390d19f4b550a8d5:0x4ea60370034178d0"}, {"place_id": "0x390d1f15141ee7db:0x38106f5e4fff2bed", "name": "Campus 365 - Best School ERP Software", "category": "Software company", "street": "108, 6th Floor", "city": "Phase 1", "phone": "18001035164", "website": "https://www.campus365.io/", "rating": 4.5, "review_count": "", "latitude": 28.5161782, "longitude": 77.0829035, "maps_url": "https://www.google.com/maps/place/?q=place_id:0x390d1f15141ee7db:0x38106f5e4fff2bed"}, {"place_id": "0x390d19555da57cc3:0x2565e7f0b398d793", "name": "Tecnotch IT Solutions Pvt Ltd", "category": "Corporate office", "street": "Plot No 96", "city": "Phase I, Udyog Vihar, Sector 20", "phone": "", "website": "http://www.technotch.in/", "rating": 5, "review_count": "", "latitude": 28.5159979, "longitude": 77.08116389999999, "maps_url": "https://www.google.com/maps/place/?q=place_id:0x390d19555da57cc3:0x2565e7f0b398d793"}, {"place_id": "0x390d195fb4211e8d:0x3a028d2af1f86c52", "name": "Jupiter Orison Pvt Ltd", "category": "Corporate office", "street": "Plot 96", "city": "Udyog Vihar Phase 1, Dundahera Village, Sector 20", "phone": "09289874800", "website": "http://www.jupiterorison.com/", "rating": 4.3, "review_count": "", "latitude": 28.5159633, "longitude": 77.0809556, "maps_url": "https://www.google.com/maps/place/?q=place_id:0x390d195fb4211e8d:0x3a028d2af1f86c52"}, {"place_id": "0x390d191100000001:0x424476192b3b5b5b", "name": "Binary Semantics Limited", "category": "Software company", "street": "PLot no", "city": "38", "phone": "08929156505", "website": "https://www.binarysemantics.com/", "rating": 3.7, "review_count": "", "latitude": 28.5018823, "longitude": 77.0701466, "maps_url": "https://www.google.com/maps/place/?q=place_id:0x390d191100000001:0x424476192b3b5b5b"}, {"place_id": "0x390d195c57ccd5e1:0x1b2c706c8f63247e", "name": "Byteprojects - Technologies", "category": "Software company", "street": "Skootr Offices", "city": "PlotNo. 264", "phone": "07876435599", "website": "http://byteprojects.in/", "rating": 4.8, "review_count": "", "latitude": 28.5101685, "longitude": 77.0828891, "maps_url": "https://www.google.com/maps/place/?q=place_id:0x390d195c57ccd5e1:0x1b2c706c8f63247e"}, {"place_id": "0x390d195e96bb4105:0xfba8615a67d65660", "name": "Onkar Infotech", "category": "BPO Company", "street": "117", "city": "Udyog Vihar Phase 1, Udyog Vihar, Sector 20", "phone": "01244004742", "website": "http://www.onkarinfotech.com/", "rating": 3.9, "review_count": "", "latitude": 28.5137038, "longitude": 77.0832096, "maps_url": "https://www.google.com/maps/place/?q=place_id:0x390d195e96bb4105:0xfba8615a67d65660"}, {"place_id": "0x390d05befd73251b:0x5b1f0b14ae5f78dd", "name": "Trank Tec. | Web & Mobile App Developers : eCommerce Web Development Company in Delhi, India", "category": "Software company", "street": "Plot no. 112, 3rd Floor", "city": "Udyog Vihar Phase 1, Udyog Vihar, Sector 20", "phone": "09311397535", "website": "https://www.tranktechnologies.com/", "rating": 3.8, "review_count": "", "latitude": 28.514941399999998, "longitude": 77.0849483, "maps_url": "https://www.google.com/maps/place/?q=place_id:0x390d05befd73251b:0x5b1f0b14ae5f78dd"}, {"place_id": "0x390d19f49aa55555:0x7aad16d3daa2b1be", "name": "Optimum Logic Private Limited", "category": "Software company", "street": "7th floor", "city": "108", "phone": "09599110321", "website": "https://www.optimumlogic.com/", "rating": 3.3, "review_count": "", "latitude": 28.5163712, "longitude": 77.0827115, "maps_url": "https://www.google.com/maps/place/?q=place_id:0x390d19f49aa55555:0x7aad16d3daa2b1be"}, {"place_id": "0x390d1940d3eedd27:0x273be397fffe3696", "name": "Wipro Limited", "category": "Software company", "street": "480-481 480", "city": "Phase III, Udyog Vihar, Sector 19", "phone": "01243084000", "website": "https://www.wipro.com/", "rating": 4.3, "review_count": "", "latitude": 28.5105306, "longitude": 77.0881143, "maps_url": "https://www.google.com/maps/place/?q=place_id:0x390d1940d3eedd27:0x273be397fffe3696"}, {"place_id": "0x390d19440bc59efb:0xda6549686148f7b4", "name": "PerfectionGeeks Technologies", "category": "Software company", "street": "Plot 378-379, Udyog Vihar Phase 4 Rd", "city": "near nokia building", "phone": "08920947884", "website": "http://www.perfectiongeeks.com/", "rating": 4.9, "review_count": "", "latitude": 28.5002221, "longitude": 77.0730516, "maps_url": "https://www.google.com/maps/place/?q=place_id:0x390d19440bc59efb:0xda6549686148f7b4"}, {"place_id": "0x390d195a7c8a06a7:0x34d8dddb7a7933ed", "name": "VDC Technologies Private Limited", "category": "Engineering consultant", "street": "2nd floor", "city": "Plot no 29", "phone": "01244281413", "website": "http://vdcint.com/", "rating": 3.5, "review_count": "", "latitude": 28.514978, "longitude": 77.080433, "maps_url": "https://www.google.com/maps/place/?q=place_id:0x390d195a7c8a06a7:0x34d8dddb7a7933ed"}, {"place_id": "0x390d1944b3f22513:0x339f61acaa678349", "name": "Kellton Tech Solutions Limited", "category": "Software company", "street": "iLabs Centre", "city": "404-405", "phone": "01244698900", "website": "http://www.kellton.com/", "rating": 4.1, "review_count": "", "latitude": 28.5087872, "longitude": 77.0921085, "maps_url": "https://www.google.com/maps/place/?q=place_id:0x390d1944b3f22513:0x339f61acaa678349"}, {"place_id": "0x390d19afd1d64805:0xdc0ff76292f115a0", "name": "ichhapurti Corporate Office", "category": "E-commerce service", "street": "GGJ SOLUTIONS PVT. LTD, Plot No. 112, 3rd Floor", "city": "Udyog Vihar, Phase I, Sector 20", "phone": "", "website": "", "rating": 3.3, "review_count": "", "latitude": 28.5147753, "longitude": 77.0848065, "maps_url": "https://www.google.com/maps/place/?q=place_id:0x390d19afd1d64805:0xdc0ff76292f115a0"}, {"place_id": "0x390d1923af5d91ed:0xbe103b16161f5631", "name": "Condeco Software Private Limited", "category": "Software company", "street": "Tower C", "city": "4th floor building 10", "phone": "01244760150", "website": "http://www.condecosoftware.com/apac", "rating": 4.3, "review_count": "", "latitude": 28.4940696, "longitude": 77.0885457, "maps_url": "https://www.google.com/maps/place/?q=place_id:0x390d1923af5d91ed:0xbe103b16161f5631"}, {"place_id": "0x390d19437cb628b3:0x12e71803eb09ac16", "name": "Clavax Technologies", "category": "Software company", "street": "727", "city": "Udyog Vihar, Phase 5", "phone": "+18444252829", "website": "http://www.clavax.com/", "rating": 4.1, "review_count": "", "latitude": 28.5052123, "longitude": 77.0850025, "maps_url": "https://www.google.com/maps/place/?q=place_id:0x390d19437cb628b3:0x12e71803eb09ac16"}, {"place_id": "0x390d195c26bfa369:0x69bd8efd2e3a31fe", "name": "Radical Minds Technologies Pvt. Ltd.", "category": "BPO Company", "street": "368", "city": "Phase II, Udyog Vihar, Sector 20", "phone": "01244338366", "website": "http://www.radicalminds.in/", "rating": 4.2, "review_count": "", "latitude": 28.506335099999998, "longitude": 77.0877546, "maps_url": "https://www.google.com/maps/place/?q=place_id:0x390d195c26bfa369:0x69bd8efd2e3a31fe"}, {"place_id": "0x390ce458d0000001:0xf2123bd299ec4501", "name": "IT Company India", "category": "Software company", "street": "D56", "city": "D Block, Sector 10", "phone": "09999244854", "website": "https://www.itcompanyindia.in/", "rating": 4.7, "review_count": "", "latitude": 28.589917699999997, "longitude": 77.3351153, "maps_url": "https://www.google.com/maps/place/?q=place_id:0x390ce458d0000001:0xf2123bd299ec4501"}, {"place_id": "0x390d193a8fc4db75:0xeabb8ee6a0ab3f4", "name": "Protouch Corporate Training", "category": "Training center", "street": "1st Floor", "city": "Incuspaze 103", "phone": "08800005599", "website": "https://www.protouchpro.com/", "rating": 4.9, "review_count": "", "latitude": 28.514610899999997, "longitude": 77.0831838, "maps_url": "https://www.google.com/maps/place/?q=place_id:0x390d193a8fc4db75:0xeabb8ee6a0ab3f4"}, {"place_id": "0x390d19174792f4db:0xcb5f589caa71b6e7", "name": "Knocial India Limited", "category": "Software company", "street": "60B", "city": "Udyog Vihar, Sector 22", "phone": "09354120847", "website": "https://www.knocialindia.com/", "rating": 4.7, "review_count": "", "latitude": 28.504239499999997, "longitude": 77.0651981, "maps_url": "https://www.google.com/maps/place/?q=place_id:0x390d19174792f4db:0xcb5f589caa71b6e7"}, {"place_id": "0x390d19b16c22074d:0xb7aa66f4ef5dcc8b", "name": "Workido It Technologies | Best Software & Digital Marketing Company In Gurgaon", "category": "Software company", "street": "Shop No 3, Lover", "city": "MGF Metropolitan Mall", "phone": "09773532524", "website": "https://workidoittech.com/", "rating": 5, "review_count": "", "latitude": 28.478627099999997, "longitude": 77.08212, "maps_url": "https://www.google.com/maps/place/?q=place_id:0x390d19b16c22074d:0xb7aa66f4ef5dcc8b"}, {"place_id": "0x390d1946b189b6e3:0xefe833624c0e858b", "name": "Brown Earth Technologies Pvt. Ltd.", "category": "Corporate office", "street": "108, GoWork Building, 6th Floor", "city": "Udyog Vihar Phase 1, Udyog Vihar, Sector 20", "phone": "07951297226", "website": "https://www.brownearthtech.co.uk/", "rating": 5, "review_count": "", "latitude": 28.5161558, "longitude": 77.08289289999999, "maps_url": "https://www.google.com/maps/place/?q=place_id:0x390d1946b189b6e3:0xefe833624c0e858b"}, {"place_id": "0x390d19155d87f373:0x787046048573bb92", "name": "Urban Company", "category": "Corporate office", "street": "7th Floor", "city": "183, Udyog Vihar II Rd", "phone": "", "website": "https://www.urbancompany.com/delhi-ncr?utm_source=googlemaps&utm_campaign=gmb_pages&utm_medium=homepage", "rating": 4, "review_count": "", "latitude": 28.5124048, "longitude": 77.08398679999999, "maps_url": "https://www.google.com/maps/place/?q=place_id:0x390d19155d87f373:0x787046048573bb92"}, {"place_id": "0x390d193c3a36e523:0xe68f8d2568faeaad", "name": "Espire Infolabs Pvt. Ltd.", "category": "Software company", "street": "486 & 487", "city": "Phase III, Udyog Vihar III, Sector 20", "phone": "01247173000", "website": "http://www.espire.com/", "rating": 4.1, "review_count": "", "latitude": 28.5119516, "longitude": 77.0899661, "maps_url": "https://www.google.com/maps/place/?q=place_id:0x390d193c3a36e523:0xe68f8d2568faeaad"}, {"place_id": "0x390d1960b5895949:0x95f114824fd58a5a", "name": "IOTA Engineering Corporation", "category": "Business to business service", "street": "Opp. Plot No. 127", "city": "Udyog Vihar Phase 1, Dundahera Village, Sector 20", "phone": "09315873177", "website": "http://www.iotaindia.in/", "rating": 4.6, "review_count": "", "latitude": 28.5134376, "longitude": 77.0801899, "maps_url": "https://www.google.com/maps/place/?q=place_id:0x390d1960b5895949:0x95f114824fd58a5a"}, {"place_id": "0x390d190c870c17bd:0x4409f3685fd1baf3", "name": "ALITSO INDIA IT CONSULTING PVT LTD", "category": "Computer Hardware Company", "street": "Plot No. 76 D", "city": "Phase IV, Sector 18", "phone": "09168491495", "website": "http://www.alitso.com/", "rating": 5, "review_count": "", "latitude": 28.4851782, "longitude": 77.0657025, "maps_url": "https://www.google.com/maps/place/?q=place_id:0x390d190c870c17bd:0x4409f3685fd1baf3"}, {"place_id": "0x390d1990db19986d:0x76f7bda3736fe4c4", "name": "Panchisoft", "category": "Software company", "street": "H-166, Street No. 2", "city": "I Block, H- Block, Dharam Colony, Palam Vihar Extension", "phone": "09810735390", "website": "https://www.panchisoft.com/", "rating": 5, "review_count": "", "latitude": 28.5014164, "longitude": 77.0380527, "maps_url": "https://www.google.com/maps/place/?q=place_id:0x390d1990db19986d:0x76f7bda3736fe4c4"}, {"place_id": "0x390d195f06b34bb3:0x1e8e6e139e8432c5", "name": "GoWork", "category": "Corporate office", "street": "108", "city": "Udyog Vihar Phase 1, Udyog Vihar, Sector 20", "phone": "08376870786", "website": "", "rating": 4, "review_count": "", "latitude": 28.5161558, "longitude": 77.08289289999999, "maps_url": "https://www.google.com/maps/place/?q=place_id:0x390d195f06b34bb3:0x1e8e6e139e8432c5"}, {"place_id": "0x390d1924ac20f781:0x2e410d35400ac227", "name": "Active computers -[ Laptop repair | Gaming Computer | RAM | SSD | COMPUTER REPAIR]", "category": "Computer store", "street": "Shop no. 6", "city": "Rao Hukam Singh Complex", "phone": "09911660727", "website": "http://activecomputers.co.in/", "rating": 4.8, "review_count": "", "latitude": 28.5150205, "longitude": 77.0772831, "maps_url": "https://www.google.com/maps/place/?q=place_id:0x390d1924ac20f781:0x2e410d35400ac227"}, {"place_id": "0x390d191598f48ef3:0x70991b4ff870f05d", "name": "Shree Partners LLC", "category": "Software company", "street": "1, Tower A, Building, Cyber City", "city": "Corporate Edge Level", "phone": "01246728815", "website": "https://www.shreepartners.com/", "rating": 4.3, "review_count": "", "latitude": 28.4936018, "longitude": 77.088325, "maps_url": "https://www.google.com/maps/place/?q=place_id:0x390d191598f48ef3:0x70991b4ff870f05d"}, {"place_id": "0x390d195fb4424ce1:0x5221adf6c916698c", "name": "Uspech Infotech PVT. LTD>", "category": "Corporate office", "street": "G38J+9F7", "city": "Dundahera Village, Sector 20", "phone": "", "website": "", "rating": 4.3, "review_count": "", "latitude": 28.5159216, "longitude": 77.0811683, "maps_url": "https://www.google.com/maps/place/?q=place_id:0x390d195fb4424ce1:0x5221adf6c916698c"}, {"place_id": "0x390d19df275c2e6d:0x1dfd99936df46e44", "name": "Fairfinpro Pvt. Ltd.", "category": "Call center", "street": "Plot 96, Jupiter Orison Building", "city": "1st Floor, Landmark - ICICI ATM", "phone": "09650566672", "website": "http://www.fairfinpro.com/", "rating": 4.7, "review_count": "", "latitude": 28.5172246, "longitude": 77.0820559, "maps_url": "https://www.google.com/maps/place/?q=place_id:0x390d19df275c2e6d:0x1dfd99936df46e44"}, {"place_id": "0x390d183a3846403b:0x8fd7c90645a11f72", "name": "Vashist IT Solutions Pvt Ltd", "category": "Software company", "street": "729", "city": "Islampur Village, Sector 38", "phone": "09718216517", "website": "https://vashist.tech/", "rating": 4.4, "review_count": "", "latitude": 28.4305924, "longitude": 77.0415957, "maps_url": "https://www.google.com/maps/place/?q=place_id:0x390d183a3846403b:0x8fd7c90645a11f72"}, {"place_id": "0x390ce3b5c2a11543:0xc4df0cd95534bf85", "name": "LimeTray", "category": "Software company", "street": "2nd Floor", "city": "815", "phone": "", "website": "https://limetray.com/", "rating": 3.6, "review_count": "", "latitude": 28.5015508, "longitude": 77.08626919999999, "maps_url": "https://www.google.com/maps/place/?q=place_id:0x390ce3b5c2a11543:0xc4df0cd95534bf85"}, {"place_id": "0x390d19a6d0cd5b3f:0xfcb2ab3c1c513941", "name": "Avighnity Technologies | Digital Marketing, PPC, Social Media, Website Designing, SEO Agency in Gurgaon", "category": "Software company", "street": "Building 96, First Floor", "city": "Udyog Vihar Phase 1, Udyog Vihar, Sector 20", "phone": "08595364679", "website": "https://www.avighnity.com/", "rating": 4.3, "review_count": "", "latitude": 28.5116326, "longitude": 77.083787, "maps_url": "https://www.google.com/maps/place/?q=place_id:0x390d19a6d0cd5b3f:0xfcb2ab3c1c513941"}, {"place_id": "0x390d195b180061c3:0xbc2dc26222ba3801", "name": "Team Computers Pvt Ltd", "category": "Software company", "street": "5th floor", "city": "Plot no. 278", "phone": "18001024200", "website": "https://www.teamcomputers.com/", "rating": 4.3, "review_count": "", "latitude": 28.508890599999997, "longitude": 77.087429, "maps_url": "https://www.google.com/maps/place/?q=place_id:0x390d195b180061c3:0xbc2dc26222ba3801"}, {"place_id": "0x390d1960c2b8367f:0xd2d30e45ac71acea", "name": "Vorombetech Solutions - Top IT & Digitalization Service Company in Gurugram", "category": "Software company", "street": "249", "city": "Phase IV, Udyog Vihar, Sector 19", "phone": "", "website": "https://vorombetech.com/", "rating": 4.8, "review_count": "", "latitude": 28.4941475, "longitude": 77.0808448, "maps_url": "https://www.google.com/maps/place/?q=place_id:0x390d1960c2b8367f:0xd2d30e45ac71acea"}, {"place_id": "0x390d1959e54e0cdb:0x7120a86a0b29095e", "name": "Gurgaon SEO Company", "category": "Website designer", "street": "First Floor Plot", "city": "270, Udyog Vihar II Rd", "phone": "", "website": "", "rating": 2, "review_count": "", "latitude": 28.5074082, "longitude": 77.08512379999999, "maps_url": "https://www.google.com/maps/place/?q=place_id:0x390d1959e54e0cdb:0x7120a86a0b29095e"}, {"place_id": "0x390d19361c56cecd:0x50517af3dc928d70", "name": "Mycom", "category": "Software company", "street": "7th Floor", "city": "Building 8b", "phone": "01244508000", "website": "http://www.mycom-osi.com/", "rating": 4.3, "review_count": "", "latitude": 28.4982059, "longitude": 77.0900367, "maps_url": "https://www.google.com/maps/place/?q=place_id:0x390d19361c56cecd:0x50517af3dc928d70"}, {"place_id": "0x390d195f779f5bd9:0x4aa67ad53fe737fa", "name": "BMP eGroup Solutions Private Limited", "category": "Corporate office", "street": "Om Sai Complex", "city": "Plot No: 37/19/22, New", "phone": "", "website": "", "rating": 2.1, "review_count": "", "latitude": 28.5178746, "longitude": 77.0825093, "maps_url": "https://www.google.com/maps/place/?q=place_id:0x390d195f779f5bd9:0x4aa67ad53fe737fa"}, {"place_id": "0x390d19316748a39b:0x427bebf40160d8ac", "name": "Construe IT Solutions Pvt. Ltd.", "category": "Software company", "street": "R # 3", "city": "56/10", "phone": "08130713756", "website": "http://www.construesol.com/", "rating": 4, "review_count": "", "latitude": 28.489741799999997, "longitude": 77.0963127, "maps_url": "https://www.google.com/maps/place/?q=place_id:0x390d19316748a39b:0x427bebf40160d8ac"}, {"place_id": "0x390d1958292e2631:0xe424681f3603424d", "name": "Concentrix", "category": "Corporate office", "street": "1st Floor, Tower A, Plot 243, SP Infocity", "city": "Udyog Vihar Phase 1, Sector 20", "phone": "01246312220", "website": "https://www.concentrix.com/", "rating": 4.3, "review_count": "", "latitude": 28.513585799999998, "longitude": 77.08683409999999, "maps_url": "https://www.google.com/maps/place/?q=place_id:0x390d1958292e2631:0xe424681f3603424d"}, {"place_id": "0x390d193feaaaaaab:0x91eb527bf056a609", "name": "Pulse Magnetic & Power Electronics Pvt. Ltd.", "category": "Manufacturer", "street": "49", "city": "Udyog Vihar Phase 1, Dundahera Village, Sector 20", "phone": "01244593900", "website": "http://www.pmpe.in/", "rating": 3.4, "review_count": "", "latitude": 28.5149655, "longitude": 77.08143179999999, "maps_url": "https://www.google.com/maps/place/?q=place_id:0x390d193feaaaaaab:0x91eb527bf056a609"}, {"place_id": "0x390cdf006f5d5975:0x92f7f6e44ed882ca", "name": "Daakit Gurugram Office", "category": "Courier service", "street": "Plot No. 1", "city": "Udyog Vihar Phase 1, Udyog Vihar, Sector 20", "phone": "09266426868", "website": "https://www.daakit.com/", "rating": 5, "review_count": "", "latitude": 28.5169219, "longitude": 77.0803425, "maps_url": "https://www.google.com/maps/place/?q=place_id:0x390cdf006f5d5975:0x92f7f6e44ed882ca"}, {"place_id": "0x390d19cefa424e8b:0xe6c430c9053785c6", "name": "MedTourEasy", "category": "Corporate office", "street": "Hartron, IAMAI, Nasscom, Plot No.1, Udhyog Vihar", "city": "Udyog Vihar Phase 1", "phone": "", "website": "http://www.medtoureasy.com/", "rating": 4.9, "review_count": "", "latitude": 28.516771, "longitude": 77.0804181, "maps_url": "https://www.google.com/maps/place/?q=place_id:0x390d19cefa424e8b:0xe6c430c9053785c6"}, {"place_id": "0x390d191c565167e7:0xe26d4f1bf9701a62", "name": "Attic Salt", "category": "Clothing manufacturer", "street": "Plot No. 17-18", "city": "near Peer Baba Road", "phone": "09315033279", "website": "https://www.atticsalt.in/", "rating": 4.5, "review_count": "", "latitude": 28.515190999999998, "longitude": 77.0804965, "maps_url": "https://www.google.com/maps/place/?q=place_id:0x390d191c565167e7:0xe26d4f1bf9701a62"}, {"place_id": "0x390d196640000001:0x301f2c6ee7eb6679", "name": "High Beam Global - Market Research Solution", "category": "Market researcher", "street": "103", "city": "Udyog Vihar Phase 1, Dundahera Village, Sector 20", "phone": "01244879699", "website": "http://www.hbgknowledge.com/", "rating": 4.1, "review_count": "", "latitude": 28.514502399999998, "longitude": 77.0832543, "maps_url": "https://www.google.com/maps/place/?q=place_id:0x390d196640000001:0x301f2c6ee7eb6679"}, {"place_id": "0x390d235c2a496b11:0xc099493dfd52e4a8", "name": "Korra Worldwide Advertising Pvt. Ltd.", "category": "Internet marketing service", "street": "First Floor", "city": "IRIS Tech Tower 305 C", "phone": "", "website": "https://www.korra.co.in/", "rating": 4.3, "review_count": "", "latitude": 28.515143799999997, "longitude": 77.08476329999999, "maps_url": "https://www.google.com/maps/place/?q=place_id:0x390d235c2a496b11:0xc099493dfd52e4a8"}, {"place_id": "0x390d19646ffbf79f:0x43f99f150397ed08", "name": "Accenture", "category": "Business management consultant", "street": "A Building No.1, Tower-B, Tower, Unitech Infospace", "city": "Building No. 2", "phone": "01246164100", "website": "https://www.accenture.com/in-en/about/company-index?c=acn_glb_locationmarketiyext_14216810&n=otc_1224", "rating": 4.4, "review_count": "", "latitude": 28.517601199999998, "longitude": 77.07406259999999, "maps_url": "https://www.google.com/maps/place/?q=place_id:0x390d19646ffbf79f:0x43f99f150397ed08"}, {"place_id": "0x390d19647c815751:0xfd511a4cae47e80f", "name": "Admiral Solutions (EUI Ltd)", "category": "Corporate office", "street": "4th & 5th Floor, Building 6 B, Gurgaon Infospace IT ITES SEZ Candor Techspace", "city": "Dundahera Village, Sector 21", "phone": "01244302100", "website": "http://www.admiralsolutions.in/", "rating": 4.3, "review_count": "", "latitude": 28.5111055, "longitude": 77.0713007, "maps_url": "https://www.google.com/maps/place/?q=place_id:0x390d19647c815751:0xfd511a4cae47e80f"}, {"place_id": "0x390d1961e1555555:0xbba99a86917642a6", "name": "Kadimi Tool Manufacturing Company (P) Ltd.", "category": "Manufacturer", "street": "118", "city": "Udyog Vihar Phase 1, Dundahera Village, Sector 20", "phone": "01242347205", "website": "https://www.kadimitool.com/", "rating": 4.1, "review_count": "", "latitude": 28.513565699999997, "longitude": 77.0826821, "maps_url": "https://www.google.com/maps/place/?q=place_id:0x390d1961e1555555:0xbba99a86917642a6"}, {"place_id": "0x390d191e9face875:0xa49f4d776f85b2e6", "name": "Boogs Consultancy IT services", "category": "Corporate office", "street": "Kanwar Lal Complex", "city": "Dundahera Rd", "phone": "", "website": "", "rating": 5, "review_count": "", "latitude": 28.5152666, "longitude": 77.07741469999999, "maps_url": "https://www.google.com/maps/place/?q=place_id:0x390d191e9face875:0xa49f4d776f85b2e6"}, {"place_id": "0x390d192409eb1411:0xbf1f68f4b2dd1d69", "name": "Appicia Technologies", "category": "Software company", "street": "Third floor", "city": "Ashirwad", "phone": "08076917265", "website": "https://appicia.com/", "rating": 5, "review_count": "", "latitude": 28.4885505, "longitude": 77.01963889999999, "maps_url": "https://www.google.com/maps/place/?q=place_id:0x390d192409eb1411:0xbf1f68f4b2dd1d69"}, {"place_id": "0x390d18b4f787fb51:0xa55a99d13052e0e4", "name": "HW Infotech \u2013 Website & Mobile App Development | AI, Blockchain & SaaS Company", "category": "Software company", "street": "Cospaces Cowork Plot No 360", "city": "Golf Course Rd", "phone": "07678430274", "website": "https://www.hwinfotech.com/", "rating": 5, "review_count": "", "latitude": 28.4721168, "longitude": 77.0907581, "maps_url": "https://www.google.com/maps/place/?q=place_id:0x390d18b4f787fb51:0xa55a99d13052e0e4"}, {"place_id": "0x390d194215555547:0xb92107b16dc5abd3", "name": "Modelama Exports Private Limited", "category": "Garment Exporter", "street": "SDM Office 105-106 Sector 20", "city": "105, Udyog Vihar II Rd", "phone": "09818899260", "website": "https://www.modelama.com/", "rating": 4.2, "review_count": "", "latitude": 28.516642899999997, "longitude": 77.0819175, "maps_url": "https://www.google.com/maps/place/?q=place_id:0x390d194215555547:0xb92107b16dc5abd3"}, {"place_id": "0x390d195fb43606a3:0xa6b17535091d623b", "name": "I I Inspection & Export Private Limited", "category": "Garment Exporter", "street": "95", "city": "Udyog Vihar Phase 1, Dundahera Village, Sector 20", "phone": "01244576500", "website": "http://www.iii-japan.com/english_company.html", "rating": 4.3, "review_count": "", "latitude": 28.516063499999998, "longitude": 77.0809656, "maps_url": "https://www.google.com/maps/place/?q=place_id:0x390d195fb43606a3:0xa6b17535091d623b"}, {"place_id": "0x390d191d0bb8a9db:0xf6295047e107a843", "name": "Robust Infotech - IT Services | Digital Transformation | Best Website/Software Development Company", "category": "Software company", "street": "90B, Delhi - Jaipur Expy", "city": "Nitin Vihar, Udyog Vihar, Sector 18", "phone": "07982914476", "website": "", "rating": 5, "review_count": "", "latitude": 28.441292299999997, "longitude": 77.0148859, "maps_url": "https://www.google.com/maps/place/?q=place_id:0x390d191d0bb8a9db:0xf6295047e107a843"}, {"place_id": "0x390d19431c6d8ff3:0xcdebdb466a34b238", "name": "CertEra Solutions", "category": "Training center", "street": "96", "city": "Udyog Vihar Phase 1, Dundahera Village, Sector 20", "phone": "09289408096", "website": "http://www.certerasolutions.com/", "rating": 4.6, "review_count": "", "latitude": 28.5159979, "longitude": 77.08116389999999, "maps_url": "https://www.google.com/maps/place/?q=place_id:0x390d19431c6d8ff3:0xcdebdb466a34b238"}, {"place_id": "0x390d1c089bbc1ad3:0xc9b952881f7fcacd", "name": "Chetak Logistics Limited", "category": "Corporate office", "street": "Chetak House", "city": "Old Delhi Gurugram Rd", "phone": "01146677777", "website": "http://www.chetak.co.in/", "rating": 3.3, "review_count": "", "latitude": 28.518801399999997, "longitude": 77.0818965, "maps_url": "https://www.google.com/maps/place/?q=place_id:0x390d1c089bbc1ad3:0xc9b952881f7fcacd"}, {"place_id": "0x390d19e1c64c6bd7:0xe6aebe6f7a7efd73", "name": "IEnergizer -", "category": "Corporate office", "street": "108, Old Delhi Gurugram Rd", "city": "Udyog Vihar Phase 1, Dundahera Village, Sector 20", "phone": "", "website": "http://www.ienergizer.com/", "rating": 3.8, "review_count": "", "latitude": 28.5161935, "longitude": 77.0827523, "maps_url": "https://www.google.com/maps/place/?q=place_id:0x390d19e1c64c6bd7:0xe6aebe6f7a7efd73"}, {"place_id": "0x390d19454748b5f1:0x930fdb13eea6af9b", "name": "Auquall BPO - Best BPO and BPM company in gurgaon", "category": "BPO Company", "street": "698, Udyog Vihar Phase V Rd", "city": "Phase V, Udyog Vihar, Sector 19", "phone": "09899005897", "website": "", "rating": 4.4, "review_count": "", "latitude": 28.505634099999998, "longitude": 77.0837823, "maps_url": "https://www.google.com/maps/place/?q=place_id:0x390d19454748b5f1:0x930fdb13eea6af9b"}, {"place_id": "0x390d19435c3604a3:0xdaf1225eaea4fe84", "name": "Acupro Consulting Private Limited", "category": "Consultant", "street": "2nd Floor", "city": "108, Old Delhi Gurugram Rd", "phone": "09871767277", "website": "https://acuproconsulting.com/", "rating": 4.5, "review_count": "", "latitude": 28.516106399999998, "longitude": 77.082965, "maps_url": "https://www.google.com/maps/place/?q=place_id:0x390d19435c3604a3:0xdaf1225eaea4fe84"}, {"place_id": "0x390d19b08c1d9bcd:0x27464e7a7aa866d5", "name": "RAVSH DIGITAL", "category": "Business management consultant", "street": "96, Phase", "city": "above 1", "phone": "", "website": "http://www.ravshdigital.com/", "rating": 5, "review_count": "", "latitude": 28.5172246, "longitude": 77.0820559, "maps_url": "https://www.google.com/maps/place/?q=place_id:0x390d19b08c1d9bcd:0x27464e7a7aa866d5"}, {"place_id": "0x484025b6488f98dd:0x648bed1c75013da8", "name": "Codevio Digital \u2013 IT & Software Company in Gurgaon", "category": "Software company", "street": "UNITECH CYBER PARK", "city": "Durga Colony, Sector 39", "phone": "07428036870", "website": "https://codevio.io/", "rating": 4.8, "review_count": "", "latitude": 28.443307899999997, "longitude": 77.0561005, "maps_url": "https://www.google.com/maps/place/?q=place_id:0x484025b6488f98dd:0x648bed1c75013da8"}, {"place_id": "0x390d1981a1252c3d:0x5b9e7d18a4dc78cf", "name": "IndiaTechBazaar Services", "category": "Software company", "street": "Tibri Mohala, Udyog Vihar Phase 1, Dundahera Village, Sector 20", "city": "Gurugram, Haryana 122016", "phone": "06204226436", "website": "", "rating": 4.5, "review_count": "", "latitude": 28.515016799999998, "longitude": 77.0782112, "maps_url": "https://www.google.com/maps/place/?q=place_id:0x390d1981a1252c3d:0x5b9e7d18a4dc78cf"}, {"place_id": "0x390d196a4a46c73b:0xf41908c944238963", "name": "VConsyst Software Solutions", "category": "Software company", "street": "F3XG+QP5", "city": "NH 8", "phone": "01244382364", "website": "http://www.vconsyst.co.uk/", "rating": 4.3, "review_count": "", "latitude": 28.499377, "longitude": 77.076849, "maps_url": "https://www.google.com/maps/place/?q=place_id:0x390d196a4a46c73b:0xf41908c944238963"}, {"place_id": "0x390d19345bcdc4f3:0x61d5221ed2c17f35", "name": "Cognizant", "category": "Software company", "street": "Tower C, SEZ Building, Building No 6, 5th & 6th Floor DLF C yber City Rd W Block", "city": "Near Shankar Chowk", "phone": "", "website": "http://www.cognizant.com/india", "rating": 4.1, "review_count": "", "latitude": 28.4964521, "longitude": 77.096576, "maps_url": "https://www.google.com/maps/place/?q=place_id:0x390d19345bcdc4f3:0x61d5221ed2c17f35"}, {"place_id": "0x390d195fdc423b63:0x1176aa0bd0a6cfd3", "name": "Hartron Multi Skill Development Centre", "category": "Training center", "street": "Plot No-1, UV Phase-I, near Border Foot over bridge", "city": "Old Delhi-Gurgaon Rd", "phone": "01244027109", "website": "http://hartron.org.in/", "rating": 4.2, "review_count": "", "latitude": 28.516679099999998, "longitude": 77.08002259999999, "maps_url": "https://www.google.com/maps/place/?q=place_id:0x390d195fdc423b63:0x1176aa0bd0a6cfd3"}, {"place_id": "0x390d19edf762f9cb:0x90a316883d94cd4d", "name": "Abbrico Webtech Solutions Private Limited", "category": "Internet marketing service", "street": "KH NO-37/19,20,22, 2nd Floor", "city": "near OM LOGISTIC", "phone": "", "website": "https://www.seoservicesglobal.com/", "rating": 4.2, "review_count": "", "latitude": 28.5177579, "longitude": 77.0826762, "maps_url": "https://www.google.com/maps/place/?q=place_id:0x390d19edf762f9cb:0x90a316883d94cd4d"}, {"place_id": "0x390d1925fac84eb5:0x72d233a3230fe315", "name": "Urban Company Gurugram City Office", "category": "Home help", "street": "121", "city": "Udyog Vihar Phase 1, Udyog Vihar, Sector 20", "phone": "", "website": "http://urbancompany.com/", "rating": 3.3, "review_count": "", "latitude": 28.5122036, "longitude": 77.0816696, "maps_url": "https://www.google.com/maps/place/?q=place_id:0x390d1925fac84eb5:0x72d233a3230fe315"}, {"place_id": "0x390d19f8f485de2b:0x1272dc5f3676ba6c", "name": "Future Tech Lancer", "category": "Software company", "street": "914", "city": "Urban Estate, Sector 4", "phone": "09717776087", "website": "https://futuretechlancer.com/", "rating": 4.6, "review_count": "", "latitude": 28.4741485, "longitude": 77.0165451, "maps_url": "https://www.google.com/maps/place/?q=place_id:0x390d19f8f485de2b:0x1272dc5f3676ba6c"}, {"place_id": "0x390d178c9e570a93:0xc5aaf0883f275212", "name": "MD Info Solutions (Tally Certified Partner)", "category": "Software company", "street": "1st Floor", "city": "SCO 99, Sector 10A", "phone": "09810012029", "website": "https://mdinfosolutions.com/?utm_source=google&utm_medium=organic&utm_campaign=gmb_listing", "rating": 5, "review_count": "", "latitude": 28.4423866, "longitude": 77.0091726, "maps_url": "https://www.google.com/maps/place/?q=place_id:0x390d178c9e570a93:0xc5aaf0883f275212"}, {"place_id": "0x390d195fd51bae79:0xf42d33eb32aa30e5", "name": "Airtel Plot 4 Office Gurgaon", "category": "Corporate office", "street": "8, Old Delhi Gurugram Rd", "city": "Phase I, Dundahera Village, Sector 21", "phone": "", "website": "http://www.airtel.in/", "rating": 4.3, "review_count": "", "latitude": 28.515654599999998, "longitude": 77.07961809999999, "maps_url": "https://www.google.com/maps/place/?q=place_id:0x390d195fd51bae79:0xf42d33eb32aa30e5"}, {"place_id": "0x390d19c544f953e7:0x355ef2007480f3f9", "name": "Sn Tech delhi", "category": "Computer support and services", "street": "Dundahera", "city": "Kapashera - Samalkha Rd", "phone": "", "website": "", "rating": 5, "review_count": "", "latitude": 28.5170848, "longitude": 77.0793183, "maps_url": "https://www.google.com/maps/place/?q=place_id:0x390d19c544f953e7:0x355ef2007480f3f9"}, {"place_id": "0x390d19f8f485de2b:0x1272dc5f3676ba6c", "name": "Future Tech Lancer", "category": "Software company", "street": "914", "city": "Urban Estate, Sector 4", "phone": "09717776087", "website": "https://futuretechlancer.com/", "rating": 4.6, "review_count": "", "latitude": 28.4741485, "longitude": 77.0165451, "maps_url": "https://www.google.com/maps/place/?q=place_id:0x390d19f8f485de2b:0x1272dc5f3676ba6c"}, {"place_id": "0x390d199136403043:0x2b1694bb78c06df4", "name": "LINETECH IT SOLUTIONS PVT LTD", "category": "Software company", "street": "645/38,Ground Floor", "city": "Ashok Vihar Phase- 1", "phone": "09311733006", "website": "http://www.linetech.in/", "rating": 5, "review_count": "", "latitude": 28.4855302, "longitude": 77.018385, "maps_url": "https://www.google.com/maps/place/?q=place_id:0x390d199136403043:0x2b1694bb78c06df4"}, {"place_id": "0x390d195d0d8bbaeb:0x879480fbc713a400", "name": "MJS eSTORE", "category": "Software company", "street": "223-224", "city": "Udyog Vihar Phase 1, Udyog Vihar, Sector 20", "phone": "", "website": "", "rating": 4.1, "review_count": "", "latitude": 28.509130799999998, "longitude": 77.08123619999999, "maps_url": "https://www.google.com/maps/place/?q=place_id:0x390d195d0d8bbaeb:0x879480fbc713a400"}, {"place_id": "0x390d19c1ed27da53:0x294be644097a1293", "name": "Wobb - Influencer Marketing Platform India", "category": "Internet marketing service", "street": "Mobile 10X, IAMAI", "city": "Udyog Vihar", "phone": "09643643634", "website": "", "rating": 4.3, "review_count": "", "latitude": 28.516945399999997, "longitude": 77.08034719999999, "maps_url": "https://www.google.com/maps/place/?q=place_id:0x390d19c1ed27da53:0x294be644097a1293"}, {"place_id": "0x390d178c9e570a93:0xc5aaf0883f275212", "name": "MD Info Solutions (Tally Certified Partner)", "category": "Software company", "street": "1st Floor", "city": "SCO 99, Sector 10A", "phone": "09810012029", "website": "https://mdinfosolutions.com/?utm_source=google&utm_medium=organic&utm_campaign=gmb_listing", "rating": 5, "review_count": "", "latitude": 28.4423866, "longitude": 77.0091726, "maps_url": "https://www.google.com/maps/place/?q=place_id:0x390d178c9e570a93:0xc5aaf0883f275212"}, {"place_id": "0x390d1f9d64fa49e1:0x858e62b9d887bc1a", "name": "Brandorium", "category": "Website designer", "street": "Brandorium - Digital Service Provider | Best Website Developer/Agency , Video Editing | Graphic Design |", "city": "plot no 1", "phone": "", "website": "https://brandorium.com/", "rating": 5, "review_count": "", "latitude": 28.5167853, "longitude": 77.0802002, "maps_url": "https://www.google.com/maps/place/?q=place_id:0x390d1f9d64fa49e1:0x858e62b9d887bc1a"}, {"place_id": "0x390d194365bebf85:0x5019ac0d5d6f72cd", "name": "Tek Travels Pvt Ltd", "category": "Software company", "street": "724, Shankar Chowk Rd", "city": "Phase V, Udyog Vihar, Sector 19", "phone": "01244986104", "website": "http://www.tboholidays.com/", "rating": 4.1, "review_count": "", "latitude": 28.512457599999998, "longitude": 77.083569, "maps_url": "https://www.google.com/maps/place/?q=place_id:0x390d194365bebf85:0x5019ac0d5d6f72cd"}, {"place_id": "0x390d193c3a36fabd:0x8bd7aacd8793bdb7", "name": "Orange Business Services", "category": "Public relations firm", "street": "Infinity Tower 8, Tower B", "city": "DLF Cyber City, DLF Phase 2, Sector 25", "phone": "", "website": "http://www.orange-business.com/", "rating": 4.5, "review_count": "", "latitude": 28.495814199999998, "longitude": 77.0910088, "maps_url": "https://www.google.com/maps/place/?q=place_id:0x390d193c3a36fabd:0x8bd7aacd8793bdb7"}, {"place_id": "0x390d19c4f81c373b:0x569790526001fe47", "name": "Pasenture Technologies - Web Development Company in Gurugram, Software Development Company in Gurgaon for CRM & Saas Software", "category": "Software company", "street": "2nd Floor", "city": "90, IDC", "phone": "09717197498", "website": "https://pasenture.in/", "rating": 4, "review_count": "", "latitude": 28.4716508, "longitude": 77.0509349, "maps_url": "https://www.google.com/maps/place/?q=place_id:0x390d19c4f81c373b:0x569790526001fe47"}, {"place_id": "0x390d195f019a7975:0xef837481fb34454d", "name": "Cox & Kings Ltd", "category": "Corporate office", "street": "Plot No. 108, (First & Second Floor", "city": "Udyog Vihar Phase 1", "phone": "01244873700", "website": "http://www.coxandkings.com/", "rating": 4.4, "review_count": "", "latitude": 28.5161543, "longitude": 77.08298409999999, "maps_url": "https://www.google.com/maps/place/?q=place_id:0x390d195f019a7975:0xef837481fb34454d"}, {"place_id": "0x390d198f62c557d7:0x4b037444663d7f50", "name": "Triyuga Soft Tech Pvt Ltd | IT Company in Gurgaon | Digital Marketing Company in Gurgaon", "category": "Software company", "street": "Shop No : 4", "city": "Main, Bajghera Rd", "phone": "09999699936", "website": "https://www.triyugasofttech.com/", "rating": "", "review_count": "", "latitude": 28.495755199999998, "longitude": 77.011887, "maps_url": "https://www.google.com/maps/place/?q=place_id:0x390d198f62c557d7:0x4b037444663d7f50"}, {"place_id": "0x4ebeffcb28fc1b4d:0xed96a83544cd00c5", "name": "Rekotax", "category": "Business management consultant", "street": "REKOTAX 108", "city": "Udyog Vihar Phase 1, Sector 20", "phone": "", "website": "http://www.rekotax.com/", "rating": 5, "review_count": "", "latitude": 28.5161548, "longitude": 77.08293689999999, "maps_url": "https://www.google.com/maps/place/?q=place_id:0x4ebeffcb28fc1b4d:0xed96a83544cd00c5"}, {"place_id": "0x390cfb4bf15a6733:0xaf50e6f3c5fb7641", "name": "Digitals Daddy: Web & App Development Company", "category": "Software company", "street": "Metro Gate No. 2", "city": "Nearest Sikandarpur", "phone": "09818286609", "website": "https://www.digitalsdaddy.com/", "rating": 4.9, "review_count": "", "latitude": 28.4847884, "longitude": 77.0922192, "maps_url": "https://www.google.com/maps/place/?q=place_id:0x390cfb4bf15a6733:0xaf50e6f3c5fb7641"}, {"place_id": "0x390d19de49d76565:0x429513d1e47b6c98", "name": "Digital Patron - Next-Gen AI Marketing", "category": "Internet marketing service", "street": "NASSCOM", "city": "Udyog Vihar Phase 1, Dundahera Village, Sector 20", "phone": "09915462432", "website": "https://digitalpatron.in/", "rating": 4, "review_count": "", "latitude": 28.516083, "longitude": 77.0830378, "maps_url": "https://www.google.com/maps/place/?q=place_id:0x390d19de49d76565:0x429513d1e47b6c98"}, {"place_id": "0x390d195fc2f0810f:0x6289f11db364e533", "name": "HARTRON, IAMAI, Nasscom", "category": "Government office", "street": "Plot No1", "city": "Udyog Vihar, Phase I, Dundahera Village, Sector 20", "phone": "", "website": "http://hartron.org.in/", "rating": 4.3, "review_count": "", "latitude": 28.516903199999998, "longitude": 77.080337, "maps_url": "https://www.google.com/maps/place/?q=place_id:0x390d195fc2f0810f:0x6289f11db364e533"}, {"place_id": "0x390d195b82955c11:0x4ac608c95db239fa", "name": "Worxpertise (Edge Business Solutions Pvt. Ltd.)", "category": "Business to business service", "street": "4th Floor, WING-B", "city": "AIHP Tower", "phone": "", "website": "https://worxpertise.com/", "rating": 4.1, "review_count": "", "latitude": 28.497374899999997, "longitude": 77.0827276, "maps_url": "https://www.google.com/maps/place/?q=place_id:0x390d195b82955c11:0x4ac608c95db239fa"}, {"place_id": "0x390d1943d9165db3:0x40a1644eb92fe5e", "name": "O4U", "category": "Business center", "street": "890, Phase", "city": "1, Old Delhi Gurugram Rd", "phone": "01244256444", "website": "", "rating": 4, "review_count": "", "latitude": 28.517556799999998, "longitude": 77.0809898, "maps_url": "https://www.google.com/maps/place/?q=place_id:0x390d1943d9165db3:0x40a1644eb92fe5e"}, {"place_id": "0x390d19d9eb88a061:0xe1ceb1ff64960d37", "name": "We2India Web Solution", "category": "Software company", "street": "F", "city": "54", "phone": "08923339447", "website": "http://we2india.in/", "rating": 5, "review_count": "", "latitude": 28.4974012, "longitude": 77.0261081, "maps_url": "https://www.google.com/maps/place/?q=place_id:0x390d19d9eb88a061:0xe1ceb1ff64960d37"}]}