{"timestamp": 1773731502.3435466, "keyword": "IT company", "location": "delhi", "cell_idx": 485, "results": [{"place_id": "0x2a72b8b69d7b6493:0x11251466d4d34cac", "name": "WebZonal IT Company", "category": "Website designer", "street": "Wz-258/2-3, D Block Rd", "city": "Khazan Basti, Nangal Raya, Janakpuri", "phone": "09811170903", "website": "http://webzonal.com/", "rating": 5, "review_count": "", "latitude": 28.6122102, "longitude": 77.11159549999999, "maps_url": "https://www.google.com/maps/place/?q=place_id:0x2a72b8b69d7b6493:0x11251466d4d34cac"}, {"place_id": "0x390d0328a549c17d:0x3b9e359999e2cd2f", "name": "Total IT Software Solutions", "category": "Software company", "street": "WZ-248, Plot No. 7, IInd Floor", "city": "Inder Puri", "phone": "09350515096", "website": "http://tiss.co.in/", "rating": 4.4, "review_count": "", "latitude": 28.6319838, "longitude": 77.14855709999999, "maps_url": "https://www.google.com/maps/place/?q=place_id:0x390d0328a549c17d:0x3b9e359999e2cd2f"}, {"place_id": "0x390ce21b8d636751:0xda2fa1d06a704eab", "name": "Prinknest Technology LLP", "category": "Software company", "street": "1st Floor", "city": "RZ 122 D, Plot No.1", "phone": "08076833804", "website": "https://prinknest.com/", "rating": 4.8, "review_count": "", "latitude": 28.606828, "longitude": 77.0816226, "maps_url": "https://www.google.com/maps/place/?q=place_id:0x390ce21b8d636751:0xda2fa1d06a704eab"}, {"place_id": "0x390d032effffffff:0x1c5ad375d43bd19b", "name": "International Electronics & Communication Systems Pvt Ltd.", "category": "Audio visual equipment supplier", "street": "Block C, Naraina Vihar, Naraina", "city": "New Delhi, Delhi 110028", "phone": "01143222333", "website": "http://iecsindia.com/", "rating": 4.4, "review_count": "", "latitude": 28.6256746, "longitude": 77.14347889999999, "maps_url": "https://www.google.com/maps/place/?q=place_id:0x390d032effffffff:0x1c5ad375d43bd19b"}, {"place_id": "0x390ce458d0000001:0xf2123bd299ec4501", "name": "IT Company India", "category": "Software company", "street": "D56", "city": "D Block, Sector 10", "phone": "09999244854", "website": "https://www.itcompanyindia.in/", "rating": 4.7, "review_count": "", "latitude": 28.589917699999997, "longitude": 77.3351153, "maps_url": "https://www.google.com/maps/place/?q=place_id:0x390ce458d0000001:0xf2123bd299ec4501"}, {"place_id": "0x390d0338223caf13:0xb5db10bbbd5119ce", "name": "H&G IT Private Limited", "category": "Software company", "street": "B-138, First Floor", "city": "Mayapuri Industrial Area Phase I", "phone": "", "website": "", "rating": 4.3, "review_count": "", "latitude": 28.6274646, "longitude": 77.12720089999999, "maps_url": "https://www.google.com/maps/place/?q=place_id:0x390d0338223caf13:0xb5db10bbbd5119ce"}, {"place_id": "0x390d1cac6aaaaaab:0x20e09e6dc5902ba9", "name": "Lumineux Informatik Technologies", "category": "Software company", "street": "Ground Floor shop", "city": "wz 227", "phone": "+17073482990", "website": "http://lumineuxinformatik.com/", "rating": 5, "review_count": "", "latitude": 28.6087477, "longitude": 77.1096829, "maps_url": "https://www.google.com/maps/place/?q=place_id:0x390d1cac6aaaaaab:0x20e09e6dc5902ba9"}, {"place_id": "0x390ce1597b5509e5:0xfd8209b937b44d3c", "name": "IT Solutions India Private Limited", "category": "Software company", "street": "D-88/5", "city": "Pocket D, Okhla Phase I, Okhla Industrial Estate", "phone": "09810017429", "website": "https://www.itsipl.com/", "rating": 4.2, "review_count": "", "latitude": 28.520146, "longitude": 77.280431, "maps_url": "https://www.google.com/maps/place/?q=place_id:0x390ce1597b5509e5:0xfd8209b937b44d3c"}, {"place_id": "0x390d032c3dc8f225:0x66e78957907ca191", "name": "Dotline Informatics Private Limited", "category": "Computer support and services", "street": "CB-153/6, Ring Rd", "city": "Block CB, Naraina Village, Naraina", "phone": "09582999639", "website": "http://dotlineinfo.com/", "rating": 4.4, "review_count": "", "latitude": 28.6224079, "longitude": 77.13534539999999, "maps_url": "https://www.google.com/maps/place/?q=place_id:0x390d032c3dc8f225:0x66e78957907ca191"}, {"place_id": "0x390d032c2d3b3a8b:0xa11af28cfafccfc4", "name": "Ivolwe Technologies", "category": "Software company", "street": "", "city": "", "phone": "08888852364", "website": "", "rating": 5, "review_count": "", "latitude": 21.0680074, "longitude": 82.7525294, "maps_url": "https://www.google.com/maps/place/?q=place_id:0x390d032c2d3b3a8b:0xa11af28cfafccfc4"}, {"place_id": "0x390ce3c153b89811:0xe7a279685777e9ca", "name": "IT Company", "category": "Automation company", "street": "A-14", "city": "near iskcon temple", "phone": "", "website": "http://www.opuswiz.com/", "rating": 3, "review_count": "", "latitude": 28.557167, "longitude": 77.25424819999999, "maps_url": "https://www.google.com/maps/place/?q=place_id:0x390ce3c153b89811:0xe7a279685777e9ca"}, {"place_id": "0x390d05645ab5e62b:0xd240ffde135445f4", "name": "Adjoint Infocom Private Limited", "category": "Internet marketing service", "street": "Second Floor", "city": "WZ- 294", "phone": "", "website": "https://www.adjointinfocom.com/", "rating": 4.4, "review_count": "", "latitude": 28.6274493, "longitude": 77.1002505, "maps_url": "https://www.google.com/maps/place/?q=place_id:0x390d05645ab5e62b:0xd240ffde135445f4"}, {"place_id": "0xac577056c2b5ff3d:0xaf00253141553d04", "name": "Devnotam | IT Company", "category": "Internet marketing service", "street": "", "city": "", "phone": "", "website": "https://devnotam.com/", "rating": 5, "review_count": "", "latitude": 28.692404999999997, "longitude": 77.090042, "maps_url": "https://www.google.com/maps/place/?q=place_id:0xac577056c2b5ff3d:0xaf00253141553d04"}, {"place_id": "0x390d1ca9e50d176d:0x9986a01a4b66bca0", "name": "VUnify Technology Private Limited", "category": "Software company", "street": "WZ-13H, Aggarwal Sweets Rd", "city": "near New", "phone": "", "website": "https://vunify.in/", "rating": 4.8, "review_count": "", "latitude": 28.6079093, "longitude": 77.1023304, "maps_url": "https://www.google.com/maps/place/?q=place_id:0x390d1ca9e50d176d:0x9986a01a4b66bca0"}, {"place_id": "0x390d05269555559b:0xaf748702511aad35", "name": "Paramount Infosystem Pvt Ltd", "category": "Software company", "street": "B-9, Ground Floor", "city": "Block-B, Shankar Garden, Vikaspuri", "phone": "09555923888", "website": "https://www.paramountinfosystem.com/", "rating": 4.7, "review_count": "", "latitude": 28.628372799999998, "longitude": 77.07356589999999, "maps_url": "https://www.google.com/maps/place/?q=place_id:0x390d05269555559b:0xaf748702511aad35"}, {"place_id": "0x390d05b89f2c2839:0x89e48f3fc9ab81ae", "name": "Complianto Consulting - Company registration, Trademark Registration, GST Registration In Delhi", "category": "Legal services", "street": "Ist floor", "city": "GN-9", "phone": "07827355027", "website": "http://www.compliantoconsulting.com/", "rating": 4.9, "review_count": "", "latitude": 28.6545924, "longitude": 77.1192568, "maps_url": "https://www.google.com/maps/place/?q=place_id:0x390d05b89f2c2839:0x89e48f3fc9ab81ae"}, {"place_id": "0x390d1dc539fc39dd:0xa8d421a9d22cb256", "name": "India best website development company", "category": "Software company", "street": "RZ74, RZ Rd", "city": "Hans Park, Block RZ, Sagarpur East, Sagar Pur", "phone": "", "website": "https://techbuddy31.co.in/", "rating": 5, "review_count": "", "latitude": 28.6054396, "longitude": 77.1082699, "maps_url": "https://www.google.com/maps/place/?q=place_id:0x390d1dc539fc39dd:0xa8d421a9d22cb256"}, {"place_id": "0x390d1dbbb04eca29:0xddc1f5b66b4eaa49", "name": "IRO", "category": "Office supply store", "street": "Hospital Rd", "city": "Chanan Singh Park, Delhi Cantonment", "phone": "", "website": "http://www.joinindianarmy.nic.in/", "rating": 4.4, "review_count": "", "latitude": 28.6073463, "longitude": 77.13243849999999, "maps_url": "https://www.google.com/maps/place/?q=place_id:0x390d1dbbb04eca29:0xddc1f5b66b4eaa49"}, {"place_id": "0x390d1cad7521ef55:0xaa50cd44a9094aef", "name": "IndiaDataServices - #1 Reliable Data Entry, Product Upload, Data Mining, Catalog Processing, Data Extraction Provider Company", "category": "Data Entry Service Provider", "street": "WZ-340 Nangal Raya Near Lajwanti Garden Chowk", "city": "New Delhi, Delhi 110046", "phone": "01140347936", "website": "http://www.indiadataservices.com/", "rating": 4.9, "review_count": "", "latitude": 28.614197899999997, "longitude": 77.107978, "maps_url": "https://www.google.com/maps/place/?q=place_id:0x390d1cad7521ef55:0xaa50cd44a9094aef"}, {"place_id": "0x4d5c2e2e4a2e4f41:0x9773cf50b9c9bc3", "name": "Hamari Technology - IT Infrastructure & Hardware Support Company", "category": "Computer support and services", "street": "", "city": "", "phone": "09560581661", "website": "https://hamaritechnology.com/", "rating": 5, "review_count": "", "latitude": 28.5936474, "longitude": 77.17272439999999, "maps_url": "https://www.google.com/maps/place/?q=place_id:0x4d5c2e2e4a2e4f41:0x9773cf50b9c9bc3"}, {"place_id": "0x390d1bf854143ecb:0x40321da1ddfa8234", "name": "Volmint Technologies | Top SaaS Provider in India \u2013 Software & IT Solutions", "category": "Software company", "street": "29/2, Dabri - Palam Rd", "city": "Durgapuri & Dwarkapuri, Block C, Vijay Enclave, Mahavir Enclave", "phone": "09310828501", "website": "https://volmint.com/", "rating": 4.9, "review_count": "", "latitude": 28.606460199999997, "longitude": 77.0809699, "maps_url": "https://www.google.com/maps/place/?q=place_id:0x390d1bf854143ecb:0x40321da1ddfa8234"}, {"place_id": "0x390d057c8ee7e0db:0xe23e4cf1c1c1bd6e", "name": "MLM Software Company in Delhi- Best MLM Software Developer", "category": "Software company", "street": "305", "city": "Kirti Shikhar", "phone": "09582569545", "website": "https://www.n2nsystems.co.in/", "rating": 4.7, "review_count": "", "latitude": 28.629019399999997, "longitude": 77.08068449999999, "maps_url": "https://www.google.com/maps/place/?q=place_id:0x390d057c8ee7e0db:0xe23e4cf1c1c1bd6e"}, {"place_id": "0x390d049f5674e4b5:0xd958160a9013b45e", "name": "BI InfoTech Pvt Ltd", "category": "Software company", "street": "12/4, Jail Rd", "city": "Prem Nagar, Janakpuri", "phone": "08766248464", "website": "https://www.biinfotech.com/", "rating": 4.5, "review_count": "", "latitude": 28.6357547, "longitude": 77.0950907, "maps_url": "https://www.google.com/maps/place/?q=place_id:0x390d049f5674e4b5:0xd958160a9013b45e"}, {"place_id": "0x390d1d86a4f12173:0x3a6b42ea6f4b8260", "name": "Softvanz Technologies Private Limited", "category": "Software company", "street": "Somdutt Chamber 1", "city": "BT-22/9", "phone": "", "website": "https://softvanz.com/", "rating": 5, "review_count": "", "latitude": 28.567948899999998, "longitude": 77.1889269, "maps_url": "https://www.google.com/maps/place/?q=place_id:0x390d1d86a4f12173:0x3a6b42ea6f4b8260"}, {"place_id": "0x390ce54a2ffa7a35:0xbc45f708bc311be9", "name": "MLM Software Company in Delhi | MLM Software Development Company in Delhi | India - SOFTKWIT", "category": "Software company", "street": "801B", "city": "Janakpuri District Center, Janakpuri", "phone": "08882925582", "website": "https://softkwit.in/mlm-software.php", "rating": 5, "review_count": "", "latitude": 28.630030599999998, "longitude": 77.0809543, "maps_url": "https://www.google.com/maps/place/?q=place_id:0x390ce54a2ffa7a35:0xbc45f708bc311be9"}, {"place_id": "0x390d05f8ccacc973:0x96e03b9c34745e2", "name": "DDT SOFTWARE & ECOMM PVT LTD", "category": "Software company", "street": "331-B", "city": "C4B/331", "phone": "09810944806", "website": "https://toponsearch.com/", "rating": 4.4, "review_count": "", "latitude": 28.618974899999998, "longitude": 77.0913518, "maps_url": "https://www.google.com/maps/place/?q=place_id:0x390d05f8ccacc973:0x96e03b9c34745e2"}, {"place_id": "0x390d1b0ad6565c37:0x9ee772d45ffed70d", "name": "IOTtech Softwares", "category": "Software company", "street": "First & Second Floor", "city": "Lucky Plaza", "phone": "08034798583", "website": "", "rating": 4.9, "review_count": "", "latitude": 28.5847981, "longitude": 77.07323199999999, "maps_url": "https://www.google.com/maps/place/?q=place_id:0x390d1b0ad6565c37:0x9ee772d45ffed70d"}, {"place_id": "0x8be65278a5572b07:0x413ba8eb2bfa0ea6", "name": "Webcorewin Business Solution LLP | Top Website & Software Development Company in Delhi NCR", "category": "Software company", "street": "Metro Pillar Number 571", "city": "Second Floor", "phone": "09811382167", "website": "https://www.webcorewin.com/", "rating": 5, "review_count": "", "latitude": 28.6314446, "longitude": 77.0831694, "maps_url": "https://www.google.com/maps/place/?q=place_id:0x8be65278a5572b07:0x413ba8eb2bfa0ea6"}, {"place_id": "0x390d035db734e16f:0x5bbaa03530e22b6a", "name": "V2S Infosystem", "category": "Software company", "street": "2/352, 2nd Floor Subhash Nagar FRONT SIDE", "city": "New Delhi, Delhi 110064", "phone": "08375012908", "website": "https://v2sinfosystem.com/", "rating": 4.8, "review_count": "", "latitude": 28.635632299999997, "longitude": 77.108601, "maps_url": "https://www.google.com/maps/place/?q=place_id:0x390d035db734e16f:0x5bbaa03530e22b6a"}, {"place_id": "0x390ce5fdcc79e755:0x309ce99251b84ef6", "name": "Optyminds IT Solutions - Top AI and IT company I Best Digital agency in Noida | Delhi NCR | India", "category": "Software company", "street": "1st Floor", "city": "B-70", "phone": "08929075975", "website": "https://optyminds.com/", "rating": 4.9, "review_count": "", "latitude": 28.584679599999998, "longitude": 77.3135042, "maps_url": "https://www.google.com/maps/place/?q=place_id:0x390ce5fdcc79e755:0x309ce99251b84ef6"}, {"place_id": "0x390d04bf088b2c4f:0xcc9a31cf894c766a", "name": "SHIVA INFOTECH INNOVATIONS PVT. LTD.", "category": "Software company", "street": "DDA Tower 2", "city": "604", "phone": "09818583822", "website": "https://www.shivainfotech.com/", "rating": 4.1, "review_count": "", "latitude": 28.630048, "longitude": 77.08113399999999, "maps_url": "https://www.google.com/maps/place/?q=place_id:0x390d04bf088b2c4f:0xcc9a31cf894c766a"}, {"place_id": "0x390d1b8f711137c5:0xd6aa785c534d70b2", "name": "KWIQSOFT", "category": "Software company", "street": "Street Number 11", "city": "Block B, Durga Park Colony", "phone": "09311980594", "website": "http://www.kwiqsoft.com/", "rating": 4.9, "review_count": "", "latitude": 28.6047351, "longitude": 77.0900479, "maps_url": "https://www.google.com/maps/place/?q=place_id:0x390d1b8f711137c5:0xd6aa785c534d70b2"}, {"place_id": "0x390d04d6aaaaaaab:0x6d2dd9b5b477e4e8", "name": "IT SOLUTIONS & SERVICES - Computer laptop CCTV and Digital Marketing Services", "category": "Computer service", "street": "B-2, Suraksha vihar", "city": "Vikas Nagar, Uttam Nagar", "phone": "08860403626", "website": "http://www.itssin.com/", "rating": 5, "review_count": "", "latitude": 28.6405785, "longitude": 77.0457845, "maps_url": "https://www.google.com/maps/place/?q=place_id:0x390d04d6aaaaaaab:0x6d2dd9b5b477e4e8"}, {"place_id": "0x390d1d9ce0eaada3:0xc5a1a0a2458099e3", "name": "CODENCREATIVE TECH PVT LTD", "category": "Software company", "street": "DDA Flat", "city": "RBI Officers Colony, Vasant Vihar", "phone": "09717047610", "website": "https://codencreative.com/", "rating": 4.9, "review_count": "", "latitude": 28.563302099999998, "longitude": 77.1519732, "maps_url": "https://www.google.com/maps/place/?q=place_id:0x390d1d9ce0eaada3:0xc5a1a0a2458099e3"}, {"place_id": "0x390d03300a33a431:0xf5f7f2c4f7e8ad90", "name": "Chhaya Infosystems", "category": "Software company", "street": "A 17 Basement Naraina vihar main road", "city": "chaudhary girdhari lal marg", "phone": "09811959469", "website": "", "rating": 4.4, "review_count": "", "latitude": 28.626713, "longitude": 77.13592799999999, "maps_url": "https://www.google.com/maps/place/?q=place_id:0x390d03300a33a431:0xf5f7f2c4f7e8ad90"}, {"place_id": "0x390d1b400a44a6b9:0x16b34bde95380182", "name": "Deliver Future Technologies (Graphics, Websites, apps, hosting & One destination - Complete IT solutions )", "category": "Software company", "street": "Palam Village, Palam", "city": "New Delhi, Delhi, 110045", "phone": "09555534066", "website": "http://www.deliverfuture.com/", "rating": 5, "review_count": "", "latitude": 28.5883981, "longitude": 77.07953789999999, "maps_url": "https://www.google.com/maps/place/?q=place_id:0x390d1b400a44a6b9:0x16b34bde95380182"}, {"place_id": "0x390d05f1c70d0d6b:0x80d816e36f28618f", "name": "Katchin Tech Private Limited | Software Development Company in Delhi NCR", "category": "Software company", "street": "A-4", "city": "near skin decor", "phone": "07669005215", "website": "https://www.katchintech.com/", "rating": 5, "review_count": "", "latitude": 28.575834099999998, "longitude": 77.05139609999999, "maps_url": "https://www.google.com/maps/place/?q=place_id:0x390d05f1c70d0d6b:0x80d816e36f28618f"}, {"place_id": "0x390d04a42f2b3e7b:0x35404d3b1a67431e", "name": "Softlink Systems", "category": "Software company", "street": "3RD FLOOR", "city": "C-164", "phone": "09810634438", "website": "http://www.softlinksystems.co.in/", "rating": 4.3, "review_count": "", "latitude": 28.6203471, "longitude": 77.12007969999999, "maps_url": "https://www.google.com/maps/place/?q=place_id:0x390d04a42f2b3e7b:0x35404d3b1a67431e"}, {"place_id": "0x390d1daf5bbb6d71:0xd493e8d457a28388", "name": "DPM IT SOLUTIONS", "category": "Software company", "street": "2nd floor, madangiri", "city": "111, E-2", "phone": "09650413450", "website": "https://dpmitsolutions.com/", "rating": 5, "review_count": "", "latitude": 28.565620799999998, "longitude": 77.16005679999999, "maps_url": "https://www.google.com/maps/place/?q=place_id:0x390d1daf5bbb6d71:0xd493e8d457a28388"}, {"place_id": "0x390cfcacae4e5a67:0x961a9738d8ff3f7c", "name": "Need Infotech", "category": "Software company", "street": "110012", "city": "E-557", "phone": "08860808752", "website": "https://www.needinfotech.com/", "rating": 4.8, "review_count": "", "latitude": 28.631518, "longitude": 77.1436078, "maps_url": "https://www.google.com/maps/place/?q=place_id:0x390cfcacae4e5a67:0x961a9738d8ff3f7c"}, {"place_id": "0x390d04bf6a4fffff:0xcbc27b60a27e994", "name": "Amron Software Technologies Pvt. Ltd.", "category": "Software company", "street": "1105", "city": "Kirti Shikhar", "phone": "09015592666", "website": "https://amronsoftech.com/", "rating": 4.8, "review_count": "", "latitude": 28.629019399999997, "longitude": 77.08068449999999, "maps_url": "https://www.google.com/maps/place/?q=place_id:0x390d04bf6a4fffff:0xcbc27b60a27e994"}, {"place_id": "0x390d1b1fb85c71ed:0x1aa4ba2a08b02c1d", "name": "Tecmicra Solutions - Software, Website Development & Digital Marketing Company", "category": "Software company", "street": "Floor, D410", "city": "3rd", "phone": "07042387253", "website": "https://tecmicra.co.in/", "rating": 5, "review_count": "", "latitude": 28.5849324, "longitude": 77.071085, "maps_url": "https://www.google.com/maps/place/?q=place_id:0x390d1b1fb85c71ed:0x1aa4ba2a08b02c1d"}, {"place_id": "0x390d1bb72bd328b1:0xd9425539dc10edb3", "name": "SOFT INDIA WEB SOFTWARE DEVELOPMENT PVT LTD", "category": "Software company", "street": "Ground Floor", "city": "A- 107", "phone": "09625503688", "website": "http://www.softindia.in/", "rating": 3.2, "review_count": "", "latitude": 28.587611, "longitude": 77.0704514, "maps_url": "https://www.google.com/maps/place/?q=place_id:0x390d1bb72bd328b1:0xd9425539dc10edb3"}, {"place_id": "0x390d1b3ce3c8f855:0xee4a65138d454b3d", "name": "Aarti Web Technology", "category": "Software company", "street": "West Sagarpur, Dayal Park, Main Sagarpur, Sagar Pur", "city": "New Delhi, Delhi, 110046", "phone": "08882819003", "website": "http://aartitech.in/", "rating": 4.7, "review_count": "", "latitude": 28.605843699999998, "longitude": 77.0962301, "maps_url": "https://www.google.com/maps/place/?q=place_id:0x390d1b3ce3c8f855:0xee4a65138d454b3d"}, {"place_id": "0x390d058eebd4e349:0xe3540cff21ac1db4", "name": "Matrix Infotech Solution | Software Development Company in Delhi", "category": "Software company", "street": "3rd floor, Besmate Indian Bank, housing complex", "city": "Main Market", "phone": "08920817059", "website": "https://www.matrixinfotechsolution.com/", "rating": 5, "review_count": "", "latitude": 28.6165375, "longitude": 77.0282521, "maps_url": "https://www.google.com/maps/place/?q=place_id:0x390d058eebd4e349:0xe3540cff21ac1db4"}, {"place_id": "0x390d036a16f841d9:0x9b91311b1453f4c0", "name": "Zon Tec Solutions", "category": "Software company", "street": "3rd Floor", "city": "302 - 302 A, West", "phone": "09599902185", "website": "https://zontecsolutions.com/", "rating": 4.1, "review_count": "", "latitude": 28.6382303, "longitude": 77.1205162, "maps_url": "https://www.google.com/maps/place/?q=place_id:0x390d036a16f841d9:0x9b91311b1453f4c0"}, {"place_id": "0x390d05713cbc05f9:0x29ec332097ea9861", "name": "Bluebyte It Solutions", "category": "Software company", "street": "MS-83", "city": "Block MS, Mohan Garden, Uttam Nagar", "phone": "08178838292", "website": "https://www.bluebyteitsolutions.com/", "rating": 5, "review_count": "", "latitude": 28.6289797, "longitude": 77.0335781, "maps_url": "https://www.google.com/maps/place/?q=place_id:0x390d05713cbc05f9:0x29ec332097ea9861"}, {"place_id": "0x390d05fdf88809c7:0xb1395022cefc61ac", "name": "Meentosys Pvt. Ltd.", "category": "Software company", "street": "B Block, 3rd floor", "city": "B2A -17", "phone": "08890045686", "website": "https://meentosys.com/", "rating": 4.6, "review_count": "", "latitude": 28.634106199999998, "longitude": 77.0908882, "maps_url": "https://www.google.com/maps/place/?q=place_id:0x390d05fdf88809c7:0xb1395022cefc61ac"}, {"place_id": "0x390d0331f8fa9037:0xbf316ec71fe5896d", "name": "Web Development Company in South West Delhi - MSN Technologies", "category": "Software company", "street": "Mahatma Gandhi Rd", "city": "Block WZ, Naraina", "phone": "08800388071", "website": "http://www.msntechnologies.org/", "rating": 5, "review_count": "", "latitude": 28.621692, "longitude": 77.1363598, "maps_url": "https://www.google.com/maps/place/?q=place_id:0x390d0331f8fa9037:0xbf316ec71fe5896d"}, {"place_id": "0x2dac0064611a85f3:0xdc4d28765b4c9b5a", "name": "Nitai Technologies - Web Development Company In Delhi", "category": "Software company", "street": "Springhouse, B-1", "city": "639 A", "phone": "09211245458", "website": "https://nitaitechnologies.com/", "rating": 4.9, "review_count": "", "latitude": 28.632381499999997, "longitude": 77.0855062, "maps_url": "https://www.google.com/maps/place/?q=place_id:0x2dac0064611a85f3:0xdc4d28765b4c9b5a"}, {"place_id": "0x390ce3ad10000061:0xeff7e6017a22cce7", "name": "Alpinesoft IT Solutions Authorized Google Workspace Reseller", "category": "Software company", "street": "162/9 Ist Floor, KIshangarh - Gaushala Marg", "city": "Lakhi Nath Kuti, Mehrauli, Vasant Kunj", "phone": "09999011157", "website": "https://www.alpinesoftit.com/", "rating": 4.3, "review_count": "", "latitude": 28.515394399999998, "longitude": 77.16460359999999, "maps_url": "https://www.google.com/maps/place/?q=place_id:0x390ce3ad10000061:0xeff7e6017a22cce7"}, {"place_id": "0x390d0311d537942f:0x5fc0e277b0c34fc0", "name": "Indian Top Companies", "category": "Business to business service", "street": "Rama Rd", "city": "near Kirti Nagar, Industrial Area", "phone": "09587408451", "website": "https://www.indiantopcompanies.com/am/", "rating": 5, "review_count": "", "latitude": 28.6569078, "longitude": 77.1468873, "maps_url": "https://www.google.com/maps/place/?q=place_id:0x390d0311d537942f:0x5fc0e277b0c34fc0"}, {"place_id": "0x390d029cf3d42055:0x568de645f31e31dd", "name": "AI Micro Mind\u00aeTechnology", "category": "Software company", "street": "3rd Floor, 16/448", "city": "Block I, Building Number", "phone": "09818353030", "website": "http://micromind.in/", "rating": 4.8, "review_count": "", "latitude": 28.656936299999998, "longitude": 77.1817737, "maps_url": "https://www.google.com/maps/place/?q=place_id:0x390d029cf3d42055:0x568de645f31e31dd"}, {"place_id": "0x390d1b14e2103d97:0x598d3ba9493704d9", "name": "TRS Software Solutions Pvt. Ltd.", "category": "Software company", "street": "RZH-517", "city": "Main, Dada Dev Mandir Rd", "phone": "09953772034", "website": "http://trssoftwaresolutions.com/", "rating": 4.1, "review_count": "", "latitude": 28.583726, "longitude": 77.07768, "maps_url": "https://www.google.com/maps/place/?q=place_id:0x390d1b14e2103d97:0x598d3ba9493704d9"}, {"place_id": "0x29182cd90b477205:0xafbdc18388b8d100", "name": "Ananta Technology - IT Company", "category": "Web hosting company", "street": "RZB-214, Old Mehrauli Rd", "city": "Palam Colony, Part - I, Raj Nagar", "phone": "", "website": "https://anantatechnology.com/", "rating": 5, "review_count": "", "latitude": 28.584313899999998, "longitude": 77.0862543, "maps_url": "https://www.google.com/maps/place/?q=place_id:0x29182cd90b477205:0xafbdc18388b8d100"}, {"place_id": "0x390ce3a2021e9897:0x28bf52d36a7d0c19", "name": "It Softtech - Website Designing and Development Company in Delhi, India", "category": "Internet marketing service", "street": "149, Ring Rd", "city": "opp. Maharani Bagh", "phone": "09810056177", "website": "", "rating": 5, "review_count": "", "latitude": 28.5763395, "longitude": 77.2640869, "maps_url": "https://www.google.com/maps/place/?q=place_id:0x390ce3a2021e9897:0x28bf52d36a7d0c19"}, {"place_id": "0x390d05c8987801e5:0x128e04dce6c4cbc4", "name": "Matrix Infotech Solution | Software Development Company", "category": "Software company", "street": "j j", "city": "Dwarka Mor, Block WE, Mohan Garden, Razapur Khurd", "phone": "08920817059", "website": "http://www.matrixinfotechsolution.com/", "rating": 3.9, "review_count": "", "latitude": 28.637037, "longitude": 77.0291258, "maps_url": "https://www.google.com/maps/place/?q=place_id:0x390d05c8987801e5:0x128e04dce6c4cbc4"}, {"place_id": "0x390d05f6807aba3f:0x8d4dbf179623854a", "name": "Erp Software Company Delhi | Crm Software Development Company in Delhi", "category": "Software company", "street": "3 Floor", "city": "B-77", "phone": "09266518819", "website": "https://www.weblyticsinfotech.com/crm-software-in-delhi.php", "rating": 5, "review_count": "", "latitude": 28.6150725, "longitude": 77.0341376, "maps_url": "https://www.google.com/maps/place/?q=place_id:0x390d05f6807aba3f:0x8d4dbf179623854a"}, {"place_id": "0x390d03e4a46e95b1:0x6fde9f4de8dfc36e", "name": "Nethues Technologies (P) Ltd.", "category": "Software company", "street": "203-204, 2nd Floor, Aggarwal City Plaza", "city": "Mangalam Place, Rohini", "phone": "01147567701", "website": "https://www.nethues.com/", "rating": 4.1, "review_count": "", "latitude": 28.7005016, "longitude": 77.11672999999999, "maps_url": "https://www.google.com/maps/place/?q=place_id:0x390d03e4a46e95b1:0x6fde9f4de8dfc36e"}, {"place_id": "0x390d1cc8a50f188b:0xf5a40552cdfe68c", "name": "Brahmos Aerospace", "category": "Research and product development", "street": "No. 16, Cariappa Marg", "city": "Kirby Place, Delhi Cantonment", "phone": "01133123126", "website": "https://www.brahmos.com/", "rating": 4.6, "review_count": "", "latitude": 28.604688499999998, "longitude": 77.1291859, "maps_url": "https://www.google.com/maps/place/?q=place_id:0x390d1cc8a50f188b:0xf5a40552cdfe68c"}, {"place_id": "0x390d1b2c770a669b:0x503c852e7ddd24d8", "name": "Aadi Soft - IT Software Freelancing Unit", "category": "Computer support and services", "street": "R.Z.-14A", "city": "Geetanjali Park, West Sagarpur, Sagar Pur", "phone": "", "website": "https://inventory-appn.vercel.app/", "rating": 5, "review_count": "", "latitude": 28.6014701, "longitude": 77.0982746, "maps_url": "https://www.google.com/maps/place/?q=place_id:0x390d1b2c770a669b:0x503c852e7ddd24d8"}, {"place_id": "0x20616dbf813c03ef:0xc8fd1ca47f902e9e", "name": "Bloatware IT Software Company | website Designing Company | Software Company | MLM |CRM | Android Apps", "category": "Software company", "street": "C1", "city": "Rama Park", "phone": "08920750797", "website": "https://bloatwareitsolutions.com/", "rating": 4.5, "review_count": "", "latitude": 28.621265599999997, "longitude": 77.0324943, "maps_url": "https://www.google.com/maps/place/?q=place_id:0x20616dbf813c03ef:0xc8fd1ca47f902e9e"}, {"place_id": "0x390d051e7ddd1931:0x90aefcd9adf3fb48", "name": "It solutions 4 India", "category": "Computer support and services", "street": "tilak nagar 1/1 3 rd floor vishal mega mart", "city": "New Delhi, Delhi 110058", "phone": "09711347474", "website": "https://www.itsolution4india.com/", "rating": 4.1, "review_count": "", "latitude": 28.6353108, "longitude": 77.0928445, "maps_url": "https://www.google.com/maps/place/?q=place_id:0x390d051e7ddd1931:0x90aefcd9adf3fb48"}, {"place_id": "0x390d04bf231d4979:0xa2cd2b7e8bfd68ff", "name": "TN Infotech Pvt. Ltd.", "category": "Computer support and services", "street": "E-594, FIRST FLOOR", "city": "Ramphal Chowk Rd", "phone": "09810782194", "website": "http://tninfotech.net/", "rating": 5, "review_count": "", "latitude": 28.585736699999998, "longitude": 77.0719481, "maps_url": "https://www.google.com/maps/place/?q=place_id:0x390d04bf231d4979:0xa2cd2b7e8bfd68ff"}, {"place_id": "0x390d0302af76c545:0x97d6a46d40086acd", "name": "Solarman Technology Project Pvt Ltd - Digital Marketing Company in Delhi, India |Software Development Company | IT Company", "category": "Software company", "street": "6/14", "city": "Block 5, Kirti Nagar Industrial Area, Kirti Nagar", "phone": "07428086779", "website": "https://solarmantech.in/", "rating": 5, "review_count": "", "latitude": 28.6517841, "longitude": 77.14799649999999, "maps_url": "https://www.google.com/maps/place/?q=place_id:0x390d0302af76c545:0x97d6a46d40086acd"}, {"place_id": "0x390d1df0721e08c5:0x49d5fd4648a33c2d", "name": "Nibble Software | Website Design & Development | Travel Web API & CRM | SEO, SMO, Paid Ads, Amazon & Flipkart Marketing", "category": "Website designer", "street": "4th Floor", "city": "Moolchand Tower", "phone": "09971066697", "website": "https://www.nibblesoftware.com/", "rating": 4.8, "review_count": "", "latitude": 28.6000862, "longitude": 77.0818018, "maps_url": "https://www.google.com/maps/place/?q=place_id:0x390d1df0721e08c5:0x49d5fd4648a33c2d"}, {"place_id": "0x390d1cad7521ef55:0xaa50cd44a9094aef", "name": "IndiaDataServices - #1 Reliable Data Entry, Product Upload, Data Mining, Catalog Processing, Data Extraction Provider Company", "category": "Data Entry Service Provider", "street": "WZ-340 Nangal Raya Near Lajwanti Garden Chowk", "city": "New Delhi, Delhi 110046", "phone": "01140347936", "website": "http://www.indiadataservices.com/", "rating": 4.9, "review_count": "", "latitude": 28.614197899999997, "longitude": 77.107978, "maps_url": "https://www.google.com/maps/place/?q=place_id:0x390d1cad7521ef55:0xaa50cd44a9094aef"}, {"place_id": "0x390d03305c07c757:0x3bea1c82f109cab2", "name": "NSIC", "category": "Corporate office", "street": "326", "city": "CB-326, Ring Rd", "phone": "09897089899", "website": "http://www.nsic.co.in/", "rating": 4.1, "review_count": "", "latitude": 28.618138599999998, "longitude": 77.13632059999999, "maps_url": "https://www.google.com/maps/place/?q=place_id:0x390d03305c07c757:0x3bea1c82f109cab2"}, {"place_id": "0x390ce4575d275643:0x6374f0c539bcb978", "name": "Joon Corporation - Website Designing Company in Delhi", "category": "Website designer", "street": "814-15, 9th Floor", "city": "West End Mall", "phone": "08447696450", "website": "https://jooncorporation.com/", "rating": 4.4, "review_count": "", "latitude": 28.6300021, "longitude": 77.0797656, "maps_url": "https://www.google.com/maps/place/?q=place_id:0x390ce4575d275643:0x6374f0c539bcb978"}, {"place_id": "0x390d0180d850ad91:0x310f92d3faf7aa32", "name": "Click IT Solution", "category": "Software company", "street": "2nd floor, Meenakshi Garden", "city": "113", "phone": "09818733195", "website": "https://clickitsolution.com/", "rating": 4.6, "review_count": "", "latitude": 28.6396417, "longitude": 77.1038289, "maps_url": "https://www.google.com/maps/place/?q=place_id:0x390d0180d850ad91:0x310f92d3faf7aa32"}, {"place_id": "0x390d0234852fffff:0xdf6a1081fe66751", "name": "Wingify", "category": "Software company", "street": "KLJ TOWER", "city": "North", "phone": "01147640497", "website": "https://wingify.com/", "rating": 4.4, "review_count": "", "latitude": 28.6911475, "longitude": 77.1509423, "maps_url": "https://www.google.com/maps/place/?q=place_id:0x390d0234852fffff:0xdf6a1081fe66751"}, {"place_id": "0x390d1bf076ad40a5:0x6e54f7930154b26d", "name": "pNthaan: Technologies - Digital Marketing Company in Delhi - Social Media Marketing", "category": "Software company", "street": "D2/15, Dabri - Palam Rd", "city": "Vinod Puri, Block B 3, Vijay Enclave, Mahavir Enclave", "phone": "09810455309", "website": "https://pnthaan.com/", "rating": 4.9, "review_count": "", "latitude": 28.602663399999997, "longitude": 77.0801891, "maps_url": "https://www.google.com/maps/place/?q=place_id:0x390d1bf076ad40a5:0x6e54f7930154b26d"}, {"place_id": "0x390d04a6b086db01:0x61dd710dd30b9aae", "name": "Aps Web Hub - Website Desinging Company", "category": "Website designer", "street": "GA6, Mother Dairy Road", "city": "Shiv Nagar, Jail Road", "phone": "07838904326", "website": "http://www.apswebhub.com/", "rating": 4.9, "review_count": "", "latitude": 28.628489, "longitude": 77.0983706, "maps_url": "https://www.google.com/maps/place/?q=place_id:0x390d04a6b086db01:0x61dd710dd30b9aae"}, {"place_id": "0x390d046b34a557d1:0xf6c1b8839a2cbd9c", "name": "Pact Systems Private Limited", "category": "Software company", "street": "305-306, Third Floor, Dimension Vardhman Plaza, Rohtak Road,", "city": "Inder Encalve, Delhi 110087", "phone": "09711929711", "website": "http://www.pacts.in/", "rating": 4.4, "review_count": "", "latitude": 28.678994499999998, "longitude": 77.0837766, "maps_url": "https://www.google.com/maps/place/?q=place_id:0x390d046b34a557d1:0xf6c1b8839a2cbd9c"}, {"place_id": "0x390d0348be373921:0xdab0e6afc72090d6", "name": "\ud835\udc16\ud835\udc1e\ud835\udc1b\ud835\udc24\ud835\udc1a\ud835\udc2b\ud835\udc2d \ud835\udc03\ud835\udc22\ud835\udc20\ud835\udc22\ud835\udc2d\ud835\udc1a\ud835\udc25 \ud835\udc0f\ud835\udc2f\ud835\udc2d. \ud835\udc0b\ud835\udc2d\ud835\udc1d", "category": "Website designer", "street": "2nd Floor", "city": "C-127", "phone": "09711110321", "website": "https://webkartindia.com/", "rating": 4.9, "review_count": "", "latitude": 28.628981399999997, "longitude": 77.1369867, "maps_url": "https://www.google.com/maps/place/?q=place_id:0x390d0348be373921:0xdab0e6afc72090d6"}, {"place_id": "0x390d011e517039e5:0xd7871aa892609a4c", "name": "Top #1 Website Company in delhi", "category": "Software company", "street": "P56H+9CP, Commercial Complex, Gopal Nagar, Model Town", "city": "near Akash Cinema", "phone": "", "website": "", "rating": 4.6, "review_count": "", "latitude": 28.7109375, "longitude": 77.1785625, "maps_url": "https://www.google.com/maps/place/?q=place_id:0x390d011e517039e5:0xd7871aa892609a4c"}, {"place_id": "0x390d1b3f00d047f7:0x9b0acbc6decfed67", "name": "VBage Tech", "category": "Software company", "street": "WZ-330", "city": "Palam Village, Palam", "phone": "08383889042", "website": "https://www.vbagetech.com/", "rating": 4.5, "review_count": "", "latitude": 28.589986099999997, "longitude": 77.0768539, "maps_url": "https://www.google.com/maps/place/?q=place_id:0x390d1b3f00d047f7:0x9b0acbc6decfed67"}, {"place_id": "0x390d0331c8429b3d:0x6d904922071ab01", "name": "Go Houze Infra", "category": "Real Estate Builders & Construction Company", "street": "Gate no 2, metro", "city": "shop no. 2", "phone": "09810657474", "website": "http://www.gohouze.in/", "rating": 4.8, "review_count": "", "latitude": 28.6233366, "longitude": 77.1368616, "maps_url": "https://www.google.com/maps/place/?q=place_id:0x390d0331c8429b3d:0x6d904922071ab01"}, {"place_id": "0x390d04d2f6575abb:0xd5553781913e9a53", "name": "Espial Infotech", "category": "Software company", "street": "Uttam Vihar, Block B, Uttam Nagar, Bindapur", "city": "Delhi, 110059", "phone": "", "website": "http://espial.in/", "rating": 5, "review_count": "", "latitude": 28.611546399999998, "longitude": 77.06602269999999, "maps_url": "https://www.google.com/maps/place/?q=place_id:0x390d04d2f6575abb:0xd5553781913e9a53"}, {"place_id": "0x390d052784967271:0xaa74fbc78bf6ac24", "name": "Web Era Solutions", "category": "Website designer", "street": "Office No.716 ,7th Floor Vishwa Sadan Tower", "city": "Janakpuri West, Janakpuri District Center", "phone": "08448696471", "website": "https://weberasolutions.com/", "rating": 4.8, "review_count": "", "latitude": 28.629279999999998, "longitude": 77.0816023, "maps_url": "https://www.google.com/maps/place/?q=place_id:0x390d052784967271:0xaa74fbc78bf6ac24"}, {"place_id": "0x390d1b2440000001:0x7b52a88f21fc0d82", "name": "DesignDot Technologies | #1 Best Website & App Development | Top Software & AIML Solutions Company in Delhi", "category": "Software company", "street": "RZ 1/13, 3RD FLOOR, Main Road Above HDFC Bank, Dwarka, Near Palam Metro Gate 2", "city": "New Delhi, Delhi 110077", "phone": "09999652812", "website": "https://www.designdot.co.in/", "rating": 5, "review_count": "", "latitude": 28.587238199999998, "longitude": 77.0850727, "maps_url": "https://www.google.com/maps/place/?q=place_id:0x390d1b2440000001:0x7b52a88f21fc0d82"}, {"place_id": "0x390d0331c8429b3d:0x6d904922071ab01", "name": "Go Houze Infra", "category": "Real Estate Builders & Construction Company", "street": "Gate no 2, metro", "city": "shop no. 2", "phone": "09810657474", "website": "http://www.gohouze.in/", "rating": 4.8, "review_count": "", "latitude": 28.6233366, "longitude": 77.1368616, "maps_url": "https://www.google.com/maps/place/?q=place_id:0x390d0331c8429b3d:0x6d904922071ab01"}, {"place_id": "0x390d1b0076c735ad:0x13551f319095520a", "name": "Aftab IT information technology", "category": "Computer Hardware Company", "street": "C58", "city": "D Block, Kapas Hera Estate", "phone": "", "website": "", "rating": 5, "review_count": "", "latitude": 28.5221669, "longitude": 77.08510989999999, "maps_url": "https://www.google.com/maps/place/?q=place_id:0x390d1b0076c735ad:0x13551f319095520a"}, {"place_id": "0x390d1b56cb173bd9:0x818bf2fa36e3d6a8", "name": "Travinto Technologies", "category": "Software company", "street": "RZ 49C, Gali No. 8A", "city": "Vashist Park, Sagar Pur", "phone": "", "website": "https://travinto.com/", "rating": 5, "review_count": "", "latitude": 28.608297999999998, "longitude": 77.1017762, "maps_url": "https://www.google.com/maps/place/?q=place_id:0x390d1b56cb173bd9:0x818bf2fa36e3d6a8"}, {"place_id": "0x390d04d2f6575abb:0xd5553781913e9a53", "name": "Espial Infotech", "category": "Software company", "street": "Uttam Vihar, Block B, Uttam Nagar, Bindapur", "city": "Delhi, 110059", "phone": "", "website": "http://espial.in/", "rating": 5, "review_count": "", "latitude": 28.611546399999998, "longitude": 77.06602269999999, "maps_url": "https://www.google.com/maps/place/?q=place_id:0x390d04d2f6575abb:0xd5553781913e9a53"}, {"place_id": "0x390d052784967271:0xaa74fbc78bf6ac24", "name": "Web Era Solutions", "category": "Website designer", "street": "Office No.716 ,7th Floor Vishwa Sadan Tower", "city": "Janakpuri West, Janakpuri District Center", "phone": "08448696471", "website": "https://weberasolutions.com/", "rating": 4.8, "review_count": "", "latitude": 28.629279999999998, "longitude": 77.0816023, "maps_url": "https://www.google.com/maps/place/?q=place_id:0x390d052784967271:0xaa74fbc78bf6ac24"}, {"place_id": "0x390d1b95c0282d51:0xa63e0ab9c2fe717d", "name": "Core Web Technology", "category": "Software company", "street": "RZF-906/22,B3,3rd Flooor, Netaji Shubhash Marg Rajnagar-II", "city": "near SBI", "phone": "09319919395", "website": "https://www.corewebtechnology.com/", "rating": 5, "review_count": "", "latitude": 28.5768757, "longitude": 77.0790449, "maps_url": "https://www.google.com/maps/place/?q=place_id:0x390d1b95c0282d51:0xa63e0ab9c2fe717d"}, {"place_id": "0x390d1c154c85ce0f:0xb0963f0e0dec1299", "name": "MASTERTECHARA", "category": "Software company", "street": "L 37/336,UPPER GROUND FLOOR, STREET NO. 19, L BLOCK", "city": "Landmark-V2 Mall wali gali", "phone": "09560311263", "website": "http://www.mastertechara.in/", "rating": 5, "review_count": "", "latitude": 28.5454027, "longitude": 77.1245048, "maps_url": "https://www.google.com/maps/place/?q=place_id:0x390d1c154c85ce0f:0xb0963f0e0dec1299"}, {"place_id": "0x390d037f627bbd9b:0x31a49b3f2fe3ddbf", "name": "Control F Solutions", "category": "Computer support and services", "street": "3rd Floor", "city": "Backside of Shiv Naresh Sportswear Showroom", "phone": "09599786121", "website": "https://controlf.co.in/it-rental/", "rating": 4.9, "review_count": "", "latitude": 28.654606599999997, "longitude": 77.14817459999999, "maps_url": "https://www.google.com/maps/place/?q=place_id:0x390d037f627bbd9b:0x31a49b3f2fe3ddbf"}, {"place_id": "0x390d04bf1dc56e1d:0xb4e2068a9167a759", "name": "ITindustries.com", "category": "Software company", "street": "Janakpuri District Center, Janakpuri", "city": "New Delhi, Delhi, 110058", "phone": "09810232774", "website": "https://itindustries.com/", "rating": 4.8, "review_count": "", "latitude": 28.629365699999997, "longitude": 77.08019, "maps_url": "https://www.google.com/maps/place/?q=place_id:0x390d04bf1dc56e1d:0xb4e2068a9167a759"}, {"place_id": "0x390d030268f754f3:0x161df7ca22e468b5", "name": "Aventure Corporate Solution", "category": "Software company", "street": "B1/639A, Fourth Floor", "city": "Block B1, Janakpuri", "phone": "08929898849", "website": "https://aventuresolution.com/", "rating": 4.3, "review_count": "", "latitude": 28.6324267, "longitude": 77.08569779999999, "maps_url": "https://www.google.com/maps/place/?q=place_id:0x390d030268f754f3:0x161df7ca22e468b5"}, {"place_id": "0x390d053e4c5e707b:0xc6bbe479c25a47ea", "name": "Admire It Solution - eCommerce Website Designing and Development Company in Delhi", "category": "Website designer", "street": "WZ- 1673D", "city": "RC Basti,Block WZ, Nangal Raya, Janakpuri", "phone": "07703867540", "website": "https://admireitsolution.com/", "rating": 5, "review_count": "", "latitude": 28.6087857, "longitude": 77.1092968, "maps_url": "https://www.google.com/maps/place/?q=place_id:0x390d053e4c5e707b:0xc6bbe479c25a47ea"}, {"place_id": "0x390d04c81b580d5f:0x7fdb4665cb5fe9ae", "name": "Digital Molecule Pvt Ltd - Best Digital Marketing Company in Delhi", "category": "Software company", "street": "6th Floor, Mahatta Tower", "city": "611/612", "phone": "09811039524", "website": "https://www.digitalmolecule.in/", "rating": 4.8, "review_count": "", "latitude": 28.6299779, "longitude": 77.0907905, "maps_url": "https://www.google.com/maps/place/?q=place_id:0x390d04c81b580d5f:0x7fdb4665cb5fe9ae"}, {"place_id": "0x390d1b6807b97c57:0xb6dc40e91d71681f", "name": "Algo2bots Infotech", "category": "Software company", "street": "WZ-291, Street Number 8", "city": "Sadh Nagar I, Sadh Nagar, Palam", "phone": "09911447760", "website": "http://algo2botsinfotech.com/", "rating": 5, "review_count": "", "latitude": 28.587672599999998, "longitude": 77.09199129999999, "maps_url": "https://www.google.com/maps/place/?q=place_id:0x390d1b6807b97c57:0xb6dc40e91d71681f"}, {"place_id": "0x390d1baaff346a7b:0x1b774913c94bd822", "name": "Ontech Digital Technologies Pvt. Ltd.", "category": "Website designer", "street": "3rd floor", "city": "Shyam Kunj Tower", "phone": "08802377021", "website": "https://ontechdigital.com/", "rating": 5, "review_count": "", "latitude": 28.5994429, "longitude": 77.0819152, "maps_url": "https://www.google.com/maps/place/?q=place_id:0x390d1baaff346a7b:0x1b774913c94bd822"}, {"place_id": "0x390d1b44dac29e85:0xd19c8cf2057c43e8", "name": "AVC Dotfy LLP", "category": "Software company", "street": "C-157, Janak Cinema Community Center Janakpuri Janak Cinema Community Center", "city": "110056", "phone": "09821830895", "website": "https://dotfy.in/", "rating": 4.7, "review_count": "", "latitude": 28.6114547, "longitude": 77.0945327, "maps_url": "https://www.google.com/maps/place/?q=place_id:0x390d1b44dac29e85:0xd19c8cf2057c43e8"}, {"place_id": "0x390d0338eaaaaaab:0x9d30fbb7b7135c8a", "name": "Pearl Engineering Co.", "category": "Manufacturer", "street": "Block B, Mayapuri Industrial Area Phase I, Mayapuri", "city": "New Delhi, Delhi 110064", "phone": "", "website": "http://pearlengineeringco.com/", "rating": 4.6, "review_count": "", "latitude": 28.6249035, "longitude": 77.1225839, "maps_url": "https://www.google.com/maps/place/?q=place_id:0x390d0338eaaaaaab:0x9d30fbb7b7135c8a"}, {"place_id": "0xac577056c2b5ff3d:0xaf00253141553d04", "name": "Devnotam | IT Company", "category": "Internet marketing service", "street": "", "city": "", "phone": "", "website": "https://devnotam.com/", "rating": 5, "review_count": "", "latitude": 28.692404999999997, "longitude": 77.090042, "maps_url": "https://www.google.com/maps/place/?q=place_id:0xac577056c2b5ff3d:0xaf00253141553d04"}, {"place_id": "0x390d031b8d98800b:0x972af31c5ad01a4", "name": "Leeway BPO", "category": "BPO Company", "street": "A-2/9, 3rd Floor, WHS Marble Market", "city": "New Delhi, Delhi 110015", "phone": "09319282969", "website": "http://www.leewayinternational.com/", "rating": 3.7, "review_count": "", "latitude": 28.633461699999998, "longitude": 77.1322222, "maps_url": "https://www.google.com/maps/place/?q=place_id:0x390d031b8d98800b:0x972af31c5ad01a4"}, {"place_id": "0x390d0328d22d4c1f:0x7427cd8138c41435", "name": "Machwan", "category": "Corporate office", "street": "A-8", "city": "C-Block Community Center, Naraina Vihar, Naraina", "phone": "01148405001", "website": "https://www.machwan.com/", "rating": 4.8, "review_count": "", "latitude": 28.625398699999998, "longitude": 77.1430986, "maps_url": "https://www.google.com/maps/place/?q=place_id:0x390d0328d22d4c1f:0x7427cd8138c41435"}, {"place_id": "0x390d0331c7831b67:0x9ebc954cad032ca5", "name": "International Packaging", "category": "Packaging company", "street": "CB-229 D, Ring Rd", "city": "Block CB, Naraina Village, Naraina", "phone": "09810922304", "website": "http://www.inpackaging.in/", "rating": 4.3, "review_count": "", "latitude": 28.624158599999998, "longitude": 77.13358819999999, "maps_url": "https://www.google.com/maps/place/?q=place_id:0x390d0331c7831b67:0x9ebc954cad032ca5"}, {"place_id": "0x390d03ff3a6ee899:0xf355d89c9f801013", "name": "Esafe Hi-Tech Solutions Pvt. Ltd.", "category": "Computer service", "street": "4/52 , 3rd Floor", "city": "Shankar Road, Old Rajinder Nagar", "phone": "08800015155", "website": "https://esafesolutions.org/", "rating": 5, "review_count": "", "latitude": 28.6378399, "longitude": 77.1810955, "maps_url": "https://www.google.com/maps/place/?q=place_id:0x390d03ff3a6ee899:0xf355d89c9f801013"}, {"place_id": "0x390d03029a249235:0xc99a89423a1e5358", "name": "Labotek", "category": "Corporate office", "street": "4/25", "city": "Block 4, Kirti Nagar Industrial Area, Kirti Nagar", "phone": "01141426169", "website": "https://www.labotek.in/", "rating": 4.1, "review_count": "", "latitude": 28.6528273, "longitude": 77.147831, "maps_url": "https://www.google.com/maps/place/?q=place_id:0x390d03029a249235:0xc99a89423a1e5358"}, {"place_id": "0x4d5c2e2e4a2e4f41:0x9773cf50b9c9bc3", "name": "Hamari Technology - IT Infrastructure & Hardware Support Company", "category": "Computer support and services", "street": "", "city": "", "phone": "09560581661", "website": "https://hamaritechnology.com/", "rating": 5, "review_count": "", "latitude": 28.5936474, "longitude": 77.17272439999999, "maps_url": "https://www.google.com/maps/place/?q=place_id:0x4d5c2e2e4a2e4f41:0x9773cf50b9c9bc3"}, {"place_id": "0x390d02fc536bcc9b:0x4b19d1b0d5137e88", "name": "Brainwork Technologies - Best Digital Marketing Company in Delhi | SEO, PPC & SMM Services in India | Social Media Agency", "category": "Internet marketing service", "street": "Industrial Area", "city": "A-70", "phone": "01145781159", "website": "https://www.brainworkindia.net/", "rating": 4, "review_count": "", "latitude": 28.6557861, "longitude": 77.1498697, "maps_url": "https://www.google.com/maps/place/?q=place_id:0x390d02fc536bcc9b:0x4b19d1b0d5137e88"}, {"place_id": "0x4f6402c2da16ff95:0xd3b65b0e189f65b0", "name": "Radiant Technologies - E-commerce Website Development & Designing Company, Digital Marketing, Customized CRM", "category": "Software company", "street": "Second Floor", "city": "WZ 10B, Asalatpur Rd", "phone": "09999886194", "website": "https://techradiant.net/", "rating": 4.5, "review_count": "", "latitude": 28.6217926, "longitude": 77.0763157, "maps_url": "https://www.google.com/maps/place/?q=place_id:0x4f6402c2da16ff95:0xd3b65b0e189f65b0"}, {"place_id": "0x390d0396a33c9c71:0x6a772a51fa6a5489", "name": "Grow Globally", "category": "Website designer", "street": "COMMUNITY CENTER", "city": "SECOND FLOOR GUPTA TOWER-1", "phone": "01144708564", "website": "http://growglobally.in/", "rating": 4.5, "review_count": "", "latitude": 28.6388358, "longitude": 77.0761923, "maps_url": "https://www.google.com/maps/place/?q=place_id:0x390d0396a33c9c71:0x6a772a51fa6a5489"}, {"place_id": "0x8f1069178017e329:0x8e55f45c66419ec3", "name": "ZionSoft Tech It Solution LLP", "category": "Software company", "street": "PLOT NO.C 92 and 93 A", "city": "Block C, Vishwas Park, Uttam Nagar", "phone": "08810456468", "website": "https://zionsoftit.com/", "rating": "", "review_count": "", "latitude": 28.610937, "longitude": 77.0568282, "maps_url": "https://www.google.com/maps/place/?q=place_id:0x8f1069178017e329:0x8e55f45c66419ec3"}, {"place_id": "0x390d0325bfffffff:0x18f16e42497f80bf", "name": "Seagull Pharmaceuticals Pvt. Ltd.", "category": "Pharmaceutical company", "street": "305-307, Ansal", "city": "C-Block Community Center, Naraina Vihar", "phone": "01145650276", "website": "http://seagullpharma.com/", "rating": 4.7, "review_count": "", "latitude": 28.6258618, "longitude": 77.1425812, "maps_url": "https://www.google.com/maps/place/?q=place_id:0x390d0325bfffffff:0x18f16e42497f80bf"}, {"place_id": "0x390d02efaf79b961:0x413607f4cfba5420", "name": "Support Star Corporate Services Pvt. Ltd", "category": "Corporate office", "street": "Cottage No 19, Lower Ground Floor", "city": "West Patel Nagar, Patel Nagar", "phone": "07042627575", "website": "", "rating": 4.2, "review_count": "", "latitude": 28.6500426, "longitude": 77.1623192, "maps_url": "https://www.google.com/maps/place/?q=place_id:0x390d02efaf79b961:0x413607f4cfba5420"}, {"place_id": "0x390d1dbbb04eca29:0xddc1f5b66b4eaa49", "name": "IRO", "category": "Office supply store", "street": "Hospital Rd", "city": "Chanan Singh Park, Delhi Cantonment", "phone": "", "website": "http://www.joinindianarmy.nic.in/", "rating": 4.4, "review_count": "", "latitude": 28.6073463, "longitude": 77.13243849999999, "maps_url": "https://www.google.com/maps/place/?q=place_id:0x390d1dbbb04eca29:0xddc1f5b66b4eaa49"}, {"place_id": "0x390d03fd9307cd73:0x7a223a0902c6e0cd", "name": "Web Cloud Technology", "category": "Website designer", "street": "3A/74 W.E.A", "city": "Sat Nagar, Karol Bagh", "phone": "08882324811", "website": "https://webcloudtechnology.in/", "rating": 4.4, "review_count": "", "latitude": 28.6465632, "longitude": 77.1824149, "maps_url": "https://www.google.com/maps/place/?q=place_id:0x390d03fd9307cd73:0x7a223a0902c6e0cd"}, {"place_id": "0x390d1b80fb9da03d:0xd77ea97dd9a2aa4a", "name": "Nextwebi IT Solutions Pvt Ltd", "category": "Website designer", "street": "45, Street Number 2", "city": "Palam Extension, Sector 7 Dwarka, Dwarka", "phone": "08904240871", "website": "", "rating": 5, "review_count": "", "latitude": 28.5945388, "longitude": 77.0857647, "maps_url": "https://www.google.com/maps/place/?q=place_id:0x390d1b80fb9da03d:0xd77ea97dd9a2aa4a"}, {"place_id": "0x390d02eb9de45597:0x772cc0459bd00b08", "name": "WebzPapa - SEO Company in Delhi I SEO Services Agency in Delhi", "category": "Website designer", "street": "Gate no 6", "city": "Building - O, 4th Floor, South Patel Nagar Near Patel Nagar Metro Station", "phone": "09953993944", "website": "https://webzpapa.com/seo-company-delhi.html", "rating": 4.7, "review_count": "", "latitude": 28.6450192, "longitude": 77.1688623, "maps_url": "https://www.google.com/maps/place/?q=place_id:0x390d02eb9de45597:0x772cc0459bd00b08"}, {"place_id": "0x390d04caefab7813:0x5c0ce1119a71f9cd", "name": "Universal Network of Infotech", "category": "Software company", "street": "WZ-61A/8A, Lane No 17, Vashist Park, Pankha Road, Janak Puri Institutional Area", "city": "25 Feet Rd", "phone": "01128526116", "website": "", "rating": "", "review_count": "", "latitude": 28.6125701, "longitude": 77.0776147, "maps_url": "https://www.google.com/maps/place/?q=place_id:0x390d04caefab7813:0x5c0ce1119a71f9cd"}, {"place_id": "0x390cfb4bf15a6733:0xaf50e6f3c5fb7641", "name": "Digitals Daddy: Web & App Development Company", "category": "Software company", "street": "Metro Gate No. 2", "city": "Nearest Sikandarpur", "phone": "09818286609", "website": "https://www.digitalsdaddy.com/", "rating": 4.9, "review_count": "", "latitude": 28.4847884, "longitude": 77.0922192, "maps_url": "https://www.google.com/maps/place/?q=place_id:0x390cfb4bf15a6733:0xaf50e6f3c5fb7641"}, {"place_id": "0x390d0394e80f06b3:0x3b8f2d12dc275da5", "name": "Vats Logistics", "category": "Freight Forwarding Agency", "street": "WZ 130", "city": "Naraina Village, Naraina", "phone": "", "website": "", "rating": 4.8, "review_count": "", "latitude": 28.622629999999997, "longitude": 77.136679, "maps_url": "https://www.google.com/maps/place/?q=place_id:0x390d0394e80f06b3:0x3b8f2d12dc275da5"}, {"place_id": "0x390d0300292e42c1:0x147d3cafc843c23d", "name": "MULTIVERSE SOLUTION PRIVATE LTD.", "category": "Corporate office", "street": "DSM 119-120", "city": "DLF Towers", "phone": "", "website": "https://multiversetech.com/", "rating": 5, "review_count": "", "latitude": 28.662896099999998, "longitude": 77.1531562, "maps_url": "https://www.google.com/maps/place/?q=place_id:0x390d0300292e42c1:0x147d3cafc843c23d"}, {"place_id": "0x390d1b0010fc2321:0x12e9154c815cf007", "name": "Prashant Dwivedi IT company", "category": "Warehouse", "street": "G3P5+GVC", "city": "Nayak Pura, Bijwasan", "phone": "", "website": "", "rating": "", "review_count": "", "latitude": 28.536316, "longitude": 77.059649, "maps_url": "https://www.google.com/maps/place/?q=place_id:0x390d1b0010fc2321:0x12e9154c815cf007"}, {"place_id": "0x390d032c2d3b3a8b:0xa11af28cfafccfc4", "name": "Ivolwe Technologies", "category": "Software company", "street": "", "city": "", "phone": "08888852364", "website": "", "rating": 5, "review_count": "", "latitude": 21.0680074, "longitude": 82.7525294, "maps_url": "https://www.google.com/maps/place/?q=place_id:0x390d032c2d3b3a8b:0xa11af28cfafccfc4"}, {"place_id": "0x390d1b03afd847d1:0x3f8589776214e47b", "name": "Techbizz - IT Solutions", "category": "Software company", "street": "1st floor", "city": "Najafgarh Kapashera Rd", "phone": "08130622472", "website": "", "rating": 5, "review_count": "", "latitude": 28.5325596, "longitude": 77.0540195, "maps_url": "https://www.google.com/maps/place/?q=place_id:0x390d1b03afd847d1:0x3f8589776214e47b"}, {"place_id": "0x390d03a1f816a9a3:0xb3a11fbf3273e41a", "name": "Cyco ads", "category": "Software company", "street": "24/A 71 Road, Club Rd", "city": "Punjabi Bagh", "phone": "09971732071", "website": "http://cycoads.com/", "rating": 3.8, "review_count": "", "latitude": 28.6661179, "longitude": 77.12612539999999, "maps_url": "https://www.google.com/maps/place/?q=place_id:0x390d03a1f816a9a3:0xb3a11fbf3273e41a"}, {"place_id": "0x390d1bf7b99f3135:0x7b59ef65ff972e2", "name": "XB Software Development Company", "category": "Software company", "street": "Goma Plaza", "city": "E-512, Ramphal Chowk Rd", "phone": "08802878718", "website": "", "rating": 5, "review_count": "", "latitude": 28.586331899999998, "longitude": 77.0716807, "maps_url": "https://www.google.com/maps/place/?q=place_id:0x390d1bf7b99f3135:0x7b59ef65ff972e2"}, {"place_id": "0x390d03281871ef51:0x87d05ae5b85adc52", "name": "CRCIT INFOTECH PVT LTD", "category": "Software company", "street": "RZ B-4, Pankha Rd", "city": "opposite Janak Cinema Complex", "phone": "09599884630", "website": "", "rating": 4.9, "review_count": "", "latitude": 28.7321179, "longitude": 77.0297145, "maps_url": "https://www.google.com/maps/place/?q=place_id:0x390d03281871ef51:0x87d05ae5b85adc52"}, {"place_id": "0x390d038badcb29a7:0x7e6f90669c5096d2", "name": "MEDIA DESIGNS - Best Corporate Film Makers in Delhi, NCR I India", "category": "Video production service", "street": "A", "city": "Block, Near PVR", "phone": "09811090090", "website": "https://www.mediandesigns.com/", "rating": 4.6, "review_count": "", "latitude": 28.633445799999997, "longitude": 77.13805119999999, "maps_url": "https://www.google.com/maps/place/?q=place_id:0x390d038badcb29a7:0x7e6f90669c5096d2"}, {"place_id": "0x390ce15795555555:0x9bb8a801d00d7573", "name": "DreamSoft Infotech - Website Development Company in India", "category": "Software company", "street": "A-75 Third Floor", "city": "A Block, Sector 5", "phone": "01204380622", "website": "https://dreamsoftinfotech.com/", "rating": 3.4, "review_count": "", "latitude": 28.591018899999998, "longitude": 77.32201529999999, "maps_url": "https://www.google.com/maps/place/?q=place_id:0x390ce15795555555:0x9bb8a801d00d7573"}, {"place_id": "0x3be7c21b5901e181:0x7fe794585addc1f6", "name": "Smartinfologiks - Software Development Company in India | IT Solutions", "category": "Software company", "street": "Hilton Center", "city": "514", "phone": "07400064691", "website": "https://www.smartinfologiks.com/", "rating": 4.6, "review_count": "", "latitude": 19.0139592, "longitude": 73.0382705, "maps_url": "https://www.google.com/maps/place/?q=place_id:0x3be7c21b5901e181:0x7fe794585addc1f6"}, {"place_id": "0x390d030007235b33:0x5f8d1be95e3e5031", "name": "ENAPROS RESISTORS PRIVATE LIMITED DELHI", "category": "Manufacturer", "street": "231A", "city": "Block CB, Naraina Village, Naraina", "phone": "", "website": "", "rating": 5, "review_count": "", "latitude": 28.6242071, "longitude": 77.1332149, "maps_url": "https://www.google.com/maps/place/?q=place_id:0x390d030007235b33:0x5f8d1be95e3e5031"}, {"place_id": "0x390d04baa7b0c615:0x2ad47d69d0088e39", "name": "Logical Canvas Private Limited", "category": "Software company", "street": "110-D First Floor", "city": "West", "phone": "09582422605", "website": "http://www.logicalcanvas.com/", "rating": 4.8, "review_count": "", "latitude": 28.629441, "longitude": 77.082135, "maps_url": "https://www.google.com/maps/place/?q=place_id:0x390d04baa7b0c615:0x2ad47d69d0088e39"}, {"place_id": "0x390d0498e2f58521:0x1ab259bea2b6cfae", "name": "SAI Internet Marketing (India)", "category": "Website designer", "street": "2nd Floor, Commercial Complex", "city": "S-4 Unicom", "phone": "09999552353", "website": "https://www.saiinternetmarketing.com/", "rating": 4.6, "review_count": "", "latitude": 28.6291592, "longitude": 77.07780749999999, "maps_url": "https://www.google.com/maps/place/?q=place_id:0x390d0498e2f58521:0x1ab259bea2b6cfae"}, {"place_id": "0x390d1bb378fea377:0x6aec5aba720a0b26", "name": "CertHippo Solution Pvt. Ltd.", "category": "Educational testing service", "street": "RZ- 26 P/37", "city": "Gali Number 31A", "phone": "", "website": "https://certhippo.com/", "rating": 4.8, "review_count": "", "latitude": 28.596792299999997, "longitude": 77.0999558, "maps_url": "https://www.google.com/maps/place/?q=place_id:0x390d1bb378fea377:0x6aec5aba720a0b26"}, {"place_id": "0x390d034dd447bc8b:0xd9145dc2194a680a", "name": "OM ENGINEERING WORKS - Industrial Gearbox Manufacturer & Supplier in Delhi India", "category": "Industrial equipment supplier", "street": "C-203/1", "city": "Mayapuri Industrial Area Phase II, Mayapuri", "phone": "08860705952", "website": "https://www.omengineeringworks.in/", "rating": 5, "review_count": "", "latitude": 28.619373999999997, "longitude": 77.11752299999999, "maps_url": "https://www.google.com/maps/place/?q=place_id:0x390d034dd447bc8b:0xd9145dc2194a680a"}, {"place_id": "0x3bc2becdc35b6937:0x515ac559c349eee3", "name": "Thinkitive Technologies Private Limited", "category": "Software company", "street": "4th Floor", "city": "ABIL IMPERIAL COMMERCIAL SPACES", "phone": "08956467327", "website": "https://www.thinkitive.com/", "rating": 3.9, "review_count": "", "latitude": 18.5563888, "longitude": 73.7729748, "maps_url": "https://www.google.com/maps/place/?q=place_id:0x3bc2becdc35b6937:0x515ac559c349eee3"}, {"place_id": "0x390d04bf447aaaab:0xc9fc6fb41e7c6eb9", "name": "Web Bright Infra", "category": "Internet marketing service", "street": "DDA-2 Building", "city": "804", "phone": "08377007733", "website": "https://webbrightinfra.com/", "rating": 4.7, "review_count": "", "latitude": 28.6300907, "longitude": 77.0817272, "maps_url": "https://www.google.com/maps/place/?q=place_id:0x390d04bf447aaaab:0xc9fc6fb41e7c6eb9"}, {"place_id": "0x390d058ab757698b:0x3add85bfaab79547", "name": "Construction Company in Delhi", "category": "Real Estate Builders & Construction Company", "street": "Second Floor", "city": "J-Block", "phone": "07011527977", "website": "https://sites.google.com/view/sjconstructionindia", "rating": 5, "review_count": "", "latitude": 28.6434073, "longitude": 77.1000074, "maps_url": "https://www.google.com/maps/place/?q=place_id:0x390d058ab757698b:0x3add85bfaab79547"}, {"place_id": "0x390d033b15557d19:0x4f2b294acd1333", "name": "Editone international", "category": "Digital printing service", "street": "Phase -1", "city": "A-47", "phone": "09873031063", "website": "https://www.editoneinternational.com/", "rating": 4.5, "review_count": "", "latitude": 28.6347822, "longitude": 77.1375298, "maps_url": "https://www.google.com/maps/place/?q=place_id:0x390d033b15557d19:0x4f2b294acd1333"}, {"place_id": "0x390d0331fac80da7:0xd8c0f9aeab227ee8", "name": "Delta Luminaries", "category": "Lighting manufacturer", "street": "CB-230 B, Ring Road, Naraina", "city": "New Delhi, Delhi 110028", "phone": "09716838282", "website": "http://www.deltaluminaries.com/", "rating": 4.9, "review_count": "", "latitude": 28.624028799999998, "longitude": 77.1333884, "maps_url": "https://www.google.com/maps/place/?q=place_id:0x390d0331fac80da7:0xd8c0f9aeab227ee8"}, {"place_id": "0x390d053a2359d897:0x7ade773a38d4c83d", "name": "Code Diffusion", "category": "Website designer", "street": "302 Dda Building No 5", "city": "Janakpuri District Center, Janakpuri", "phone": "07827114607", "website": "http://codediffusion.in/", "rating": 4.2, "review_count": "", "latitude": 28.630287799999998, "longitude": 77.0817637, "maps_url": "https://www.google.com/maps/place/?q=place_id:0x390d053a2359d897:0x7ade773a38d4c83d"}, {"place_id": "0x390d1beab5f939a5:0xd07351c1e71e3065", "name": "WEBSITE DESIGNING COMPANY IN DELHI Nipl", "category": "Software company", "street": "j block", "city": "Rz 92/211, Gali No. 8", "phone": "09136336466", "website": "", "rating": "", "review_count": "", "latitude": 28.601472899999997, "longitude": 77.0896984, "maps_url": "https://www.google.com/maps/place/?q=place_id:0x390d1beab5f939a5:0xd07351c1e71e3065"}, {"place_id": "0x390d033b40000001:0xb482dab7f5cf34d", "name": "Germanium Technologies Limited", "category": "BPO Company", "street": "C-106/7", "city": "Industrial Area Phase I, Block C, Naraina Industrial Area Phase 1, Naraina", "phone": "01125807301", "website": "http://germaniumindia.com/", "rating": 4, "review_count": "", "latitude": 28.631273399999998, "longitude": 77.1355713, "maps_url": "https://www.google.com/maps/place/?q=place_id:0x390d033b40000001:0xb482dab7f5cf34d"}]}