[{"place_id": "ChIJEZi4U8HjDDkRyul3V2h5ouc", "name": "IT Company", "street": "A-14, near iskcon temple, Block A, APB Garhi, Vasant Vihar, New Delhi, Delhi 110065, India", "phone": "", "rating": "3", "review_count": "", "website": "http://www.opuswiz.com/", "latitude": 28.557167, "longitude": 77.25424819999999, "maps_url": "https://www.google.com/maps/search/?api=1&query=IT%20Company&query_place_id=ChIJEZi4U8HjDDkRyul3V2h5ouc"}, {"place_id": "ChIJM-ZDIOXiDDkRHNlL6nlN1D4", "name": "Wirecto", "street": "Triloki Colony, C-49, South Extension I, Mahaveer Nagar, Kotla Mubarakpur, New Delhi, Delhi 110003, India", "phone": "+91 97166 70074", "rating": "5", "review_count": "", "website": "https://wirecto.app/", "latitude": 28.575404799999998, "longitude": 77.2250054, "maps_url": "https://www.google.com/maps/search/?api=1&query=Wirecto&query_place_id=ChIJM-ZDIOXiDDkRHNlL6nlN1D4"}, {"place_id": "ChIJf0vgss3jDDkRXzr2g_p_rkM", "name": "GIBS (Global IT Business Solutions)", "street": "15A Basement, Golf Apartments, near Sujan Singh Park, Khan Market, Sujan Singh Park, New Delhi, Delhi 110003, India", "phone": "+91 98112 26600", "rating": "4.9", "review_count": "", "website": "https://gibsit.com/", "latitude": 28.5991413, "longitude": 77.2288398, "maps_url": "https://www.google.com/maps/search/?api=1&query=GIBS%20%28Global%20IT%20Business%20Solutions%29&query_place_id=ChIJf0vgss3jDDkRXzr2g_p_rkM"}, {"place_id": "ChIJVed5zP3lDDkR9k64UZLpnDA", "name": "Optyminds IT Solutions - Top AI and IT company I Best Digital agency in Noida | Delhi NCR | India", "street": "1st Floor, B-70, B Block, Sector 2, Noida, Uttar Pradesh 201301, India", "phone": "+91 89290 75975", "rating": "4.9", "review_count": "", "website": "https://optyminds.com/", "latitude": 28.584679599999998, "longitude": 77.3135042, "maps_url": "https://www.google.com/maps/search/?api=1&query=Optyminds%20IT%20Solutions%20-%20Top%20AI%20and%20IT%20company%20I%20Best%20Digital%20agency%20in%20Noida%20%7C%20Delhi%20NCR%20%7C%20India&query_place_id=ChIJVed5zP3lDDkR9k64UZLpnDA"}, {"place_id": "ChIJDy0R4sflDDkRyUltBtD1Wes", "name": "sitesbay", "street": "3rd floor, Pocket 4, Lodhi Complex, Lodhi Rd, Gokalpuri, Institutional Area, Lodi Colony, New Delhi, Delhi 110003, India", "phone": "+91 99995 95223", "rating": "5", "review_count": "", "website": "https://sitesbay.com/", "latitude": 28.59095, "longitude": 77.228079, "maps_url": "https://www.google.com/maps/search/?api=1&query=sitesbay&query_place_id=ChIJDy0R4sflDDkRyUltBtD1Wes"}, {"place_id": "ChIJSxsL19zvDDkRdRDEv1iqcu8", "name": "Devkant Infotech Solutions | Software Company in Noida | Top IT Company In Noida", "street": "office No. A, 1601 Nx One T3 Gaur Chowk, Plot No. 17, Tech Zone IV, Amrapali Dream Valley, Greater Noida, Uttar Pradesh 201318, India", "phone": "+91 74286 85050", "rating": "4.9", "review_count": "", "website": "https://dkinfotech.in/", "latitude": 28.601201399999997, "longitude": 77.4323665, "maps_url": "https://www.google.com/maps/search/?api=1&query=Devkant%20Infotech%20Solutions%20%7C%20Software%20Company%20in%20Noida%20%7C%20Top%20IT%20Company%20In%20Noida&query_place_id=ChIJSxsL19zvDDkRdRDEv1iqcu8"}, {"place_id": "ChIJdehDIOXiDDkRaJawDmmSY3M", "name": "Shri Karni Services", "street": "1479/30, top floor, netram complex, Kotla Mubarakpur, Wazir Nagar, Delhi, 110003, India", "phone": "+91 95990 39434", "rating": "4.3", "review_count": "", "website": "https://shrikarniservices.co.in/", "latitude": 28.589152, "longitude": 77.2326203, "maps_url": "https://www.google.com/maps/search/?api=1&query=Shri%20Karni%20Services&query_place_id=ChIJdehDIOXiDDkRaJawDmmSY3M"}, {"place_id": "ChIJcyHxpIYdDTkRYIJLb-pCazo", "name": "Softvanz Technologies Private Limited", "street": "Somdutt Chamber 1, BT-22/9, Bhikaji Cama Place, Rama Krishna Puram, New Delhi, Delhi 110066, India", "phone": "", "rating": "5", "review_count": "", "website": "https://softvanz.com/", "latitude": 28.567948899999998, "longitude": 77.1889269, "maps_url": "https://www.google.com/maps/search/?api=1&query=Softvanz%20Technologies%20Private%20Limited&query_place_id=ChIJcyHxpIYdDTkRYIJLb-pCazo"}, {"place_id": "ChIJC3MN3zb9DDkR-JxtEG9cQg0", "name": "I. T. Solutions", "street": "Gate No. 8, A-6, 1st Floor, Inner Circle, Above Post office, near ICICI Bank, Bon Ton and Metro, Connaught Place, New Delhi, Delhi 110001, India", "phone": "+91 11 4152 3242", "rating": "4.9", "review_count": "", "website": "http://www.itsolutioncp.com/", "latitude": 28.6324367, "longitude": 77.2183441, "maps_url": "https://www.google.com/maps/search/?api=1&query=I.%20T.%20Solutions&query_place_id=ChIJC3MN3zb9DDkR-JxtEG9cQg0"}, {"place_id": "ChIJtaZJfLbjDDkRxuKZ3O22nBw", "name": "AdOne Network Pvt Ltd", "street": "Web SEO India 1, Sujan Sing Park North, Sujan Singh Park, New Delhi, Delhi 110003, India", "phone": "+91 97176 81813", "rating": "4.7", "review_count": "", "website": "http://www.ad1.in/", "latitude": 28.6021972, "longitude": 77.22852259999999, "maps_url": "https://www.google.com/maps/search/?api=1&query=AdOne%20Network%20Pvt%20Ltd&query_place_id=ChIJtaZJfLbjDDkRxuKZ3O22nBw"}, {"place_id": "ChIJl5geAqLjDDkRGQx9atNSvyg", "name": "It Softtech - Website Designing and Development Company in Delhi, India", "street": "149, Ring Rd, opp. Maharani Bagh, Kilokri, Phase 1, Hari Nagar Ashram, New Delhi, Delhi 110014, India", "phone": "+91 98100 56177", "rating": "5", "review_count": "", "website": "", "latitude": 28.5763395, "longitude": 77.2640869, "maps_url": "https://www.google.com/maps/search/?api=1&query=It%20Softtech%20-%20Website%20Designing%20and%20Development%20Company%20in%20Delhi%2C%20India&query_place_id=ChIJl5geAqLjDDkRGQx9atNSvyg"}, {"place_id": "ChIJ-b1eOwDjDDkRy2_s4ej3ryY", "name": "RAPID COMPUTERS", "street": "D-102, Lodhi Rd, Gokalpuri, BK Dutt Colony, New Delhi, Delhi 110003, India", "phone": "", "rating": "5", "review_count": "", "website": "", "latitude": 28.591062599999997, "longitude": 77.2280791, "maps_url": "https://www.google.com/maps/search/?api=1&query=RAPID%20COMPUTERS&query_place_id=ChIJ-b1eOwDjDDkRy2_s4ej3ryY"}, {"place_id": "ChIJAQDQ-u_iDDkR7u2sogIHMnw", "name": "The Institution of Electronics and Telecommunication Engineers", "street": "2, Lodhi Rd, Gokalpuri, Institutional Area, Lodi Colony, New Delhi, Delhi 110003, India", "phone": "+91 90133 08142", "rating": "4.2", "review_count": "", "website": "", "latitude": 28.5905825, "longitude": 77.22834569999999, "maps_url": "https://www.google.com/maps/search/?api=1&query=The%20Institution%20of%20Electronics%20and%20Telecommunication%20Engineers&query_place_id=ChIJAQDQ-u_iDDkR7u2sogIHMnw"}, {"place_id": "ChIJFfnfMuviDDkRs9Qvc_bbq_g", "name": "Pulsar Pvt Ltd", "street": "20-D, Prithviraj Rd, South Avenue Lane Area, Tughlak Road Area, New Delhi, Delhi 110003, India", "phone": "", "rating": "4.3", "review_count": "", "website": "", "latitude": 28.5966852, "longitude": 77.21761029999999, "maps_url": "https://www.google.com/maps/search/?api=1&query=Pulsar%20Pvt%20Ltd&query_place_id=ChIJFfnfMuviDDkRs9Qvc_bbq_g"}, {"place_id": "ChIJFeXlTZkCDTkRNw2aQAO8CNk", "name": "Himalayan IT Solutions | Best Website Designing Company in Delhi | SEO/Digital Marketing Company in Delhi NCR, India", "street": "61/4255, Padam Singh Rd, Block 29, Block 1, Regar Pura, Karol Bagh, Delhi, 110005, India", "phone": "+91 98990 98509", "rating": "3.9", "review_count": "", "website": "http://www.himalayanitsolutions.com/", "latitude": 28.649673999999997, "longitude": 77.186599, "maps_url": "https://www.google.com/maps/search/?api=1&query=Himalayan%20IT%20Solutions%20%7C%20Best%20Website%20Designing%20Company%20in%20Delhi%20%7C%20SEO/Digital%20Marketing%20Company%20in%20Delhi%20NCR%2C%20India&query_place_id=ChIJFeXlTZkCDTkRNw2aQAO8CNk"}, {"place_id": "ChIJ7Wr1xKTtDzkR7MCP44eydyI", "name": "Dizivan IT Solutions Pvt Ltd- App Development & Digital Marketing Company", "street": "near Metro Station New Ashok Nagar, Block B, New Ashok Nagar, New Delhi, Delhi, 110096, India", "phone": "+91 91420 92979", "rating": "5", "review_count": "", "website": "https://dizivan.com/", "latitude": 28.5891575, "longitude": 77.3020624, "maps_url": "https://www.google.com/maps/search/?api=1&query=Dizivan%20IT%20Solutions%20Pvt%20Ltd-%20App%20Development%20%26%20Digital%20Marketing%20Company&query_place_id=ChIJ7Wr1xKTtDzkR7MCP44eydyI"}, {"place_id": "ChIJm_3YCUbkDDkR9hCWZycPaJw", "name": "Crestech Software", "street": "Plot No. D, Vyapar Marg, D Block, Sector 2, Noida, Uttar Pradesh 201301, India", "phone": "+91 88266 66755", "rating": "3.6", "review_count": "", "website": "https://www.crestechsoftware.com/", "latitude": 28.5836924, "longitude": 77.3166213, "maps_url": "https://www.google.com/maps/search/?api=1&query=Crestech%20Software&query_place_id=ChIJm_3YCUbkDDkR9hCWZycPaJw"}, {"place_id": "ChIJq6qqLpPjDDkRUjjZ4KrZCLM", "name": "Al Hadaf Technologies– ERP, CRM, HRM, Hospital, School, Billing Software Development Company in Delhi NCR", "street": "96, Gate No-2, opp. Escort Hospital, Sarai Jullena, Okhla, New Delhi, Delhi 110025, India", "phone": "+91 85869 72994", "rating": "4.9", "review_count": "", "website": "https://www.alhadaftech.com/", "latitude": 28.5562397, "longitude": 77.2762099, "maps_url": "https://www.google.com/maps/search/?api=1&query=Al%20Hadaf%20Technologies%E2%80%93%20ERP%2C%20CRM%2C%20HRM%2C%20Hospital%2C%20School%2C%20Billing%20Software%20Development%20Company%20in%20Delhi%20NCR&query_place_id=ChIJq6qqLpPjDDkRUjjZ4KrZCLM"}, {"place_id": "ChIJAQAAwLfjDDkRN9kC5Q7Y3UY", "name": "Amtrak Technologies Private Limited", "street": "6, Community Centre, East of Kailash, New Delhi, Delhi 110065, India", "phone": "+91 11 2644 8000", "rating": "4.4", "review_count": "", "website": "https://amtrak.co.in/", "latitude": 28.558434899999998, "longitude": 77.2463302, "maps_url": "https://www.google.com/maps/search/?api=1&query=Amtrak%20Technologies%20Private%20Limited&query_place_id=ChIJAQAAwLfjDDkRN9kC5Q7Y3UY"}, {"place_id": "ChIJJxEZLa38DDkRjqnAHiAFyIM", "name": "IT Nucleus", "street": "310, 3rd Floor, S-524, Aggarwal House Opp-Metro Pillar 27, School Block shakarpur, Laxmi Nagar, Delhi, 110092, India", "phone": "+91 11 4300 1828", "rating": "4.9", "review_count": "", "website": "http://www.itnucleus.com/", "latitude": 28.629542599999997, "longitude": 77.2766257, "maps_url": "https://www.google.com/maps/search/?api=1&query=IT%20Nucleus&query_place_id=ChIJJxEZLa38DDkRjqnAHiAFyIM"}, {"place_id": "ChIJ7xPJBtbjDDkRrSzrMVa9RtI", "name": "Delvetech", "street": "87A/1, 3rd Floor, Opp. Block N-115, G.K-1, Near Moolchand Merto, Block B, Zamrudpur, Greater Kailash, New Delhi, Delhi 110048, India", "phone": "+91 98738 95154", "rating": "4.1", "review_count": "", "website": "http://www.delvetech.co.in/", "latitude": 28.5570597, "longitude": 77.2356981, "maps_url": "https://www.google.com/maps/search/?api=1&query=Delvetech&query_place_id=ChIJ7xPJBtbjDDkRrSzrMVa9RtI"}, {"place_id": "ChIJz9fYoZPiDDkR53a0TjM66ww", "name": "Combine Company", "street": "35 A, Prithvi Raj Road, New Delhi, Delhi 110003, India", "phone": "+91 98101 11169", "rating": "4.4", "review_count": "", "website": "https://bestfituniversities.com/", "latitude": 28.592962699999998, "longitude": 77.21440319999999, "maps_url": "https://www.google.com/maps/search/?api=1&query=Combine%20Company&query_place_id=ChIJz9fYoZPiDDkR53a0TjM66ww"}, {"place_id": "ChIJyTIs3u3iDDkRXA7be3Pk0b0", "name": "WWF-India", "street": "Pirojsha Godrej Building, 172 B, Lodhi Rd, Lodhi Gardens, Lodhi Estate, New Delhi, Delhi 110003, India", "phone": "+91 11 4150 4814", "rating": "4.5", "review_count": "", "website": "http://www.wwfindia.org/", "latitude": 28.590964999999997, "longitude": 77.223072, "maps_url": "https://www.google.com/maps/search/?api=1&query=WWF-India&query_place_id=ChIJyTIs3u3iDDkRXA7be3Pk0b0"}, {"place_id": "ChIJjwRhzVvkDDkR910V9AJWal8", "name": "JK Technosoft Limited", "street": "F, 3, Block F, Noida Sector 3, Noida, Uttar Pradesh 201301, India", "phone": "+91 120 460 6300", "rating": "4.2", "review_count": "", "website": "https://jktech.com/", "latitude": 28.5802509, "longitude": 77.31793329999999, "maps_url": "https://www.google.com/maps/search/?api=1&query=JK%20Technosoft%20Limited&query_place_id=ChIJjwRhzVvkDDkR910V9AJWal8"}, {"place_id": "ChIJI2NmZaz8DDkRKum-I8wCXaA", "name": "Rexcel IT Services Pvt Ltd", "street": "D-15 1st Floor, D Block, Sector 6, Noida, Uttar Pradesh 201301, India", "phone": "+91 120 451 2529", "rating": "3.2", "review_count": "", "website": "http://www.rexcelitservices.com/", "latitude": 28.5938749, "longitude": 77.3188215, "maps_url": "https://www.google.com/maps/search/?api=1&query=Rexcel%20IT%20Services%20Pvt%20Ltd&query_place_id=ChIJI2NmZaz8DDkRKum-I8wCXaA"}, {"place_id": "ChIJ4___PwDjDDkRaecDhqKS2B0", "name": "Corporate Infotech Pvt Ltd.", "street": "E-81, E Block, Sector 6, Noida, Uttar Pradesh 201301, India", "phone": "+91 1800 11 6474", "rating": "4.4", "review_count": "", "website": "https://cipl.org.in/", "latitude": 28.5937284, "longitude": 77.3206974, "maps_url": "https://www.google.com/maps/search/?api=1&query=Corporate%20Infotech%20Pvt%20Ltd.&query_place_id=ChIJ4___PwDjDDkRaecDhqKS2B0"}, {"place_id": "ChIJW5OBLOziDDkRmDWw-hOUIh8", "name": "United Nations Development Programme (UNDP), India", "street": "55, Joseph Stein Lane, Lodhi Gardens, Lodhi Estate, New Delhi, Delhi 110003, India", "phone": "+91 11 4653 2333", "rating": "4.7", "review_count": "", "website": "https://www.undp.org/india", "latitude": 28.5925105, "longitude": 77.22290579999999, "maps_url": "https://www.google.com/maps/search/?api=1&query=United%20Nations%20Development%20Programme%20%28UNDP%29%2C%20India&query_place_id=ChIJW5OBLOziDDkRmDWw-hOUIh8"}, {"place_id": "ChIJM5vpNV7iDDkRzI9Om-arQ_Q", "name": "Synapse Valuetech Private Limited", "street": "Lower Ground Floor, 221, Kailash Hills, East of Kailash, New Delhi, Delhi 110065, India", "phone": "+91 11 4662 8882", "rating": "4.3", "review_count": "", "website": "https://www.synapsevaluetech.com/", "latitude": 28.558165, "longitude": 77.2592385, "maps_url": "https://www.google.com/maps/search/?api=1&query=Synapse%20Valuetech%20Private%20Limited&query_place_id=ChIJM5vpNV7iDDkRzI9Om-arQ_Q"}, {"place_id": "ChIJEbS1uZXjDDkRk2MVB7rDV5A", "name": "IntelliSmart Infrastructure Pvt. Ltd.", "street": "First Floor, Lodhi Rd, Pragati Vihar, New Delhi, Delhi 110003, India", "phone": "+91 124 471 0330", "rating": "4.2", "review_count": "", "website": "https://intellismartinfra.in/", "latitude": 28.586567, "longitude": 77.2307502, "maps_url": "https://www.google.com/maps/search/?api=1&query=IntelliSmart%20Infrastructure%20Pvt.%20Ltd.&query_place_id=ChIJEbS1uZXjDDkRk2MVB7rDV5A"}, {"place_id": "ChIJL7i0Y9rGFUIRZKmtphSoS3k", "name": "Asha Tech | Website Designing | App Development | IT Company in Delhi", "street": "no 2, 195, Lane No. 1, Westend Marg, near Saket Metro Gate, Saidulajab, Saket, Delhi 110030, India", "phone": "+91 75310 80874", "rating": "4.7", "review_count": "", "website": "https://ashatech.co.in/", "latitude": 28.519994099999998, "longitude": 77.2008791, "maps_url": "https://www.google.com/maps/search/?api=1&query=Asha%20Tech%20%7C%20Website%20Designing%20%7C%20App%20Development%20%7C%20IT%20Company%20in%20Delhi&query_place_id=ChIJL7i0Y9rGFUIRZKmtphSoS3k"}, {"place_id": "ChIJI8eBDIbjDDkRPmqowEMO9cU", "name": "Nextr Technology", "street": "2nd Floor, 1483/A-1, South Extension I, Wazir Nagar, New Delhi, Delhi 110003, India", "phone": "+91 99117 51575", "rating": "4.9", "review_count": "", "website": "http://www.nextr.in/", "latitude": 28.574374, "longitude": 77.224284, "maps_url": "https://www.google.com/maps/search/?api=1&query=Nextr%20Technology&query_place_id=ChIJI8eBDIbjDDkRPmqowEMO9cU"}, {"place_id": "ChIJ6wQV6c_jDDkR1yOSSVxsNFU", "name": "CCS Computers Private Limited", "street": "2nd-3rd Floor Skipper House, Nehru Place, New Delhi, Delhi 110019, India", "phone": "+91 11 2646 3959", "rating": "4", "review_count": "", "website": "http://www.ccscomputers.co.in/", "latitude": 28.550090599999997, "longitude": 77.2537834, "maps_url": "https://www.google.com/maps/search/?api=1&query=CCS%20Computers%20Private%20Limited&query_place_id=ChIJ6wQV6c_jDDkR1yOSSVxsNFU"}, {"place_id": "ChIJ8RCk2n3jDDkRXdUwh27dz98", "name": "Geoloide Private Limited", "street": "Level 10, Plot No. 18-20, HT House, KG Marg, New Delhi, Delhi 110001, India", "phone": "+91 94532 51501", "rating": "5", "review_count": "", "website": "http://geoloide.com/", "latitude": 28.6229867, "longitude": 77.22526669999999, "maps_url": "https://www.google.com/maps/search/?api=1&query=Geoloide%20Private%20Limited&query_place_id=ChIJ8RCk2n3jDDkRXdUwh27dz98"}, {"place_id": "ChIJX-4MRtvjDDkRD6RWqtTopkc", "name": "Injoria Technologies: Website, Custome Software, Mobile Apps Development company", "street": "Second Floor, Pandav Nagar Complex, C - 40, Block C, Ganesh Nagar, Delhi, 110092, India", "phone": "+91 99111 77045", "rating": "4.5", "review_count": "", "website": "", "latitude": 28.6215884, "longitude": 77.2842872, "maps_url": "https://www.google.com/maps/search/?api=1&query=Injoria%20Technologies%3A%20Website%2C%20Custome%20Software%2C%20Mobile%20Apps%20Development%20company&query_place_id=ChIJX-4MRtvjDDkRD6RWqtTopkc"}, {"place_id": "ChIJcesdOTX9DDkRtlHcx4gT3ds", "name": "Jak Software Pvt Ltd", "street": "52 Janpath, New Delhi, Delhi 110001, India", "phone": "+91 78272 49056", "rating": "4.4", "review_count": "", "website": "http://www.jaksoftware.co.in/", "latitude": 28.627537999999998, "longitude": 77.21878989999999, "maps_url": "https://www.google.com/maps/search/?api=1&query=Jak%20Software%20Pvt%20Ltd&query_place_id=ChIJcesdOTX9DDkRtlHcx4gT3ds"}, {"place_id": "ChIJnUZD77TjDDkR7BFVX8Ye2tM", "name": "Pointer Soft | Website Designing Company Delhi", "street": "321, harinagar, ashram, NH-19, Zakir Nagar, New Friends Colony, New Delhi, Delhi 110025, India", "phone": "+91 99587 68130", "rating": "4.6", "review_count": "", "website": "http://www.pointersoft.in/", "latitude": 28.571133999999997, "longitude": 77.2796537, "maps_url": "https://www.google.com/maps/search/?api=1&query=Pointer%20Soft%20%7C%20Website%20Designing%20Company%20Delhi&query_place_id=ChIJnUZD77TjDDkR7BFVX8Ye2tM"}, {"place_id": "ChIJO6wMd3LiDDkRkOa6Hh0J2yQ", "name": "TERI - The Energy and Resources Institute", "street": "6C, Darbari Seth Block, Lodhi Rd, Institutional Area, Lodi Colony, New Delhi, Delhi 110003, India", "phone": "+91 11 2468 2100", "rating": "4.5", "review_count": "", "website": "http://www.teriin.org/", "latitude": 28.5900462, "longitude": 77.22506729999999, "maps_url": "https://www.google.com/maps/search/?api=1&query=TERI%20-%20The%20Energy%20and%20Resources%20Institute&query_place_id=ChIJO6wMd3LiDDkRkOa6Hh0J2yQ"}, {"place_id": "ChIJSwAK01XiDDkReuYSLHV-3fo", "name": "UN Women India Country Office", "street": "UN House, 55, Lodhi Estate, New Delhi, Delhi 110003, India", "phone": "+91 11 4653 2250", "rating": "4.6", "review_count": "", "website": "http://asiapacific.unwomen.org/en/countries/india", "latitude": 28.592582, "longitude": 77.22293859999999, "maps_url": "https://www.google.com/maps/search/?api=1&query=UN%20Women%20India%20Country%20Office&query_place_id=ChIJSwAK01XiDDkReuYSLHV-3fo"}, {"place_id": "ChIJ34XxPQjjDDkRyo_prAe88M8", "name": "Dwitty & Company", "street": "B-109, Block D, Jangpura B, New Delhi, Delhi 110014, India", "phone": "+91 70112 73521", "rating": "5", "review_count": "", "website": "", "latitude": 28.581945599999997, "longitude": 77.2534653, "maps_url": "https://www.google.com/maps/search/?api=1&query=Dwitty%20%26%20Company&query_place_id=ChIJ34XxPQjjDDkRyo_prAe88M8"}, {"place_id": "ChIJw6pgkz_jDDkRPeSRZHaNSnI", "name": "JAIHO777 Partner Center", "street": "ABC Business Hub, 101, ABC Business Hub, Connaught Place, New Delhi, India 101, Connaught Place, Delhi 110003, India", "phone": "+91 82839 86753", "rating": "3.7", "review_count": "", "website": "http://jaiho777.com/6723", "latitude": 28.5943428, "longitude": 77.2240104, "maps_url": "https://www.google.com/maps/search/?api=1&query=JAIHO777%20Partner%20Center&query_place_id=ChIJw6pgkz_jDDkRPeSRZHaNSnI"}, {"place_id": "ChIJi_vHEvDkDDkRjZ2InK9Enfo", "name": "ITDOSE INFOSYSTEMS", "street": "G-19, G Block, Sector 6, Noida, Uttar Pradesh 201301, India", "phone": "+91 99999 16974", "rating": "4", "review_count": "", "website": "https://www.itdoseinfo.com/", "latitude": 28.595574, "longitude": 77.32037009999999, "maps_url": "https://www.google.com/maps/search/?api=1&query=ITDOSE%20INFOSYSTEMS&query_place_id=ChIJi_vHEvDkDDkRjZ2InK9Enfo"}, {"place_id": "ChIJleobg1vkDDkRyWUNRfvc9qQ", "name": "RMSI Private Limited", "street": "A-7/8, A Block, Sector 16, Noida, Uttar Pradesh 201301, India", "phone": "+91 120 251 1102", "rating": "4", "review_count": "", "website": "https://www.rmsi.com/", "latitude": 28.5784906, "longitude": 77.3159013, "maps_url": "https://www.google.com/maps/search/?api=1&query=RMSI%20Private%20Limited&query_place_id=ChIJleobg1vkDDkRyWUNRfvc9qQ"}, {"place_id": "ChIJy_nD7P3iDDkRLSylYwQTSYo", "name": "CSC E-Governance Services India Limited", "street": "3rd floor, Electronic Niketan, 6, Lodhi Rd, Gokalpuri, CGO Complex, Pragati Vihar, New Delhi, Delhi 110003, India", "phone": "+91 99990 01989", "rating": "3.1", "review_count": "", "website": "http://cscegs.in/", "latitude": 28.590956799999997, "longitude": 77.22800289999999, "maps_url": "https://www.google.com/maps/search/?api=1&query=CSC%20E-Governance%20Services%20India%20Limited&query_place_id=ChIJy_nD7P3iDDkRLSylYwQTSYo"}, {"place_id": "ChIJ3TWD_u_iDDkRchTZh74XSZM", "name": "National Productivity Council", "street": "Utpadakta Bhavan, 5 6, Lodhi Rd, Gokalpuri, Institutional Area, Lodi Colony, New Delhi, Delhi 110003, India", "phone": "+91 11 2469 0316", "rating": "4.7", "review_count": "", "website": "https://www.npcindia.gov.in/NPC/User/index", "latitude": 28.5903375, "longitude": 77.2288018, "maps_url": "https://www.google.com/maps/search/?api=1&query=National%20Productivity%20Council&query_place_id=ChIJ3TWD_u_iDDkRchTZh74XSZM"}, {"place_id": "ChIJMeuieejiDDkRJtlRONC8WJY", "name": "INFOMERICS Valuation and Rating Limited", "street": "Flat 104-108 Floor, Golf Apartments, Maharshi Raman Marg, Sujan Singh Park, New Delhi, Delhi 110003, India", "phone": "+91 11 2465 4796", "rating": "4.7", "review_count": "", "website": "https://www.infomerics.com/", "latitude": 28.5991413, "longitude": 77.2288398, "maps_url": "https://www.google.com/maps/search/?api=1&query=INFOMERICS%20Valuation%20and%20Rating%20Limited&query_place_id=ChIJMeuieejiDDkRJtlRONC8WJY"}, {"place_id": "ChIJL6Sj4lnkDDkRciwMCULgot0", "name": "InfiCare Technologies Pvt. Ltd", "street": "D-92 Second/Third floor, Sector 2, Noida, Uttar Pradesh 201301, India", "phone": "+91 97112 65591", "rating": "3.8", "review_count": "", "website": "http://www.inficaretech.com/", "latitude": 28.582936099999998, "longitude": 77.3175146, "maps_url": "https://www.google.com/maps/search/?api=1&query=InfiCare%20Technologies%20Pvt.%20Ltd&query_place_id=ChIJL6Sj4lnkDDkRciwMCULgot0"}, {"place_id": "ChIJHW8Ru-jiDDkRoJg7_MSmyrU", "name": "Unique Trip Maker", "street": "21, Lodhi Estate, New Delhi, Delhi 110003, India", "phone": "+91 88606 70640", "rating": "4.7", "review_count": "", "website": "http://uniquetripmaker.com/", "latitude": 28.59668, "longitude": 77.22818099999999, "maps_url": "https://www.google.com/maps/search/?api=1&query=Unique%20Trip%20Maker&query_place_id=ChIJHW8Ru-jiDDkRoJg7_MSmyrU"}, {"place_id": "ChIJ09dzOpECDTkR6WW6pUyzKU4", "name": "Institute of Company Secretaries of India", "street": "ICSI HOUSE, 22, Lodhi Rd, Gokalpuri, Institutional Area, Lodi Colony, New Delhi, Delhi 110003, India", "phone": "+91 120 452 2000", "rating": "4.4", "review_count": "", "website": "http://www.icsi.edu/", "latitude": 28.5888489, "longitude": 77.2282889, "maps_url": "https://www.google.com/maps/search/?api=1&query=Institute%20of%20Company%20Secretaries%20of%20India&query_place_id=ChIJ09dzOpECDTkR6WW6pUyzKU4"}, {"place_id": "ChIJLxIvL-ziDDkRUnVOsyz9hbM", "name": "United Nations Population Fund", "street": "55, Lodhi Estate, Lodhi Road, New Delhi, Delhi 110003, India", "phone": "+91 11 4653 2224", "rating": "4.8", "review_count": "", "website": "https://www.unfpa.org/", "latitude": 28.5926103, "longitude": 77.22316289999999, "maps_url": "https://www.google.com/maps/search/?api=1&query=United%20Nations%20Population%20Fund&query_place_id=ChIJLxIvL-ziDDkRUnVOsyz9hbM"}, {"place_id": "ChIJ76qqOprjDDkRsAnu5xyCV8o", "name": "Smart IT Technologies", "street": "Saroj Sadan, 100, Block C, New Friends Colony, New Delhi, Delhi 110025, India", "phone": "+91 88402 74824", "rating": "5", "review_count": "", "website": "https://smartittechnologies.com/", "latitude": 28.5697218, "longitude": 77.2680354, "maps_url": "https://www.google.com/maps/search/?api=1&query=Smart%20IT%20Technologies&query_place_id=ChIJ76qqOprjDDkRsAnu5xyCV8o"}, {"place_id": "ChIJqf6gXDX9DDkRz71t7_HgKx8", "name": "Vayam Technologies Ltd.", "street": "Thapar House, 124, Janpath Ln, Janpath, Connaught Place, New Delhi, Delhi 110001, India", "phone": "+91 11 4710 1200", "rating": "3.8", "review_count": "", "website": "https://www.vayamtech.com/", "latitude": 28.624508, "longitude": 77.21805499999999, "maps_url": "https://www.google.com/maps/search/?api=1&query=Vayam%20Technologies%20Ltd.&query_place_id=ChIJqf6gXDX9DDkRz71t7_HgKx8"}, {"place_id": "ChIJZZ_5ljP9DDkRFc56Bn8Uf9k", "name": "Shilpi Computers Private Limited", "street": "501-502, 7, Tolstoy Rd, New Delhi, Delhi 110001, India", "phone": "+91 11 4350 0600", "rating": "3.9", "review_count": "", "website": "https://shilpisoft.com/", "latitude": 28.627693899999997, "longitude": 77.2244393, "maps_url": "https://www.google.com/maps/search/?api=1&query=Shilpi%20Computers%20Private%20Limited&query_place_id=ChIJZZ_5ljP9DDkRFc56Bn8Uf9k"}, {"place_id": "ChIJ5yf0_k7kDDkRXvYZJVIQCk0", "name": "Omnie Solutions (I) Pvt Ltd", "street": "D-108, Sector 2, D Block, Sector 2, Noida, Uttar Pradesh 201301, India", "phone": "+91 92667 54671", "rating": "3.4", "review_count": "", "website": "https://www.omniesolutions.com/", "latitude": 28.583485, "longitude": 77.316155, "maps_url": "https://www.google.com/maps/search/?api=1&query=Omnie%20Solutions%20%28I%29%20Pvt%20Ltd&query_place_id=ChIJ5yf0_k7kDDkRXvYZJVIQCk0"}, {"place_id": "ChIJA-OJQs_7DDkR8uTuXHr_Puk", "name": "Cloudprisma", "street": "A-44,1st Floor, Sector 10, Noida, Uttar Pradesh 201301, India", "phone": "+91 88269 14880", "rating": "4.7", "review_count": "", "website": "http://www.cloudprisma.io/#/", "latitude": 28.5875788, "longitude": 77.330338, "maps_url": "https://www.google.com/maps/search/?api=1&query=Cloudprisma&query_place_id=ChIJA-OJQs_7DDkR8uTuXHr_Puk"}, {"place_id": "ChIJqVU497QZDTkRnpBWMDnlMeA", "name": "The Institute of Cost Accountants of India (NIRC OF ICMAI)", "street": "CMA BHAWAN, 3, Lodhi Rd, Gokalpuri, Institutional Area, Lodi Colony, New Delhi, Delhi 110003, India", "phone": "+91 11 2466 6133", "rating": "4.5", "review_count": "", "website": "http://nirc-icmai.in/", "latitude": 28.5906864, "longitude": 77.2283051, "maps_url": "https://www.google.com/maps/search/?api=1&query=The%20Institute%20of%20Cost%20Accountants%20of%20India%20%28NIRC%20OF%20ICMAI%29&query_place_id=ChIJqVU497QZDTkRnpBWMDnlMeA"}, {"place_id": "ChIJq6qqavziDDkRuk0JV1rplPI", "name": "Castrol India Limited", "street": "5th Floor, East Tower Nbcc Place, Pragati Vihar, B P Marg, Kotla Mubarakpur, Kotla Mubarakpur, New Delhi, Delhi 110003, India", "phone": "+91 11 2436 5025", "rating": "4.3", "review_count": "", "website": "http://www.castrol.com/", "latitude": 28.586782799999998, "longitude": 77.2311509, "maps_url": "https://www.google.com/maps/search/?api=1&query=Castrol%20India%20Limited&query_place_id=ChIJq6qqavziDDkRuk0JV1rplPI"}, {"place_id": "ChIJEyVQAlnkDDkRBG1GryF7pkM", "name": "RV Solutions Private Limited", "street": "D-72, D Block, Sector 2, Noida, Uttar Pradesh 201301, India", "phone": "+91 120 474 4000", "rating": "3.9", "review_count": "", "website": "https://www.rvsolutions.in/", "latitude": 28.5837109, "longitude": 77.3177917, "maps_url": "https://www.google.com/maps/search/?api=1&query=RV%20Solutions%20Private%20Limited&query_place_id=ChIJEyVQAlnkDDkRBG1GryF7pkM"}, {"place_id": "ChIJEVfwte3iDDkRAIOm6TXhCjs", "name": "India International Centre", "street": "40, Max Mueller Marg, Lodhi Gardens, Lodhi Estate, New Delhi, Delhi 110003, India", "phone": "+91 11 2460 9499", "rating": "4.6", "review_count": "", "website": "https://iicdelhi.in/", "latitude": 28.5936083, "longitude": 77.2227395, "maps_url": "https://www.google.com/maps/search/?api=1&query=India%20International%20Centre&query_place_id=ChIJEVfwte3iDDkRAIOm6TXhCjs"}, {"place_id": "ChIJdehDIOXiDDkR3iPQShje6_0", "name": "Tribals Placement Service", "street": "A-7, Bapu Park, Near Dda Park, Kumhar Gali, Kotla Mubarakpur, Central Delhi, Delhi 110003, India", "phone": "+91 11 2464 2369", "rating": "4.8", "review_count": "", "website": "http://tribalsplacementservice.com/", "latitude": 28.5916468, "longitude": 77.23178639999999, "maps_url": "https://www.google.com/maps/search/?api=1&query=Tribals%20Placement%20Service&query_place_id=ChIJdehDIOXiDDkR3iPQShje6_0"}, {"place_id": "ChIJVVVVJVrkDDkRpzSlu5B0ooM", "name": "Parangat Technologies", "street": "", "phone": "+91 87002 13345", "rating": "4.1", "review_count": "", "website": "https://www.parangat.com/", "latitude": 9.374110199999999, "longitude": -74.9524576, "maps_url": "https://www.google.com/maps/search/?api=1&query=Parangat%20Technologies&query_place_id=ChIJVVVVJVrkDDkRpzSlu5B0ooM"}, {"place_id": "ChIJnSs9bl_iDDkRm_Ull_yg81c", "name": "YATRA POINT TOURISM COMPANY INDIA", "street": "OFFICE NO-7, BULDING NO N-1, LGF, 4, near BANSALI JEWLLERS L, South Extension I, New Delhi, Delhi 110003, India", "phone": "+91 88600 16982", "rating": "4.9", "review_count": "", "website": "", "latitude": 28.574078, "longitude": 77.219089, "maps_url": "https://www.google.com/maps/search/?api=1&query=YATRA%20POINT%20TOURISM%20COMPANY%20INDIA&query_place_id=ChIJnSs9bl_iDDkRm_Ull_yg81c"}, {"place_id": "ChIJZRaY6bXjDDkRPL7VkG-R024", "name": "Netsoft Consulting Services", "street": "24, IInd Floor, Community Center, East Of Kailash, behind Sapna Cinema, New Delhi, Delhi 110065, India", "phone": "+91 11 4533 0000", "rating": "3.5", "review_count": "", "website": "https://netsoftit.com/contact-us/", "latitude": 28.5583678, "longitude": 77.24568579999999, "maps_url": "https://www.google.com/maps/search/?api=1&query=Netsoft%20Consulting%20Services&query_place_id=ChIJZRaY6bXjDDkRPL7VkG-R024"}, {"place_id": "ChIJ9YGkfqT9DDkR58_QwouPd0k", "name": "Pro Innovative Software", "street": "104 Wadhwa complex Laxmi Nagy near metro station gate, Gali No. 1, Delhi, 110092, India", "phone": "+91 97172 74866", "rating": "5", "review_count": "", "website": "http://proinnovativesoftware.com/", "latitude": 28.631063599999997, "longitude": 77.2774999, "maps_url": "https://www.google.com/maps/search/?api=1&query=Pro%20Innovative%20Software&query_place_id=ChIJ9YGkfqT9DDkR58_QwouPd0k"}, {"place_id": "ChIJ_Q_2B13jDDkRIs-047Dg63w", "name": "CTC cabs", "street": "Lodhi Rd, Old Prem Nagar, Block M, Lodi Colony, New Delhi, Delhi 110003, India", "phone": "", "rating": "5", "review_count": "", "website": "", "latitude": 28.590256, "longitude": 77.2235999, "maps_url": "https://www.google.com/maps/search/?api=1&query=CTC%20cabs&query_place_id=ChIJ_Q_2B13jDDkRIs-047Dg63w"}, {"place_id": "ChIJIZW4JJrjDDkRqQX9KF5siG4", "name": "Cloude Data Delhi | Best Cloud Service Provider company in India", "street": "First Floor, A 212, Okhla Phase 3 Rd, near by hdfc bank, Okhla Phase III, Okhla Industrial Estate, New Delhi, Delhi 110020, India", "phone": "+91 88823 53612", "rating": "4.7", "review_count": "", "website": "https://cloudedata.com/", "latitude": 28.548515, "longitude": 77.2712834, "maps_url": "https://www.google.com/maps/search/?api=1&query=Cloude%20Data%20Delhi%20%7C%20Best%20Cloud%20Service%20Provider%20company%20in%20India&query_place_id=ChIJIZW4JJrjDDkRqQX9KF5siG4"}, {"place_id": "ChIJyy8sye3iDDkRCwprkgrGyC0", "name": "Alliance Française de Delhi", "street": "72, KK Birla Ln, Lodhi Gardens, Lodhi Estate, New Delhi, Delhi 110003, India", "phone": "+91 98735 15610", "rating": "4.2", "review_count": "", "website": "http://afdelhi.org/", "latitude": 28.591751, "longitude": 77.2225651, "maps_url": "https://www.google.com/maps/search/?api=1&query=Alliance%20Fran%C3%A7aise%20de%20Delhi&query_place_id=ChIJyy8sye3iDDkRCwprkgrGyC0"}, {"place_id": "ChIJeyNxM9EdDTkRhfmLU4ck880", "name": "Bhajan Global Impact Foundation", "street": "135, Golf Links, New Delhi, Delhi 110003, India", "phone": "", "rating": "4.7", "review_count": "", "website": "http://bhajanfoundation.org/", "latitude": 28.5926524, "longitude": 77.23036809999999, "maps_url": "https://www.google.com/maps/search/?api=1&query=Bhajan%20Global%20Impact%20Foundation&query_place_id=ChIJeyNxM9EdDTkRhfmLU4ck880"}, {"place_id": "ChIJUXDcFB3jDDkRYjzQDRKiN8M", "name": "NBCC Bhawan", "street": "H6RP+PMV, NBCC Bhawan, Lodhi Rd, New Delhi, Delhi 110003, India", "phone": "+91 11 2436 7314", "rating": "4.3", "review_count": "", "website": "http://www.nbccindia.com/", "latitude": 28.5918663, "longitude": 77.23666999999999, "maps_url": "https://www.google.com/maps/search/?api=1&query=NBCC%20Bhawan&query_place_id=ChIJUXDcFB3jDDkRYjzQDRKiN8M"}, {"place_id": "ChIJGVzLMPrjDDkRVN2xjf7DucI", "name": "KIREN SMART SERVICES", "street": "D-196, New, G/F, Lajpat Nagar I, Lajpat Nagar, New Delhi, Delhi 110024, India", "phone": "+91 98739 07360", "rating": "4.1", "review_count": "", "website": "https://kirensmartservices.com/", "latitude": 28.5785903, "longitude": 77.2423422, "maps_url": "https://www.google.com/maps/search/?api=1&query=KIREN%20SMART%20SERVICES&query_place_id=ChIJGVzLMPrjDDkRVN2xjf7DucI"}, {"place_id": "ChIJISP8EAAbDTkRB_BcgUwV6RI", "name": "Prashant Dwivedi IT company", "street": "G3P5+GVC, Nayak Pura, Bijwasan, Delhi, 110061, India", "phone": "", "rating": "", "review_count": "", "website": "", "latitude": 28.536316, "longitude": 77.059649, "maps_url": "https://www.google.com/maps/search/?api=1&query=Prashant%20Dwivedi%20IT%20company&query_place_id=ChIJISP8EAAbDTkRB_BcgUwV6RI"}]