[{"place_id": "ChIJpySzDeD8YjkRnOV9ReOkv-A", "name": "Yuvasoft Solutions Private Limited", "street": "Pukhraj Corporate, 715&801, near होटल प्रशांत, Maa Durga Nagar, Navlakha, Indore, Madhya Pradesh 452001, India", "phone": "+91 731 408 9013", "rating": "4.1", "review_count": "", "website": "http://www.yuvasoftech.com/", "latitude": 22.7007954, "longitude": 75.87572469999999, "maps_url": "https://www.google.com/maps/search/?api=1&query=Yuvasoft%20Solutions%20Private%20Limited&query_place_id=ChIJpySzDeD8YjkRnOV9ReOkv-A"}, {"place_id": "ChIJ6dR1xeL8YjkR9zQKs7qghg0", "name": "Sixth Sense I T Solutions", "street": "Pukhraj Corporate, 403, Navlakha, Indore, Madhya Pradesh 452001, India", "phone": "+91 96173 50006", "rating": "3.9", "review_count": "", "website": "https://www.sixthsenseit.com/", "latitude": 22.7004406, "longitude": 75.8758903, "maps_url": "https://www.google.com/maps/search/?api=1&query=Sixth%20Sense%20I%20T%20Solutions&query_place_id=ChIJ6dR1xeL8YjkR9zQKs7qghg0"}, {"place_id": "ChIJNe5TxRn9YjkR1mAwULLtTHY", "name": "ThinkDebug Indore", "street": "301,302, Shanti Corporate 116, near Lotus, Snehnagar, Indore, Madhya Pradesh 452001, India", "phone": "+91 90980 02268", "rating": "4.9", "review_count": "", "website": "https://thinkdebug.com/", "latitude": 22.702656299999997, "longitude": 75.87068699999999, "maps_url": "https://www.google.com/maps/search/?api=1&query=ThinkDebug%20Indore&query_place_id=ChIJNe5TxRn9YjkR1mAwULLtTHY"}, {"place_id": "ChIJ95zkoeD8YjkRiIETOkn4KYM", "name": "Zanjo IT Solutions Pvt. Ltd.", "street": "UG3 Highway Tower, AB Rd, Navlakha, Indore, Madhya Pradesh 452001, India", "phone": "", "rating": "4.2", "review_count": "", "website": "http://zanjo.io/", "latitude": 22.6969177, "longitude": 75.8761049, "maps_url": "https://www.google.com/maps/search/?api=1&query=Zanjo%20IT%20Solutions%20Pvt.%20Ltd.&query_place_id=ChIJ95zkoeD8YjkRiIETOkn4KYM"}, {"place_id": "ChIJxWGUB-L8YjkRNJC3IyYytMQ", "name": "GlobalStack IT Solutions", "street": "Vikram Tower, 408,, Sapna Sangeeta Rd, Agarwal Nagar, Old Agarwal Nagar, Indore, Madhya Pradesh 452001, India", "phone": "", "rating": "4.9", "review_count": "", "website": "", "latitude": 22.7011969, "longitude": 75.8702004, "maps_url": "https://www.google.com/maps/search/?api=1&query=GlobalStack%20IT%20Solutions&query_place_id=ChIJxWGUB-L8YjkRNJC3IyYytMQ"}, {"place_id": "ChIJd8zCPbn9YjkRa-a2qgd-kd4", "name": "MindProve Technologies Pvt Ltd", "street": "4th Floor, Infront of, Metro Pride 6, Bus stand, 401, Janki Nagar Ave, Angad Kapoor Region, Mohan Nagar, Navlakha, Indore, Madhya Pradesh 452001, India", "phone": "+91 82486 57899", "rating": "5", "review_count": "", "website": "http://www.mindprovetech.com/", "latitude": 22.6995547, "longitude": 75.8767463, "maps_url": "https://www.google.com/maps/search/?api=1&query=MindProve%20Technologies%20Pvt%20Ltd&query_place_id=ChIJd8zCPbn9YjkRa-a2qgd-kd4"}, {"place_id": "ChIJb4aLxrTiYjkRGoE3OXwQbPY", "name": "Immersive - Software Development Company | Hire Developers - PHP, JAVA, .Net, Python, Node JS, Blockchain", "street": "604, Atulya IT Park, Bhawarkua Main Rd, next to Crystal IT Park, Khandwa Naka, Indore, Madhya Pradesh 452001, India", "phone": "+91 80 6218 0491", "rating": "4.7", "review_count": "", "website": "https://www.immersiveinfotech.com/", "latitude": 22.686739499999998, "longitude": 75.8712315, "maps_url": "https://www.google.com/maps/search/?api=1&query=Immersive%20-%20Software%20Development%20Company%20%7C%20Hire%20Developers%20-%20PHP%2C%20JAVA%2C%20.Net%2C%20Python%2C%20Node%20JS%2C%20Blockchain&query_place_id=ChIJb4aLxrTiYjkRGoE3OXwQbPY"}, {"place_id": "ChIJJbnmvuD8YjkRfTa_W29Jdmo", "name": "Unique Web World Pvt. Ltd - Digital Marketing & Website Design Development Company Indore", "street": "112 1st floor, Shakuntala Complex, AB Rd, Angad Kapoor Region, Navlakha, Indore, Madhya Pradesh 452001, India", "phone": "+91 98934 69602", "rating": "5", "review_count": "", "website": "http://www.uniquewebworld.com/", "latitude": 22.697170399999997, "longitude": 75.8754319, "maps_url": "https://www.google.com/maps/search/?api=1&query=Unique%20Web%20World%20Pvt.%20Ltd%20-%20Digital%20Marketing%20%26%20Website%20Design%20Development%20Company%20Indore&query_place_id=ChIJJbnmvuD8YjkRfTa_W29Jdmo"}, {"place_id": "ChIJBa__YUr9YjkRHdGJDSr5j8A", "name": "Top Custom Software Development Company | AI, IoT & IT Solutions – Hiteshi", "street": "8th Floor Crystal IT Park, Madhya Pradesh 452001, India", "phone": "+91 731 297 1133", "rating": "3.6", "review_count": "", "website": "https://www.hiteshi.com/", "latitude": 22.685651999999997, "longitude": 75.872211, "maps_url": "https://www.google.com/maps/search/?api=1&query=Top%20Custom%20Software%20Development%20Company%20%7C%20AI%2C%20IoT%20%26%20IT%20Solutions%20%E2%80%93%20Hiteshi&query_place_id=ChIJBa__YUr9YjkRHdGJDSr5j8A"}, {"place_id": "ChIJea1ZMVH9YjkRwvcWuFy8TaM", "name": "NavTark Solutions Pvt. Ltd.", "street": "805, Pukhraj Corporate, Navlakha, Indore, Madhya Pradesh 452001, India", "phone": "+91 96699 88687", "rating": "5", "review_count": "", "website": "http://navtark.com/", "latitude": 22.700659299999998, "longitude": 75.8758989, "maps_url": "https://www.google.com/maps/search/?api=1&query=NavTark%20Solutions%20Pvt.%20Ltd.&query_place_id=ChIJea1ZMVH9YjkRwvcWuFy8TaM"}, {"place_id": "ChIJsQOUlsb9YjkRUMKZIshGBt4", "name": "IT Spark Technology Pvt. Ltd.", "street": "4th Floor 418 Shekhar Central Manoramaganj, New Palasia, Indore, Madhya Pradesh 452001, India", "phone": "+91 91098 45654", "rating": "4.8", "review_count": "", "website": "http://www.itsparktechnology.com/", "latitude": 22.722727, "longitude": 75.88707099999999, "maps_url": "https://www.google.com/maps/search/?api=1&query=IT%20Spark%20Technology%20Pvt.%20Ltd.&query_place_id=ChIJsQOUlsb9YjkRUMKZIshGBt4"}, {"place_id": "ChIJZ9AclST9YjkRwsiTXQMg8F4", "name": "ONE TOUCH SOLUTION", "street": "Shop No. G-2, Prashant Hotel, Bus Stand, 4, Navlakha Rd, opp. Navlakha, Khandelwal Nagar, Prakash Nagar, Indore, Madhya Pradesh 452001, India", "phone": "+91 99260 99939", "rating": "4.9", "review_count": "", "website": "http://onetouchsolution.ind.in/", "latitude": 22.6975013, "longitude": 75.87901839999999, "maps_url": "https://www.google.com/maps/search/?api=1&query=ONE%20TOUCH%20SOLUTION&query_place_id=ChIJZ9AclST9YjkRwsiTXQMg8F4"}, {"place_id": "ChIJhwOXvhb9YjkRp_nk8EPzN8c", "name": "Top Software Development Company in USA | AI/ML | AI Agent | Gen AI | UXUI | Product Development", "street": "Crystal IT Park STP-1, 4th Floor Right Wing Ring Road, Madhya Pradesh 452001, India", "phone": "+91 731 297 3109", "rating": "4.8", "review_count": "", "website": "https://47billion.com/", "latitude": 22.6858591, "longitude": 75.8723211, "maps_url": "https://www.google.com/maps/search/?api=1&query=Top%20Software%20Development%20Company%20in%20USA%20%7C%20AI/ML%20%7C%20AI%20Agent%20%7C%20Gen%20AI%20%7C%20UXUI%20%7C%20Product%20Development&query_place_id=ChIJhwOXvhb9YjkRp_nk8EPzN8c"}, {"place_id": "ChIJ_4eqS1v9YjkRQH6cbS0hBaw", "name": "Techvibes Ventures", "street": "406, Sapna Sangeeta Rd, Navlakha, Indore, Madhya Pradesh 452001, India", "phone": "+91 77413 82752", "rating": "2.2", "review_count": "", "website": "https://techvibesventures.com/", "latitude": 22.7030197, "longitude": 75.8729573, "maps_url": "https://www.google.com/maps/search/?api=1&query=Techvibes%20Ventures&query_place_id=ChIJ_4eqS1v9YjkRQH6cbS0hBaw"}, {"place_id": "ChIJDSlVh639YjkRcqsmYirlm64", "name": "ThoughtWin IT Solutions Pvt. Ltd.", "street": "1 Panna estate, Kesar Bagh Rd, Indira Gandhi Nagar, Indore, Madhya Pradesh 452009, India", "phone": "+91 99770 69348", "rating": "4.1", "review_count": "", "website": "https://www.thoughtwin.com/", "latitude": 22.699189099999998, "longitude": 75.84473919999999, "maps_url": "https://www.google.com/maps/search/?api=1&query=ThoughtWin%20IT%20Solutions%20Pvt.%20Ltd.&query_place_id=ChIJDSlVh639YjkRcqsmYirlm64"}, {"place_id": "ChIJd1ljDUj9YjkR86S6JSgu-HI", "name": "Mango IT Solutions", "street": "15/3, Old Palasia Rd, behind sarda house, Old Palasia, Indore, Madhya Pradesh 452018, India", "phone": "+91 731 404 6693", "rating": "4.3", "review_count": "", "website": "http://www.mangoitsolutions.com/", "latitude": 22.7276298, "longitude": 75.8888766, "maps_url": "https://www.google.com/maps/search/?api=1&query=Mango%20IT%20Solutions&query_place_id=ChIJd1ljDUj9YjkR86S6JSgu-HI"}, {"place_id": "ChIJtXZlQC39YjkRvMjJjHwPhwk", "name": "Adira IT Solutions", "street": "Agrasen Square, Old Agarwal Nagar, Indore, Madhya Pradesh 452001, India", "phone": "+91 77708 00119", "rating": "4.5", "review_count": "", "website": "", "latitude": 22.703602399999998, "longitude": 75.87340859999999, "maps_url": "https://www.google.com/maps/search/?api=1&query=Adira%20IT%20Solutions&query_place_id=ChIJtXZlQC39YjkRvMjJjHwPhwk"}, {"place_id": "ChIJCWarDeD8YjkRr9TvSjBVsk4", "name": "Webwiders Software Solutions", "street": "315, Pukhraj Corporate, Near Navlakha, Janki Nagar, Indore, Madhya Pradesh 452001, India", "phone": "+91 78692 13333", "rating": "4.6", "review_count": "", "website": "https://siteadda.com/", "latitude": 22.7004029, "longitude": 75.87576159999999, "maps_url": "https://www.google.com/maps/search/?api=1&query=Webwiders%20Software%20Solutions&query_place_id=ChIJCWarDeD8YjkRr9TvSjBVsk4"}, {"place_id": "ChIJFziVioEDYzkRcb89171WfPY", "name": "InfiminTus Technologies - Website Design, Application and Software Development IT Company", "street": "2nd Floor, Chetak Chamber, 220, RNT Marg, Madhumilan, M.Y.Hospital, Jaora Compound, Indore, Madhya Pradesh 452001, India", "phone": "+91 97543 16154", "rating": "4.4", "review_count": "", "website": "https://infimintustech.com/", "latitude": 22.7128428, "longitude": 75.8758618, "maps_url": "https://www.google.com/maps/search/?api=1&query=InfiminTus%20Technologies%20-%20Website%20Design%2C%20Application%20and%20Software%20Development%20IT%20Company&query_place_id=ChIJFziVioEDYzkRcb89171WfPY"}, {"place_id": "ChIJq8ByjeL8YjkR8HLdE-oSHew", "name": "Hexaloop", "street": "Sapna Sangeeta Rd, Old Agarwal Nagar, Indore, Madhya Pradesh 452001, India", "phone": "+91 88711 71445", "rating": "5", "review_count": "", "website": "http://hexaloop.com/", "latitude": 22.7030197, "longitude": 75.8729573, "maps_url": "https://www.google.com/maps/search/?api=1&query=Hexaloop&query_place_id=ChIJq8ByjeL8YjkR8HLdE-oSHew"}, {"place_id": "ChIJDc8JmN39YjkRWqaCXIXiRcM", "name": "ITHOR TECHNOLOGY LLP", "street": "10, Old Agarwal Nagar, Indore, Madhya Pradesh 452001, India", "phone": "", "rating": "", "review_count": "", "website": "https://myakhada.com/", "latitude": 22.7024735, "longitude": 75.8733058, "maps_url": "https://www.google.com/maps/search/?api=1&query=ITHOR%20TECHNOLOGY%20LLP&query_place_id=ChIJDc8JmN39YjkRWqaCXIXiRcM"}, {"place_id": "ChIJSUbRQ-D8YjkRB8lYoCPPlNU", "name": "Headway Infotech", "street": "b-20, harmony plaza opp lotus showroom, sapna sangita main road, Indore, Madhya Pradesh 452001, India", "phone": "+91 80 4804 2124", "rating": "3.6", "review_count": "", "website": "", "latitude": 22.6998417, "longitude": 75.8749611, "maps_url": "https://www.google.com/maps/search/?api=1&query=Headway%20Infotech&query_place_id=ChIJSUbRQ-D8YjkRB8lYoCPPlNU"}, {"place_id": "ChIJB9V-VWIdYzkRGpenK3q2wl0", "name": "Royal IT Service - IT Company in Indore", "street": "426 Scheme No. 114 Part 2, Anurag Nagar Ln, B/H, Shalimar Township, Indore, Madhya Pradesh 452010, India", "phone": "+91 92851 92850", "rating": "4.2", "review_count": "", "website": "http://royalitservice.com/", "latitude": 22.7622528, "longitude": 75.9022899, "maps_url": "https://www.google.com/maps/search/?api=1&query=Royal%20IT%20Service%20-%20IT%20Company%20in%20Indore&query_place_id=ChIJB9V-VWIdYzkRGpenK3q2wl0"}, {"place_id": "ChIJQy1c7kn9YjkRZc3pxWDoQUA", "name": "White Elephant Tech", "street": "4-I, 4-H, 5th Floor, BCM City, Navlakha Square, near CCD, Indore, Madhya Pradesh 452001, India", "phone": "+91 89829 22365", "rating": "4.6", "review_count": "", "website": "http://whiteelephanttech.com/", "latitude": 22.6975075, "longitude": 75.8772141, "maps_url": "https://www.google.com/maps/search/?api=1&query=White%20Elephant%20Tech&query_place_id=ChIJQy1c7kn9YjkRZc3pxWDoQUA"}, {"place_id": "ChIJF6KtpDeXYjkRIPHBbYO78GQ", "name": "Miss CRM-Sales & Marketing CRM", "street": "Pukhraj Corporate, 403, Navlakha, Indore, Madhya Pradesh 452001, India", "phone": "+91 96173 50006", "rating": "5", "review_count": "", "website": "https://misscrm.in/", "latitude": 22.7004673, "longitude": 75.8759156, "maps_url": "https://www.google.com/maps/search/?api=1&query=Miss%20CRM-Sales%20%26%20Marketing%20CRM&query_place_id=ChIJF6KtpDeXYjkRIPHBbYO78GQ"}, {"place_id": "ChIJkx4oC7P9YjkRivdcqx3A4Qk", "name": "Aiminent IT Solutions", "street": "2nd floor, 6 Dravid Nagar, Footi Kothi Main Road,, above Andhra Bank, Indore, Madhya Pradesh 452009, India", "phone": "+91 731 400 5778", "rating": "4.3", "review_count": "", "website": "http://aiminent.com/", "latitude": 22.70109, "longitude": 75.8374362, "maps_url": "https://www.google.com/maps/search/?api=1&query=Aiminent%20IT%20Solutions&query_place_id=ChIJkx4oC7P9YjkRivdcqx3A4Qk"}, {"place_id": "ChIJKZOqZDf9YjkRk3tV8cIzSxs", "name": "Indore Technology Solutions", "street": "PVFQ+39X, Old Palasia Rd, Near Mayank Hospital, Manorama Ganj, Indore, Madhya Pradesh 452001, India", "phone": "+91 94070 87049", "rating": "5", "review_count": "", "website": "http://indoretechnology.com/", "latitude": 22.7227252, "longitude": 75.8884757, "maps_url": "https://www.google.com/maps/search/?api=1&query=Indore%20Technology%20Solutions&query_place_id=ChIJKZOqZDf9YjkRk3tV8cIzSxs"}, {"place_id": "ChIJh6-LT3_9YjkRWMU7NvN1j1k", "name": "Aimfortech - Software | SaaS | Web | E-Commerce Gaming App Development Company in India", "street": "103, Greater Kailash Road, above Nafees Restaurant, Old Palasia, Indore, Madhya Pradesh 452018, India", "phone": "+91 731 406 6773", "rating": "5", "review_count": "", "website": "https://www.aimfortech.com/", "latitude": 22.7257765, "longitude": 75.8878778, "maps_url": "https://www.google.com/maps/search/?api=1&query=Aimfortech%20-%20Software%20%7C%20SaaS%20%7C%20Web%20%7C%20E-Commerce%20Gaming%20App%20Development%20Company%20in%20India&query_place_id=ChIJh6-LT3_9YjkRWMU7NvN1j1k"}, {"place_id": "ChIJOScOcYn9YjkRY_yjjH0MBkI", "name": "Shaikh Ji infotech - IT Company", "street": "", "phone": "+91 78695 51061", "rating": "5", "review_count": "", "website": "", "latitude": 21.0680074, "longitude": 82.7525294, "maps_url": "https://www.google.com/maps/search/?api=1&query=Shaikh%20Ji%20infotech%20-%20IT%20Company&query_place_id=ChIJOScOcYn9YjkRY_yjjH0MBkI"}, {"place_id": "ChIJqaqqqib9YjkRVhLxVGwGW5E", "name": "Web Sky Infotech", "street": "", "phone": "+91 81090 34312", "rating": "5", "review_count": "", "website": "https://www.webskyinfotech.com/", "latitude": 21.0680074, "longitude": 82.7525294, "maps_url": "https://www.google.com/maps/search/?api=1&query=Web%20Sky%20Infotech&query_place_id=ChIJqaqqqib9YjkRVhLxVGwGW5E"}, {"place_id": "ChIJq6qqXuD8YjkR1sYlsfrZBmU", "name": "Neptune Farming Office", "street": "8 Mohan nagar, Navlakha Square, Janki Nagar, Indore, Madhya Pradesh 452001, India", "phone": "+91 98266 55552", "rating": "4.1", "review_count": "", "website": "http://www.neptunefarming.com/", "latitude": 22.6999846, "longitude": 75.8764352, "maps_url": "https://www.google.com/maps/search/?api=1&query=Neptune%20Farming%20Office&query_place_id=ChIJq6qqXuD8YjkR1sYlsfrZBmU"}, {"place_id": "ChIJS9wJPt78YjkRa1y5LzvVF1Q", "name": "रामा एंड कंपनी", "street": "B.C, M,CITY, 401, Navlakha Square, Angad Kapoor Region, Janki Nagar, Indore, Madhya Pradesh 452001, India", "phone": "", "rating": "3.9", "review_count": "", "website": "", "latitude": 22.698656999999997, "longitude": 75.8777324, "maps_url": "https://www.google.com/maps/search/?api=1&query=%E0%A4%B0%E0%A4%BE%E0%A4%AE%E0%A4%BE%20%E0%A4%8F%E0%A4%82%E0%A4%A1%20%E0%A4%95%E0%A4%82%E0%A4%AA%E0%A4%A8%E0%A5%80&query_place_id=ChIJS9wJPt78YjkRa1y5LzvVF1Q"}, {"place_id": "ChIJqaqqqib9YjkRk3hr5tOSbMA", "name": "Biocert International Pvt. Ltd.", "street": "Bus Stop, 701 Pukhraj Corporate, opposite Navlakha, Indore, Madhya Pradesh 452001, India", "phone": "+91 72249 91833", "rating": "4.9", "review_count": "", "website": "", "latitude": 22.700421199999997, "longitude": 75.8759656, "maps_url": "https://www.google.com/maps/search/?api=1&query=Biocert%20International%20Pvt.%20Ltd.&query_place_id=ChIJqaqqqib9YjkRk3hr5tOSbMA"}, {"place_id": "ChIJNd55FBz9YjkR2tPe5JaHM_w", "name": "Kraft Creation", "street": "7th floor, Pukhraj Corporate, bus stand, 702, opp. Navlakha Road, Navlakha, Indore, Madhya Pradesh 452001, India", "phone": "+91 88899 77488", "rating": "5", "review_count": "", "website": "http://www.kraftcreation.com/", "latitude": 22.7003827, "longitude": 75.8759977, "maps_url": "https://www.google.com/maps/search/?api=1&query=Kraft%20Creation&query_place_id=ChIJNd55FBz9YjkR2tPe5JaHM_w"}, {"place_id": "ChIJsQ4XbNXjYjkRHVOjNZUyboc", "name": "AG TECHNOLOGIES, Software Company in Indore", "street": "28, Shree Krishna Vihar Colony, Near Shree Chintaman Hanuman Mandir, Opp Malviya Petrol Pump, Radisson Square, Madhya Pradesh 452016, India", "phone": "", "rating": "5", "review_count": "", "website": "", "latitude": 22.744705999999997, "longitude": 75.910692, "maps_url": "https://www.google.com/maps/search/?api=1&query=AG%20TECHNOLOGIES%2C%20Software%20Company%20in%20Indore&query_place_id=ChIJsQ4XbNXjYjkRHVOjNZUyboc"}, {"place_id": "ChIJOVVVRbP9YjkRyhg_Xzlf1xc", "name": "Kudoss IT Solutions", "street": "560, Usha Nagar, Ext, Indore, Madhya Pradesh 452009, India", "phone": "+91 79840 65677", "rating": "4.5", "review_count": "", "website": "https://kudossweb.com/", "latitude": 22.6971091, "longitude": 75.8373182, "maps_url": "https://www.google.com/maps/search/?api=1&query=Kudoss%20IT%20Solutions&query_place_id=ChIJOVVVRbP9YjkRyhg_Xzlf1xc"}, {"place_id": "ChIJtwMiA4_9YjkRSr9jS2Ewxio", "name": "Pukhraj Corporate", "street": "Pukhraj Corporate -2, G -2, Navlakha Rd, Near Hotel Prashant , Navlakha Square, Janki Nagar, Indore, Madhya Pradesh 452001, India", "phone": "", "rating": "4.3", "review_count": "", "website": "", "latitude": 22.7004752, "longitude": 75.8759188, "maps_url": "https://www.google.com/maps/search/?api=1&query=Pukhraj%20Corporate&query_place_id=ChIJtwMiA4_9YjkRSr9jS2Ewxio"}, {"place_id": "ChIJMaw8I-P8YjkRZlp8DPcm-JI", "name": "SB Infotech", "street": "604, Narendra Tiwari Marg, near SUDAMA DWAR -A, Sector A, Sector D, Sudama Nagar, Indore, Madhya Pradesh 452009, India", "phone": "+91 731 493 2442", "rating": "3.9", "review_count": "", "website": "http://www.sbinfotech.org/", "latitude": 22.6955173, "longitude": 75.8354308, "maps_url": "https://www.google.com/maps/search/?api=1&query=SB%20Infotech&query_place_id=ChIJMaw8I-P8YjkRZlp8DPcm-JI"}, {"place_id": "ChIJpygmst39YjkR8z4GGjwv40k", "name": "Sixth Sense IT Solutions", "street": "Pukhraj Corporate, 403, Maa Durga Nagar, Navlakha, Indore, Madhya Pradesh 452001, India", "phone": "+91 96173 50006", "rating": "", "review_count": "", "website": "https://sixthsenseit.com/", "latitude": 22.7006901, "longitude": 75.8758735, "maps_url": "https://www.google.com/maps/search/?api=1&query=Sixth%20Sense%20IT%20Solutions&query_place_id=ChIJpygmst39YjkR8z4GGjwv40k"}, {"place_id": "ChIJhc_b9wj9YjkRMF60fpc9jdo", "name": "Nek Insan Safety QR Indore (MP)", "street": "Durga Complex, Navlakha Rd, near Prashant hotel, Janki Nagar, Indore, Madhya Pradesh 452001, India", "phone": "", "rating": "5", "review_count": "", "website": "", "latitude": 22.7003904, "longitude": 75.876204, "maps_url": "https://www.google.com/maps/search/?api=1&query=Nek%20Insan%20Safety%20QR%20Indore%20%28MP%29&query_place_id=ChIJhc_b9wj9YjkRMF60fpc9jdo"}, {"place_id": "ChIJ91u74tX9YjkRPuuuTacCqaQ", "name": "Solar InC Services", "street": "LG-2, Shakuntala Complex, AB Rd, near by Jail Cafe, Angad Kapoor Region, Navlakha, Indore, Madhya Pradesh 452001, India", "phone": "", "rating": "5", "review_count": "", "website": "https://www.incservices.in/", "latitude": 22.697170399999997, "longitude": 75.8754319, "maps_url": "https://www.google.com/maps/search/?api=1&query=Solar%20InC%20Services&query_place_id=ChIJ91u74tX9YjkRPuuuTacCqaQ"}, {"place_id": "ChIJYfrhUWD9YjkRRZPzRZPEGuo", "name": "Bluetech IT Services", "street": "", "phone": "+91 98935 09996", "rating": "4.6", "review_count": "", "website": "https://www.bluetechitservices.com/", "latitude": 14.157641199999999, "longitude": -16.7424939, "maps_url": "https://www.google.com/maps/search/?api=1&query=Bluetech%20IT%20Services&query_place_id=ChIJYfrhUWD9YjkRRZPzRZPEGuo"}, {"place_id": "ChIJ9zU3sAf9YjkRW1yjqpkLq-4", "name": "RPS Business Solutions", "street": "407, Bansiwala Tower, Agrasen Square, Sapna Sangeeta Rd, above Morani Saree, Old Agarwal Nagar, Indore, Madhya Pradesh 452001, India", "phone": "+91 731 424 1494", "rating": "5", "review_count": "", "website": "http://www.rpsbusinesssolutions.in/", "latitude": 22.7030197, "longitude": 75.8729573, "maps_url": "https://www.google.com/maps/search/?api=1&query=RPS%20Business%20Solutions&query_place_id=ChIJ9zU3sAf9YjkRW1yjqpkLq-4"}, {"place_id": "ChIJsaNJ8Ej9YjkRZlwgqWEVwy8", "name": "Indrajeet's AI", "street": "Skim 47, 407, Plot no 30, Sapna Sangeeta Rd, Indore, Madhya Pradesh 452001, India", "phone": "+91 91312 90060", "rating": "5", "review_count": "", "website": "http://www.indrajeets.com/", "latitude": 22.702977399999998, "longitude": 75.8729779, "maps_url": "https://www.google.com/maps/search/?api=1&query=Indrajeet%27s%20AI&query_place_id=ChIJsaNJ8Ej9YjkRZlwgqWEVwy8"}, {"place_id": "ChIJc6bbsHH9YjkR_sLbIn7vuWk", "name": "It's Unicorntech", "street": "2, Ambedkar Nagar Rd, Mig Colony, New Palasia, Indore, Madhya Pradesh 452001, India", "phone": "+91 95895 72990", "rating": "", "review_count": "", "website": "http://itsunicorntech.com/", "latitude": 22.7309429, "longitude": 75.88466869999999, "maps_url": "https://www.google.com/maps/search/?api=1&query=It%27s%20Unicorntech&query_place_id=ChIJc6bbsHH9YjkR_sLbIn7vuWk"}, {"place_id": "ChIJtyGUH0_9YjkRbDJUlaWromk", "name": "Tristar Exim", "street": "OFFICE NO 111, 1ST FLOOR, Pukhraj Corporate, BUS STAND, opposite NAVLAKHA, Janki Nagar, Indore, Madhya Pradesh 452001, India", "phone": "", "rating": "4.8", "review_count": "", "website": "https://tristarexim.com/", "latitude": 22.7004712, "longitude": 75.87584199999999, "maps_url": "https://www.google.com/maps/search/?api=1&query=Tristar%20Exim&query_place_id=ChIJtyGUH0_9YjkRbDJUlaWromk"}, {"place_id": "ChIJV9p94nr9YjkRRrJ0NOeIy3g", "name": "Amar electricals and instruments", "street": "Navlakha, Janki Nagar, Indore, Madhya Pradesh 452001, India", "phone": "+91 95600 22447", "rating": "5", "review_count": "", "website": "https://www.indiamart.com/amar-electricals-instruments/", "latitude": 22.7005055, "longitude": 75.87593799999999, "maps_url": "https://www.google.com/maps/search/?api=1&query=Amar%20electricals%20and%20instruments&query_place_id=ChIJV9p94nr9YjkRRrJ0NOeIy3g"}, {"place_id": "ChIJZUzdTnD9YjkR7Bo7KKOOKM0", "name": "Mohit Consulting Services (M C S)", "street": "2-3, Ground Floor, Shakuntala Complex, AB Rd, beside Jail Cafe, near Holkar Science College, Angad Kapoor Region, Navlakha, Indore, Madhya Pradesh 452001, India", "phone": "+91 88174 81879", "rating": "5", "review_count": "", "website": "https://www.facebook.com/MohitConsulting/", "latitude": 22.6970739, "longitude": 75.8754587, "maps_url": "https://www.google.com/maps/search/?api=1&query=Mohit%20Consulting%20Services%20%28M%20C%20S%29&query_place_id=ChIJZUzdTnD9YjkR7Bo7KKOOKM0"}, {"place_id": "ChIJyy58nUL9YjkR5iXlLj_a1kg", "name": "Brown Valley", "street": "2, AB Rd, Angad Kapoor Region, Janki Nagar, Indore, Madhya Pradesh 452001, India", "phone": "+91 88893 28444", "rating": "4.9", "review_count": "", "website": "", "latitude": 22.697912, "longitude": 75.876808, "maps_url": "https://www.google.com/maps/search/?api=1&query=Brown%20Valley&query_place_id=ChIJyy58nUL9YjkR5iXlLj_a1kg"}, {"place_id": "ChIJ4ZEs11P9YjkRn4hywHQIVNQ", "name": "Eco Planet We Care", "street": "industries, 1/1, Navlakha Rd, opposite indra complex, Navlakha, Indore, Madhya Pradesh 452001, India", "phone": "", "rating": "4.9", "review_count": "", "website": "", "latitude": 22.701515399999998, "longitude": 75.8754993, "maps_url": "https://www.google.com/maps/search/?api=1&query=Eco%20Planet%20We%20Care&query_place_id=ChIJ4ZEs11P9YjkRn4hywHQIVNQ"}, {"place_id": "ChIJJXpBoVD9YjkR7vFn7UDGZ-c", "name": "Eighthsense | Digital Marketing Agency", "street": "703, Pukhraj Corporate, Navlakha Rd, Navlakha, Indore, Madhya Pradesh 452001, India", "phone": "+91 731 495 6220", "rating": "3.8", "review_count": "", "website": "https://www.eighthsense.in/", "latitude": 22.7004338, "longitude": 75.8759192, "maps_url": "https://www.google.com/maps/search/?api=1&query=Eighthsense%20%7C%20Digital%20Marketing%20Agency&query_place_id=ChIJJXpBoVD9YjkR7vFn7UDGZ-c"}, {"place_id": "ChIJM8Ubo2n9YjkRLN7c4mEWsMw", "name": "Packaging Garage", "street": "1-B/1, Brajeshwari Tower, Navlakha Square, Khandelwal Nagar, Samvad Nagar, Indore, Madhya Pradesh 452001, India", "phone": "+91 62606 66953", "rating": "5", "review_count": "", "website": "https://packyneed.in/", "latitude": 22.6980123, "longitude": 75.8786633, "maps_url": "https://www.google.com/maps/search/?api=1&query=Packaging%20Garage&query_place_id=ChIJM8Ubo2n9YjkRLN7c4mEWsMw"}, {"place_id": "ChIJF1qOXh79YjkRtJVZpn6O4iQ", "name": "navlakha complex", "street": "PV3F+C2R, Agrasen Square, Navlakha, Indore, Madhya Pradesh 452001, India", "phone": "", "rating": "3.7", "review_count": "", "website": "", "latitude": 22.7036114, "longitude": 75.872511, "maps_url": "https://www.google.com/maps/search/?api=1&query=navlakha%20complex&query_place_id=ChIJF1qOXh79YjkRtJVZpn6O4iQ"}, {"place_id": "ChIJwwmwCKb9YjkR8wSVt2Yuciw", "name": "Action Detective", "street": "navalakh chouraha, near bus stand, in front of dena bank, Doordarshan Kendra, Navlakha, Indore, Madhya Pradesh 452001, India", "phone": "+91 97177 03999", "rating": "4.5", "review_count": "", "website": "https://actiondetective.com/our-branches/detective-agency-in-indore/", "latitude": 22.698611099999997, "longitude": 75.8784039, "maps_url": "https://www.google.com/maps/search/?api=1&query=Action%20Detective&query_place_id=ChIJwwmwCKb9YjkR8wSVt2Yuciw"}, {"place_id": "ChIJq6qqqh_9YjkRFK5VCRPH3uI", "name": "Dynamic Marketing", "street": "Shop No. 27, Plot Number B-2, Rama Krishan Tower, Navlakha Rd, Indra Complex, Navlakha, Indore, Madhya Pradesh 452001, India", "phone": "+91 98266 11970", "rating": "4.3", "review_count": "", "website": "", "latitude": 22.7022965, "longitude": 75.8753747, "maps_url": "https://www.google.com/maps/search/?api=1&query=Dynamic%20Marketing&query_place_id=ChIJq6qqqh_9YjkRFK5VCRPH3uI"}, {"place_id": "ChIJtd61zR_9YjkRu00otqmIdV4", "name": "Nidhizcakeworld", "street": "Agrasen Square, Navlakha, Old Agarwal Nagar, Indore, Madhya Pradesh 452001, India", "phone": "", "rating": "4.4", "review_count": "", "website": "", "latitude": 22.703602399999998, "longitude": 75.87340859999999, "maps_url": "https://www.google.com/maps/search/?api=1&query=Nidhizcakeworld&query_place_id=ChIJtd61zR_9YjkRu00otqmIdV4"}, {"place_id": "ChIJg61tv5H9YjkRqXnRSAbhPz8", "name": "IAGA (International Academy of Games and Animation)", "street": "bus stand, 606 Pukhraj corporate 6th floor, Agrasen Square, opp. Navlakkha, Madhya Pradesh 452001, India", "phone": "+91 88899 77188", "rating": "4.9", "review_count": "", "website": "http://www.iagainstitute.com/", "latitude": 22.7005218, "longitude": 75.8758575, "maps_url": "https://www.google.com/maps/search/?api=1&query=IAGA%20%28International%20Academy%20of%20Games%20and%20Animation%29&query_place_id=ChIJg61tv5H9YjkRqXnRSAbhPz8"}, {"place_id": "ChIJsVH6XeP8YjkR100axXU5UXY", "name": "Presto Solutions", "street": "4,janki Nagar, AB Rd, in front of sky height, Navlakha, Indore, Madhya Pradesh 452001, India", "phone": "+91 98277 66766", "rating": "4.8", "review_count": "", "website": "https://www.prestosolutions.in/", "latitude": 22.6976592, "longitude": 75.87662569999999, "maps_url": "https://www.google.com/maps/search/?api=1&query=Presto%20Solutions&query_place_id=ChIJsVH6XeP8YjkR100axXU5UXY"}, {"place_id": "ChIJqQEFOdz8YjkRKizyok7C-As", "name": "Dream81 placement consultants", "street": "Dream 81placement, AB Rd, near Skyheights building, Khandelwal Nagar, 101khandelwal nagar, Navlakha, Indore, Madhya Pradesh 452001, India", "phone": "+91 79995 46157", "rating": "4", "review_count": "", "website": "", "latitude": 22.697338499999997, "longitude": 75.8769832, "maps_url": "https://www.google.com/maps/search/?api=1&query=Dream81%20placement%20consultants&query_place_id=ChIJqQEFOdz8YjkRKizyok7C-As"}, {"place_id": "ChIJZZqi9h_9YjkRAAAAcJJOFi4", "name": "Shree Krishna Engineering & Hydraulic Pvt. Ltd", "street": "9, Harshadeep Complex, near Kamla Travels, Navlakha, Indore, Madhya Pradesh 452001, India", "phone": "+91 93025 75241", "rating": "5", "review_count": "", "website": "http://www.skehydraulic.com/", "latitude": 22.702838, "longitude": 75.8762713, "maps_url": "https://www.google.com/maps/search/?api=1&query=Shree%20Krishna%20Engineering%20%26%20Hydraulic%20Pvt.%20Ltd&query_place_id=ChIJZZqi9h_9YjkRAAAAcJJOFi4"}, {"place_id": "ChIJ1c8upd78YjkR0yYc6MuFgBk", "name": "SHREE BALAJI WATER TECH", "street": "Plot No, 120, Prakash Nagar Rd, IDA Scheme 98, Navlakha, Indore, Madhya Pradesh 452001, India", "phone": "+91 80 4580 1475", "rating": "3.7", "review_count": "", "website": "", "latitude": 22.6970892, "longitude": 75.8815221, "maps_url": "https://www.google.com/maps/search/?api=1&query=SHREE%20BALAJI%20WATER%20TECH&query_place_id=ChIJ1c8upd78YjkR0yYc6MuFgBk"}, {"place_id": "ChIJ9VTkTVv9YjkRRfV04NcenTI", "name": "spaces by nikita soni", "street": "17, Panchvati, Janki Nagar Extension, Janki Nagar, Indore, Madhya Pradesh 452001, India", "phone": "+91 89895 48659", "rating": "5", "review_count": "", "website": "", "latitude": 22.6985465, "longitude": 75.8733646, "maps_url": "https://www.google.com/maps/search/?api=1&query=spaces%20by%20nikita%20soni&query_place_id=ChIJ9VTkTVv9YjkRRfV04NcenTI"}, {"place_id": "ChIJV8KrBRsH8wkRs325M6QfigQ", "name": "MyThriveBuddy.com", "street": "", "phone": "", "rating": "5", "review_count": "", "website": "https://mythrivebuddy.com/", "latitude": 40.266869, "longitude": 147.708913, "maps_url": "https://www.google.com/maps/search/?api=1&query=MyThriveBuddy.com&query_place_id=ChIJV8KrBRsH8wkRs325M6QfigQ"}, {"place_id": "ChIJlVN-DeD8YjkRGtXRzleWJ-0", "name": "Goyal Aniket & Associates-Best CA/Income Tax Consultant/GST Consultant/Registration/New business registration in Indore", "street": "709 Pukhraj Corporate, near Prashant Hotel, Navlakha, Indore, Madhya Pradesh 452001, India", "phone": "+91 98274 35588", "rating": "4.7", "review_count": "", "website": "", "latitude": 22.7004864, "longitude": 75.8759238, "maps_url": "https://www.google.com/maps/search/?api=1&query=Goyal%20Aniket%20%26%20Associates-Best%20CA/Income%20Tax%20Consultant/GST%20Consultant/Registration/New%20business%20registration%20in%20Indore&query_place_id=ChIJlVN-DeD8YjkRGtXRzleWJ-0"}, {"place_id": "ChIJrduT1cn9YjkR2vwDu7oFWMI", "name": "Coworking Studio - Your Desk", "street": "407, 4th floor, Bansiwala Tower, Above Morni Sarees Agrasen Square, Sapna Sangeeta Rd, Indore, Madhya Pradesh 452001, India", "phone": "", "rating": "4.4", "review_count": "", "website": "", "latitude": 22.7030197, "longitude": 75.8729573, "maps_url": "https://www.google.com/maps/search/?api=1&query=Coworking%20Studio%20-%20Your%20Desk&query_place_id=ChIJrduT1cn9YjkR2vwDu7oFWMI"}, {"place_id": "ChIJhxNW1QD9YjkR_-7DW1YdGcQ", "name": "Kyro Capital Private Limited", "street": "Pukhraj Corporates, 704, Navlakha Rd, Maa Durga Nagar, Navlakha, Indore, Madhya Pradesh 452001, India", "phone": "+91 731 466 4576", "rating": "5", "review_count": "", "website": "https://www.kyrocapital.in/", "latitude": 22.7012795, "longitude": 75.8752726, "maps_url": "https://www.google.com/maps/search/?api=1&query=Kyro%20Capital%20Private%20Limited&query_place_id=ChIJhxNW1QD9YjkR_-7DW1YdGcQ"}, {"place_id": "ChIJwb3DPzP9YjkR6_Zln56nYd4", "name": "Molecule Enterprises", "street": "8th floor, Pukhraj Corporate, 816A, opp. Bus Stand, nr. Prashant Hotel, Navlakha, Indore, Madhya Pradesh 452001, India", "phone": "+91 99885 58565", "rating": "4.5", "review_count": "", "website": "https://www.siliconespreader.com/", "latitude": 22.7004122, "longitude": 75.87591019999999, "maps_url": "https://www.google.com/maps/search/?api=1&query=Molecule%20Enterprises&query_place_id=ChIJwb3DPzP9YjkR6_Zln56nYd4"}, {"place_id": "ChIJg0biFoH9YjkRpwnzdDUFeqk", "name": "Farizer Design Studios-Best Architects in Indore/Best Interior Designer in Indore/Vastu Consultant/Construction services", "street": "F-01, BCM City building, near hindustan petrol pump Navlakha, chouraha, Janki Nagar, Indore, Madhya Pradesh 452001, India", "phone": "+91 79994 96087", "rating": "5", "review_count": "", "website": "http://www.farizerdesginstudios.in/", "latitude": 22.6978795, "longitude": 75.8776012, "maps_url": "https://www.google.com/maps/search/?api=1&query=Farizer%20Design%20Studios-Best%20Architects%20in%20Indore/Best%20Interior%20Designer%20in%20Indore/Vastu%20Consultant/Construction%20services&query_place_id=ChIJg0biFoH9YjkRpwnzdDUFeqk"}, {"place_id": "ChIJs-EsTiD9YjkRJ9-j9X9up3A", "name": "Swift International", "street": "112/4B, Navlakha, Indore, Madhya Pradesh 452001, India", "phone": "+91 89821 75000", "rating": "4.2", "review_count": "", "website": "https://www.swiftcrockery.com/", "latitude": 22.7034444, "longitude": 75.8752832, "maps_url": "https://www.google.com/maps/search/?api=1&query=Swift%20International&query_place_id=ChIJs-EsTiD9YjkRJ9-j9X9up3A"}, {"place_id": "ChIJlyr05GodYzkRg5lv5iXIOwg", "name": "Techwave IT Solutions Pvt Ltd | Software Development Company in Indore | Top IT Company in Indore | India", "street": "Bhopal Motors JCB, near Panchvati, Lasudia Mori, Indore, Madhya Pradesh 453771, India", "phone": "+91 90091 55444", "rating": "", "review_count": "", "website": "http://techwaveitsolutions.com/", "latitude": 22.792078399999998, "longitude": 75.90735409999999, "maps_url": "https://www.google.com/maps/search/?api=1&query=Techwave%20IT%20Solutions%20Pvt%20Ltd%20%7C%20Software%20Development%20Company%20in%20Indore%20%7C%20Top%20IT%20Company%20in%20Indore%20%7C%20India&query_place_id=ChIJlyr05GodYzkRg5lv5iXIOwg"}, {"place_id": "ChIJ55Ysg7L9YjkR55_De7Py3Dc", "name": "CH EdgeMakers Navlakha – IPMAT, CUET, CAT and CMAT Coaching", "street": "3 Janki Nagar NX Navlakha Square, AB Rd, Indore, Madhya Pradesh 452001, India", "phone": "+91 731 406 6611", "rating": "4.4", "review_count": "", "website": "https://ch-india.com/", "latitude": 22.6978157, "longitude": 75.87682339999999, "maps_url": "https://www.google.com/maps/search/?api=1&query=CH%20EdgeMakers%20Navlakha%20%E2%80%93%20IPMAT%2C%20CUET%2C%20CAT%20and%20CMAT%20Coaching&query_place_id=ChIJ55Ysg7L9YjkR55_De7Py3Dc"}, {"place_id": "ChIJO9H2B-D9YjkRS2hSMUCCA2g", "name": "Angel One Ltd. - Astrobulls Research Private Limited", "street": "No 508, Pukhraj Corporate, Bus Stand, AB Rd, near Navlkha, Janki Nagar, Indore, Madhya Pradesh 452001, India", "phone": "+91 80 4101 7356", "rating": "5", "review_count": "", "website": "https://stockbroker.angelone.in/angel-one-ltd-astrobulls-research-private-limited-stock-broker-ab-road-indore-361356/Home?utm_source=locator&utm_medium=googleplaces", "latitude": 22.700324, "longitude": 75.875833, "maps_url": "https://www.google.com/maps/search/?api=1&query=Angel%20One%20Ltd.%20-%20Astrobulls%20Research%20Private%20Limited&query_place_id=ChIJO9H2B-D9YjkRS2hSMUCCA2g"}, {"place_id": "ChIJq6qqqib9YjkRkYxm63fLxaQ", "name": "Astrobulls research pvt ltd | Online Share Trading and Investment Broker in Indore| Institutes For Stock Market", "street": "Pukhraj corporate, Navlakha, Indore, Madhya Pradesh 452001, India", "phone": "+91 78691 23450", "rating": "5", "review_count": "", "website": "https://astrobullsresearch.com/", "latitude": 22.7036063, "longitude": 75.8734144, "maps_url": "https://www.google.com/maps/search/?api=1&query=Astrobulls%20research%20pvt%20ltd%20%7C%20Online%20Share%20Trading%20and%20Investment%20Broker%20in%20Indore%7C%20Institutes%20For%20Stock%20Market&query_place_id=ChIJq6qqqib9YjkRkYxm63fLxaQ"}, {"place_id": "ChIJtSDgyrP9YjkR_eUzVbwa3bs", "name": "Paridhi Tour and Travels", "street": "Treff tower, AS 16, Navlakha, Indore, Madhya Pradesh 452001, India", "phone": "+91 98260 20849", "rating": "4.7", "review_count": "", "website": "https://tempo-travellers.vercel.app/", "latitude": 22.7034444, "longitude": 75.8752832, "maps_url": "https://www.google.com/maps/search/?api=1&query=Paridhi%20Tour%20and%20Travels&query_place_id=ChIJtSDgyrP9YjkR_eUzVbwa3bs"}, {"place_id": "ChIJszLNdIH9YjkRpawl-6v-Vds", "name": "Indore Deals On Wheels | Self drive car rentals in Indore | Local/Outstation Taxi Service", "street": "Khandelwal Nagar, IDA Scheme 98, Samvad Nagar, Indore, Madhya Pradesh 452001, India", "phone": "+91 92850 03000", "rating": "4.9", "review_count": "", "website": "https://instagram.com/indoredealsonwheels?igshid=NTc4MTIwNjQ2YQ==", "latitude": 22.6979576, "longitude": 75.8793982, "maps_url": "https://www.google.com/maps/search/?api=1&query=Indore%20Deals%20On%20Wheels%20%7C%20Self%20drive%20car%20rentals%20in%20Indore%20%7C%20Local/Outstation%20Taxi%20Service&query_place_id=ChIJszLNdIH9YjkRpawl-6v-Vds"}, {"place_id": "ChIJvz08ja39YjkR-AwZLwnVJ4Y", "name": "Market Track Institute | Best Stock Market Institute in Indore", "street": "No 711, Pukhraj Corporate, bus stand, Navlakha Square, opp. navlakhha, Janki Nagar, Indore, Madhya Pradesh 452009, India", "phone": "+91 97707 28552", "rating": "4.9", "review_count": "", "website": "https://www.markettrack.co.in/s/pages/markettrackbeststockmarketinstituteindore", "latitude": 22.7006099, "longitude": 75.8757937, "maps_url": "https://www.google.com/maps/search/?api=1&query=Market%20Track%20Institute%20%7C%20Best%20Stock%20Market%20Institute%20in%20Indore&query_place_id=ChIJvz08ja39YjkR-AwZLwnVJ4Y"}, {"place_id": "ChIJa1mfNA5f-G0R-F5mIhqwLYE", "name": "Roamers Holidays", "street": "502, Sapna Sangeeta Rd, Agrasen Square, Navlakha, Indore, Madhya Pradesh 452001, India", "phone": "+91 80 4369 3808", "rating": "5", "review_count": "", "website": "", "latitude": 22.7030197, "longitude": 75.8729573, "maps_url": "https://www.google.com/maps/search/?api=1&query=Roamers%20Holidays&query_place_id=ChIJa1mfNA5f-G0R-F5mIhqwLYE"}, {"place_id": "ChIJ869dwDv9YjkRoMpEeO4Sv0s", "name": "OM Enterprises", "street": "Highway Tower, 201, Navlakha Square, near Reliance Fresh, Angad Kapoor Region, Janki Nagar, Indore, Madhya Pradesh 452001, India", "phone": "", "rating": "5", "review_count": "", "website": "https://sites.google.com/view/om-enterprises1008/home", "latitude": 22.698656999999997, "longitude": 75.8777324, "maps_url": "https://www.google.com/maps/search/?api=1&query=OM%20Enterprises&query_place_id=ChIJ869dwDv9YjkRoMpEeO4Sv0s"}, {"place_id": "ChIJFdQO8KH9YjkRGsUi-Gr2jIs", "name": "AVS BOYS HOSTEL", "street": "19 Anand Bagichi Navlakha, Old Agarwal Nagar, Indore, Madhya Pradesh 452001, India", "phone": "+91 91659 19796", "rating": "4.1", "review_count": "", "website": "", "latitude": 22.7012817, "longitude": 75.8739315, "maps_url": "https://www.google.com/maps/search/?api=1&query=AVS%20BOYS%20HOSTEL&query_place_id=ChIJFdQO8KH9YjkRGsUi-Gr2jIs"}, {"place_id": "ChIJu6PcjN78YjkRa4eBo-eLfF8", "name": "ida flats pnb", "street": "MVXJ+32M, IDA Scheme 98, Samvad Nagar, Indore, Madhya Pradesh 452001, India", "phone": "", "rating": "4.5", "review_count": "", "website": "", "latitude": 22.6977098, "longitude": 75.88004169999999, "maps_url": "https://www.google.com/maps/search/?api=1&query=ida%20flats%20pnb&query_place_id=ChIJu6PcjN78YjkRa4eBo-eLfF8"}, {"place_id": "ChIJlSaPdfv9YjkR6-1yRPj3oug", "name": "STAR PREMIUM WASHING CENTRE", "street": "23, near balwadi, opposite Indore, Azad Nagar, Indore, Madhya Pradesh 452001, India", "phone": "", "rating": "5", "review_count": "", "website": "", "latitude": 22.6992406, "longitude": 75.8848419, "maps_url": "https://www.google.com/maps/search/?api=1&query=STAR%20PREMIUM%20WASHING%20CENTRE&query_place_id=ChIJlSaPdfv9YjkR6-1yRPj3oug"}, {"place_id": "ChIJnQTOPeP9YjkRliaCtqn0F90", "name": "Kavya Shree Buildcon", "street": "Office No :-20, BCM City, Navlakha Square, Angad Kapoor Region, Janki Nagar, Indore, Madhya Pradesh 452001, India", "phone": "+91 90390 35655", "rating": "4.8", "review_count": "", "website": "http://kavyashreebuildcon.com/", "latitude": 22.698656999999997, "longitude": 75.8777324, "maps_url": "https://www.google.com/maps/search/?api=1&query=Kavya%20Shree%20Buildcon&query_place_id=ChIJnQTOPeP9YjkRliaCtqn0F90"}, {"place_id": "ChIJETXgO978YjkRnTCrgDHOUbg", "name": "Hindustan Petroleum Corporation Limited", "street": "Ground Floor, Khandelwal Nagar, Chauraha, Navlakha, Indore, Madhya Pradesh 452001, India", "phone": "+91 98260 60262", "rating": "3.9", "review_count": "", "website": "https://petrolpump.hpretail.in/hindustan-petroleum-corporation-limited-m-s-mannalal-lachhiram-sons-petrol-pump-navlakha-chauraha-indore-391782/Home?utm_source=locator&utm_medium=googleplaces", "latitude": 22.6982006, "longitude": 75.8777137, "maps_url": "https://www.google.com/maps/search/?api=1&query=Hindustan%20Petroleum%20Corporation%20Limited&query_place_id=ChIJETXgO978YjkRnTCrgDHOUbg"}, {"place_id": "ChIJ79m99h_9YjkRTRW25GdSENc", "name": "Citizen Travels", "street": "8 Harshdeep Tower, Indira Complex, 30, Vikas Tower , Navlakha Bus Stand, Navlakha, Indore, Madhya Pradesh 452001, India", "phone": "+91 731 404 5828", "rating": "3.6", "review_count": "", "website": "http://www.citizentravels.in/", "latitude": 22.7028371, "longitude": 75.8762713, "maps_url": "https://www.google.com/maps/search/?api=1&query=Citizen%20Travels&query_place_id=ChIJ79m99h_9YjkRTRW25GdSENc"}, {"place_id": "ChIJ55NZF978YjkRDBtCjKF4lY0", "name": "King Tower", "street": "MVWG+VXR, AB Rd, Navlakha Square, Khandilwal Nagar, Janki Nagar, Indore, Madhya Pradesh 452001, India", "phone": "", "rating": "4.3", "review_count": "", "website": "", "latitude": 22.697229699999998, "longitude": 75.8773782, "maps_url": "https://www.google.com/maps/search/?api=1&query=King%20Tower&query_place_id=ChIJ55NZF978YjkRDBtCjKF4lY0"}, {"place_id": "ChIJmU_9uS_9YjkRaEcd-aG5fZw", "name": "Prashant Hotel", "street": "Bus Stand, Navlakha Rd, opposite Navlakha, Maa Durga Nagar, Ts Navlakha Main Road, Indore, Madhya Pradesh 452001, India", "phone": "+91 92039 30300", "rating": "4.2", "review_count": "", "website": "https://prashanthotel.com/", "latitude": 22.700781, "longitude": 75.875675, "maps_url": "https://www.google.com/maps/search/?api=1&query=Prashant%20Hotel&query_place_id=ChIJmU_9uS_9YjkRaEcd-aG5fZw"}, {"place_id": "ChIJpVC76Qj9YjkRnUkGy5i17J4", "name": "Highlight Fotos", "street": "prestige tower, 108/4B, Navlakha, Indore, Madhya Pradesh 452001, India", "phone": "", "rating": "5", "review_count": "", "website": "https://highlightfotos.in/", "latitude": 22.7033813, "longitude": 75.87542789999999, "maps_url": "https://www.google.com/maps/search/?api=1&query=Highlight%20Fotos&query_place_id=ChIJpVC76Qj9YjkRnUkGy5i17J4"}, {"place_id": "ChIJp4m0lR_9YjkRbEwq3SdvxA4", "name": "Prestige Tower", "street": "presige tower, AB Rd, Indra Complex, Navlakha, Indore, Madhya Pradesh 452001, India", "phone": "", "rating": "3.9", "review_count": "", "website": "", "latitude": 22.703443, "longitude": 75.8753519, "maps_url": "https://www.google.com/maps/search/?api=1&query=Prestige%20Tower&query_place_id=ChIJp4m0lR_9YjkRbEwq3SdvxA4"}, {"place_id": "ChIJX5wK_B39YjkRLpJBXV7zuvc", "name": "Apoorva Sonography Xrays Mammography OPG centre", "street": "12/47, Agrawal Nagar, behind Moorni Sarees, Agrasen circle, Sapna Sangeeta Rd, near Agrasen Square, Indore, Madhya Pradesh 452001, India", "phone": "+91 731 409 4488", "rating": "4.9", "review_count": "", "website": "https://apoorvasonographyindore.in/contact", "latitude": 22.7028751, "longitude": 75.87281469999999, "maps_url": "https://www.google.com/maps/search/?api=1&query=Apoorva%20Sonography%20Xrays%20Mammography%20OPG%20centre&query_place_id=ChIJX5wK_B39YjkRLpJBXV7zuvc"}, {"place_id": "ChIJHyFsPPv9YjkR7-ebDrJ3qhA", "name": "DesignGiri", "street": "5th Floor, Agrasen Square, 502, Sapna Sangeeta Rd, Old Agarwal Nagar, Indore, Madhya Pradesh 452001, India", "phone": "", "rating": "4.1", "review_count": "", "website": "", "latitude": 22.7030197, "longitude": 75.8729573, "maps_url": "https://www.google.com/maps/search/?api=1&query=DesignGiri&query_place_id=ChIJHyFsPPv9YjkR7-ebDrJ3qhA"}, {"place_id": "ChIJ8W6ylR_9YjkR7g5Xj_c-4TA", "name": "Sourabh Sales agency", "street": "108/4B, prestige tower, Indra Complex, Navlakha Rd, Indore, Madhya Pradesh 452001, India", "phone": "+91 731 400 4003", "rating": "5", "review_count": "", "website": "", "latitude": 22.7034616, "longitude": 75.8755286, "maps_url": "https://www.google.com/maps/search/?api=1&query=Sourabh%20Sales%20agency&query_place_id=ChIJ8W6ylR_9YjkR7g5Xj_c-4TA"}, {"place_id": "ChIJq6qqqh_9YjkRjQbDzFA-CrE", "name": "Goodyear Autocare - Ashoka Tyre & Aligner", "street": "Shop No 2, Ramakrishna Complex, Chitawad Rd, near Indore Range Forest Office, Navlakha, Indore, Madhya Pradesh 452001, India", "phone": "+91 8071 370 538", "rating": "4.6", "review_count": "", "website": "https://autocare.goodyear.co.in/goodyear-autocare-ashoka-tyre-aligner-tyre-shop-navlakha-indore-342579/Home?utm_source=locator&utm_medium=googleplaces", "latitude": 22.7025504, "longitude": 75.8748248, "maps_url": "https://www.google.com/maps/search/?api=1&query=Goodyear%20Autocare%20-%20Ashoka%20Tyre%20%26%20Aligner&query_place_id=ChIJq6qqqh_9YjkRjQbDzFA-CrE"}, {"place_id": "ChIJo2I12r_9YjkRuKaHbgaM74Q", "name": "Advocate Anamika Goyal", "street": "52, Navlakha Square, Prakash Nagar, Indore, Madhya Pradesh 452001, India", "phone": "+91 75667 42674", "rating": "4.9", "review_count": "", "website": "http://advocateanamika.in/", "latitude": 22.696972, "longitude": 75.8802194, "maps_url": "https://www.google.com/maps/search/?api=1&query=Advocate%20Anamika%20Goyal&query_place_id=ChIJo2I12r_9YjkRuKaHbgaM74Q"}, {"place_id": "ChIJPfYfHN78YjkRFSg0-FqiHEI", "name": "Sky Heights", "street": "Skyheights building, Navlakha Square, 175/4, AB Rd, Near BCM City, Janki Nagar, Indore, Madhya Pradesh 452001, India", "phone": "", "rating": "3.7", "review_count": "", "website": "", "latitude": 22.697122, "longitude": 75.8769016, "maps_url": "https://www.google.com/maps/search/?api=1&query=Sky%20Heights&query_place_id=ChIJPfYfHN78YjkRFSg0-FqiHEI"}, {"place_id": "ChIJmZNotL_9YjkR6YCa7VgZkj8", "name": "Shubham & Nikhil", "street": "603, Pukhraj Corporate, Bus Stand, opposite Navlakha, Janki Nagar, Indore, Madhya Pradesh 452001, India", "phone": "+91 98264 09957", "rating": "5", "review_count": "", "website": "", "latitude": 22.7002649, "longitude": 75.8759658, "maps_url": "https://www.google.com/maps/search/?api=1&query=Shubham%20%26%20Nikhil&query_place_id=ChIJmZNotL_9YjkR6YCa7VgZkj8"}, {"place_id": "ChIJ____6x_9YjkRP3fMlPGoplk", "name": "Adarsh Hostel", "street": "Indira Complex, C-3, Navlakha Rd, Indra Complex, Navlakha, Indore, Madhya Pradesh 452001, India", "phone": "+91 78798 85297", "rating": "4", "review_count": "", "website": "", "latitude": 22.701928, "longitude": 75.875486, "maps_url": "https://www.google.com/maps/search/?api=1&query=Adarsh%20Hostel&query_place_id=ChIJ____6x_9YjkRP3fMlPGoplk"}, {"place_id": "ChIJmUvqbkH9YjkR3ElIe7rfRx0", "name": "Troll Hacking", "street": "", "phone": "", "rating": "", "review_count": "", "website": "https://troll-hacking.ueniweb.com/?utm_campaign=gmb", "latitude": 22.723972699999997, "longitude": 75.86384989999999, "maps_url": "https://www.google.com/maps/search/?api=1&query=Troll%20Hacking&query_place_id=ChIJmUvqbkH9YjkR3ElIe7rfRx0"}, {"place_id": "ChIJQQAA6x_9YjkR2K6qzplhsAQ", "name": "Srijan Sales Group", "street": "6 , vishal tower , indra complex , Navlakka, Indore, Madhya Pradesh 452001, India", "phone": "+91 81206 73842", "rating": "4", "review_count": "", "website": "", "latitude": 22.703008, "longitude": 75.875363, "maps_url": "https://www.google.com/maps/search/?api=1&query=Srijan%20Sales%20Group&query_place_id=ChIJQQAA6x_9YjkR2K6qzplhsAQ"}]