[{"place_id": "ChIJ3SnYD0L9DDkR6YIWpAySQ40", "name": "Exclogy Software Solutions Pvt. Ltd", "street": "1st Floor, 2972, Gali No. 2, Bazar Sangatrashan, Chuna Mandi, Paharganj, New Delhi, Delhi 110055, India", "phone": "+91 95601 95359", "rating": "4.9", "review_count": "", "website": "https://www.exclogy.com/", "latitude": 28.6454271, "longitude": 77.2106714, "maps_url": "https://www.google.com/maps/search/?api=1&query=Exclogy%20Software%20Solutions%20Pvt.%20Ltd&query_place_id=ChIJ3SnYD0L9DDkR6YIWpAySQ40"}, {"place_id": "ChIJO4sr49IDDTkRALZaeWsr-oI", "name": "Iraitech | Software Development Company", "street": "Central Square Complex 3, Unit No-1051, 1st Floor, Near Filmistan, DCM chowk, Bara Hindu Rao, Kishan Ganj, Delhi, 110006, India", "phone": "+91 81301 04108", "rating": "4.1", "review_count": "", "website": "https://www.iraitech.com/", "latitude": 28.6631951, "longitude": 77.20308639999999, "maps_url": "https://www.google.com/maps/search/?api=1&query=Iraitech%20%7C%20Software%20Development%20Company&query_place_id=ChIJO4sr49IDDTkRALZaeWsr-oI"}, {"place_id": "ChIJwQxhyFb9DDkRYwi9lZALngM", "name": "Gupta Computer Care", "street": "GF, H, 7939, Arakashan Rd, near GURUDWARA, Prem Nagar, Arya Nagar, Paharganj, New Delhi, Delhi, 110055, India", "phone": "+91 88003 78108", "rating": "4.9", "review_count": "", "website": "https://guptacomputercare.com/", "latitude": 28.645704799999997, "longitude": 77.2176284, "maps_url": "https://www.google.com/maps/search/?api=1&query=Gupta%20Computer%20Care&query_place_id=ChIJwQxhyFb9DDkRYwi9lZALngM"}, {"place_id": "ChIJi8FJzWv9DDkRoDjsvkNPzZA", "name": "Ahlam Infotech", "street": "2044/6 Savitri Bhawan 3rd Floor Chuna Mandi, Pahar Ganj, Near R.K. Ashram, Metro, New Delhi, Delhi 110055, India", "phone": "+91 73037 86338", "rating": "5", "review_count": "", "website": "", "latitude": 28.6443251, "longitude": 77.2097529, "maps_url": "https://www.google.com/maps/search/?api=1&query=Ahlam%20Infotech&query_place_id=ChIJi8FJzWv9DDkRoDjsvkNPzZA"}, {"place_id": "ChIJC3MN3zb9DDkR-JxtEG9cQg0", "name": "I. T. Solutions", "street": "Gate No. 8, A-6, 1st Floor, Inner Circle, Above Post office, near ICICI Bank, Bon Ton and Metro, Connaught Place, New Delhi, Delhi 110001, India", "phone": "+91 11 4152 3242", "rating": "4.9", "review_count": "", "website": "http://www.itsolutioncp.com/", "latitude": 28.6324367, "longitude": 77.2183441, "maps_url": "https://www.google.com/maps/search/?api=1&query=I.%20T.%20Solutions&query_place_id=ChIJC3MN3zb9DDkR-JxtEG9cQg0"}, {"place_id": "ChIJFeXlTZkCDTkRNw2aQAO8CNk", "name": "Himalayan IT Solutions | Best Website Designing Company in Delhi | SEO/Digital Marketing Company in Delhi NCR, India", "street": "61/4255, Padam Singh Rd, Block 29, Block 1, Regar Pura, Karol Bagh, Delhi, 110005, India", "phone": "+91 98990 98509", "rating": "3.9", "review_count": "", "website": "http://www.himalayanitsolutions.com/", "latitude": 28.649673999999997, "longitude": 77.186599, "maps_url": "https://www.google.com/maps/search/?api=1&query=Himalayan%20IT%20Solutions%20%7C%20Best%20Website%20Designing%20Company%20in%20Delhi%20%7C%20SEO/Digital%20Marketing%20Company%20in%20Delhi%20NCR%2C%20India&query_place_id=ChIJFeXlTZkCDTkRNw2aQAO8CNk"}, {"place_id": "ChIJTYIfiH79DDkRyQl1iNCxQp0", "name": "NXTGN (Next Generation)", "street": "Laxman Puri, L-312, Tel Mil Gali, near White House Hotel, Ram Nagar, Paharganj, New Delhi, Delhi 110055, India", "phone": "+91 70117 22361", "rating": "5", "review_count": "", "website": "https://nxtgn.co.in/", "latitude": 28.6471698, "longitude": 77.21432779999999, "maps_url": "https://www.google.com/maps/search/?api=1&query=NXTGN%20%28Next%20Generation%29&query_place_id=ChIJTYIfiH79DDkRyQl1iNCxQp0"}, {"place_id": "ChIJK-WxmpH9DDkRwaC5frsh24c", "name": "BANLEX", "street": "L-306, 1st Floor and 2nd floor,TEL MILL Gali Bhairo Wali, near Mehta Paints, Paharganj, New Delhi, Delhi 110055, India", "phone": "+91 78386 14783", "rating": "4.9", "review_count": "", "website": "", "latitude": 28.6472999, "longitude": 77.2141065, "maps_url": "https://www.google.com/maps/search/?api=1&query=BANLEX&query_place_id=ChIJK-WxmpH9DDkRwaC5frsh24c"}, {"place_id": "ChIJ1YfTA1j9DDkRtFLCIrG6hN4", "name": "COMPUTER SERVICE WALA", "street": "7939, Arakashan Rd, Prem Nagar, Arya Nagar, Paharganj, New Delhi, Delhi, 110055, India", "phone": "+91 82872 91074", "rating": "5", "review_count": "", "website": "https://www.computerservicewala.com/?utm_source=google&utm_medium=wix_google_business_profile&utm_campaign=17238155820390660443", "latitude": 28.645704799999997, "longitude": 77.2176284, "maps_url": "https://www.google.com/maps/search/?api=1&query=COMPUTER%20SERVICE%20WALA&query_place_id=ChIJ1YfTA1j9DDkRtFLCIrG6hN4"}, {"place_id": "ChIJ1zgo5mr9DDkRrLYV2Xkrsg0", "name": "Laptop & School bags Manufacture", "street": "L 288, Tel Mill Gali, Laxmipuri, Paharganj, New Delhi, Delhi 110055, India", "phone": "+91 93544 29890", "rating": "4.7", "review_count": "", "website": "https://flytopbag.com/", "latitude": 28.6483246, "longitude": 77.2158663, "maps_url": "https://www.google.com/maps/search/?api=1&query=Laptop%20%26%20School%20bags%20Manufacture&query_place_id=ChIJ1zgo5mr9DDkRrLYV2Xkrsg0"}, {"place_id": "ChIJD34Ip2r9DDkR9Zkf1VkwVCo", "name": "Quality Label Company", "street": "opposte hotel, Arya Tourist Lodge, 7802, Arakashan Rd, Prem Nagar, Ram Nagar, Paharganj, New Delhi, Delhi, 110055, India", "phone": "+91 99710 89892", "rating": "4.9", "review_count": "", "website": "http://www.qualitylabel.co.in/", "latitude": 28.645817899999997, "longitude": 77.2170545, "maps_url": "https://www.google.com/maps/search/?api=1&query=Quality%20Label%20Company&query_place_id=ChIJD34Ip2r9DDkR9Zkf1VkwVCo"}, {"place_id": "ChIJCef7XhT9DDkR3yHHC4Lofpg", "name": "Kalpurja Company", "street": "72, GB Road, Shradhanand Marg, Delhi 6, Chandni Chowk, Delhi, 110006, India", "phone": "", "rating": "4.5", "review_count": "", "website": "http://www.kalpurjacompany.com/", "latitude": 28.650322499999998, "longitude": 77.2209807, "maps_url": "https://www.google.com/maps/search/?api=1&query=Kalpurja%20Company&query_place_id=ChIJCef7XhT9DDkR3yHHC4Lofpg"}, {"place_id": "ChIJO0mHNKX9DDkRG2dEic2pSQc", "name": "Super CA", "street": "8826/3, Multani Dhanda, Paharganj, New Delhi, Delhi 110055, India", "phone": "+91 80009 00068", "rating": "4.7", "review_count": "", "website": "https://www.superca.in/", "latitude": 28.646342399999998, "longitude": 77.2113846, "maps_url": "https://www.google.com/maps/search/?api=1&query=Super%20CA&query_place_id=ChIJO0mHNKX9DDkRG2dEic2pSQc"}, {"place_id": "ChIJZykFo679DDkRfLfUJvrZRPQ", "name": "Aizmo Wallet", "street": "C-227, Chinyot Basti, Nabi Karim, Paharganj, New Delhi, Delhi 110055, India", "phone": "", "rating": "4.5", "review_count": "", "website": "", "latitude": 28.648297699999997, "longitude": 77.2132917, "maps_url": "https://www.google.com/maps/search/?api=1&query=Aizmo%20Wallet&query_place_id=ChIJZykFo679DDkRfLfUJvrZRPQ"}, {"place_id": "ChIJd-3rnjD9DDkRC1ouB5NrtvU", "name": "ITI Tools Co (INDIAN TECHNOLOGY CO.)", "street": "3675, Shradhanand Marg, Chabdi Bazar, Ajmeri Gate, New Delhi, Delhi, 110006, India", "phone": "+91 98714 08551", "rating": "3.2", "review_count": "", "website": "", "latitude": 28.648723399999998, "longitude": 77.2218827, "maps_url": "https://www.google.com/maps/search/?api=1&query=ITI%20Tools%20Co%20%28INDIAN%20TECHNOLOGY%20CO.%29&query_place_id=ChIJd-3rnjD9DDkRC1ouB5NrtvU"}, {"place_id": "ChIJoZk8Znn9DDkRmEeBSuU-CDg", "name": "Taroz", "street": "AB 327, Amar Puri, Nabi Karim, Paharganj, New Delhi, Delhi 110055, India", "phone": "", "rating": "5", "review_count": "", "website": "http://taroz.in/", "latitude": 28.648650999999997, "longitude": 77.2147229, "maps_url": "https://www.google.com/maps/search/?api=1&query=Taroz&query_place_id=ChIJoZk8Znn9DDkRmEeBSuU-CDg"}, {"place_id": "ChIJVVVVJUL9DDkRdQ6lOpBZGOU", "name": "Skycut India", "street": "first floor, 3034, Gali No. 2, near Hari Masid, Bazar Sangatrashan, Chuna Mandi, Paharganj, New Delhi, Delhi 110055, India", "phone": "+91 87507 77222", "rating": "4.8", "review_count": "", "website": "https://skycutindia.com/", "latitude": 28.6449693, "longitude": 77.2110816, "maps_url": "https://www.google.com/maps/search/?api=1&query=Skycut%20India&query_place_id=ChIJVVVVJUL9DDkRdQ6lOpBZGOU"}, {"place_id": "ChIJO2tzUa2wTAARwJcWEKyw7FY", "name": "DNG WEB DEVELOPER - Website Development and Designing Company Delhi | App Development | Digital Marketing Company in Delhi", "street": "J6W7+475, Arya Nagar, Paharganj, New Delhi, Delhi 110055, India", "phone": "", "rating": "", "review_count": "", "website": "https://www.dngwebdeveloper.com/", "latitude": 28.6452545, "longitude": 77.2132341, "maps_url": "https://www.google.com/maps/search/?api=1&query=DNG%20WEB%20DEVELOPER%20-%20Website%20Development%20and%20Designing%20Company%20Delhi%20%7C%20App%20Development%20%7C%20Digital%20Marketing%20Company%20in%20Delhi&query_place_id=ChIJO2tzUa2wTAARwJcWEKyw7FY"}, {"place_id": "ChIJ94m9_p79DDkRvm7QiwcnZQ0", "name": "Abdullah Khan", "street": "shop no 1, Ratan Lal Market, Kaseru Walan, Paharganj, New Delhi, Delhi 110055, India", "phone": "+91 80761 21114", "rating": "5", "review_count": "", "website": "", "latitude": 28.6446407, "longitude": 77.2141139, "maps_url": "https://www.google.com/maps/search/?api=1&query=Abdullah%20Khan&query_place_id=ChIJ94m9_p79DDkRvm7QiwcnZQ0"}, {"place_id": "ChIJl0O_Kun9DDkRRG0USQH2Kuk", "name": "AHLAN TRADER COMPANY", "street": "AHLAN TRADER,BB-115,First Floor Bagrian Basti, Nabi Karim, Paharganj, New Delhi, Delhi 110055, India", "phone": "+91 70422 50150", "rating": "5", "review_count": "", "website": "", "latitude": 28.650358699999998, "longitude": 77.2149998, "maps_url": "https://www.google.com/maps/search/?api=1&query=AHLAN%20TRADER%20COMPANY&query_place_id=ChIJl0O_Kun9DDkRRG0USQH2Kuk"}, {"place_id": "ChIJ__8_hET9DDkRcBmlpZ8dWQQ", "name": "IT Tech Solution", "street": "OBC Building, Near R.K. Ashram Metro Station, Gate No.-2, Pahar Ganj Main Market, New Delhi, Delhi 110001, India", "phone": "+91 93506 44652", "rating": "5", "review_count": "", "website": "", "latitude": 28.639267699999998, "longitude": 77.2084496, "maps_url": "https://www.google.com/maps/search/?api=1&query=IT%20Tech%20Solution&query_place_id=ChIJ__8_hET9DDkRcBmlpZ8dWQQ"}, {"place_id": "ChIJZRpajZL9DDkRsRooVyOtp5Q", "name": "Cyberianhunter", "street": "Ram Nagar, Paharganj, New Delhi, Delhi 110055, India", "phone": "+91 77070 74742", "rating": "", "review_count": "", "website": "https://cyberianhunter.ueniweb.com/?utm_campaign=gmb", "latitude": 28.646826599999997, "longitude": 77.2153664, "maps_url": "https://www.google.com/maps/search/?api=1&query=Cyberianhunter&query_place_id=ChIJZRpajZL9DDkRsRooVyOtp5Q"}, {"place_id": "ChIJM9r7u0r9DDkRiUvt7zjjpRM", "name": "IT Executive vivek", "street": "22, Vijay Ghat, Raj Ghat, New Delhi, Delhi, 110006, India", "phone": "", "rating": "", "review_count": "", "website": "https://itexecuitive.com/", "latitude": 28.6584512, "longitude": 77.2449233, "maps_url": "https://www.google.com/maps/search/?api=1&query=IT%20Executive%20vivek&query_place_id=ChIJM9r7u0r9DDkRiUvt7zjjpRM"}]