[{"place_id": "ChIJC3MN3zb9DDkR-JxtEG9cQg0", "name": "I. T. Solutions", "street": "Gate No. 8, A-6, 1st Floor, Inner Circle, Above Post office, near ICICI Bank, Bon Ton and Metro, Connaught Place, New Delhi, Delhi 110001, India", "phone": "+91 11 4152 3242", "rating": "4.9", "review_count": "", "website": "http://www.itsolutioncp.com/", "latitude": 28.6324367, "longitude": 77.2183441, "maps_url": "https://www.google.com/maps/search/?api=1&query=I.%20T.%20Solutions&query_place_id=ChIJC3MN3zb9DDkR-JxtEG9cQg0"}, {"place_id": "ChIJuzZ3usj9DDkR5Q91Qz7GlDc", "name": "Busy Infotech Pvt. Ltd.", "street": "3, Rani Jhansi Rd, Block E 4, Jhandewalan Extension, Karol Bagh, New Delhi, Delhi 110055, India", "phone": "+91 11 4096 4096", "rating": "4.6", "review_count": "", "website": "https://busy.in/", "latitude": 28.6454408, "longitude": 77.2042627, "maps_url": "https://www.google.com/maps/search/?api=1&query=Busy%20Infotech%20Pvt.%20Ltd.&query_place_id=ChIJuzZ3usj9DDkR5Q91Qz7GlDc"}, {"place_id": "ChIJA6KtL5kCDTkR7wFe_OSD2bE", "name": "Omniscient IT Solutions Pvt. Ltd", "street": "4, 28, Saraswati Marg, Block 15A, WEA, Karol Bagh, New Delhi, Delhi, 110005, India", "phone": "+91 98110 27310", "rating": "4.6", "review_count": "", "website": "https://www.omniscientitsolutions.com/", "latitude": 28.646959, "longitude": 77.1882229, "maps_url": "https://www.google.com/maps/search/?api=1&query=Omniscient%20IT%20Solutions%20Pvt.%20Ltd&query_place_id=ChIJA6KtL5kCDTkR7wFe_OSD2bE"}, {"place_id": "ChIJJeiqOUH9DDkR-rbEk6_38b4", "name": "SSTech Networking Solution Pvt. Ltd.", "street": "1649, Main Bazar Rd, Chuna Mandi, Paharganj, New Delhi, Delhi 110055, India", "phone": "+91 98705 41763", "rating": "4.6", "review_count": "", "website": "https://www.sstechnetwork.com/", "latitude": 28.640598999999998, "longitude": 77.20999499999999, "maps_url": "https://www.google.com/maps/search/?api=1&query=SSTech%20Networking%20Solution%20Pvt.%20Ltd.&query_place_id=ChIJJeiqOUH9DDkR-rbEk6_38b4"}, {"place_id": "ChIJPR796sD9DDkRLo5M9V9l1nA", "name": "Binarysoft Technologies (We bring IT)", "street": "1st Floor, 1626/33, Block 27F, Naiwala, Karol Bagh, Delhi, 110005, India", "phone": "+91 92054 71661", "rating": "5", "review_count": "", "website": "http://www.binarysoft.com/", "latitude": 28.647633, "longitude": 77.19496199999999, "maps_url": "https://www.google.com/maps/search/?api=1&query=Binarysoft%20Technologies%20%28We%20bring%20IT%29&query_place_id=ChIJPR796sD9DDkRLo5M9V9l1nA"}, {"place_id": "ChIJRQRphTf9DDkRd0T6W9lORd8", "name": "Softin System Private Limited", "street": "K Block, K-53, Connaught Cir, Block K, Connaught Place, New Delhi, Delhi 110001, India", "phone": "+91 99991 24399", "rating": "3.6", "review_count": "", "website": "http://www.softinsystem.com/", "latitude": 28.6350208, "longitude": 77.2205089, "maps_url": "https://www.google.com/maps/search/?api=1&query=Softin%20System%20Private%20Limited&query_place_id=ChIJRQRphTf9DDkRd0T6W9lORd8"}, {"place_id": "ChIJO4sr49IDDTkRALZaeWsr-oI", "name": "Iraitech | Software Development Company", "street": "Central Square Complex 3, Unit No-1051, 1st Floor, Near Filmistan, DCM chowk, Bara Hindu Rao, Kishan Ganj, Delhi, 110006, India", "phone": "+91 81301 04108", "rating": "4.1", "review_count": "", "website": "https://www.iraitech.com/", "latitude": 28.6631951, "longitude": 77.20308639999999, "maps_url": "https://www.google.com/maps/search/?api=1&query=Iraitech%20%7C%20Software%20Development%20Company&query_place_id=ChIJO4sr49IDDTkRALZaeWsr-oI"}, {"place_id": "ChIJXUaNbIEDDTkRGeQ542Caims", "name": "Paper Code Technologies", "street": "T-1871 D, Ashok Nagar Uppar Ridge Road Jhandewalan, Karol Bagh, New Delhi, Delhi 110055, India", "phone": "+91 85958 85110", "rating": "4.9", "review_count": "", "website": "https://papercodetech.com/", "latitude": 28.647361, "longitude": 77.2016883, "maps_url": "https://www.google.com/maps/search/?api=1&query=Paper%20Code%20Technologies&query_place_id=ChIJXUaNbIEDDTkRGeQ542Caims"}, {"place_id": "ChIJUX61TOUCDTkRPmeqyd2Pcps", "name": "IT Solutions & Services (ITSS)", "street": "T–2425 Street Number 21, Baljeet Nagar, West Patel Nagar, New Delhi, Delhi 110008, India", "phone": "+91 88004 19462", "rating": "4.7", "review_count": "", "website": "https://www.itssin.com/", "latitude": 28.6576111, "longitude": 77.160708, "maps_url": "https://www.google.com/maps/search/?api=1&query=IT%20Solutions%20%26%20Services%20%28ITSS%29&query_place_id=ChIJUX61TOUCDTkRPmeqyd2Pcps"}, {"place_id": "ChIJ9ZOwCKP9DDkRSrZFLkI00po", "name": "FeathrAI", "street": "P21/90, Panchkuian Road Railway Colony, Railway Colony, Connaught Place, New Delhi, Delhi 110001, India", "phone": "", "rating": "5", "review_count": "", "website": "https://feathrai.xyz/", "latitude": 28.635936599999997, "longitude": 77.21566229999999, "maps_url": "https://www.google.com/maps/search/?api=1&query=FeathrAI&query_place_id=ChIJ9ZOwCKP9DDkRSrZFLkI00po"}, {"place_id": "ChIJFeXlTZkCDTkRNw2aQAO8CNk", "name": "Himalayan IT Solutions | Best Website Designing Company in Delhi | SEO/Digital Marketing Company in Delhi NCR, India", "street": "61/4255, Padam Singh Rd, Block 29, Block 1, Regar Pura, Karol Bagh, Delhi, 110005, India", "phone": "+91 98990 98509", "rating": "3.9", "review_count": "", "website": "http://www.himalayanitsolutions.com/", "latitude": 28.649673999999997, "longitude": 77.186599, "maps_url": "https://www.google.com/maps/search/?api=1&query=Himalayan%20IT%20Solutions%20%7C%20Best%20Website%20Designing%20Company%20in%20Delhi%20%7C%20SEO/Digital%20Marketing%20Company%20in%20Delhi%20NCR%2C%20India&query_place_id=ChIJFeXlTZkCDTkRNw2aQAO8CNk"}, {"place_id": "ChIJB6AZSUD9DDkRuApv-5TZXZg", "name": "MMI Softwares Pvt. Ltd.", "street": "B-A4, 9/54, Namdhari Chamber, Desh Bandhu Gupta Rd, Block 53, Karol Bagh, New Delhi, Delhi 110005, India", "phone": "+91 99714 76501", "rating": "4.6", "review_count": "", "website": "http://www.mmsoftwares.com/", "latitude": 28.6536804, "longitude": 77.1916753, "maps_url": "https://www.google.com/maps/search/?api=1&query=MMI%20Softwares%20Pvt.%20Ltd.&query_place_id=ChIJB6AZSUD9DDkRuApv-5TZXZg"}, {"place_id": "ChIJVdkZih79DDkR_dClCtK2ZkU", "name": "SoftGiant Technologies - Custom Software Development & Best eCommmerce Development Company in Delhi, India", "street": "T-1871 D, 2/F, Ashok Nagar Uppar Ridge Road Jhandewalan, Karol Bagh, New Delhi, Delhi 110055, India", "phone": "+91 85958 85110", "rating": "5", "review_count": "", "website": "http://www.softgianttech.com/", "latitude": 28.647350699999997, "longitude": 77.2016845, "maps_url": "https://www.google.com/maps/search/?api=1&query=SoftGiant%20Technologies%20-%20Custom%20Software%20Development%20%26%20Best%20eCommmerce%20Development%20Company%20in%20Delhi%2C%20India&query_place_id=ChIJVdkZih79DDkR_dClCtK2ZkU"}, {"place_id": "ChIJ4QYGyUj9DDkROXsrU8skcxw", "name": "GY SOLUTION INDIA", "street": "pachguiya road , basant lane, bansant lane, Paharganj, New Delhi, Delhi 110055, India", "phone": "+91 88003 18834", "rating": "5", "review_count": "", "website": "https://gysolutionindia.com/", "latitude": 28.6367588, "longitude": 77.21626119999999, "maps_url": "https://www.google.com/maps/search/?api=1&query=GY%20SOLUTION%20INDIA&query_place_id=ChIJ4QYGyUj9DDkROXsrU8skcxw"}, {"place_id": "ChIJL4BtX1wdDTkRIiNTpELCuuM", "name": "Nobilitas Infotech Pvt. Ltd. - IT Solutions Company", "street": "Padma Tower II, 210, Rajendra Place, New Delhi, Delhi 110005, India", "phone": "+91 84483 84926", "rating": "5", "review_count": "", "website": "https://www.nobilitasinfotech.com/", "latitude": 28.6451836, "longitude": 77.1780375, "maps_url": "https://www.google.com/maps/search/?api=1&query=Nobilitas%20Infotech%20Pvt.%20Ltd.%20-%20IT%20Solutions%20Company&query_place_id=ChIJL4BtX1wdDTkRIiNTpELCuuM"}, {"place_id": "ChIJJRo_97H9DDkRadsACtJK4Zk", "name": "iGenius", "street": "Auliya Masjid, shop no 33 NDMC Market, Outer Circle, Connaught Place Opposite Lazeez Affair Block K Connaught Place outer circle, Minto Rd, Before, New Delhi, Delhi 110001, India", "phone": "+91 88609 58882", "rating": "4.6", "review_count": "", "website": "https://igeniusstore.in/", "latitude": 28.635552999999998, "longitude": 77.2209038, "maps_url": "https://www.google.com/maps/search/?api=1&query=iGenius&query_place_id=ChIJJRo_97H9DDkRadsACtJK4Zk"}, {"place_id": "ChIJ6fogp5QCDTkRX_8pAuL_gew", "name": "it company", "street": "Block 31/25, Block 31, East Patel Nagar, Patel Nagar, New Delhi, Delhi, 110008, India", "phone": "+91 98189 02645", "rating": "", "review_count": "", "website": "", "latitude": 28.6477211, "longitude": 77.1727298, "maps_url": "https://www.google.com/maps/search/?api=1&query=it%20company&query_place_id=ChIJ6fogp5QCDTkRX_8pAuL_gew"}, {"place_id": "ChIJ_aNaucT9DDkRKOqFo_DqgsU", "name": "E-GLOBAL COMPUTECH", "street": "421 GALI, Chandi Wali Gali, Ratan Lal Market, Kaseru Walan, Paharganj, New Delhi, Delhi 110055, India", "phone": "", "rating": "5", "review_count": "", "website": "https://www.amazon.in/Mobile-Automobile-Accessories-E-GLOBAL-COMPUTECH/s?rh=n:1389406031,p_6:A38A92UQCK9C2", "latitude": 28.6415889, "longitude": 77.2142576, "maps_url": "https://www.google.com/maps/search/?api=1&query=E-GLOBAL%20COMPUTECH&query_place_id=ChIJ_aNaucT9DDkRKOqFo_DqgsU"}, {"place_id": "ChIJSy2Jhp4CDTkR_0QSNabY9kM", "name": "Digital Marketing Agency, Software Development Company, SEO Services Company in Delhi", "street": "3rd Floor, 16/448, Block - I, Building Number, Military Rd, Karol Bagh, New Delhi, Delhi 110005, India", "phone": "+91 98183 53030", "rating": "5", "review_count": "", "website": "https://www.micromind.in/", "latitude": 28.655144999999997, "longitude": 77.18114899999999, "maps_url": "https://www.google.com/maps/search/?api=1&query=Digital%20Marketing%20Agency%2C%20Software%20Development%20Company%2C%20SEO%20Services%20Company%20in%20Delhi&query_place_id=ChIJSy2Jhp4CDTkR_0QSNabY9kM"}, {"place_id": "ChIJJS2nYJoCDTkR8ZKgzjgdREU", "name": "Payroll Software Companies", "street": "4/28, Ground Floor, Saraswati Marg, W.E.A, Karol Bagh, New Delhi, Delhi 110005, India", "phone": "+91 97111 95490", "rating": "4.3", "review_count": "", "website": "", "latitude": 28.6484551, "longitude": 77.1875826, "maps_url": "https://www.google.com/maps/search/?api=1&query=Payroll%20Software%20Companies&query_place_id=ChIJJS2nYJoCDTkR8ZKgzjgdREU"}, {"place_id": "ChIJCQILnTz9DDkR44UozrpDxo8", "name": "Wefix computer", "street": "Lakshmi Narayan St, Aram Bagh, Paharganj, New Delhi, Delhi 110055, India", "phone": "", "rating": "4.9", "review_count": "", "website": "http://wefixcomputer.in/", "latitude": 28.6409895, "longitude": 77.21013169999999, "maps_url": "https://www.google.com/maps/search/?api=1&query=Wefix%20computer&query_place_id=ChIJCQILnTz9DDkR44UozrpDxo8"}, {"place_id": "ChIJvSMRhEnkDDkR4SoimomSo8g", "name": "AlgoJi Enterprises Pvt Ltd", "street": "55 S/F, Panchkuian Rd, Connaught Place, Delhi 110001, India", "phone": "+91 87663 34686", "rating": "4.7", "review_count": "", "website": "http://algoji.com/", "latitude": 28.6383403, "longitude": 77.2098042, "maps_url": "https://www.google.com/maps/search/?api=1&query=AlgoJi%20Enterprises%20Pvt%20Ltd&query_place_id=ChIJvSMRhEnkDDkR4SoimomSo8g"}, {"place_id": "ChIJuWHhgOADDTkRnxxopj0gupQ", "name": "Accuwisetech IT Solution & Digital Marketing Agency", "street": "Metro Station Patel Nagar, 2/15, station, West Patel Nagar, New Delhi, Delhi, 110008, India", "phone": "", "rating": "4.9", "review_count": "", "website": "https://accuwisetech.com/", "latitude": 28.645363, "longitude": 77.1688322, "maps_url": "https://www.google.com/maps/search/?api=1&query=Accuwisetech%20IT%20Solution%20%26%20Digital%20Marketing%20Agency&query_place_id=ChIJuWHhgOADDTkRnxxopj0gupQ"}, {"place_id": "ChIJhQA24pwCDTkRWfXhsKxWWBU", "name": "AJS Software Technologies", "street": "24-B/5, D.B. Gupta Road, Block 24 B, Dev Nagar, Karol Bagh, New Delhi, Delhi, 110005, India", "phone": "+91 11 4524 4577", "rating": "4.1", "review_count": "", "website": "https://www.ajssoft.com/", "latitude": 28.657653, "longitude": 77.1841926, "maps_url": "https://www.google.com/maps/search/?api=1&query=AJS%20Software%20Technologies&query_place_id=ChIJhQA24pwCDTkRWfXhsKxWWBU"}, {"place_id": "ChIJl5geAqLjDDkRGQx9atNSvyg", "name": "It Softtech - Website Designing and Development Company in Delhi, India", "street": "149, Ring Rd, opp. Maharani Bagh, Kilokri, Phase 1, Hari Nagar Ashram, New Delhi, Delhi 110014, India", "phone": "+91 98100 56177", "rating": "5", "review_count": "", "website": "", "latitude": 28.5763395, "longitude": 77.2640869, "maps_url": "https://www.google.com/maps/search/?api=1&query=It%20Softtech%20-%20Website%20Designing%20and%20Development%20Company%20in%20Delhi%2C%20India&query_place_id=ChIJl5geAqLjDDkRGQx9atNSvyg"}, {"place_id": "ChIJ_____5wCDTkRmctlbebPgJc", "name": "P S SOFTECH PRIVATE LIMITED", "street": "202, 9A/1, Channa Market, Block 18, WEA, Karol Bagh, New Delhi, Delhi, 110005, India", "phone": "+91 11 2574 0282", "rating": "4.6", "review_count": "", "website": "https://www.pssoftech.com/contact.htm", "latitude": 28.645310199999997, "longitude": 77.1841836, "maps_url": "https://www.google.com/maps/search/?api=1&query=P%20S%20SOFTECH%20PRIVATE%20LIMITED&query_place_id=ChIJ_____5wCDTkRmctlbebPgJc"}, {"place_id": "ChIJE94AvRvuFQ4RJ57JzEpq5Ig", "name": "Bags Tech India", "street": "Ground Floor, Qasab Pura Baba ji, overhead tank, t-265-266, Gurudware Wali Gali, Bazar Sangatrashan, Bharat Nagar, Sadar Bazaar, New Delhi, Delhi 110055, India", "phone": "+91 11 4701 9178", "rating": "4.7", "review_count": "", "website": "https://www.indiamart.com/bags-tech-india/", "latitude": 28.6410616, "longitude": 77.2132558, "maps_url": "https://www.google.com/maps/search/?api=1&query=Bags%20Tech%20India&query_place_id=ChIJE94AvRvuFQ4RJ57JzEpq5Ig"}, {"place_id": "ChIJA_xpkbD9DDkRBTrji5OVYa4", "name": "FreePestSolution Private Limited", "street": "Shop no-85, GENERAL MARKET, Freepest Solution Pvt. Ltd, Paharganj, New Delhi, Delhi 110055, India", "phone": "", "rating": "5", "review_count": "", "website": "https://www.linkedin.com/company/freepest-solutions/", "latitude": 28.6406159, "longitude": 77.2127165, "maps_url": "https://www.google.com/maps/search/?api=1&query=FreePestSolution%20Private%20Limited&query_place_id=ChIJA_xpkbD9DDkRBTrji5OVYa4"}, {"place_id": "ChIJ0TD7dET9DDkRmGGFyMCcdTo", "name": "Arora Tourist Company", "street": "Gate No 3, Metro Station, U22, Near, AGS RK Ashram Marg, New Delhi, Delhi 110001, India", "phone": "+91 98102 00839", "rating": "4.7", "review_count": "", "website": "", "latitude": 28.639070099999998, "longitude": 77.2084186, "maps_url": "https://www.google.com/maps/search/?api=1&query=Arora%20Tourist%20Company&query_place_id=ChIJ0TD7dET9DDkRmGGFyMCcdTo"}, {"place_id": "ChIJ__8TbDn9DDkRrenc4mAyvNU", "name": "Railtel Corporation Of India Network Operating Center", "street": "Railtel Microwave Tower, Ajmeri Gate, New Delhi, Delhi, 110002, India", "phone": "+91 11 2323 6406", "rating": "4", "review_count": "", "website": "", "latitude": 28.6391621, "longitude": 77.22212569999999, "maps_url": "https://www.google.com/maps/search/?api=1&query=Railtel%20Corporation%20Of%20India%20Network%20Operating%20Center&query_place_id=ChIJ__8TbDn9DDkRrenc4mAyvNU"}, {"place_id": "ChIJoyOgWmr9DDkRe0ZlmGVlm68", "name": "Lift Digitally Best Internet Marketing Agency in Delhi", "street": "PVR Plaza, Block H, Connaught Place, New Delhi, Delhi 110001, India", "phone": "+91 97112 37678", "rating": "5", "review_count": "", "website": "https://liftdigitally.com/", "latitude": 28.634982299999997, "longitude": 77.2195529, "maps_url": "https://www.google.com/maps/search/?api=1&query=Lift%20Digitally%20Best%20Internet%20Marketing%20Agency%20in%20Delhi&query_place_id=ChIJoyOgWmr9DDkRe0ZlmGVlm68"}, {"place_id": "ChIJ3_XyNzL9DDkRmLJVTX4Dd5g", "name": "Johnson & Co.", "street": "K-2, Block K, Connaught Place, New Delhi, Delhi 110001, India", "phone": "+91 11 4151 3121", "rating": "4.2", "review_count": "", "website": "http://www.johnsonandco.in/", "latitude": 28.635284199999997, "longitude": 77.22021699999999, "maps_url": "https://www.google.com/maps/search/?api=1&query=Johnson%20%26%20Co.&query_place_id=ChIJ3_XyNzL9DDkRmLJVTX4Dd5g"}, {"place_id": "ChIJObaPCaoDDTkR9L0Y1iyW3vo", "name": "Aprj E-Commerce", "street": "Shora Kothi, 4630, Main Bazar Rd, Shora Kothi, Kaseru Walan, Paharganj, New Delhi, Delhi 110055, India", "phone": "+91 99583 58240", "rating": "4.2", "review_count": "", "website": "", "latitude": 28.6408357, "longitude": 77.2152541, "maps_url": "https://www.google.com/maps/search/?api=1&query=Aprj%20E-Commerce&query_place_id=ChIJObaPCaoDDTkR9L0Y1iyW3vo"}, {"place_id": "ChIJ2ffGOgDkDDkRFML1Wp8HO6s", "name": "ManpowerGroup Services India Pvt Ltd. | Permanent Recruitment in Delhi", "street": "Suite No.A-1A, 1st floor, Block H, Connaught Place, New Delhi, Delhi 110001, India", "phone": "+91 11 6649 7500", "rating": "4.4", "review_count": "", "website": "https://www.manpowergroup.co.in/", "latitude": 28.6350129, "longitude": 77.21855719999999, "maps_url": "https://www.google.com/maps/search/?api=1&query=ManpowerGroup%20Services%20India%20Pvt%20Ltd.%20%7C%20Permanent%20Recruitment%20in%20Delhi&query_place_id=ChIJ2ffGOgDkDDkRFML1Wp8HO6s"}, {"place_id": "ChIJMfbBzwv9DDkRPaH8YcGHxm4", "name": "Webilance", "street": "", "phone": "+91 78380 02956", "rating": "4.5", "review_count": "", "website": "https://webilance.net/", "latitude": 15.409341399999999, "longitude": -178.0430729, "maps_url": "https://www.google.com/maps/search/?api=1&query=Webilance&query_place_id=ChIJMfbBzwv9DDkRPaH8YcGHxm4"}, {"place_id": "ChIJrf4mqkD9DDkRm_W8G8mhiNE", "name": "Corners Of Earth", "street": "Shop No, 5601, Basant Rd, opposite New Delhi Railway Station, Bagichi Ramchander, Kaseru Walan, Paharganj, New Delhi, Delhi, 110055, India", "phone": "+91 97180 95778", "rating": "4.6", "review_count": "", "website": "https://www.cornersofearth.net/", "latitude": 28.6413056, "longitude": 77.2177131, "maps_url": "https://www.google.com/maps/search/?api=1&query=Corners%20Of%20Earth&query_place_id=ChIJrf4mqkD9DDkRm_W8G8mhiNE"}, {"place_id": "ChIJ4TNbNDf9DDkRjqm-54ZK0_E", "name": "redwood digital media", "street": "", "phone": "+91 88825 79828", "rating": "4.9", "review_count": "", "website": "https://redwooddigitalmedi.wixsite.com/redwooddigitalmedia", "latitude": 9.374110199999999, "longitude": -84.9776569, "maps_url": "https://www.google.com/maps/search/?api=1&query=redwood%20digital%20media&query_place_id=ChIJ4TNbNDf9DDkRjqm-54ZK0_E"}, {"place_id": "ChIJdXCN3EEDDTkRoJINk8_fM1A", "name": "Ennod - IT Solutions", "street": "12-a/14, Saraswati Marg, Block 12A, WEA, Karol Bagh, New Delhi, Delhi, 110005, India", "phone": "+91 93105 55260", "rating": "", "review_count": "", "website": "https://ennod.com/", "latitude": 28.646982899999998, "longitude": 77.18712169999999, "maps_url": "https://www.google.com/maps/search/?api=1&query=Ennod%20-%20IT%20Solutions&query_place_id=ChIJdXCN3EEDDTkRoJINk8_fM1A"}, {"place_id": "ChIJM9r7u0r9DDkRiUvt7zjjpRM", "name": "IT Executive vivek", "street": "22, Vijay Ghat, Raj Ghat, New Delhi, Delhi, 110006, India", "phone": "", "rating": "", "review_count": "", "website": "https://itexecuitive.com/", "latitude": 28.6584512, "longitude": 77.2449233, "maps_url": "https://www.google.com/maps/search/?api=1&query=IT%20Executive%20vivek&query_place_id=ChIJM9r7u0r9DDkRiUvt7zjjpRM"}, {"place_id": "ChIJOZd2wWIDDTkRMdyNCdCtCIQ", "name": "Groot Infotech", "street": "Padma Tower II, 502, Rajendra Place, New Delhi, Delhi 110005, India", "phone": "+91 85273 53508", "rating": "", "review_count": "", "website": "https://www.grootinfotech.com/", "latitude": 28.6451836, "longitude": 77.1780375, "maps_url": "https://www.google.com/maps/search/?api=1&query=Groot%20Infotech&query_place_id=ChIJOZd2wWIDDTkRMdyNCdCtCIQ"}]