{"timestamp": 1773731139.2169094, "keyword": "IT company", "location": "delhi", "cell_idx": 349, "results": [{"place_id": "0x4ebf586dbe4d7c09:0x968455c83bf5226c", "name": "Anchor IT Solutions- App Development | Website Development | Digital Marketing", "category": "Software company", "street": "4", "city": "Vinoba Puri, Lajpat Nagar II, Lajpat Nagar", "phone": "07678658584", "website": "", "rating": 4.8, "review_count": "", "latitude": 28.566371399999998, "longitude": 77.2486924, "maps_url": "https://www.google.com/maps/place/?q=place_id:0x4ebf586dbe4d7c09:0x968455c83bf5226c"}, {"place_id": "0x390d1ed30fec73b3:0xcadca8d38534a3c0", "name": "Consilium Software Pvt. Ltd.", "category": "Software company", "street": "2nd Floor", "city": "L-96", "phone": "01142828900", "website": "https://www.consiliumsoftware.com/", "rating": 3.9, "review_count": "", "latitude": 28.568406, "longitude": 77.24700399999999, "maps_url": "https://www.google.com/maps/place/?q=place_id:0x390d1ed30fec73b3:0xcadca8d38534a3c0"}, {"place_id": "0x390ce3c153b89811:0xe7a279685777e9ca", "name": "IT Company", "category": "Automation company", "street": "A-14", "city": "near iskcon temple", "phone": "", "website": "http://www.opuswiz.com/", "rating": 3, "review_count": "", "latitude": 28.557167, "longitude": 77.25424819999999, "maps_url": "https://www.google.com/maps/place/?q=place_id:0x390ce3c153b89811:0xe7a279685777e9ca"}, {"place_id": "0x390ce3a38353fbcf:0x7ecc2579d72dbed7", "name": "Multivirt India Pvt. Ltd.", "category": "Software company", "street": "Pal House", "city": "101 C/5, Mathura Rd", "phone": "09810064903", "website": "https://www.multivirt.com/", "rating": 4.8, "review_count": "", "latitude": 28.574304599999998, "longitude": 77.25766469999999, "maps_url": "https://www.google.com/maps/place/?q=place_id:0x390ce3a38353fbcf:0x7ecc2579d72dbed7"}, {"place_id": "0x390ce458d0000001:0xf2123bd299ec4501", "name": "IT Company India", "category": "Software company", "street": "D56", "city": "D Block, Sector 10", "phone": "09999244854", "website": "https://www.itcompanyindia.in/", "rating": 4.7, "review_count": "", "latitude": 28.589917699999997, "longitude": 77.3351153, "maps_url": "https://www.google.com/maps/place/?q=place_id:0x390ce458d0000001:0xf2123bd299ec4501"}, {"place_id": "0x390ce3b473aba6b5:0xaa5dc9cc534fd17c", "name": "Jingle Infotech Limited", "category": "Software company", "street": "C-15,3rd Floor,", "city": "Amar Colony Main Market,Lajpat Nagar IV", "phone": "09810143160", "website": "http://www.jingleinfotech.com/", "rating": 4.2, "review_count": "", "latitude": 28.5622647, "longitude": 77.2447653, "maps_url": "https://www.google.com/maps/place/?q=place_id:0x390ce3b473aba6b5:0xaa5dc9cc534fd17c"}, {"place_id": "0x390ce3b48e27a563:0x4ec8ae3c524366b", "name": "iSOFT INDIA TECHNOLOGIES", "category": "Software company", "street": "E-168|169, Amar Colony, Lajpat Nagar", "city": "New Delhi, Delhi 110024", "phone": "09717978320", "website": "", "rating": 4.9, "review_count": "", "latitude": 28.5657368, "longitude": 77.23946029999999, "maps_url": "https://www.google.com/maps/place/?q=place_id:0x390ce3b48e27a563:0x4ec8ae3c524366b"}, {"place_id": "0x390ce3e348283f29:0x9c0a87a57aabf664", "name": "Techtra Digital", "category": "Website designer", "street": "3rd Floor", "city": "O-13", "phone": "07303317370", "website": "https://techtradigital.com/", "rating": 4.9, "review_count": "", "latitude": 28.567038999999998, "longitude": 77.24683639999999, "maps_url": "https://www.google.com/maps/place/?q=place_id:0x390ce3e348283f29:0x9c0a87a57aabf664"}, {"place_id": "0x390ce3b1d9a7a281:0xfb01f8c4fd97886e", "name": "Mayanks It Solutions", "category": "Corporate office", "street": "M23", "city": "Vinoba Puri, Block M, Lajpat Nagar II, Lajpat Nagar", "phone": "", "website": "", "rating": 3.7, "review_count": "", "latitude": 28.5687148, "longitude": 77.2482442, "maps_url": "https://www.google.com/maps/place/?q=place_id:0x390ce3b1d9a7a281:0xfb01f8c4fd97886e"}, {"place_id": "0x390ce5fdcc79e755:0x309ce99251b84ef6", "name": "Optyminds IT Solutions - Top AI and IT company I Best Digital agency in Noida | Delhi NCR | India", "category": "Software company", "street": "1st Floor", "city": "B-70", "phone": "08929075975", "website": "https://optyminds.com/", "rating": 4.9, "review_count": "", "latitude": 28.584679599999998, "longitude": 77.3135042, "maps_url": "https://www.google.com/maps/place/?q=place_id:0x390ce5fdcc79e755:0x309ce99251b84ef6"}, {"place_id": "0x390ce3b1b9b75c7f:0xcb42ac0545df105a", "name": "Grovy India Limited - Real Estate Developer", "category": "Corporate office", "street": "122, Vinobha Puri", "city": "Vinoba Puri, Lajpat Nagar II, Lajpat Nagar", "phone": "08851138307", "website": "https://www.grovyindia.com/", "rating": 4.7, "review_count": "", "latitude": 28.5671546, "longitude": 77.2483774, "maps_url": "https://www.google.com/maps/place/?q=place_id:0x390ce3b1b9b75c7f:0xcb42ac0545df105a"}, {"place_id": "0x390ce3a0c557d4a1:0x32c5d088face5469", "name": "PREDICTCODE", "category": "Software company", "street": "Ashram Chowk", "city": "near by NICL BUILDING", "phone": "08287773440", "website": "http://predictcode.com/", "rating": 4.9, "review_count": "", "latitude": 28.579327199999998, "longitude": 77.25855179999999, "maps_url": "https://www.google.com/maps/place/?q=place_id:0x390ce3a0c557d4a1:0x32c5d088face5469"}, {"place_id": "0x390ce3c9529bba6b:0xcd30aee650c3003f", "name": "SmartValue Limited New Delhi", "category": "Business networking company", "street": "M-17, Second Floor", "city": "Lajpat Nagar II", "phone": "01141015963", "website": "https://smartvalue.biz/", "rating": 4.9, "review_count": "", "latitude": 28.5685988, "longitude": 77.2476595, "maps_url": "https://www.google.com/maps/place/?q=place_id:0x390ce3c9529bba6b:0xcd30aee650c3003f"}, {"place_id": "0x390ce3c0c2350819:0xe7c9f6c1b4a3a919", "name": "Electronic Eye Services", "category": "Security system installation service", "street": "Block L", "city": "L -103", "phone": "09811097859", "website": "", "rating": 4.9, "review_count": "", "latitude": 28.5688732, "longitude": 77.2473227, "maps_url": "https://www.google.com/maps/place/?q=place_id:0x390ce3c0c2350819:0xe7c9f6c1b4a3a919"}, {"place_id": "0x390ce24b3fffffff:0x9f587d89ba46604", "name": "Microchip Infotech Systems Private Limited", "category": "Software company", "street": "A 102", "city": "Amar Colony A Block, Block A, Lajpat Nagar 4, Lajpat Nagar", "phone": "01141324610", "website": "http://www.microchipindia.com/", "rating": 3.4, "review_count": "", "latitude": 28.561472499999997, "longitude": 77.2418012, "maps_url": "https://www.google.com/maps/place/?q=place_id:0x390ce24b3fffffff:0x9f587d89ba46604"}, {"place_id": "0x390ce3b7c0000001:0x46ddd80ee502d937", "name": "Amtrak Technologies Private Limited", "category": "Computer support and services", "street": "6, Community Centre", "city": "East of Kailash", "phone": "01126448000", "website": "https://amtrak.co.in/", "rating": 4.4, "review_count": "", "latitude": 28.558434899999998, "longitude": 77.2463302, "maps_url": "https://www.google.com/maps/place/?q=place_id:0x390ce3b7c0000001:0x46ddd80ee502d937"}, {"place_id": "0x390ce3f76b2711b3:0x9e3bb3494ffa66a8", "name": "Dextermind Technologies", "category": "Software company", "street": "Flat No 4", "city": "2nd Floor", "phone": "", "website": "", "rating": 3.7, "review_count": "", "latitude": 28.569985199999998, "longitude": 77.253857, "maps_url": "https://www.google.com/maps/place/?q=place_id:0x390ce3f76b2711b3:0x9e3bb3494ffa66a8"}, {"place_id": "0x390ce3dcb5e76945:0x1f131cff855bc1b", "name": "Design Raddle", "category": "Website designer", "street": "M-58, Vinobha Puri", "city": "Vinoba Puri, Block M, Lajpat Nagar II, Lajpat Nagar", "phone": "", "website": "http://designraddle.in/", "rating": 4.8, "review_count": "", "latitude": 28.5676812, "longitude": 77.24817329999999, "maps_url": "https://www.google.com/maps/place/?q=place_id:0x390ce3dcb5e76945:0x1f131cff855bc1b"}, {"place_id": "0x390ce3932eaaaaab:0xb308d9aae0d93852", "name": "Al Hadaf Technologies\u2013 ERP, CRM, HRM, Hospital, School, Billing Software Development Company in Delhi NCR", "category": "Software company", "street": "96, Gate No-2", "city": "opp. Escort Hospital", "phone": "08586972994", "website": "https://www.alhadaftech.com/", "rating": 4.9, "review_count": "", "latitude": 28.5562397, "longitude": 77.2762099, "maps_url": "https://www.google.com/maps/place/?q=place_id:0x390ce3932eaaaaab:0xb308d9aae0d93852"}, {"place_id": "0x390ce25e35e99b33:0xf443abe69b4e8fcc", "name": "Synapse Valuetech Private Limited", "category": "Software company", "street": "Lower Ground Floor", "city": "221", "phone": "01146628882", "website": "https://www.synapsevaluetech.com/", "rating": 4.3, "review_count": "", "latitude": 28.558165, "longitude": 77.2592385, "maps_url": "https://www.google.com/maps/place/?q=place_id:0x390ce25e35e99b33:0xf443abe69b4e8fcc"}, {"place_id": "0x390ce3cfe91504eb:0x55346c5c499223d7", "name": "CCS Computers Private Limited", "category": "Computer support and services", "street": "2nd-3rd Floor Skipper House", "city": "Nehru Place", "phone": "01126463959", "website": "http://www.ccscomputers.co.in/", "rating": 4, "review_count": "", "latitude": 28.550090599999997, "longitude": 77.2537834, "maps_url": "https://www.google.com/maps/place/?q=place_id:0x390ce3cfe91504eb:0x55346c5c499223d7"}, {"place_id": "0x390ce32f7f91b893:0xf7c2be7eb729f502", "name": "Digital marketing Company, website Designing Company ( Logo Designing Company ) ( Online Marketplace )", "category": "Website designer", "street": "120-G", "city": "Hari Nagar Ashram", "phone": "08920138925", "website": "https://royalcruiselimos.com/", "rating": 5, "review_count": "", "latitude": 28.5718902, "longitude": 77.2559809, "maps_url": "https://www.google.com/maps/place/?q=place_id:0x390ce32f7f91b893:0xf7c2be7eb729f502"}, {"place_id": "0x390feda4c4f56aed:0x2277b287e38fc0ec", "name": "Dizivan IT Solutions Pvt Ltd- App Development & Digital Marketing Company", "category": "Software company", "street": "near Metro Station New Ashok Nagar", "city": "Block B, New Ashok Nagar", "phone": "09142092979", "website": "https://dizivan.com/", "rating": 5, "review_count": "", "latitude": 28.5891575, "longitude": 77.3020624, "maps_url": "https://www.google.com/maps/place/?q=place_id:0x390feda4c4f56aed:0x2277b287e38fc0ec"}, {"place_id": "0x390ce3c6e0615e2d:0xdc83c3790a79d4d8", "name": "Wonder Werkz", "category": "Marketing agency", "street": "05 Basement", "city": "Vinoba Puri, Block M, Lajpat Nagar II, Lajpat Nagar", "phone": "09871664933", "website": "http://wonderwerkz.in/", "rating": 4.9, "review_count": "", "latitude": 28.5692927, "longitude": 77.24860509999999, "maps_url": "https://www.google.com/maps/place/?q=place_id:0x390ce3c6e0615e2d:0xdc83c3790a79d4d8"}, {"place_id": "0x390ce244b1ee50c5:0x826bef1a1fb4e62c", "name": "MAG Studios | Mobile Application, Software Development & Digital Marketing Company", "category": "Software company", "street": "6 Community Center", "city": "East of Kailash", "phone": "09910070501", "website": "http://www.mag-corp.com/", "rating": 3.8, "review_count": "", "latitude": 28.558550399999998, "longitude": 77.246208, "maps_url": "https://www.google.com/maps/place/?q=place_id:0x390ce244b1ee50c5:0x826bef1a1fb4e62c"}, {"place_id": "0x390ce3b1f16c1e5b:0x8f2160b8e594c860", "name": "iNvent - Apple Premium Reseller", "category": "Electronics store", "street": "No K94", "city": "Shop", "phone": "08071326428", "website": "https://stores.inventstore.in/invent/apple-stores-in-new-delhi/apple-stores-in-lajpat-nagar-2/invent-apple-premium-reseller-in-lajpat-nagar-2-new-delhi--7a90ae0c-d0be-4ffc-aacf-69017ff4b50a/home", "rating": 4.6, "review_count": "", "latitude": 28.5676597, "longitude": 77.2468258, "maps_url": "https://www.google.com/maps/place/?q=place_id:0x390ce3b1f16c1e5b:0x8f2160b8e594c860"}, {"place_id": "0x390cfdbab2b42671:0x82bd8df5bb3c55b5", "name": "Srishti Digilife Pvt Ltd - Delhi", "category": "Business to business service", "street": "2nd floor", "city": "L-114", "phone": "09600166698", "website": "https://www.srishtidigilife.co.in/", "rating": 4.8, "review_count": "", "latitude": 28.5680646, "longitude": 77.247014, "maps_url": "https://www.google.com/maps/place/?q=place_id:0x390cfdbab2b42671:0x82bd8df5bb3c55b5"}, {"place_id": "0x390ce3a975f3db77:0x396bf38cf0c54844", "name": "Instant Info Solutions - Digital Marketing Company in Delhi (Iis india)", "category": "Website designer", "street": "DAV School main gate", "city": "Jungpura Extension", "phone": "09871099631", "website": "https://www.iisindia.net/", "rating": 4.5, "review_count": "", "latitude": 28.5804331, "longitude": 77.2484017, "maps_url": "https://www.google.com/maps/place/?q=place_id:0x390ce3a975f3db77:0x396bf38cf0c54844"}, {"place_id": "0x390ce3b054006af3:0x73c98727cccd548d", "name": "ADONIS PHYTOCEUTICALS PVT. LTD.", "category": "Pharmaceutical company", "street": "H68X+HM6", "city": "92 B, BASEMENT", "phone": "01141037361", "website": "https://deadseaadonis.com/", "rating": 5, "review_count": "", "latitude": 28.567759, "longitude": 77.2497514, "maps_url": "https://www.google.com/maps/place/?q=place_id:0x390ce3b054006af3:0x73c98727cccd548d"}, {"place_id": "0x390ce3d23560ced1:0x692e460ab1370eb1", "name": "Authorised Service Centre (ASUS, MSI, Nothing, Boat, Noise)- F1 Info Solutions & Services Pvt Ltd - Lajpat Nagar", "category": "Computer support and services", "street": "L-108 / 109 , Second floor, Info Solution", "city": "F1", "phone": "", "website": "", "rating": 4, "review_count": "", "latitude": 28.568446599999998, "longitude": 77.2471424, "maps_url": "https://www.google.com/maps/place/?q=place_id:0x390ce3d23560ced1:0x692e460ab1370eb1"}, {"place_id": "0x390ce37bd12a6207:0xf3498ff6f587b0ec", "name": "Apple Authorized Service Provider - F1 Infosolutions", "category": "Computer support and services", "street": "L-108/109 2nd Floor", "city": "Block L, Part -ll, Lajpat Nagar", "phone": "01141005852", "website": "http://f1infoservices.com/", "rating": 4.1, "review_count": "", "latitude": 28.5683591, "longitude": 77.24715359999999, "maps_url": "https://www.google.com/maps/place/?q=place_id:0x390ce37bd12a6207:0xf3498ff6f587b0ec"}, {"place_id": "0x390ce393335b0317:0xd6f26887ac202ae7", "name": "DRM and COMPANY", "category": "Medical equipment supplier", "street": "O-30", "city": "ODS, Lajpat Nagar 4, Lajpat Nagar", "phone": "08851267277", "website": "http://www.drmcompany.co.in/", "rating": 4.6, "review_count": "", "latitude": 28.5644229, "longitude": 77.2485993, "maps_url": "https://www.google.com/maps/place/?q=place_id:0x390ce393335b0317:0xd6f26887ac202ae7"}, {"place_id": "0x390ce3ad9aaaaaab:0xcd1d6f28c3a14398", "name": "Team Building Pro - Corporate Team Building Company in Delhi NCR", "category": "Corporate office", "street": "1st-Floor", "city": "B-94", "phone": "09871030465", "website": "https://teambuildingpro.in/", "rating": 4.9, "review_count": "", "latitude": 28.5744208, "longitude": 77.23969579999999, "maps_url": "https://www.google.com/maps/place/?q=place_id:0x390ce3ad9aaaaaab:0xcd1d6f28c3a14398"}, {"place_id": "0x390ce3a50d31c433:0x6b666a6c42c78329", "name": "Dinesh Singh Negi", "category": "Website designer", "street": "4/31", "city": "Block 4, Nehru Nagar, Lajpat Nagar", "phone": "07503613371", "website": "", "rating": 4.1, "review_count": "", "latitude": 28.571727, "longitude": 77.25347699999999, "maps_url": "https://www.google.com/maps/place/?q=place_id:0x390ce3a50d31c433:0x6b666a6c42c78329"}, {"place_id": "0x48991f254e59661b:0xce70fb1c03fe4736", "name": "DGRoots (Digital Marketing Agency)", "category": "Website designer", "street": "H7C4+X8R", "city": "Railway Line Rd", "phone": "09871422893", "website": "https://www.dgroots.com/", "rating": 5, "review_count": "", "latitude": 28.5724831, "longitude": 77.2557601, "maps_url": "https://www.google.com/maps/place/?q=place_id:0x48991f254e59661b:0xce70fb1c03fe4736"}, {"place_id": "0x390ce3386d5b3269:0x2ebfe1551d711cbc", "name": "Takeups", "category": "Corporate office", "street": "Shiv Mandir Marg", "city": "Block L, Nehru Nagar, Lajpat Nagar", "phone": "", "website": "", "rating": 5, "review_count": "", "latitude": 28.5697384, "longitude": 77.247174, "maps_url": "https://www.google.com/maps/place/?q=place_id:0x390ce3386d5b3269:0x2ebfe1551d711cbc"}, {"place_id": "0x390ce39a24b89521:0x6e886c5e28fd05a9", "name": "Cloude Data Delhi | Best Cloud Service Provider company in India", "category": "Web hosting company", "street": "First Floor", "city": "A 212, Okhla Phase 3 Rd", "phone": "08882353612", "website": "https://cloudedata.com/", "rating": 4.4, "review_count": "", "latitude": 28.548515, "longitude": 77.2712834, "maps_url": "https://www.google.com/maps/place/?q=place_id:0x390ce39a24b89521:0x6e886c5e28fd05a9"}, {"place_id": "0x390ce3c87abeddd9:0xa68500e49b658474", "name": "IT Magnum Opus", "category": "Computer support and services", "street": "P-31", "city": "Sriniwaspuri Extn, Block Q, Private Colony, Sri Niwaspuri", "phone": "", "website": "https://www.itmo.in/", "rating": 4.8, "review_count": "", "latitude": 28.5626805, "longitude": 77.2597913, "maps_url": "https://www.google.com/maps/place/?q=place_id:0x390ce3c87abeddd9:0xa68500e49b658474"}, {"place_id": "0x390ce312a19918bb:0x6b9d6614fee3fbcf", "name": "Media Hub Production", "category": "Event planner", "street": "Flat No-09, 1st Floor", "city": "Main market", "phone": "", "website": "", "rating": 4.9, "review_count": "", "latitude": 28.5694788, "longitude": 77.2538921, "maps_url": "https://www.google.com/maps/place/?q=place_id:0x390ce312a19918bb:0x6b9d6614fee3fbcf"}, {"place_id": "0x390ce39a3aaaaaef:0xca57821ce7ee09b0", "name": "Smart IT Technologies", "category": "Website designer", "street": "Saroj Sadan", "city": "100", "phone": "08840274824", "website": "https://smartittechnologies.com/", "rating": 5, "review_count": "", "latitude": 28.5697218, "longitude": 77.2680354, "maps_url": "https://www.google.com/maps/place/?q=place_id:0x390ce39a3aaaaaef:0xca57821ce7ee09b0"}, {"place_id": "0x390ce3b5e9981665:0x6ed3916f90d5be3c", "name": "Netsoft Consulting Services", "category": "Information services", "street": "24, IInd Floor, Community Center, East Of Kailash", "city": "behind Sapna Cinema", "phone": "01145330000", "website": "https://netsoftit.com/contact-us/", "rating": 3.5, "review_count": "", "latitude": 28.5583678, "longitude": 77.24568579999999, "maps_url": "https://www.google.com/maps/place/?q=place_id:0x390ce3b5e9981665:0x6ed3916f90d5be3c"}, {"place_id": "0x390ce3b1ca9a1933:0x361e2fc3845ac3a8", "name": "S.Agarwal & Company Chartered Accountants", "category": "Chartered accountant", "street": "123, Vinobha Puri", "city": "Vinoba Puri, Block M, Lajpat Nagar II, Lajpat Nagar", "phone": "09811823222", "website": "", "rating": 4.7, "review_count": "", "latitude": 28.567228999999998, "longitude": 77.248509, "maps_url": "https://www.google.com/maps/place/?q=place_id:0x390ce3b1ca9a1933:0x361e2fc3845ac3a8"}, {"place_id": "0x390ce21b1531e423:0x5a5938d2b01fd334", "name": "TNC Consulting OPC Private Ltd", "category": "Computer support and services", "street": "10/54", "city": "Block 10, Nehru Nagar, Lajpat Nagar", "phone": "09910002538", "website": "", "rating": "", "review_count": "", "latitude": 28.571802899999998, "longitude": 77.2526395, "maps_url": "https://www.google.com/maps/place/?q=place_id:0x390ce21b1531e423:0x5a5938d2b01fd334"}, {"place_id": "0x44410b48618716b:0x7d0c5e38d0253ca9", "name": "WENGS SOLUTIONS LLP", "category": "Website designer", "street": "", "city": "", "phone": "09999537998", "website": "https://www.wengs.co.in/", "rating": 4.9, "review_count": "", "latitude": 13.4222866, "longitude": 142.1078416, "maps_url": "https://www.google.com/maps/place/?q=place_id:0x44410b48618716b:0x7d0c5e38d0253ca9"}, {"place_id": "0x390ce3fa30cb5c19:0xc2b9c3fe8db1dd54", "name": "KIREN SMART SERVICES", "category": "Software company", "street": "D-196, New", "city": "G/F, Lajpat Nagar I, Lajpat Nagar", "phone": "09873907360", "website": "https://kirensmartservices.com/", "rating": 4.1, "review_count": "", "latitude": 28.5785903, "longitude": 77.2423422, "maps_url": "https://www.google.com/maps/place/?q=place_id:0x390ce3fa30cb5c19:0xc2b9c3fe8db1dd54"}, {"place_id": "0x390ce3d76bb187e3:0xb399945aac2846ac", "name": "Adrianaa Services", "category": "Recruiter", "street": "B", "city": "37, 1", "phone": "09910493679", "website": "http://www.adrianaa.com/", "rating": 5, "review_count": "", "latitude": 28.569625, "longitude": 77.252112, "maps_url": "https://www.google.com/maps/place/?q=place_id:0x390ce3d76bb187e3:0xb399945aac2846ac"}, {"place_id": "0x390ce5112dc6b127:0x7c4636b23692d8db", "name": "Nawaz Film Production", "category": "Film Production Company", "street": "137-138", "city": "Vinoba Puri, Block M, Lajpat Nagar II, Lajpat Nagar", "phone": "", "website": "", "rating": 4.7, "review_count": "", "latitude": 28.567721799999998, "longitude": 77.2493408, "maps_url": "https://www.google.com/maps/place/?q=place_id:0x390ce5112dc6b127:0x7c4636b23692d8db"}, {"place_id": "0x390ce34e49b627ab:0xf91f8f0ac3105233", "name": "Sunder Watch Company", "category": "Watch store", "street": "Shop No. J-35B, Pushpa", "city": "Central Market, Lajpat Nagar II", "phone": "", "website": "", "rating": 4.9, "review_count": "", "latitude": 28.5690226, "longitude": 77.2436111, "maps_url": "https://www.google.com/maps/place/?q=place_id:0x390ce34e49b627ab:0xf91f8f0ac3105233"}, {"place_id": "0x390ce3083df185df:0xcff0bc07ace98fca", "name": "Dwitty & Company", "category": "Website designer", "street": "B-109", "city": "Block D, Jangpura B", "phone": "07011273521", "website": "", "rating": 5, "review_count": "", "latitude": 28.581945599999997, "longitude": 77.2534653, "maps_url": "https://www.google.com/maps/place/?q=place_id:0x390ce3083df185df:0xcff0bc07ace98fca"}, {"place_id": "0x38e18f908e2f2d41:0x7d82dadfe963ec38", "name": "ADF Consultants", "category": "Human resource consulting", "street": "Gayatri Puram Lane II, Municipal Market", "city": "Haftchinar Opp Fund office, Srinagar, J&K - 190009", "phone": "09469388868", "website": "", "rating": 4.9, "review_count": "", "latitude": 28.5714184, "longitude": 77.25379389999999, "maps_url": "https://www.google.com/maps/place/?q=place_id:0x38e18f908e2f2d41:0x7d82dadfe963ec38"}, {"place_id": "0x390ce30028c5ba15:0x6b27fab80883f54f", "name": "Tellyon Media Private Limited", "category": "Association / Organization", "street": "185", "city": "Vinoba Puri, Block M, Lajpat Nagar II, Lajpat Nagar", "phone": "09920495838", "website": "https://tellyon.com/", "rating": 4, "review_count": "", "latitude": 28.568186999999998, "longitude": 77.2486089, "maps_url": "https://www.google.com/maps/place/?q=place_id:0x390ce30028c5ba15:0x6b27fab80883f54f"}, {"place_id": "0x390ce3ad0fffffff:0x3ecf8b7fddc7ad82", "name": "Infocare Systems", "category": "Wholesaler", "street": "1st Floor", "city": "Shop No", "phone": "01129832525", "website": "", "rating": 4.5, "review_count": "", "latitude": 28.5684687, "longitude": 77.24767609999999, "maps_url": "https://www.google.com/maps/place/?q=place_id:0x390ce3ad0fffffff:0x3ecf8b7fddc7ad82"}, {"place_id": "0x390ce36617724aef:0x6a4fbcd9ee56c486", "name": "D K GUPTA & COMPANY", "category": "Chartered accountant", "street": "107, Mathura Rd", "city": "Hari Nagar Ashram", "phone": "08527283372", "website": "", "rating": 5, "review_count": "", "latitude": 28.5730996, "longitude": 77.2573867, "maps_url": "https://www.google.com/maps/place/?q=place_id:0x390ce36617724aef:0x6a4fbcd9ee56c486"}, {"place_id": "0x390ce3b20a187315:0xddfc5a6c75e1cc09", "name": "HEATING DEVELOPMENT CENTER /LAKSHMI NARAYAN ENGINEERING WORKS", "category": "Heating equipment supplier", "street": "SHOP NO", "city": "DDA MARKET", "phone": "09810290858", "website": "", "rating": 4.9, "review_count": "", "latitude": 28.5715775, "longitude": 77.2548648, "maps_url": "https://www.google.com/maps/place/?q=place_id:0x390ce3b20a187315:0xddfc5a6c75e1cc09"}, {"place_id": "0x390ce3ce67a8a4ef:0x995abb451473ec4e", "name": "24x7 corporate solutions", "category": "Manufacturer", "street": "Block G, Sri Niwaspuri", "city": "New Delhi, Delhi 110065", "phone": "08800498570", "website": "https://www.indiamart.com/carrywalk/", "rating": 5, "review_count": "", "latitude": 28.5660802, "longitude": 77.25295469999999, "maps_url": "https://www.google.com/maps/place/?q=place_id:0x390ce3ce67a8a4ef:0x995abb451473ec4e"}, {"place_id": "0x390ce3e6d9090973:0x879ea76698238e76", "name": "MAGMA GENERAL INSURANCE LIMITED - Delhi, Lajpat Nagar", "category": "Insurance agency", "street": "3rd floor", "city": "M/53, Block M Lajpat Nagar 2 Rd", "phone": "", "website": "", "rating": 4.1, "review_count": "", "latitude": 28.5680946, "longitude": 77.24740729999999, "maps_url": "https://www.google.com/maps/place/?q=place_id:0x390ce3e6d9090973:0x879ea76698238e76"}, {"place_id": "0x390ce3aa04d475ed:0xf8dc8eb725a83b25", "name": "Bajaj Life Insurance", "category": "Life insurance agency", "street": "3rd Floor", "city": "No L110 & L111", "phone": "02067121212", "website": "https://branch.bajajlifeinsurance.com/bajaj-life-insurance-new-delhi-life-insurance-lajpat-nagar-new-delhi-163154/Home?utm_source=locator&utm_medium=googleplaces", "rating": 4.5, "review_count": "", "latitude": 28.5682604, "longitude": 77.24704899999999, "maps_url": "https://www.google.com/maps/place/?q=place_id:0x390ce3aa04d475ed:0xf8dc8eb725a83b25"}, {"place_id": "0x390ce37f150f77e3:0xde30b0293d0eca63", "name": "The Sleep Company Experience Store - Lajpat Nagar", "category": "Mattress store", "street": "Unit 2/3, Gr Flr, H68W+X3R", "city": "Block K 42", "phone": "07304417550", "website": "https://thesleepcompany.in/pages/mattress-store-in-lajpat-nagar-delhi?utm_source=locator&utm_medium=googleplaces", "rating": 4.8, "review_count": "", "latitude": 28.5683302, "longitude": 77.24376509999999, "maps_url": "https://www.google.com/maps/place/?q=place_id:0x390ce37f150f77e3:0xde30b0293d0eca63"}, {"place_id": "0x390ce3381fe789c7:0xeec9fe6212acaddd", "name": "TRAVELTRANCE & FOREX PRIVATE LIMITED", "category": "Tour operator", "street": "L-2/6", "city": "near Anmol Jewellers", "phone": "", "website": "https://www.traveltf.com/", "rating": 4.9, "review_count": "", "latitude": 28.5682361, "longitude": 77.24664229999999, "maps_url": "https://www.google.com/maps/place/?q=place_id:0x390ce3381fe789c7:0xeec9fe6212acaddd"}, {"place_id": "0x390ce3afe9ab7ae5:0x954a7ba21a832abc", "name": "Darakht Theatre Company", "category": "Theater company", "street": "A-44", "city": "Block A, Dayanand Colony, Lajpat Nagar", "phone": "09716770546", "website": "https://www.facebook.com/darakhttheatregroup/", "rating": 4.9, "review_count": "", "latitude": 28.5616058, "longitude": 77.24858449999999, "maps_url": "https://www.google.com/maps/place/?q=place_id:0x390ce3afe9ab7ae5:0x954a7ba21a832abc"}, {"place_id": "0x390ce3afe9ab7ae5:0x954a7ba21a832abc", "name": "Darakht Theatre Company", "category": "Theater company", "street": "A-44", "city": "Block A, Dayanand Colony, Lajpat Nagar", "phone": "09716770546", "website": "https://www.facebook.com/darakhttheatregroup/", "rating": 4.9, "review_count": "", "latitude": 28.5616058, "longitude": 77.24858449999999, "maps_url": "https://www.google.com/maps/place/?q=place_id:0x390ce3afe9ab7ae5:0x954a7ba21a832abc"}, {"place_id": "0x390ce3310767a9cf:0x5cb737aab76ef468", "name": "Bauddhikwealth \u2013 Trademark Registration & IP Services", "category": "Legal services", "street": "Shop no 13", "city": "Block 8, Nehru Nagar, Lajpat Nagar", "phone": "09810767437", "website": "http://bauddhikwealth.in/", "rating": 5, "review_count": "", "latitude": 28.5706299, "longitude": 77.2522419, "maps_url": "https://www.google.com/maps/place/?q=place_id:0x390ce3310767a9cf:0x5cb737aab76ef468"}, {"place_id": "0x390ce25994f642d7:0xde9c45a3a28c3ef6", "name": "BFY Delhi Office", "category": "Gym", "street": "City Union Bank Limited", "city": "Vinoba Puri, Lajpat Nagar II, Lajpat Nagar", "phone": "08850907717", "website": "http://www.bfysportsnfitness.com/", "rating": 4.8, "review_count": "", "latitude": 28.5684698, "longitude": 77.2477741, "maps_url": "https://www.google.com/maps/place/?q=place_id:0x390ce25994f642d7:0xde9c45a3a28c3ef6"}, {"place_id": "0x390ce33e3639500b:0x112584be8054d311", "name": "JK Junglee Honey", "category": "Food products supplier", "street": "M-53, Basement", "city": "Vinoba Puri, Block M, Lajpat Nagar II, Lajpat Nagar", "phone": "09891105090", "website": "https://jkjungleehoney.com/", "rating": 5, "review_count": "", "latitude": 28.5681633, "longitude": 77.2474271, "maps_url": "https://www.google.com/maps/place/?q=place_id:0x390ce33e3639500b:0x112584be8054d311"}, {"place_id": "0x390ce31b044d9ff5:0xa9c2f6a1597e21d5", "name": "India Tours Plan", "category": "Tour operator", "street": "1/36, 4th floor", "city": "Nehru Nagar, Lajpat Nagar", "phone": "", "website": "https://www.indiatoursplan.com/", "rating": 4.8, "review_count": "", "latitude": 28.570565799999997, "longitude": 77.2542788, "maps_url": "https://www.google.com/maps/place/?q=place_id:0x390ce31b044d9ff5:0xa9c2f6a1597e21d5"}, {"place_id": "0x390ce313b61db6ed:0x791a026fa9e51cb3", "name": "Media Shines", "category": "Media company", "street": "L22", "city": "Block L, Lajpat Nagar II, Lajpat Nagar", "phone": "09818207219", "website": "http://mediashines.com/", "rating": 5, "review_count": "", "latitude": 28.5687803, "longitude": 77.2465704, "maps_url": "https://www.google.com/maps/place/?q=place_id:0x390ce313b61db6ed:0x791a026fa9e51cb3"}, {"place_id": "0x444e1a4017957aa7:0x1b9340d322d0fc2d", "name": "Indian Private Driver", "category": "Travel agency", "street": "5/47", "city": "Block 2, Nehru Nagar, Lajpat Nagar", "phone": "09810919657", "website": "https://indianprivatedriver.com/", "rating": 4.9, "review_count": "", "latitude": 28.570885099999998, "longitude": 77.2533928, "maps_url": "https://www.google.com/maps/place/?q=place_id:0x444e1a4017957aa7:0x1b9340d322d0fc2d"}, {"place_id": "0x390ce3ad0fffffff:0x86e17f5eac4a1227", "name": "Karan Moin", "category": "Men's clothing store", "street": "Lower G/F", "city": "M-14 A", "phone": "01146508034", "website": "", "rating": 4.3, "review_count": "", "latitude": 28.5687844, "longitude": 77.2478181, "maps_url": "https://www.google.com/maps/place/?q=place_id:0x390ce3ad0fffffff:0x86e17f5eac4a1227"}, {"place_id": "0x390ce3f8ec1dc595:0x75fd9524f600d549", "name": "The Laundry People", "category": "Laundry service", "street": "5 Block", "city": "8", "phone": "07302283838", "website": "https://thelaundrypeople.in/", "rating": 4.9, "review_count": "", "latitude": 28.5705334, "longitude": 77.2524014, "maps_url": "https://www.google.com/maps/place/?q=place_id:0x390ce3f8ec1dc595:0x75fd9524f600d549"}, {"place_id": "0x390ce2524b400001:0x3dfe855bee9b03cd", "name": "Vestige Lajpat Nagar Branch", "category": "Health and beauty shop", "street": "H69W+7X3", "city": "Block M Lajpat Nagar 2 Rd", "phone": "01142282800", "website": "http://www.myvestige.com/", "rating": 4.4, "review_count": "", "latitude": 28.568147999999997, "longitude": 77.24743289999999, "maps_url": "https://www.google.com/maps/place/?q=place_id:0x390ce2524b400001:0x3dfe855bee9b03cd"}, {"place_id": "0x390ce25304e987a1:0x9883905c6c688cd0", "name": "Mayank Chopra & Company, Chartered Accountants", "category": "Certified public accountant", "street": "ground floor", "city": "B-23", "phone": "09711187962", "website": "https://youtube.com/channel/UCQQSRyllGpD3_ikSvGjfwRw", "rating": 5, "review_count": "", "latitude": 28.5744381, "longitude": 77.2399812, "maps_url": "https://www.google.com/maps/place/?q=place_id:0x390ce25304e987a1:0x9883905c6c688cd0"}, {"place_id": "0x390ce3ad0fffffff:0xa05bb03f6639f923", "name": "Punja Sahib Transport Co.", "category": "Bus company", "street": "L-80", "city": "Block L, Lajpat Nagar II, Lajpat Nagar", "phone": "09899820283", "website": "http://www.punjasahibcoaches.com/", "rating": 4.3, "review_count": "", "latitude": 28.5695853, "longitude": 77.24732089999999, "maps_url": "https://www.google.com/maps/place/?q=place_id:0x390ce3ad0fffffff:0xa05bb03f6639f923"}, {"place_id": "0x390ce3ad00000087:0x89e0d8297270062", "name": "MATRO ART STUDIO", "category": "Event management company", "street": "133, Vinobha Puri", "city": "Vinoba Puri, Block M, Lajpat Nagar II, Lajpat Nagar", "phone": "09971383939", "website": "", "rating": 3.4, "review_count": "", "latitude": 28.5676627, "longitude": 77.2492072, "maps_url": "https://www.google.com/maps/place/?q=place_id:0x390ce3ad00000087:0x89e0d8297270062"}, {"place_id": "0x390ce3b7269ed693:0xbcc64db145394700", "name": "Ethnity UX Research Company", "category": "Market researcher", "street": "A-81", "city": "Dayanand Colony, Lajpat Nagar 4, Lajpat Nagar", "phone": "09810011342", "website": "https://www.ethnity.com/contact/", "rating": 5, "review_count": "", "latitude": 28.5623991, "longitude": 77.2493846, "maps_url": "https://www.google.com/maps/place/?q=place_id:0x390ce3b7269ed693:0xbcc64db145394700"}, {"place_id": "0x390ce3ad9aaaaaab:0xb3f63c98ce2aa1fb", "name": "Indian Institute of YouTubers ( A SoftDreamz & CS INTERNATIONAL Venture) Founded By : Chandrashekhar Singh in Feb 2018", "category": "Educational institution", "street": "L-113", "city": "3", "phone": "09711125869", "website": "", "rating": 4.9, "review_count": "", "latitude": 28.5681566, "longitude": 77.2468487, "maps_url": "https://www.google.com/maps/place/?q=place_id:0x390ce3ad9aaaaaab:0xb3f63c98ce2aa1fb"}, {"place_id": "0x390ce33a3212e05d:0x69a7a60cb2134a94", "name": "USR & Associates | Company Secretaries.", "category": "Law firm", "street": "154, LGF", "city": "Vinoba Puri, Lajpat Nagar II, Lajpat Nagar", "phone": "08299351318", "website": "", "rating": 5, "review_count": "", "latitude": 28.567512699999998, "longitude": 77.2490945, "maps_url": "https://www.google.com/maps/place/?q=place_id:0x390ce33a3212e05d:0x69a7a60cb2134a94"}, {"place_id": "0x390ce3b40ab5de73:0x9842b91397f4786d", "name": "Homefood Company", "category": "North Indian restaurant", "street": "0-11/B", "city": "Block O, Lajpat Nagar II, Lajpat Nagar", "phone": "01140074835", "website": "", "rating": 4.1, "review_count": "", "latitude": 28.5668774, "longitude": 77.2467533, "maps_url": "https://www.google.com/maps/place/?q=place_id:0x390ce3b40ab5de73:0x9842b91397f4786d"}, {"place_id": "0x390ce32a4935cfb3:0x215c580033758e7b", "name": "Techsunware Private Limited", "category": "Software company", "street": "Sriniwaspuri Extn, Block L, Private Colony, Sri Niwaspuri", "city": "New Delhi, Delhi 110065", "phone": "", "website": "https://www.techsunware.com/", "rating": "", "review_count": "", "latitude": 28.563623999999997, "longitude": 77.25999379999999, "maps_url": "https://www.google.com/maps/place/?q=place_id:0x390ce32a4935cfb3:0x215c580033758e7b"}, {"place_id": "0x390ce32a4935cfb3:0x215c580033758e7b", "name": "Techsunware Private Limited", "category": "Software company", "street": "Sriniwaspuri Extn, Block L, Private Colony, Sri Niwaspuri", "city": "New Delhi, Delhi 110065", "phone": "", "website": "https://www.techsunware.com/", "rating": "", "review_count": "", "latitude": 28.563623999999997, "longitude": 77.25999379999999, "maps_url": "https://www.google.com/maps/place/?q=place_id:0x390ce32a4935cfb3:0x215c580033758e7b"}]}