{"timestamp": 1773730552.4066434, "keyword": "IT company", "location": "delhi", "cell_idx": 256, "results": [{"place_id": "0x390d1c154aba0acd:0xc90313ce54cb43e9", "name": "Midas IT Services India Pvt Ltd", "category": "Software company", "street": "L", "city": "42", "phone": "", "website": "http://www.midaswebtech.com/", "rating": 4.6, "review_count": "", "latitude": 28.545162299999998, "longitude": 77.12531, "maps_url": "https://www.google.com/maps/place/?q=place_id:0x390d1c154aba0acd:0xc90313ce54cb43e9"}, {"place_id": "0x390d1c3fadaf436b:0x7da80df34b6cc628", "name": "Acelema It Solutions Pvt. Ltd", "category": "Software company", "street": "L 357, 1st Floor", "city": "Gurgaon - Delhi Expy", "phone": "09015904466", "website": "https://www.acelema.com/", "rating": 5, "review_count": "", "latitude": 28.5456917, "longitude": 77.1231365, "maps_url": "https://www.google.com/maps/place/?q=place_id:0x390d1c3fadaf436b:0x7da80df34b6cc628"}, {"place_id": "0x390ce458d0000001:0xf2123bd299ec4501", "name": "IT Company India", "category": "Software company", "street": "D56", "city": "D Block, Sector 10", "phone": "09999244854", "website": "https://www.itcompanyindia.in/", "rating": 4.7, "review_count": "", "latitude": 28.589917699999997, "longitude": 77.3351153, "maps_url": "https://www.google.com/maps/place/?q=place_id:0x390ce458d0000001:0xf2123bd299ec4501"}, {"place_id": "0x390ce3c153b89811:0xe7a279685777e9ca", "name": "IT Company", "category": "Automation company", "street": "A-14", "city": "near iskcon temple", "phone": "", "website": "http://www.opuswiz.com/", "rating": 3, "review_count": "", "latitude": 28.557167, "longitude": 77.25424819999999, "maps_url": "https://www.google.com/maps/place/?q=place_id:0x390ce3c153b89811:0xe7a279685777e9ca"}, {"place_id": "0x390d1be7f1a44f95:0x84524a5425f8930d", "name": "InfraDost Technologies Pvt Ltd.- Microsoft Adobe Corel Draw & Security Solution Provider", "category": "Computer support and services", "street": "Gurgaon - Delhi Expy", "city": "Block B, Mahipalpur Village, Mahipalpur", "phone": "08287792542", "website": "http://www.infradost.com/", "rating": 4.6, "review_count": "", "latitude": 28.5485743, "longitude": 77.1264697, "maps_url": "https://www.google.com/maps/place/?q=place_id:0x390d1be7f1a44f95:0x84524a5425f8930d"}, {"place_id": "0x390ce1597b5509e5:0xfd8209b937b44d3c", "name": "IT Solutions India Private Limited", "category": "Software company", "street": "D-88/5", "city": "Pocket D, Okhla Phase I, Okhla Industrial Estate", "phone": "09810017429", "website": "https://www.itsipl.com/", "rating": 4.2, "review_count": "", "latitude": 28.520146, "longitude": 77.280431, "maps_url": "https://www.google.com/maps/place/?q=place_id:0x390ce1597b5509e5:0xfd8209b937b44d3c"}, {"place_id": "0x390d013ca8ac1387:0x8a0db85b518267d5", "name": "NexGen Innovators", "category": "Website designer", "street": "114B, 3rd floor, Dwarka Mor", "city": "New Delhi, Delhi 110059", "phone": "", "website": "https://www.nexgi.com/", "rating": 4.9, "review_count": "", "latitude": 28.618961, "longitude": 77.0322202, "maps_url": "https://www.google.com/maps/place/?q=place_id:0x390d013ca8ac1387:0x8a0db85b518267d5"}, {"place_id": "0x390d181b03ac9f6f:0x3ec5a92a519f94ad", "name": "Daffodil Software", "category": "Software company", "street": "9th Floor, Tower B1, DLF", "city": "World Tech Park", "phone": "01246817000", "website": "https://www.daffodilsw.com/", "rating": 4.1, "review_count": "", "latitude": 28.465191599999997, "longitude": 77.0564785, "maps_url": "https://www.google.com/maps/place/?q=place_id:0x390d181b03ac9f6f:0x3ec5a92a519f94ad"}, {"place_id": "0x390d1b0ad6565c37:0x9ee772d45ffed70d", "name": "IOTtech Softwares", "category": "Software company", "street": "First & Second Floor", "city": "Lucky Plaza", "phone": "08034798583", "website": "", "rating": 4.9, "review_count": "", "latitude": 28.5847981, "longitude": 77.07323199999999, "maps_url": "https://www.google.com/maps/place/?q=place_id:0x390d1b0ad6565c37:0x9ee772d45ffed70d"}, {"place_id": "0x390d1ca8de94abb1:0xc070687f1d5f8558", "name": "Bita Infotech IT Solutions:: Website Designing & Development Company", "category": "Software company", "street": "Rz-31 B, Street No. 5", "city": "Block M, West Sagarpur, Sagar Pur", "phone": "08178256664", "website": "https://bitainfotech.com/", "rating": 4.7, "review_count": "", "latitude": 28.6056495, "longitude": 77.1012293, "maps_url": "https://www.google.com/maps/place/?q=place_id:0x390d1ca8de94abb1:0xc070687f1d5f8558"}, {"place_id": "0x390d1bb72bd328b1:0xd9425539dc10edb3", "name": "SOFT INDIA WEB SOFTWARE DEVELOPMENT PVT LTD", "category": "Software company", "street": "Ground Floor", "city": "A- 107", "phone": "09625503688", "website": "http://www.softindia.in/", "rating": 3.2, "review_count": "", "latitude": 28.587611, "longitude": 77.0704514, "maps_url": "https://www.google.com/maps/place/?q=place_id:0x390d1bb72bd328b1:0xd9425539dc10edb3"}, {"place_id": "0x390d1d925cb370f5:0x9e5f79cffe269b7a", "name": "Techshades IT Consultants \u2013 Digital Marketing Agency", "category": "Software company", "street": "Office No-215, 1st Floor", "city": "Sukhma Tower", "phone": "", "website": "https://techshades.in/", "rating": 5, "review_count": "", "latitude": 28.5432161, "longitude": 77.1238233, "maps_url": "https://www.google.com/maps/place/?q=place_id:0x390d1d925cb370f5:0x9e5f79cffe269b7a"}, {"place_id": "0x390d191100000001:0x424476192b3b5b5b", "name": "Binary Semantics Limited", "category": "Software company", "street": "PLot no", "city": "38", "phone": "08929156505", "website": "https://www.binarysemantics.com/", "rating": 3.7, "review_count": "", "latitude": 28.5018823, "longitude": 77.0701466, "maps_url": "https://www.google.com/maps/place/?q=place_id:0x390d191100000001:0x424476192b3b5b5b"}, {"place_id": "0x390d05f1c70d0d6b:0x80d816e36f28618f", "name": "Katchin Tech Private Limited | Software Development Company in Delhi NCR", "category": "Software company", "street": "A-4", "city": "near skin decor", "phone": "07669005215", "website": "https://www.katchintech.com/", "rating": 5, "review_count": "", "latitude": 28.575834099999998, "longitude": 77.05139609999999, "maps_url": "https://www.google.com/maps/place/?q=place_id:0x390d05f1c70d0d6b:0x80d816e36f28618f"}, {"place_id": "0x2a72b8b69d7b6493:0x11251466d4d34cac", "name": "WebZonal IT Company", "category": "Website designer", "street": "Wz-258/2-3, D Block Rd", "city": "Khazan Basti, Nangal Raya, Janakpuri", "phone": "09811170903", "website": "http://webzonal.com/", "rating": 5, "review_count": "", "latitude": 28.6122102, "longitude": 77.11159549999999, "maps_url": "https://www.google.com/maps/place/?q=place_id:0x2a72b8b69d7b6493:0x11251466d4d34cac"}, {"place_id": "0x390d195e4483ae05:0xec67b2579bb38803", "name": "eXtendCode - Software Development Company", "category": "Software company", "street": "Plot 63, Second Floor, Udyog Vihar Phase -1,", "city": "Gurugram, Haryana 122016", "phone": "01244261219", "website": "http://www.extendcode.com/", "rating": 4.1, "review_count": "", "latitude": 28.514535199999997, "longitude": 77.0815075, "maps_url": "https://www.google.com/maps/place/?q=place_id:0x390d195e4483ae05:0xec67b2579bb38803"}, {"place_id": "0x390d19298db2fb35:0xcaa0d46737c4561c", "name": "MLM Software Developer | Sunny citrix", "category": "Software company", "street": "office no 427C, 4th floor, vashisht complex", "city": "Sikanderpur", "phone": "07906059336", "website": "http://sunnycitrix.com/", "rating": 4.8, "review_count": "", "latitude": 28.4816798, "longitude": 77.09770569999999, "maps_url": "https://www.google.com/maps/place/?q=place_id:0x390d19298db2fb35:0xcaa0d46737c4561c"}, {"place_id": "0x390d1923af5d91ed:0xbe103b16161f5631", "name": "Condeco Software Private Limited", "category": "Software company", "street": "Tower C", "city": "4th floor building 10", "phone": "01244760150", "website": "http://www.condecosoftware.com/apac", "rating": 4.3, "review_count": "", "latitude": 28.4940696, "longitude": 77.0885457, "maps_url": "https://www.google.com/maps/place/?q=place_id:0x390d1923af5d91ed:0xbe103b16161f5631"}, {"place_id": "0x390d1d9ce0eaada3:0xc5a1a0a2458099e3", "name": "CODENCREATIVE TECH PVT LTD", "category": "Software company", "street": "DDA Flat", "city": "RBI Officers Colony, Vasant Vihar", "phone": "09717047610", "website": "https://codencreative.com/", "rating": 4.9, "review_count": "", "latitude": 28.563302099999998, "longitude": 77.1519732, "maps_url": "https://www.google.com/maps/place/?q=place_id:0x390d1d9ce0eaada3:0xc5a1a0a2458099e3"}, {"place_id": "0x390d1dc539fc39dd:0xa8d421a9d22cb256", "name": "India best website development company", "category": "Software company", "street": "RZ74, RZ Rd", "city": "Hans Park, Block RZ, Sagarpur East, Sagar Pur", "phone": "", "website": "https://techbuddy31.co.in/", "rating": 5, "review_count": "", "latitude": 28.6054396, "longitude": 77.1082699, "maps_url": "https://www.google.com/maps/place/?q=place_id:0x390d1dc539fc39dd:0xa8d421a9d22cb256"}, {"place_id": "0x390d1b1fb85c71ed:0x1aa4ba2a08b02c1d", "name": "Tecmicra Solutions - Software, Website Development & Digital Marketing Company", "category": "Website designer", "street": "Floor, D410", "city": "3rd", "phone": "07042387253", "website": "https://tecmicra.co.in/", "rating": 5, "review_count": "", "latitude": 28.5849324, "longitude": 77.071085, "maps_url": "https://www.google.com/maps/place/?q=place_id:0x390d1b1fb85c71ed:0x1aa4ba2a08b02c1d"}, {"place_id": "0x390d19440bc59efb:0xda6549686148f7b4", "name": "PerfectionGeeks Technologies", "category": "Software company", "street": "Plot 378-379, Udyog Vihar Phase 4 Rd", "city": "near nokia building", "phone": "08920947884", "website": "http://www.perfectiongeeks.com/", "rating": 4.9, "review_count": "", "latitude": 28.5002221, "longitude": 77.0730516, "maps_url": "https://www.google.com/maps/place/?q=place_id:0x390d19440bc59efb:0xda6549686148f7b4"}, {"place_id": "0x390cfd00fd453a1b:0x9b04afa48c2538ec", "name": "Inwoin Technologies Pvt. Ltd.", "category": "Software company", "street": "Building No. 309", "city": "310", "phone": "", "website": "http://www.inwoin.com/", "rating": 4.5, "review_count": "", "latitude": 28.4999559, "longitude": 77.07965879999999, "maps_url": "https://www.google.com/maps/place/?q=place_id:0x390cfd00fd453a1b:0x9b04afa48c2538ec"}, {"place_id": "0x390ce3ad10000061:0xeff7e6017a22cce7", "name": "Alpinesoft IT Solutions Authorized Google Workspace Reseller", "category": "Software company", "street": "162/9 Ist Floor, KIshangarh - Gaushala Marg", "city": "Lakhi Nath Kuti, Mehrauli, Vasant Kunj", "phone": "09999011157", "website": "https://www.alpinesoftit.com/", "rating": 4.3, "review_count": "", "latitude": 28.515394399999998, "longitude": 77.16460359999999, "maps_url": "https://www.google.com/maps/place/?q=place_id:0x390ce3ad10000061:0xeff7e6017a22cce7"}, {"place_id": "0x390ce1fb44618b65:0x8e06b2a6128352d1", "name": "Acropolis Infotech - Delhi Office", "category": "Software company", "street": "metro station gate", "city": "55, 2nd Floor, Lane 2", "phone": "09999876593", "website": "https://www.acropolisinfotech.com/", "rating": 4.6, "review_count": "", "latitude": 28.518907, "longitude": 77.2015435, "maps_url": "https://www.google.com/maps/place/?q=place_id:0x390ce1fb44618b65:0x8e06b2a6128352d1"}, {"place_id": "0x390cfad7fb251d4b:0xbbf83609d8e40cd3", "name": "India Assist Insights Pvt Ltd", "category": "Software company", "street": "Asset One, G1, Hyatt Andaz Residences", "city": "Aerocity", "phone": "09811664898", "website": "http://indiaassist.com/", "rating": 5, "review_count": "", "latitude": 28.5538229, "longitude": 77.12227899999999, "maps_url": "https://www.google.com/maps/place/?q=place_id:0x390cfad7fb251d4b:0xbbf83609d8e40cd3"}, {"place_id": "0x390d1daf5bbb6d71:0xd493e8d457a28388", "name": "DPM IT SOLUTIONS", "category": "Software company", "street": "2nd floor, madangiri", "city": "111, E-2", "phone": "09650413450", "website": "https://dpmitsolutions.com/", "rating": 5, "review_count": "", "latitude": 28.565620799999998, "longitude": 77.16005679999999, "maps_url": "https://www.google.com/maps/place/?q=place_id:0x390d1daf5bbb6d71:0xd493e8d457a28388"}, {"place_id": "0x390d192f80e784d3:0x2c271ddf93d663b4", "name": "Tranciscolabs | Mobile App Development Company | Web Development Company", "category": "Website designer", "street": "Park", "city": "RGREP", "phone": "09580174570", "website": "https://tranciscolabs.com/", "rating": 4.4, "review_count": "", "latitude": 28.4695091, "longitude": 77.06860209999999, "maps_url": "https://www.google.com/maps/place/?q=place_id:0x390d192f80e784d3:0x2c271ddf93d663b4"}, {"place_id": "0x390d02994de5e515:0xd908bc03409a0d37", "name": "Himalayan IT Solutions | Best Website Designing Company in Delhi | SEO/Digital Marketing Company in Delhi NCR, India", "category": "Website designer", "street": "61/4255, Padam Singh Rd", "city": "Block 29, Block 1, Regar Pura, Karol Bagh", "phone": "09899098509", "website": "http://www.himalayanitsolutions.com/", "rating": 3.9, "review_count": "", "latitude": 28.649673999999997, "longitude": 77.186599, "maps_url": "https://www.google.com/maps/place/?q=place_id:0x390d02994de5e515:0xd908bc03409a0d37"}, {"place_id": "0x390d1c154c85ce0f:0xb0963f0e0dec1299", "name": "MASTERTECHARA", "category": "Software company", "street": "L 37/336,UPPER GROUND FLOOR, STREET NO. 19, L BLOCK", "city": "Landmark-V2 Mall wali gali", "phone": "09560311263", "website": "http://www.mastertechara.in/", "rating": 5, "review_count": "", "latitude": 28.5454027, "longitude": 77.1245048, "maps_url": "https://www.google.com/maps/place/?q=place_id:0x390d1c154c85ce0f:0xb0963f0e0dec1299"}, {"place_id": "0x390d03adaef37299:0xd8b343093deaee7", "name": "Ruminate IT Solution | Best software company in Delhi NCR | IT Software company", "category": "Software company", "street": "C-64", "city": "Pocket B, Hari Nagar", "phone": "09625650376", "website": "https://www.ruminateitsolution.com/", "rating": 5, "review_count": "", "latitude": 28.628819, "longitude": 77.10428399999999, "maps_url": "https://www.google.com/maps/place/?q=place_id:0x390d03adaef37299:0xd8b343093deaee7"}, {"place_id": "0x390d1b86b6b5582d:0x36c722e124b57be8", "name": "kdrsoft Technologies - website designing company in delhi", "category": "Website designer", "street": "2nd Floor", "city": "Manish Global Mall", "phone": "09910258463", "website": "https://www.kdrsoft.com/", "rating": 4.9, "review_count": "", "latitude": 28.559937299999998, "longitude": 77.0596687, "maps_url": "https://www.google.com/maps/place/?q=place_id:0x390d1b86b6b5582d:0x36c722e124b57be8"}, {"place_id": "0x390d19174792f4db:0xcb5f589caa71b6e7", "name": "Knocial India Limited", "category": "Software company", "street": "60B", "city": "Udyog Vihar, Sector 22", "phone": "09354120847", "website": "https://www.knocialindia.com/", "rating": 4.7, "review_count": "", "latitude": 28.504239499999997, "longitude": 77.0651981, "maps_url": "https://www.google.com/maps/place/?q=place_id:0x390d19174792f4db:0xcb5f589caa71b6e7"}, {"place_id": "0x390d191598f48ef3:0x70991b4ff870f05d", "name": "Shree Partners LLC", "category": "Software company", "street": "1, Tower A, Building, Cyber City", "city": "Corporate Edge Level", "phone": "01246728815", "website": "https://www.shreepartners.com/", "rating": 4.3, "review_count": "", "latitude": 28.4936018, "longitude": 77.088325, "maps_url": "https://www.google.com/maps/place/?q=place_id:0x390d191598f48ef3:0x70991b4ff870f05d"}, {"place_id": "0x390d1b0076c735ad:0x13551f319095520a", "name": "Aftab IT information technology", "category": "Computer Hardware Company", "street": "C58", "city": "D Block, Kapas Hera Estate", "phone": "", "website": "", "rating": 5, "review_count": "", "latitude": 28.5221669, "longitude": 77.08510989999999, "maps_url": "https://www.google.com/maps/place/?q=place_id:0x390d1b0076c735ad:0x13551f319095520a"}, {"place_id": "0x390d19437cb628b3:0x12e71803eb09ac16", "name": "Clavax Technologies", "category": "Software company", "street": "727", "city": "Udyog Vihar, Phase 5", "phone": "+18444252829", "website": "http://www.clavax.com/", "rating": 4.1, "review_count": "", "latitude": 28.5052123, "longitude": 77.0850025, "maps_url": "https://www.google.com/maps/place/?q=place_id:0x390d19437cb628b3:0x12e71803eb09ac16"}, {"place_id": "0x390d05713cbc05f9:0x29ec332097ea9861", "name": "Bluebyte It Solutions", "category": "Software company", "street": "MS-83", "city": "Block MS, Mohan Garden, Uttam Nagar", "phone": "08178838292", "website": "https://www.bluebyteitsolutions.com/", "rating": 5, "review_count": "", "latitude": 28.6289797, "longitude": 77.0335781, "maps_url": "https://www.google.com/maps/place/?q=place_id:0x390d05713cbc05f9:0x29ec332097ea9861"}, {"place_id": "0x41ddcb5488aa4703:0x5290c64921de1a5b", "name": "Bloatware IT Software Development Company | Game Development | Software Company in delhi", "category": "Software company", "street": "SILVER OAK FARMS", "city": "660, Mehrauli-Gurgaon Rd", "phone": "", "website": "https://bloatwareitsolutions.com/", "rating": 5, "review_count": "", "latitude": 28.4911034, "longitude": 77.1432663, "maps_url": "https://www.google.com/maps/place/?q=place_id:0x41ddcb5488aa4703:0x5290c64921de1a5b"}, {"place_id": "0x29182cd90b477205:0xafbdc18388b8d100", "name": "Ananta Technology - IT Company", "category": "Web hosting company", "street": "RZB-214, Old Mehrauli Rd", "city": "Palam Colony, Part - I, Raj Nagar", "phone": "", "website": "https://anantatechnology.com/", "rating": 5, "review_count": "", "latitude": 28.584313899999998, "longitude": 77.0862543, "maps_url": "https://www.google.com/maps/place/?q=place_id:0x29182cd90b477205:0xafbdc18388b8d100"}, {"place_id": "0x390d195c26bfa369:0x69bd8efd2e3a31fe", "name": "Radical Minds Technologies Pvt. Ltd.", "category": "BPO Company", "street": "368", "city": "Phase II, Udyog Vihar, Sector 20", "phone": "01244338366", "website": "http://www.radicalminds.in/", "rating": 4.2, "review_count": "", "latitude": 28.506335099999998, "longitude": 77.0877546, "maps_url": "https://www.google.com/maps/place/?q=place_id:0x390d195c26bfa369:0x69bd8efd2e3a31fe"}, {"place_id": "0x390d1946a4b0d01f:0xab23cbaa408b3b9c", "name": "Tagbin Services Pvt. Ltd. \u2013 Best AI & Experiential Tech Company in Gurgaon", "category": "Software company", "street": "3rd Floor, Wing A, Enkay Centre", "city": "Vaniya Kunj", "phone": "08178112682", "website": "https://tagbin.in/", "rating": 4.2, "review_count": "", "latitude": 28.4974691, "longitude": 77.08654609999999, "maps_url": "https://www.google.com/maps/place/?q=place_id:0x390d1946a4b0d01f:0xab23cbaa408b3b9c"}, {"place_id": "0x390d02e520aee25b:0x322870f3355c7f4b", "name": "Delphi Infotech (Cybersecurity & Cloud Solutions)", "category": "Computer security service", "street": "225A, D-21", "city": "Corporate Park", "phone": "01145075151", "website": "https://www.delphiinfo.com/", "rating": 4.2, "review_count": "", "latitude": 28.5618181, "longitude": 77.0670596, "maps_url": "https://www.google.com/maps/place/?q=place_id:0x390d02e520aee25b:0x322870f3355c7f4b"}, {"place_id": "0x390d05f6807aba3f:0x8d4dbf179623854a", "name": "Erp Software Company Delhi | Crm Software Development Company in Delhi", "category": "Software company", "street": "3 Floor", "city": "B-77", "phone": "09266518819", "website": "https://www.weblyticsinfotech.com/crm-software-in-delhi.php", "rating": 5, "review_count": "", "latitude": 28.6150725, "longitude": 77.0341376, "maps_url": "https://www.google.com/maps/place/?q=place_id:0x390d05f6807aba3f:0x8d4dbf179623854a"}, {"place_id": "0x390ce1877a5ef8eb:0xd5abb94a30425144", "name": "Plusone Technologies Private Limited", "category": "Software company", "street": "Phase IV, Udyog Vihar, Sector 18", "city": "Gurugram, Haryana 122015", "phone": "09891387094", "website": "https://www.plusonetech.co/", "rating": 4.7, "review_count": "", "latitude": 28.4941475, "longitude": 77.0808448, "maps_url": "https://www.google.com/maps/place/?q=place_id:0x390ce1877a5ef8eb:0xd5abb94a30425144"}, {"place_id": "0x390d1c6bcfd37a51:0xe65828997af7f8dd", "name": "Ernst and Young Global Limited", "category": "Business management consultant", "street": "3rd & 6th Floor, Wing A & B Worldmark-1 Indira Gandhi International Airport Hospitality", "city": "Opp Holiday Inn", "phone": "", "website": "http://ey.com/", "rating": 4.6, "review_count": "", "latitude": 28.5504197, "longitude": 77.1220802, "maps_url": "https://www.google.com/maps/place/?q=place_id:0x390d1c6bcfd37a51:0xe65828997af7f8dd"}, {"place_id": "0x390d19361c56cecd:0x50517af3dc928d70", "name": "Mycom", "category": "Software company", "street": "7th Floor", "city": "Building 8b", "phone": "01244508000", "website": "http://www.mycom-osi.com/", "rating": 4.3, "review_count": "", "latitude": 28.4982059, "longitude": 77.0900367, "maps_url": "https://www.google.com/maps/place/?q=place_id:0x390d19361c56cecd:0x50517af3dc928d70"}, {"place_id": "0x390d1f5abfb25fe1:0x7d9c4d5e159f2955", "name": "Jaimru Technology Pvt Ltd", "category": "Website designer", "street": "WARD NO. 2", "city": "Plot No. 178 M 33 A/1", "phone": "07838153420", "website": "https://www.jaimru.com/", "rating": 4.9, "review_count": "", "latitude": 28.524347499999998, "longitude": 77.1731889, "maps_url": "https://www.google.com/maps/place/?q=place_id:0x390d1f5abfb25fe1:0x7d9c4d5e159f2955"}, {"place_id": "0x390d1960c2b8367f:0xd2d30e45ac71acea", "name": "Vorombetech Solutions - Top IT & Digitalization Service Company in Gurugram", "category": "Software company", "street": "249", "city": "Phase IV, Udyog Vihar, Sector 19", "phone": "", "website": "https://vorombetech.com/", "rating": 4.8, "review_count": "", "latitude": 28.4941475, "longitude": 77.0808448, "maps_url": "https://www.google.com/maps/place/?q=place_id:0x390d1960c2b8367f:0xd2d30e45ac71acea"}, {"place_id": "0x390d05c8987801e5:0x128e04dce6c4cbc4", "name": "Matrix Infotech Solution | Software Development Company", "category": "Software company", "street": "j j", "city": "Dwarka Mor, Block WE, Mohan Garden, Razapur Khurd", "phone": "08920817059", "website": "http://www.matrixinfotechsolution.com/", "rating": 3.9, "review_count": "", "latitude": 28.637037, "longitude": 77.0291258, "maps_url": "https://www.google.com/maps/place/?q=place_id:0x390d05c8987801e5:0x128e04dce6c4cbc4"}, {"place_id": "0x390ce3b5c2a11543:0xc4df0cd95534bf85", "name": "LimeTray", "category": "Software company", "street": "2nd Floor", "city": "815", "phone": "", "website": "https://limetray.com/", "rating": 3.6, "review_count": "", "latitude": 28.5015508, "longitude": 77.08626919999999, "maps_url": "https://www.google.com/maps/place/?q=place_id:0x390ce3b5c2a11543:0xc4df0cd95534bf85"}, {"place_id": "0x20616dbf813c03ef:0xc8fd1ca47f902e9e", "name": "Bloatware IT Software Company | website Designing Company | Software Company | MLM |CRM | Android Apps", "category": "Software company", "street": "C1", "city": "Rama Park", "phone": "08920750797", "website": "https://bloatwareitsolutions.com/", "rating": 4.5, "review_count": "", "latitude": 28.621265599999997, "longitude": 77.0324943, "maps_url": "https://www.google.com/maps/place/?q=place_id:0x20616dbf813c03ef:0xc8fd1ca47f902e9e"}, {"place_id": "0x390d193854a9b805:0xeb675c7a6d5768f7", "name": "Cvent India", "category": "Software company", "street": "19th Floor Building", "city": "No.14C", "phone": "0008001008934", "website": "https://careers.cvent.com/", "rating": 4.3, "review_count": "", "latitude": 28.4968638, "longitude": 77.0941567, "maps_url": "https://www.google.com/maps/place/?q=place_id:0x390d193854a9b805:0xeb675c7a6d5768f7"}, {"place_id": "0x390d1b2440000001:0x7b52a88f21fc0d82", "name": "DesignDot Technologies | #1 Best Website & App Development | Top Software & AIML Solutions Company in Delhi", "category": "Software company", "street": "RZ 1/13, 3RD FLOOR, Main Road Above HDFC Bank, Dwarka, Near Palam Metro Gate 2", "city": "New Delhi, Delhi 110077", "phone": "09999652812", "website": "https://www.designdot.co.in/", "rating": 5, "review_count": "", "latitude": 28.587238199999998, "longitude": 77.0850727, "maps_url": "https://www.google.com/maps/place/?q=place_id:0x390d1b2440000001:0x7b52a88f21fc0d82"}, {"place_id": "0x390d1b3f00d047f7:0x9b0acbc6decfed67", "name": "VBage Tech", "category": "Website designer", "street": "WZ-330", "city": "Palam Village, Palam", "phone": "08383889042", "website": "https://www.vbagetech.com/", "rating": 4.5, "review_count": "", "latitude": 28.589986099999997, "longitude": 77.0768539, "maps_url": "https://www.google.com/maps/place/?q=place_id:0x390d1b3f00d047f7:0x9b0acbc6decfed67"}, {"place_id": "0x390d192fc20b97e7:0x3048b25634f6d955", "name": "Nagarro", "category": "Software company", "street": "Plot 6B, Sub. Major Laxmi Chand Rd", "city": "Maruti Udyog, Sector 18", "phone": "", "website": "https://www.nagarro.com/en", "rating": 4.5, "review_count": "", "latitude": 28.491098599999997, "longitude": 77.0673492, "maps_url": "https://www.google.com/maps/place/?q=place_id:0x390d192fc20b97e7:0x3048b25634f6d955"}, {"place_id": "0x390d190b8996b54d:0xa4d9ad7263547701", "name": "Company", "category": "Corporate office", "street": "The Coworking Space", "city": "A-14/15 DLF Phase 1, Sector 26 A Truworx", "phone": "01140844560", "website": "https://www.quickcompany.in/", "rating": 4.1, "review_count": "", "latitude": 28.474366699999997, "longitude": 77.0943154, "maps_url": "https://www.google.com/maps/place/?q=place_id:0x390d190b8996b54d:0xa4d9ad7263547701"}, {"place_id": "0x390cfd4a4f5f7dbd:0x513251d01ca6b29", "name": "Sumitomo Corporation India Private Limited", "category": "Corporate office", "street": "5th Floor", "city": "West Wing, World Mark 1", "phone": "01142373181", "website": "https://www.sumitomocorp.com/en/asia-oceania/scin/?region_selector=true", "rating": 4.7, "review_count": "", "latitude": 28.5505881, "longitude": 77.1213783, "maps_url": "https://www.google.com/maps/place/?q=place_id:0x390cfd4a4f5f7dbd:0x513251d01ca6b29"}, {"place_id": "0x390d1df0721e08c5:0x49d5fd4648a33c2d", "name": "Nibble Software | Website Design & Development | Travel Web API & CRM | SEO, SMO, Paid Ads, Amazon & Flipkart Marketing", "category": "Website designer", "street": "4th Floor", "city": "Moolchand Tower", "phone": "09971066697", "website": "https://www.nibblesoftware.com/", "rating": 4.8, "review_count": "", "latitude": 28.6000862, "longitude": 77.0818018, "maps_url": "https://www.google.com/maps/place/?q=place_id:0x390d1df0721e08c5:0x49d5fd4648a33c2d"}, {"place_id": "0x390d068daabb01c5:0x9f458c7c5e28f8f0", "name": "Tekniko Global - Top Mobile App Development Company in Delhi | Android & iOS", "category": "Software company", "street": "", "city": "", "phone": "09311620027", "website": "https://www.teknikoglobal.com/", "rating": 4.5, "review_count": "", "latitude": 28.5870636, "longitude": 77.1721882, "maps_url": "https://www.google.com/maps/place/?q=place_id:0x390d068daabb01c5:0x9f458c7c5e28f8f0"}, {"place_id": "0x390d19404f4f65d5:0xc7a5e785eb2e8ef6", "name": "Infodart Technologies Ltd", "category": "Software company", "street": "2nd floor", "city": "plot no 254", "phone": "", "website": "https://www.infodartglobal.com/", "rating": 4, "review_count": "", "latitude": 28.4979135, "longitude": 77.0815518, "maps_url": "https://www.google.com/maps/place/?q=place_id:0x390d19404f4f65d5:0xc7a5e785eb2e8ef6"}, {"place_id": "0x390d19404f4f65d5:0xc7a5e785eb2e8ef6", "name": "Infodart Technologies Ltd", "category": "Software company", "street": "2nd floor", "city": "plot no 254", "phone": "", "website": "https://www.infodartglobal.com/", "rating": 4, "review_count": "", "latitude": 28.4979135, "longitude": 77.0815518, "maps_url": "https://www.google.com/maps/place/?q=place_id:0x390d19404f4f65d5:0xc7a5e785eb2e8ef6"}, {"place_id": "0x390d068daabb01c5:0x9f458c7c5e28f8f0", "name": "Tekniko Global - Top Mobile App Development Company in Delhi | Android & iOS", "category": "Software company", "street": "", "city": "", "phone": "09311620027", "website": "https://www.teknikoglobal.com/", "rating": 4.5, "review_count": "", "latitude": 28.5870636, "longitude": 77.1721882, "maps_url": "https://www.google.com/maps/place/?q=place_id:0x390d068daabb01c5:0x9f458c7c5e28f8f0"}, {"place_id": "0x390d193c3a36e523:0xe68f8d2568faeaad", "name": "Espire Infolabs Pvt. Ltd.", "category": "Software company", "street": "486 & 487", "city": "Phase III, Udyog Vihar III, Sector 20", "phone": "01247173000", "website": "http://www.espire.com/", "rating": 4.1, "review_count": "", "latitude": 28.5119516, "longitude": 77.0899661, "maps_url": "https://www.google.com/maps/place/?q=place_id:0x390d193c3a36e523:0xe68f8d2568faeaad"}, {"place_id": "0x390d1bb0ed2b78c9:0xb962a26eb951c969", "name": "New India Structures pvt. ltd", "category": "Civil engineering company", "street": "Main Rd", "city": "Kapas Hera Extension, Samalka", "phone": "01140686630", "website": "", "rating": 4.8, "review_count": "", "latitude": 28.5306568, "longitude": 77.08498519999999, "maps_url": "https://www.google.com/maps/place/?q=place_id:0x390d1bb0ed2b78c9:0xb962a26eb951c969"}, {"place_id": "0x390d1bf076ad40a5:0x6e54f7930154b26d", "name": "pNthaan: Technologies - Digital Marketing Company in Delhi - Social Media Marketing", "category": "Software company", "street": "D2/15, Dabri - Palam Rd", "city": "Vinod Puri, Block B 3, Vijay Enclave, Mahavir Enclave", "phone": "09810455309", "website": "https://pnthaan.com/", "rating": 4.9, "review_count": "", "latitude": 28.602663399999997, "longitude": 77.0801891, "maps_url": "https://www.google.com/maps/place/?q=place_id:0x390d1bf076ad40a5:0x6e54f7930154b26d"}, {"place_id": "0x390d1f4effffffff:0xcfc715ac63417946", "name": "Bechtel India Private Limited", "category": "Corporate office", "street": "244-245", "city": "Phase IV, Udyog Vihar, Knowledge Park", "phone": "01244098000", "website": "http://www.bechtel.com/", "rating": 4.4, "review_count": "", "latitude": 28.4956277, "longitude": 77.0839426, "maps_url": "https://www.google.com/maps/place/?q=place_id:0x390d1f4effffffff:0xcfc715ac63417946"}, {"place_id": "0x390d1959e54e0cdb:0x7120a86a0b29095e", "name": "Gurgaon SEO Company", "category": "Internet marketing service", "street": "First Floor Plot", "city": "270, Udyog Vihar II Rd", "phone": "", "website": "", "rating": 2, "review_count": "", "latitude": 28.5074082, "longitude": 77.08512379999999, "maps_url": "https://www.google.com/maps/place/?q=place_id:0x390d1959e54e0cdb:0x7120a86a0b29095e"}, {"place_id": "0x390d195b180061c3:0xbc2dc26222ba3801", "name": "Team Computers Pvt Ltd", "category": "Computer support and services", "street": "5th floor", "city": "Plot no. 278", "phone": "18001024200", "website": "https://www.teamcomputers.com/", "rating": 4.3, "review_count": "", "latitude": 28.508890599999997, "longitude": 77.087429, "maps_url": "https://www.google.com/maps/place/?q=place_id:0x390d195b180061c3:0xbc2dc26222ba3801"}, {"place_id": "0x390d19ad585bba37:0xc7a1380f3c30571a", "name": "Wroffy Technologies Pvt Ltd", "category": "Computer support and services", "street": "304", "city": "Vipul Business Park", "phone": "01244349014", "website": "https://www.wroffy.com/", "rating": 4.3, "review_count": "", "latitude": 28.4226457, "longitude": 77.0376039, "maps_url": "https://www.google.com/maps/place/?q=place_id:0x390d19ad585bba37:0xc7a1380f3c30571a"}, {"place_id": "0x390d1c70d55438c9:0x375322c6a10ebe5c", "name": "Delhi Customs", "category": "Customs office", "street": "H435+389", "city": "NEAR IGI AIRPORT, New custom house", "phone": "01123238880", "website": "http://delhicustoms.gov.in/", "rating": 1.7, "review_count": "", "latitude": 28.5526697, "longitude": 77.1083446, "maps_url": "https://www.google.com/maps/place/?q=place_id:0x390d1c70d55438c9:0x375322c6a10ebe5c"}, {"place_id": "0x3a02777d66efb6af:0x1dc1db30cb498b1d", "name": "Nest-In, A Tata Steel Construction Solution", "category": "Steel construction company", "street": "4th floor, Worldmark 1", "city": "402", "phone": "18002088200", "website": "http://www.nestin.co.in/", "rating": 4.5, "review_count": "", "latitude": 28.550539299999997, "longitude": 77.12135839999999, "maps_url": "https://www.google.com/maps/place/?q=place_id:0x3a02777d66efb6af:0x1dc1db30cb498b1d"}, {"place_id": "0x390d192a43d18f13:0x8bbba9dab452c924", "name": "Eon Networks Pvt Ltd", "category": "Computer support and services", "street": "733, Udyog Vihar Phase V Rd", "city": "Phase V, Udyog Vihar, Sector 19", "phone": "09810644642", "website": "http://eonconnects.net/", "rating": 4.5, "review_count": "", "latitude": 28.5046906, "longitude": 77.0857224, "maps_url": "https://www.google.com/maps/place/?q=place_id:0x390d192a43d18f13:0x8bbba9dab452c924"}, {"place_id": "0x4156579e876131e7:0x356c887f8dac5e97", "name": "Haaditech Private Limited", "category": "Software company", "street": "Gate No. 04", "city": "Ambience Mall", "phone": "", "website": "https://www.haaditech.com/", "rating": 5, "review_count": "", "latitude": 28.5057491, "longitude": 77.0960972, "maps_url": "https://www.google.com/maps/place/?q=place_id:0x4156579e876131e7:0x356c887f8dac5e97"}, {"place_id": "0x390d1dd455555555:0xf0c0ae7cb8e85b43", "name": "AtoZ Group of Companies", "category": "Property management company", "street": "37/537, Vasant Kunj Rd", "city": "Block A, Mahipalpur Village, Mahipalpur", "phone": "09810818888", "website": "http://www.atozgroup.in/", "rating": 3.7, "review_count": "", "latitude": 28.5452659, "longitude": 77.128058, "maps_url": "https://www.google.com/maps/place/?q=place_id:0x390d1dd455555555:0xf0c0ae7cb8e85b43"}, {"place_id": "0x390d1b6807b97c57:0xb6dc40e91d71681f", "name": "Algo2bots Infotech", "category": "Software company", "street": "WZ-291, Street Number 8", "city": "Sadh Nagar I, Sadh Nagar, Palam", "phone": "09911447760", "website": "http://algo2botsinfotech.com/", "rating": 5, "review_count": "", "latitude": 28.587672599999998, "longitude": 77.09199129999999, "maps_url": "https://www.google.com/maps/place/?q=place_id:0x390d1b6807b97c57:0xb6dc40e91d71681f"}, {"place_id": "0x390d19b51e5edf49:0xd17618454eb66b58", "name": "STERLING MANUFACTURING COMPANY", "category": "Manufacturer", "street": "2nd Floor", "city": "249", "phone": "09310644419", "website": "https://sterlingmfgco.com/", "rating": 4.8, "review_count": "", "latitude": 28.498040099999997, "longitude": 77.0824007, "maps_url": "https://www.google.com/maps/place/?q=place_id:0x390d19b51e5edf49:0xd17618454eb66b58"}, {"place_id": "0x390d19414b0e5321:0xf7a5ae3e08b20907", "name": "Real Time Data Services Pvt. Ltd.", "category": "Corporate office", "street": "809-A", "city": "Phase V, Udyog Vihar, Sector 19", "phone": "01244018891", "website": "https://www.myrealdata.in/", "rating": 3.8, "review_count": "", "latitude": 28.5007093, "longitude": 77.08505699999999, "maps_url": "https://www.google.com/maps/place/?q=place_id:0x390d19414b0e5321:0xf7a5ae3e08b20907"}, {"place_id": "0x390d1c1375428d95:0x329a5350d2f550ec", "name": "Global India Express Pvt Ltd", "category": "Courier service", "street": "L-204, Street Number 7C", "city": "near Vijaya Bank", "phone": "09810497982", "website": "https://www.globalindiaexpress.com/", "rating": 4.6, "review_count": "", "latitude": 28.544389499999998, "longitude": 77.1232125, "maps_url": "https://www.google.com/maps/place/?q=place_id:0x390d1c1375428d95:0x329a5350d2f550ec"}, {"place_id": "0x390d1c738f0e8a0f:0x882e5b30e33cf48a", "name": "TajSATS Air Catering Limited", "category": "Caterer", "street": "Indira Gandhi Int'l Airport", "city": "Indira Gandhi Int'l T3 Rd", "phone": "01125652251", "website": "http://www.tajsats.com/", "rating": 4.5, "review_count": "", "latitude": 28.5487239, "longitude": 77.1073984, "maps_url": "https://www.google.com/maps/place/?q=place_id:0x390d1c738f0e8a0f:0x882e5b30e33cf48a"}, {"place_id": "0x390d19c4f81c373b:0x569790526001fe47", "name": "Pasenture Technologies - Web Development Company in Gurugram, Software Development Company in Gurgaon for CRM & Saas Software", "category": "Software company", "street": "2nd Floor", "city": "90, IDC", "phone": "09717197498", "website": "https://pasenture.in/", "rating": 4, "review_count": "", "latitude": 28.4716508, "longitude": 77.0509349, "maps_url": "https://www.google.com/maps/place/?q=place_id:0x390d19c4f81c373b:0x569790526001fe47"}, {"place_id": "0x390d19afd1d64805:0xdc0ff76292f115a0", "name": "ichhapurti Corporate Office", "category": "E-commerce service", "street": "GGJ SOLUTIONS PVT. LTD, Plot No. 112, 3rd Floor", "city": "Udyog Vihar, Phase I, Sector 20", "phone": "", "website": "", "rating": 3.3, "review_count": "", "latitude": 28.5147753, "longitude": 77.0848065, "maps_url": "https://www.google.com/maps/place/?q=place_id:0x390d19afd1d64805:0xdc0ff76292f115a0"}, {"place_id": "0x390d193c3a36fabd:0x8bd7aacd8793bdb7", "name": "Orange Business Services", "category": "Public relations firm", "street": "Infinity Tower 8, Tower B", "city": "DLF Cyber City, DLF Phase 2, Sector 25", "phone": "", "website": "http://www.orange-business.com/", "rating": 4.5, "review_count": "", "latitude": 28.495814199999998, "longitude": 77.0910088, "maps_url": "https://www.google.com/maps/place/?q=place_id:0x390d193c3a36fabd:0x8bd7aacd8793bdb7"}, {"place_id": "0x390d195a774465b1:0x2b370d83f394dd79", "name": "Calibrated Healthcare Systems", "category": "Corporate office", "street": "Aerocity, Indira Gandhi International Airport", "city": "New Delhi, Delhi 110037", "phone": "01244171500", "website": "https://calibratedhealthcare.com/", "rating": 3.9, "review_count": "", "latitude": 28.5527721, "longitude": 77.1217217, "maps_url": "https://www.google.com/maps/place/?q=place_id:0x390d195a774465b1:0x2b370d83f394dd79"}, {"place_id": "0x390d1c73d8baef93:0x80cd82df4fe6de06", "name": "ACAAI Warehouse", "category": "Warehouse", "street": "G4X6+V54", "city": "Indira Gandhi International Airport", "phone": "", "website": "", "rating": 4, "review_count": "", "latitude": 28.5496475, "longitude": 77.11043939999999, "maps_url": "https://www.google.com/maps/place/?q=place_id:0x390d1c73d8baef93:0x80cd82df4fe6de06"}, {"place_id": "0x390d1ba689ef990d:0x18d88a9093133845", "name": "GENERAL AVIATION TERMINAL, IGI AIRPORT NEW DELHI", "category": "Airport", "street": "behind NEW UDAAN BAWAN, IGI AIRPORT", "city": "New Delhi, Delhi 110037", "phone": "", "website": "", "rating": 4.5, "review_count": "", "latitude": 28.5501462, "longitude": 77.098702, "maps_url": "https://www.google.com/maps/place/?q=place_id:0x390d1ba689ef990d:0x18d88a9093133845"}, {"place_id": "0x390d1b3c7aaaaaab:0xcc0116b944b8452c", "name": "ESIGN WEB SERVICES PVT LTD", "category": "Internet marketing service", "street": "3rd Floor", "city": "Plot No 24", "phone": "09718099999", "website": "https://www.esignwebservices.com/", "rating": 4.7, "review_count": "", "latitude": 28.5857121, "longitude": 77.0494913, "maps_url": "https://www.google.com/maps/place/?q=place_id:0x390d1b3c7aaaaaab:0xcc0116b944b8452c"}, {"place_id": "0x390d19454748b5f1:0x930fdb13eea6af9b", "name": "Auquall BPO - Best BPO and BPM company in gurgaon", "category": "BPO Company", "street": "698, Udyog Vihar Phase V Rd", "city": "Phase V, Udyog Vihar, Sector 19", "phone": "09899005897", "website": "", "rating": 4.4, "review_count": "", "latitude": 28.505634099999998, "longitude": 77.0837823, "maps_url": "https://www.google.com/maps/place/?q=place_id:0x390d19454748b5f1:0x930fdb13eea6af9b"}, {"place_id": "0x390d05c021c5643f:0x4c5794b17406c81c", "name": "Web2online Solutions - web designing and web development company in delhi, seo company delhi", "category": "Website designer", "street": "C 917", "city": "Block C, Sector 7 Dwarka, Dwarka", "phone": "08860303721", "website": "https://web2onlinesolutions.com/", "rating": 4.9, "review_count": "", "latitude": 28.585333499999997, "longitude": 77.0707252, "maps_url": "https://www.google.com/maps/place/?q=place_id:0x390d05c021c5643f:0x4c5794b17406c81c"}, {"place_id": "0x390d193628f9608b:0x33567585d2e83dc3", "name": "EXL Service India", "category": "Software company", "street": "Tower D", "city": "Building No. 14", "phone": "01246144700", "website": "https://www.exlservice.com/locations", "rating": 4.3, "review_count": "", "latitude": 28.4969382, "longitude": 77.0944075, "maps_url": "https://www.google.com/maps/place/?q=place_id:0x390d193628f9608b:0x33567585d2e83dc3"}, {"place_id": "0x390d195d0d8bbaeb:0x879480fbc713a400", "name": "MJS eSTORE", "category": "Software company", "street": "223-224", "city": "Udyog Vihar Phase 1, Udyog Vihar, Sector 20", "phone": "", "website": "", "rating": 4.1, "review_count": "", "latitude": 28.509130799999998, "longitude": 77.08123619999999, "maps_url": "https://www.google.com/maps/place/?q=place_id:0x390d195d0d8bbaeb:0x879480fbc713a400"}, {"place_id": "0x390d195b82955c11:0x4ac608c95db239fa", "name": "Worxpertise (Edge Business Solutions Pvt. Ltd.)", "category": "Business to business service", "street": "4th Floor, WING-B", "city": "AIHP Tower", "phone": "", "website": "https://worxpertise.com/", "rating": 4.1, "review_count": "", "latitude": 28.497374899999997, "longitude": 77.0827276, "maps_url": "https://www.google.com/maps/place/?q=place_id:0x390d195b82955c11:0x4ac608c95db239fa"}, {"place_id": "0x390d19e854fa073d:0x677e7dea662c5747", "name": "Salesforce", "category": "Software company", "street": "8a, DLF Cyber City Rd", "city": "DLF Cyber City, DLF Phase 2, Sector 24", "phone": "", "website": "https://www.salesforce.com/", "rating": 4.4, "review_count": "", "latitude": 28.4955507, "longitude": 77.089473, "maps_url": "https://www.google.com/maps/place/?q=place_id:0x390d19e854fa073d:0x677e7dea662c5747"}, {"place_id": "0x390d1c611aa4ac93:0xfb25223899157ff2", "name": "Air Charter Services Pvt. Ltd.", "category": "Aircraft Rental Agency", "street": "Indira Gandhi Int'l Airport", "city": "Hangar no 3 , General Aviation Terminal General aviation terminal", "phone": "09871801826", "website": "http://www.aircharterservices.com/", "rating": 5, "review_count": "", "latitude": 28.5500357, "longitude": 77.0988368, "maps_url": "https://www.google.com/maps/place/?q=place_id:0x390d1c611aa4ac93:0xfb25223899157ff2"}, {"place_id": "0x390d19a6d0cd5b3f:0xfcb2ab3c1c513941", "name": "Avighnity Technologies | Digital Marketing, PPC, Social Media, Website Designing, SEO Agency in Gurgaon", "category": "Internet marketing service", "street": "Building 96, First Floor", "city": "Udyog Vihar Phase 1, Udyog Vihar, Sector 20", "phone": "08595364679", "website": "https://www.avighnity.com/", "rating": 4.3, "review_count": "", "latitude": 28.5116326, "longitude": 77.083787, "maps_url": "https://www.google.com/maps/place/?q=place_id:0x390d19a6d0cd5b3f:0xfcb2ab3c1c513941"}, {"place_id": "0x390d195c405a28cd:0x601d98b0e3748746", "name": "SupportMart Global Services Pvt Ltd", "category": "Corporate office", "street": "29", "city": "Udyog Vihar Phase 1, Dundahera Village, Sector 20", "phone": "01244618200", "website": "", "rating": 3.7, "review_count": "", "latitude": 28.512702599999997, "longitude": 77.0800531, "maps_url": "https://www.google.com/maps/place/?q=place_id:0x390d195c405a28cd:0x601d98b0e3748746"}, {"place_id": "0x390d19482ec7af6b:0xce48ba6ad2474bf2", "name": "AVIZVA Solutions Pvt Ltd", "category": "Corporate office", "street": "16th Floor, Building No. 14 Tower D Building", "city": "DLF Cyber City, DLF Phase 3, Sector 25A", "phone": "01246542490", "website": "http://www.avizva.com/", "rating": 3.9, "review_count": "", "latitude": 28.496678799999998, "longitude": 77.0944262, "maps_url": "https://www.google.com/maps/place/?q=place_id:0x390d19482ec7af6b:0xce48ba6ad2474bf2"}, {"place_id": "0x390d193feaaaaaab:0x7a36da7465a8aea3", "name": "SoftAge Information Technology Limited", "category": "Corporate office", "street": "204", "city": "Phase IV, Udyog Vihar, Sector 18", "phone": "09999886622", "website": "http://www.softage.net/", "rating": 4.3, "review_count": "", "latitude": 28.496942699999998, "longitude": 77.0796953, "maps_url": "https://www.google.com/maps/place/?q=place_id:0x390d193feaaaaaab:0x7a36da7465a8aea3"}, {"place_id": "0x390d195abaaaaaab:0x70637331b211cdbf", "name": "ARCIS e Services Pvt. Ltd", "category": "BPO Company", "street": "415", "city": "Udyog Vihar III, Sector 20", "phone": "01242398392", "website": "https://www.arcisindia.com/", "rating": 3.8, "review_count": "", "latitude": 28.508582399999998, "longitude": 77.08945299999999, "maps_url": "https://www.google.com/maps/place/?q=place_id:0x390d195abaaaaaab:0x70637331b211cdbf"}, {"place_id": "0x390d1b80fb9da03d:0xd77ea97dd9a2aa4a", "name": "Nextwebi IT Solutions Pvt Ltd", "category": "Website designer", "street": "45, Street Number 2", "city": "Palam Extension, Sector 7 Dwarka, Dwarka", "phone": "08904240871", "website": "", "rating": 5, "review_count": "", "latitude": 28.5945388, "longitude": 77.0857647, "maps_url": "https://www.google.com/maps/place/?q=place_id:0x390d1b80fb9da03d:0xd77ea97dd9a2aa4a"}, {"place_id": "0x390d1c773af80cc1:0xe84cd333a09732e4", "name": "Technical Motor Transport Department GMR", "category": "Corporate office", "street": "Indira Gandhi Int'l Airport", "city": "New Delhi, Delhi 110037", "phone": "", "website": "", "rating": 4.7, "review_count": "", "latitude": 28.5538003, "longitude": 77.1072932, "maps_url": "https://www.google.com/maps/place/?q=place_id:0x390d1c773af80cc1:0xe84cd333a09732e4"}]}