[{"place_id": "ChIJZTeh41z9DDkRqOcX1dR6fjA", "name": "iCRATS Technologies", "street": "A31, Mandir Marg, Sector D, Gole Market, New Delhi, Delhi 110001, India", "phone": "+91 73561 50111", "rating": "5", "review_count": "", "website": "https://www.icrats.com/products.html", "latitude": 28.6360183, "longitude": 77.2023614, "maps_url": "https://www.google.com/maps/search/?api=1&query=iCRATS%20Technologies&query_place_id=ChIJZTeh41z9DDkRqOcX1dR6fjA"}, {"place_id": "ChIJc-QFLnQSbQQRAu_8xjqxZFI", "name": "Info Tech India", "street": "KAILASH BUILDING, 1212, KG Marg, Barakhamba, New Delhi, Delhi 110001, India", "phone": "", "rating": "5", "review_count": "", "website": "https://infotechindia.in/", "latitude": 28.629473299999997, "longitude": 77.22220159999999, "maps_url": "https://www.google.com/maps/search/?api=1&query=Info%20Tech%20India&query_place_id=ChIJc-QFLnQSbQQRAu_8xjqxZFI"}, {"place_id": "ChIJh-huwyv9DDkRFHWj0wTP-Go", "name": "Sky it solutions", "street": "102, Shaheed Bhagat Singh Marg, New Khanna Market, Gole Market, New Delhi, Delhi 110001, India", "phone": "+91 79824 46110", "rating": "4.8", "review_count": "", "website": "", "latitude": 28.633478999999998, "longitude": 77.207314, "maps_url": "https://www.google.com/maps/search/?api=1&query=Sky%20it%20solutions&query_place_id=ChIJh-huwyv9DDkRFHWj0wTP-Go"}, {"place_id": "ChIJA6KtL5kCDTkR7wFe_OSD2bE", "name": "Omniscient IT Solutions Pvt. Ltd", "street": "4, 28, Saraswati Marg, Block 15A, WEA, Karol Bagh, New Delhi, Delhi, 110005, India", "phone": "+91 98110 27310", "rating": "4.6", "review_count": "", "website": "https://www.omniscientitsolutions.com/", "latitude": 28.646959, "longitude": 77.1882229, "maps_url": "https://www.google.com/maps/search/?api=1&query=Omniscient%20IT%20Solutions%20Pvt.%20Ltd&query_place_id=ChIJA6KtL5kCDTkR7wFe_OSD2bE"}, {"place_id": "ChIJC3MN3zb9DDkR-JxtEG9cQg0", "name": "I. T. Solutions", "street": "Gate No. 8, A-6, 1st Floor, Inner Circle, Above Post office, near ICICI Bank, Bon Ton and Metro, Connaught Place, New Delhi, Delhi 110001, India", "phone": "+91 11 4152 3242", "rating": "4.9", "review_count": "", "website": "http://www.itsolutioncp.com/", "latitude": 28.6324367, "longitude": 77.2183441, "maps_url": "https://www.google.com/maps/search/?api=1&query=I.%20T.%20Solutions&query_place_id=ChIJC3MN3zb9DDkR-JxtEG9cQg0"}, {"place_id": "ChIJFeXlTZkCDTkRNw2aQAO8CNk", "name": "Himalayan IT Solutions | Best Website Designing Company in Delhi | SEO/Digital Marketing Company in Delhi NCR, India", "street": "61/4255, Padam Singh Rd, Block 29, Block 1, Regar Pura, Karol Bagh, Delhi, 110005, India", "phone": "+91 98990 98509", "rating": "3.9", "review_count": "", "website": "http://www.himalayanitsolutions.com/", "latitude": 28.649673999999997, "longitude": 77.186599, "maps_url": "https://www.google.com/maps/search/?api=1&query=Himalayan%20IT%20Solutions%20%7C%20Best%20Website%20Designing%20Company%20in%20Delhi%20%7C%20SEO/Digital%20Marketing%20Company%20in%20Delhi%20NCR%2C%20India&query_place_id=ChIJFeXlTZkCDTkRNw2aQAO8CNk"}, {"place_id": "ChIJQUcpcZT9DDkRJYf0_tsOACM", "name": "Big Think Technology", "street": "D-19 ground floor, Pandav nagar, near, Mandir Marg, Akshardham, Gole Market, Delhi, New Delhi, Delhi 110001, India", "phone": "+91 86512 01033", "rating": "5", "review_count": "", "website": "https://bigthinktechnology.in/", "latitude": 28.6339977, "longitude": 77.2002499, "maps_url": "https://www.google.com/maps/search/?api=1&query=Big%20Think%20Technology&query_place_id=ChIJQUcpcZT9DDkRJYf0_tsOACM"}, {"place_id": "ChIJlaY7HUv9DDkRXE7f2ZAgbLE", "name": "Infocera IT", "street": "First Floor, Block-L, L29 - L34, Block L, Connaught Place, New Delhi, Delhi 110001, India", "phone": "", "rating": "4.7", "review_count": "", "website": "https://infocera.in/", "latitude": 28.634275499999998, "longitude": 77.2217273, "maps_url": "https://www.google.com/maps/search/?api=1&query=Infocera%20IT&query_place_id=ChIJlaY7HUv9DDkRXE7f2ZAgbLE"}, {"place_id": "ChIJO4sr49IDDTkRALZaeWsr-oI", "name": "Iraitech | Software Development Company", "street": "Central Square Complex 3, Unit No-1051, 1st Floor, Near Filmistan, DCM chowk, Bara Hindu Rao, Kishan Ganj, Delhi, 110006, India", "phone": "+91 81301 04108", "rating": "4.1", "review_count": "", "website": "https://www.iraitech.com/", "latitude": 28.6631951, "longitude": 77.20308639999999, "maps_url": "https://www.google.com/maps/search/?api=1&query=Iraitech%20%7C%20Software%20Development%20Company&query_place_id=ChIJO4sr49IDDTkRALZaeWsr-oI"}, {"place_id": "ChIJuzZ3usj9DDkR5Q91Qz7GlDc", "name": "Busy Infotech Pvt. Ltd.", "street": "3, Rani Jhansi Rd, Block E 4, Jhandewalan Extension, Karol Bagh, New Delhi, Delhi 110055, India", "phone": "+91 11 4096 4096", "rating": "4.6", "review_count": "", "website": "https://busy.in/", "latitude": 28.6454408, "longitude": 77.2042627, "maps_url": "https://www.google.com/maps/search/?api=1&query=Busy%20Infotech%20Pvt.%20Ltd.&query_place_id=ChIJuzZ3usj9DDkR5Q91Qz7GlDc"}, {"place_id": "ChIJExoZbgP9DDkRd2Q8vmEWFgc", "name": "Posistrength Software Solution Pvt.Ltd.", "street": "Workingdom,E-13/29, First Floor, Harsha Bhawan, Inner Circle, Block E, Connaught Place, New Delhi, Delhi 110001, India", "phone": "+91 89832 05821", "rating": "4.9", "review_count": "", "website": "https://www.posistrength.com/", "latitude": 28.6326204, "longitude": 77.22187869999999, "maps_url": "https://www.google.com/maps/search/?api=1&query=Posistrength%20Software%20Solution%20Pvt.Ltd.&query_place_id=ChIJExoZbgP9DDkRd2Q8vmEWFgc"}, {"place_id": "ChIJtXMHQGj9DDkRRE43pKtyAYM", "name": "Dvayweb Consultancy Services Pvt. Ltd.", "street": "Rani Jhansi Rd, Block E 4, Jhandewalan Extension, Jhandewalan, New Delhi, Delhi 110055, India", "phone": "+91 98730 30060", "rating": "4.6", "review_count": "", "website": "https://dvayweb.com/", "latitude": 28.645454599999997, "longitude": 77.2042455, "maps_url": "https://www.google.com/maps/search/?api=1&query=Dvayweb%20Consultancy%20Services%20Pvt.%20Ltd.&query_place_id=ChIJtXMHQGj9DDkRRE43pKtyAYM"}, {"place_id": "ChIJUTjmTlX9DDkRFs7kNi7bKuo", "name": "Globe Alley Tech. - Software Development Company", "street": "J6JG+6RW, 119, Fire Brigade Lane, Connaught Place, New Delhi, Delhi 110001, India", "phone": "+91 99107 10140", "rating": "4.9", "review_count": "", "website": "http://globealley.us/", "latitude": 28.6306084, "longitude": 77.22708829999999, "maps_url": "https://www.google.com/maps/search/?api=1&query=Globe%20Alley%20Tech.%20-%20Software%20Development%20Company&query_place_id=ChIJUTjmTlX9DDkRFs7kNi7bKuo"}, {"place_id": "ChIJEZi4U8HjDDkRyul3V2h5ouc", "name": "IT Company", "street": "A-14, near iskcon temple, Block A, APB Garhi, Vasant Vihar, New Delhi, Delhi 110065, India", "phone": "", "rating": "3", "review_count": "", "website": "http://www.opuswiz.com/", "latitude": 28.557167, "longitude": 77.25424819999999, "maps_url": "https://www.google.com/maps/search/?api=1&query=IT%20Company&query_place_id=ChIJEZi4U8HjDDkRyul3V2h5ouc"}, {"place_id": "ChIJY05MZjb9DDkRTiB7cFBD48w", "name": "DataSlexIndia | On-Demand Software Development Company", "street": "210,211,212 BMC House, N1, Middle Cir, Connaught Place, New Delhi, Delhi 110001, India", "phone": "+91 11 2484 5172", "rating": "5", "review_count": "", "website": "https://dataslexindia.com/", "latitude": 28.630570499999997, "longitude": 77.2198088, "maps_url": "https://www.google.com/maps/search/?api=1&query=DataSlexIndia%20%7C%20On-Demand%20Software%20Development%20Company&query_place_id=ChIJY05MZjb9DDkRTiB7cFBD48w"}, {"place_id": "ChIJy4oVr1r9DDkR6DSbHBVhDqY", "name": "Neelam Sales Agency", "street": "8, First Floor, Shaheed Bhagat Singh Marg, Gole Market, New Delhi, Delhi 110001, India", "phone": "+91 98990 93714", "rating": "4.9", "review_count": "", "website": "http://www.neelamsales.com/", "latitude": 28.633986999999998, "longitude": 77.20655099999999, "maps_url": "https://www.google.com/maps/search/?api=1&query=Neelam%20Sales%20Agency&query_place_id=ChIJy4oVr1r9DDkR6DSbHBVhDqY"}, {"place_id": "ChIJ7aqqWqz8DDkRgAFAey6rIAo", "name": "𝑨𝑶 𝑺𝒐𝒇𝒕𝒘𝒂𝒓𝒆 𝑺𝒐𝒍𝒖𝒕𝒊𝒐𝒏 Website Designing company-website development company-product promotion and ERP development company", "street": "1B, S-505, School Block, Laxmi Nagar, II, Shakarpur, New Delhi, Delhi, 110092, India", "phone": "+91 11 4260 3444", "rating": "4.8", "review_count": "", "website": "https://aosoftwaresolution.com/", "latitude": 28.6287195, "longitude": 77.2766171, "maps_url": "https://www.google.com/maps/search/?api=1&query=%F0%9D%91%A8%F0%9D%91%B6%20%F0%9D%91%BA%F0%9D%92%90%F0%9D%92%87%F0%9D%92%95%F0%9D%92%98%F0%9D%92%82%F0%9D%92%93%F0%9D%92%86%20%F0%9D%91%BA%F0%9D%92%90%F0%9D%92%8D%F0%9D%92%96%F0%9D%92%95%F0%9D%92%8A%F0%9D%92%90%F0%9D%92%8F%20Website%20Designing%20company-website%20development%20company-product%20promotion%20and%20ERP%20development%20company&query_place_id=ChIJ7aqqWqz8DDkRgAFAey6rIAo"}, {"place_id": "ChIJjeJIYfv9DDkRW6JxZ0ugd-A", "name": "Alliancef Global | Mobile App Development | eCommerce Website Design and Development company in Delhi, India", "street": "8th Floor, Vijaya Building, 811, Barakhamba Rd, Todermal Road Area, Mandi House, New Delhi, Delhi 110001, India", "phone": "+91 95821 99196", "rating": "5", "review_count": "", "website": "https://alliancef.global/", "latitude": 28.628632099999997, "longitude": 77.2269889, "maps_url": "https://www.google.com/maps/search/?api=1&query=Alliancef%20Global%20%7C%20Mobile%20App%20Development%20%7C%20eCommerce%20Website%20Design%20and%20Development%20company%20in%20Delhi%2C%20India&query_place_id=ChIJjeJIYfv9DDkRW6JxZ0ugd-A"}, {"place_id": "ChIJLXrkS8z9DDkRIXIDU_ojar0", "name": "Web Players Technology- Website Designing Company in Central Delhi - Landing Page Designing Company in Delhi", "street": "CP N-12 UPPER GROUND FLOOR MUNSI LAL BUILDING, Connaught Cir, OPPOSITE KFC, Connaught Place, New Delhi, Delhi 110001, India", "phone": "+91 97172 92583", "rating": "5", "review_count": "", "website": "https://www.web-players.co.in/", "latitude": 28.6315566, "longitude": 77.22262119999999, "maps_url": "https://www.google.com/maps/search/?api=1&query=Web%20Players%20Technology-%20Website%20Designing%20Company%20in%20Central%20Delhi%20-%20Landing%20Page%20Designing%20Company%20in%20Delhi&query_place_id=ChIJLXrkS8z9DDkRIXIDU_ojar0"}, {"place_id": "ChIJcesdOTX9DDkRtlHcx4gT3ds", "name": "Jak Software Pvt Ltd", "street": "52 Janpath, New Delhi, Delhi 110001, India", "phone": "+91 78272 49056", "rating": "4.4", "review_count": "", "website": "http://www.jaksoftware.co.in/", "latitude": 28.627537999999998, "longitude": 77.21878989999999, "maps_url": "https://www.google.com/maps/search/?api=1&query=Jak%20Software%20Pvt%20Ltd&query_place_id=ChIJcesdOTX9DDkRtlHcx4gT3ds"}, {"place_id": "ChIJjTW40FvjDDkRMg33-9y4UpM", "name": "Asia Tech World", "street": "LB 15 ANSAL BHAWAN, KG Marg, Connaught Place, New Delhi, Delhi 110001, India", "phone": "+91 84470 19449", "rating": "5", "review_count": "", "website": "https://www.asiatechworld.in/", "latitude": 28.6228566, "longitude": 77.2253927, "maps_url": "https://www.google.com/maps/search/?api=1&query=Asia%20Tech%20World&query_place_id=ChIJjTW40FvjDDkRMg33-9y4UpM"}, {"place_id": "ChIJp2QZy6PhDDkRo4MA8enlBaI", "name": "Highlex Technologies", "street": "1st Floor, Krishna Park, D-300, Connaught Place, New Delhi, Delhi 110001, India", "phone": "+91 85868 53031", "rating": "5", "review_count": "", "website": "https://highlex.in/", "latitude": 28.632742999999998, "longitude": 77.219597, "maps_url": "https://www.google.com/maps/search/?api=1&query=Highlex%20Technologies&query_place_id=ChIJp2QZy6PhDDkRo4MA8enlBaI"}, {"place_id": "ChIJl5geAqLjDDkRGQx9atNSvyg", "name": "It Softtech - Website Designing and Development Company in Delhi, India", "street": "149, Ring Rd, opp. Maharani Bagh, Kilokri, Phase 1, Hari Nagar Ashram, New Delhi, Delhi 110014, India", "phone": "+91 98100 56177", "rating": "5", "review_count": "", "website": "", "latitude": 28.5763395, "longitude": 77.2640869, "maps_url": "https://www.google.com/maps/search/?api=1&query=It%20Softtech%20-%20Website%20Designing%20and%20Development%20Company%20in%20Delhi%2C%20India&query_place_id=ChIJl5geAqLjDDkRGQx9atNSvyg"}, {"place_id": "ChIJve_HJ2b9DDkRzJphaUssbtE", "name": "Manu Info Solutions", "street": "51, Rani Jhansi Rd, Motia Khan, Paharganj, New Delhi, Delhi 110055, India", "phone": "+91 87001 32566", "rating": "5", "review_count": "", "website": "http://www.manuinfosolutions.com/", "latitude": 28.6490059, "longitude": 77.2058175, "maps_url": "https://www.google.com/maps/search/?api=1&query=Manu%20Info%20Solutions&query_place_id=ChIJve_HJ2b9DDkRzJphaUssbtE"}, {"place_id": "ChIJ9aF3zD7BwjsRqtR_ycLqUCA", "name": "ICT Circle", "street": "G 36 Second Floor, Block G, Connaught Place, New Delhi, Delhi 110001, India", "phone": "+91 556687933", "rating": "5", "review_count": "", "website": "", "latitude": 28.6330812, "longitude": 77.216946, "maps_url": "https://www.google.com/maps/search/?api=1&query=ICT%20Circle&query_place_id=ChIJ9aF3zD7BwjsRqtR_ycLqUCA"}, {"place_id": "ChIJQ20KLJ39DDkRBtjOr7WTP-o", "name": "Teasoft Corporation", "street": "Market, Block F, Connaught Place, Delhi, New Delhi, Delhi 110001, India", "phone": "", "rating": "5", "review_count": "", "website": "", "latitude": 28.631121399999998, "longitude": 77.217388, "maps_url": "https://www.google.com/maps/search/?api=1&query=Teasoft%20Corporation&query_place_id=ChIJQ20KLJ39DDkRBtjOr7WTP-o"}, {"place_id": "ChIJqf6gXDX9DDkRz71t7_HgKx8", "name": "Vayam Technologies Ltd.", "street": "Thapar House, 124, Janpath Ln, Janpath, Connaught Place, New Delhi, Delhi 110001, India", "phone": "+91 11 4710 1200", "rating": "3.8", "review_count": "", "website": "https://www.vayamtech.com/", "latitude": 28.624508, "longitude": 77.21805499999999, "maps_url": "https://www.google.com/maps/search/?api=1&query=Vayam%20Technologies%20Ltd.&query_place_id=ChIJqf6gXDX9DDkRz71t7_HgKx8"}, {"place_id": "ChIJEfpK-U_9DDkR3t8bpM-jZf8", "name": "Ample Wings IT Services", "street": "77, Baird Ln, Sector 4, Gole Market, New Delhi, Delhi 110001, India", "phone": "+91 98689 77776", "rating": "2.7", "review_count": "", "website": "https://amplewings.com/", "latitude": 28.633508, "longitude": 77.20639299999999, "maps_url": "https://www.google.com/maps/search/?api=1&query=Ample%20Wings%20IT%20Services&query_place_id=ChIJEfpK-U_9DDkR3t8bpM-jZf8"}, {"place_id": "ChIJ08kX3Tr9DDkRcoeYgkDpP8M", "name": "Digicept", "street": "4/3-D, P&T, Kali Bari Marg, New Delhi, Delhi 110001, India", "phone": "+91 90133 66866", "rating": "5", "review_count": "", "website": "", "latitude": 28.6305072, "longitude": 77.2009563, "maps_url": "https://www.google.com/maps/search/?api=1&query=Digicept&query_place_id=ChIJ08kX3Tr9DDkRcoeYgkDpP8M"}, {"place_id": "ChIJqfimUEX9DDkRQgxObVELK8c", "name": "Indian Holiday Pvt. Ltd", "street": "Chandra House, 2nd Floor Branch Office, 8, Doctor Ln, Gole Market, New Delhi, Delhi 110001, India", "phone": "+91 11 4242 3100", "rating": "4.2", "review_count": "", "website": "https://www.indianholiday.com/", "latitude": 28.633914599999997, "longitude": 77.2063385, "maps_url": "https://www.google.com/maps/search/?api=1&query=Indian%20Holiday%20Pvt.%20Ltd&query_place_id=ChIJqfimUEX9DDkRQgxObVELK8c"}, {"place_id": "ChIJMc1yzlH9DDkRiE_5_WDjzZs", "name": "Parsvnath Capital Tower", "street": "J6J4+PJ4, Bhai Vir Singh Marg, Sector 4, Gole Market, New Delhi, Delhi 110001, India", "phone": "+91 85275 33441", "rating": "4.3", "review_count": "", "website": "http://parsvnath.com/", "latitude": 28.6317557, "longitude": 77.2065902, "maps_url": "https://www.google.com/maps/search/?api=1&query=Parsvnath%20Capital%20Tower&query_place_id=ChIJMc1yzlH9DDkRiE_5_WDjzZs"}, {"place_id": "ChIJUeRoUk79DDkReTD44yeHUxA", "name": "Tata Communications Ltd VSB Office", "street": "2 Bangla Sahib Road CP, Delhi, 110001, India", "phone": "", "rating": "4.5", "review_count": "", "website": "http://www.tatacommunications.com/", "latitude": 28.6308087, "longitude": 77.2082495, "maps_url": "https://www.google.com/maps/search/?api=1&query=Tata%20Communications%20Ltd%20VSB%20Office&query_place_id=ChIJUeRoUk79DDkReTD44yeHUxA"}, {"place_id": "ChIJjcZpn6UGDTkRPRUJ1Y8OFng", "name": "UniSpark Innovation", "street": "1st Floor, Unispark innovation Pvt. ltd, B-39, Middle Cir, Block B, Connaught Place, New Delhi, Delhi 110001, India", "phone": "+91 88600 77276", "rating": "5", "review_count": "", "website": "https://www.unisparkinnovation.com/", "latitude": 28.633904299999998, "longitude": 77.21771, "maps_url": "https://www.google.com/maps/search/?api=1&query=UniSpark%20Innovation&query_place_id=ChIJjcZpn6UGDTkRPRUJ1Y8OFng"}, {"place_id": "ChIJV1os_E_9DDkR_-upQmI9FCg", "name": "Jain Commercial Institute", "street": "Shop No: 85, 85, Bangla Sahib Rd, Sector 4, Gole Market, New Delhi, Delhi 110001, India", "phone": "+91 98682 39101", "rating": "4.9", "review_count": "", "website": "", "latitude": 28.6326698, "longitude": 77.2083148, "maps_url": "https://www.google.com/maps/search/?api=1&query=Jain%20Commercial%20Institute&query_place_id=ChIJV1os_E_9DDkR_-upQmI9FCg"}, {"place_id": "ChIJNwex1pH9DDkRwnVAGuZ8XRU", "name": "Delhi Sightseeing & Private Tours", "street": "1, Doctor Ln, Sector 3, DIZ Area, Gole Market, New Delhi, Delhi 110001, India", "phone": "", "rating": "5", "review_count": "", "website": "https://ramramvoyages.com/", "latitude": 28.6341574, "longitude": 77.2083138, "maps_url": "https://www.google.com/maps/search/?api=1&query=Delhi%20Sightseeing%20%26%20Private%20Tours&query_place_id=ChIJNwex1pH9DDkRwnVAGuZ8XRU"}, {"place_id": "ChIJc80Hk_0DDTkRzeDGAgk6Ino", "name": "Web Cloud Technology", "street": "3A/74 W.E.A, Sat Nagar, Karol Bagh, New Delhi, Delhi 110005, India", "phone": "+91 88823 24811", "rating": "4.4", "review_count": "", "website": "https://webcloudtechnology.in/", "latitude": 28.6465632, "longitude": 77.1824149, "maps_url": "https://www.google.com/maps/search/?api=1&query=Web%20Cloud%20Technology&query_place_id=ChIJc80Hk_0DDTkRzeDGAgk6Ino"}, {"place_id": "ChIJD7Kv6s_9DDkRWU3cySoJXr0", "name": "NEW SHARMA TENT & LIGHT HOUSE", "street": "12/13, Baird Ln, Sector 4, Gole Market, New Delhi, Delhi 110001, India", "phone": "+91 95552 39195", "rating": "4.9", "review_count": "", "website": "", "latitude": 28.632519, "longitude": 77.205955, "maps_url": "https://www.google.com/maps/search/?api=1&query=NEW%20SHARMA%20TENT%20%26%20LIGHT%20HOUSE&query_place_id=ChIJD7Kv6s_9DDkRWU3cySoJXr0"}, {"place_id": "ChIJV5b4yDX9DDkRdJwaZgRwvK0", "name": "Sterco Digitex Pvt Limited", "street": "2nd Floor, 72, Janpath Rd, Atul Grove Road, Janpath, Connaught Place, New Delhi, Delhi 110001, India", "phone": "+91 120 485 7333", "rating": "4.1", "review_count": "", "website": "https://www.stercodigitex.com/", "latitude": 28.628133, "longitude": 77.21985099999999, "maps_url": "https://www.google.com/maps/search/?api=1&query=Sterco%20Digitex%20Pvt%20Limited&query_place_id=ChIJV5b4yDX9DDkRdJwaZgRwvK0"}, {"place_id": "ChIJ8Ys1siUCDTkRgUaQzYhM_KY", "name": "SETINDIABIZ", "street": "2nd Floor, Regal Building, Innov8 CP2, 44, Backary Portion, Connaught Place, New Delhi, Delhi 110001, India", "phone": "+91 98996 00605", "rating": "4.7", "review_count": "", "website": "https://www.setindiabiz.com/", "latitude": 28.6311227, "longitude": 77.216672, "maps_url": "https://www.google.com/maps/search/?api=1&query=SETINDIABIZ&query_place_id=ChIJ8Ys1siUCDTkRgUaQzYhM_KY"}, {"place_id": "ChIJR6tqjDMCDTkREpkbPfG9lQs", "name": "GTK Group INC", "street": "F-25, Bhagat Singh Market, Gole Market, New Delhi, Delhi 110001, India", "phone": "+91 11 4959 6950", "rating": "4.4", "review_count": "", "website": "https://gtktravels.com/", "latitude": 28.6330614, "longitude": 77.2077626, "maps_url": "https://www.google.com/maps/search/?api=1&query=GTK%20Group%20INC&query_place_id=ChIJR6tqjDMCDTkREpkbPfG9lQs"}, {"place_id": "ChIJQUL6ZLrlDDkRM1v4H5Icf3c", "name": "DDR Technology", "street": "", "phone": "+91 94730 22394", "rating": "4.8", "review_count": "", "website": "http://www.ddrtechnology.in/", "latitude": 28.5273522, "longitude": 77.28978339999999, "maps_url": "https://www.google.com/maps/search/?api=1&query=DDR%20Technology&query_place_id=ChIJQUL6ZLrlDDkRM1v4H5Icf3c"}, {"place_id": "ChIJn-QM7U_9DDkRZ1SSQVVfZbI", "name": "Clippers Business Systems", "street": "69, Shaheed Bhagat Singh market, Near, Gole Market, New Delhi, Delhi 110001, India", "phone": "+91 98109 95600", "rating": "4.9", "review_count": "", "website": "http://www.clippersindia.com/", "latitude": 28.633184399999998, "longitude": 77.2077722, "maps_url": "https://www.google.com/maps/search/?api=1&query=Clippers%20Business%20Systems&query_place_id=ChIJn-QM7U_9DDkRZ1SSQVVfZbI"}, {"place_id": "ChIJQZ4wvE_9DDkRcCxBCUdzFA4", "name": "MedBay India Pvt. Ltd.", "street": "F49, Second Floor, Shaheed Bhagat Singh Market, Gole Market, New Delhi, Delhi 110001, India", "phone": "+91 95558 12112", "rating": "2.8", "review_count": "", "website": "", "latitude": 28.632271399999997, "longitude": 77.2078512, "maps_url": "https://www.google.com/maps/search/?api=1&query=MedBay%20India%20Pvt.%20Ltd.&query_place_id=ChIJQZ4wvE_9DDkRcCxBCUdzFA4"}, {"place_id": "ChIJLZTdqVr9DDkR0XEq8NMMeu8", "name": "Colors Business Center", "street": "Shop No.11, Braid Lane Road, Gole Market, New Delhi, Delhi 110001, India", "phone": "+91 11 2374 3725", "rating": "4", "review_count": "", "website": "", "latitude": 28.6327, "longitude": 77.2058969, "maps_url": "https://www.google.com/maps/search/?api=1&query=Colors%20Business%20Center&query_place_id=ChIJLZTdqVr9DDkR0XEq8NMMeu8"}, {"place_id": "ChIJZ-VJ-k_9DDkRunCI80ljfGU", "name": "The Wire", "street": "F44, Shaheed Bhagat Singh Marg, opp. Jain Bhavan, Bhagat Singh Market, Gole Market, New Delhi, Delhi 110001, India", "phone": "", "rating": "3.5", "review_count": "", "website": "http://thewire.in/", "latitude": 28.633232099999997, "longitude": 77.2074706, "maps_url": "https://www.google.com/maps/search/?api=1&query=The%20Wire&query_place_id=ChIJZ-VJ-k_9DDkRunCI80ljfGU"}, {"place_id": "ChIJxQG7qo0GDTkR8PgoXnyMRZ8", "name": "Tekniko Global - Top Mobile App Development Company in Delhi | Android & iOS", "street": "", "phone": "+91 93116 20027", "rating": "4.5", "review_count": "", "website": "https://www.teknikoglobal.com/", "latitude": 28.5870636, "longitude": 77.1721882, "maps_url": "https://www.google.com/maps/search/?api=1&query=Tekniko%20Global%20-%20Top%20Mobile%20App%20Development%20Company%20in%20Delhi%20%7C%20Android%20%26%20iOS&query_place_id=ChIJxQG7qo0GDTkR8PgoXnyMRZ8"}, {"place_id": "ChIJQZ4wvE_9DDkRdcZa5cuSwmg", "name": "NORTH INDIA-PRIVATE DRIVER", "street": "65 A, Bhagat Singh Market, Gole Market, New Delhi, Delhi 110001, India", "phone": "+91 98218 43842", "rating": "5", "review_count": "", "website": "https://northindia-privatedriver.com/", "latitude": 28.632594299999997, "longitude": 77.20761639999999, "maps_url": "https://www.google.com/maps/search/?api=1&query=NORTH%20INDIA-PRIVATE%20DRIVER&query_place_id=ChIJQZ4wvE_9DDkRdcZa5cuSwmg"}, {"place_id": "ChIJZ9of8k_9DDkRqXSvK-RAmgU", "name": "Live India Tours Pvt. Ltd", "street": "F- 62, Bhagat Singh Market Marg, New Khanna Market, Gole Market, New Delhi, Delhi 110001, India", "phone": "+91 11 2334 6060", "rating": "4.5", "review_count": "", "website": "http://www.liveindiatours.com/", "latitude": 28.633391099999997, "longitude": 77.2071248, "maps_url": "https://www.google.com/maps/search/?api=1&query=Live%20India%20Tours%20Pvt.%20Ltd&query_place_id=ChIJZ9of8k_9DDkRqXSvK-RAmgU"}, {"place_id": "ChIJ9VfTP5gCDTkR45E3C2S8DLA", "name": "Dynamite News", "street": "4, Udhyan Marg, Edward Square, Gole Market, New Delhi, Delhi 110001, India", "phone": "+91 11 2576 6897", "rating": "4.7", "review_count": "", "website": "https://www.dynamitenews.com/", "latitude": 28.6321056, "longitude": 77.2020412, "maps_url": "https://www.google.com/maps/search/?api=1&query=Dynamite%20News&query_place_id=ChIJ9VfTP5gCDTkR45E3C2S8DLA"}, {"place_id": "ChIJDWMkBlnFZS8RawSsnnKydnc", "name": "Arantxa Go Travels", "street": "1st floor, Bhagat Singh Market, F-56, New Khanna Market, Gole Market, New Delhi, Delhi 110001, India", "phone": "+91 92663 51367", "rating": "4.9", "review_count": "", "website": "https://arantxagotravels.com/", "latitude": 28.6328672, "longitude": 77.2076764, "maps_url": "https://www.google.com/maps/search/?api=1&query=Arantxa%20Go%20Travels&query_place_id=ChIJDWMkBlnFZS8RawSsnnKydnc"}, {"place_id": "ChIJ57xZTpgCDTkRYjnFNtZRjs8", "name": "Multicolor Steel Pvt Ltd", "street": "White House, 1/18-20, Rani Jhansi Rd, Type 4, Block B, Aram Bagh, Jhandewalan, New Delhi, Delhi 110055, India", "phone": "+91 78273 13233", "rating": "4.2", "review_count": "", "website": "https://www.multicolorsteel.com/", "latitude": 28.6427418, "longitude": 77.20515069999999, "maps_url": "https://www.google.com/maps/search/?api=1&query=Multicolor%20Steel%20Pvt%20Ltd&query_place_id=ChIJ57xZTpgCDTkRYjnFNtZRjs8"}, {"place_id": "ChIJ0Ql-EWL9DDkRWb24ujA3NdY", "name": "Web Design, Digital Marketing, Software & Mobile App Development.", "street": "", "phone": "", "rating": "3.7", "review_count": "", "website": "", "latitude": 28.692404999999997, "longitude": 77.090042, "maps_url": "https://www.google.com/maps/search/?api=1&query=Web%20Design%2C%20Digital%20Marketing%2C%20Software%20%26%20Mobile%20App%20Development.&query_place_id=ChIJ0Ql-EWL9DDkRWb24ujA3NdY"}, {"place_id": "ChIJK1-lIJq71i0RmXa6ehYmjak", "name": "SUNM Tech | Best Web And App Development Services in Delhi | Software Development", "street": "", "phone": "+91 70425 27794", "rating": "5", "review_count": "", "website": "https://sunmtech.com/", "latitude": 21.0680074, "longitude": 82.7525294, "maps_url": "https://www.google.com/maps/search/?api=1&query=SUNM%20Tech%20%7C%20Best%20Web%20And%20App%20Development%20Services%20in%20Delhi%20%7C%20Software%20Development&query_place_id=ChIJK1-lIJq71i0RmXa6ehYmjak"}, {"place_id": "ChIJfUWt0N39DDkRBa3QZGWRazY", "name": "Mittal Jain And Co. LLP Chartered Accountants", "street": "1/4, Panchkuian Rd, near R K Ashram, Bharat Nagar, Paharganj, New Delhi, Delhi 110001, India", "phone": "+91 81780 58454", "rating": "5", "review_count": "", "website": "", "latitude": 28.6393165, "longitude": 77.2088169, "maps_url": "https://www.google.com/maps/search/?api=1&query=Mittal%20Jain%20And%20Co.%20LLP%20Chartered%20Accountants&query_place_id=ChIJfUWt0N39DDkRBa3QZGWRazY"}, {"place_id": "ChIJnQCTYEX9DDkRdqqtoDbpjtM", "name": "Jain Bhawan Shri All India Swetamber Sthanakwasi Jain Conference", "street": "Jain Bhawan, 12, Shaheed Bhagat Singh Marg, Gole Market, New Delhi, Delhi 110001, India", "phone": "+91 11 2336 3729", "rating": "4.2", "review_count": "461", "website": "http://jainconference.org/guestonlinebooking/", "latitude": 28.633841, "longitude": 77.2074439, "maps_url": "https://www.google.com/maps/search/?api=1&query=Jain%20Bhawan%20Shri%20All%20India%20Swetamber%20Sthanakwasi%20Jain%20Conference&query_place_id=ChIJnQCTYEX9DDkRdqqtoDbpjtM"}, {"place_id": "ChIJSa7zgOb9DDkRj1714tNFqI8", "name": "Roam Ready", "street": "Mandir Marg, Pocket A, Gole Market, New Delhi, Delhi 110001, India", "phone": "", "rating": "5", "review_count": "", "website": "http://www.roamready.co.in/", "latitude": 28.6350099, "longitude": 77.2013353, "maps_url": "https://www.google.com/maps/search/?api=1&query=Roam%20Ready&query_place_id=ChIJSa7zgOb9DDkRj1714tNFqI8"}, {"place_id": "ChIJZ66a2MX9DDkRO0TG7Kb8Fbo", "name": "PG Cable and Broadband", "street": "Shop No. 5, Pragati Market, RamaKrishna Ashram Marg, Sector 1, Sector C, Gole Market, New Delhi, Delhi 110001, India", "phone": "+91 87450 73678", "rating": "4.8", "review_count": "", "website": "", "latitude": 28.6370567, "longitude": 77.20672069999999, "maps_url": "https://www.google.com/maps/search/?api=1&query=PG%20Cable%20and%20Broadband&query_place_id=ChIJZ66a2MX9DDkRO0TG7Kb8Fbo"}, {"place_id": "ChIJ0yncXQH9DDkR0uf0riCScRQ", "name": "Tamasha on stage", "street": "Gole Market, New Delhi, Delhi 110001, India", "phone": "+91 97112 46230", "rating": "5", "review_count": "", "website": "https://www.instagram.com/tamashaonstage?igsh=MWxncDJ3a3RxcmFvZg==&utm_source=qr", "latitude": 28.6337245, "longitude": 77.20553989999999, "maps_url": "https://www.google.com/maps/search/?api=1&query=Tamasha%20on%20stage&query_place_id=ChIJ0yncXQH9DDkR0uf0riCScRQ"}, {"place_id": "ChIJsQNEnUT9DDkR3snj3AwKmn4", "name": "Rohan Market", "street": "49-A, Bangla Sahib Rd, New Khanna Market, Sector 4, Gole Market, New Delhi, Delhi 110001, India", "phone": "", "rating": "3", "review_count": "", "website": "", "latitude": 28.633164999999998, "longitude": 77.20777079999999, "maps_url": "https://www.google.com/maps/search/?api=1&query=Rohan%20Market&query_place_id=ChIJsQNEnUT9DDkR3snj3AwKmn4"}, {"place_id": "ChIJxQcslAn9DDkR2uQYut8WjQ0", "name": "AMAN ENTERPRISE", "street": "Shop No.-101, near New Delhi Municipal Council, Bhagat Singh Market, Connaught Place, New Delhi, Delhi 110001, India", "phone": "+91 99582 58107", "rating": "4.4", "review_count": "", "website": "", "latitude": 28.632628399999998, "longitude": 77.20745649999999, "maps_url": "https://www.google.com/maps/search/?api=1&query=AMAN%20ENTERPRISE&query_place_id=ChIJxQcslAn9DDkR2uQYut8WjQ0"}, {"place_id": "ChIJhd2PTE79DDkRM_eCiRFyYFM", "name": "Ajay Travels Pvt. Ltd", "street": "149, Bhagat Singh Market, Gole Market, New Delhi, Delhi 110001, India", "phone": "+91 98101 31530", "rating": "3.6", "review_count": "", "website": "http://ajaytravels.com/", "latitude": 28.633248, "longitude": 77.2070099, "maps_url": "https://www.google.com/maps/search/?api=1&query=Ajay%20Travels%20Pvt.%20Ltd&query_place_id=ChIJhd2PTE79DDkRM_eCiRFyYFM"}, {"place_id": "ChIJlx5-7JT9DDkRhhF-CJlswh4", "name": "SHIVANSH ENTERPRISES", "street": "C-5, Street No.3, near HANSRAJ MARKET, Block T, GAMRI EXTENSION, SUDAMAPURI, Delhi, 110053, India", "phone": "+91 88265 49483", "rating": "5", "review_count": "", "website": "", "latitude": 28.6781546, "longitude": 77.264049, "maps_url": "https://www.google.com/maps/search/?api=1&query=SHIVANSH%20ENTERPRISES&query_place_id=ChIJlx5-7JT9DDkRhhF-CJlswh4"}, {"place_id": "ChIJHymUJILjDDkR6e3T7jZ-neA", "name": "GS International", "street": "2nd Floor, F-58, opposite Bhagat Singh Road, Bhagat Singh Market, Marg, Gole Market, New Delhi, Delhi 110001, India", "phone": "+91 93113 90135", "rating": "4.8", "review_count": "", "website": "https://gsinternationalinc.com/", "latitude": 28.633040899999997, "longitude": 77.20789719999999, "maps_url": "https://www.google.com/maps/search/?api=1&query=GS%20International&query_place_id=ChIJHymUJILjDDkR6e3T7jZ-neA"}, {"place_id": "ChIJ2YlLFUT9DDkRlUFH4Fz9SAQ", "name": "Intrigue Designs Studio + Lab", "street": "Plot No. 9, First Floor, Panchkuian Road, New Delhi, Delhi 110001, India", "phone": "", "rating": "4.4", "review_count": "", "website": "http://www.intriguedesignlab.com/", "latitude": 28.639083, "longitude": 77.20904759999999, "maps_url": "https://www.google.com/maps/search/?api=1&query=Intrigue%20Designs%20Studio%20%2B%20Lab&query_place_id=ChIJ2YlLFUT9DDkRlUFH4Fz9SAQ"}, {"place_id": "ChIJ5XAX8V39DDkR4gQP6Af1-9E", "name": "Adio Brand Solutions : Digital Marketing Agency", "street": "2-E, Block E 3, Jhandewalan Extension, Jhandewalan, New Delhi, Delhi 110055, India", "phone": "+91 98995 66665", "rating": "5", "review_count": "", "website": "https://www.adiobrandsolutions.com/", "latitude": 28.6453027, "longitude": 77.2027925, "maps_url": "https://www.google.com/maps/search/?api=1&query=Adio%20Brand%20Solutions%20%3A%20Digital%20Marketing%20Agency&query_place_id=ChIJ5XAX8V39DDkR4gQP6Af1-9E"}, {"place_id": "ChIJfYKVuCz9DDkR5zLx-vhkokk", "name": "Airtel Store - Gole Market", "street": "Shop No . 100, 100A, Bangla Sahib Rd, DIZ Staff Quarters, Gole Market, New Delhi, Delhi 110001, India", "phone": "+91 98100 12345", "rating": "4.4", "review_count": "", "website": "https://www.airtel.in/", "latitude": 28.63298, "longitude": 77.20867, "maps_url": "https://www.google.com/maps/search/?api=1&query=Airtel%20Store%20-%20Gole%20Market&query_place_id=ChIJfYKVuCz9DDkR5zLx-vhkokk"}, {"place_id": "ChIJ48Zm1_P8DDkRFJuFgn5LWK4", "name": "Shri Tapodhani Aluminium Trading Company", "street": "Xv 2758, Street No. 6, near banke bihari mandir, Bazar Sangatrashan, Chuna Mandi, Paharganj, New Delhi, Delhi 110055, India", "phone": "+91 99110 87778", "rating": "4.8", "review_count": "", "website": "https://tapodhani.com/", "latitude": 28.6435481, "longitude": 77.21105469999999, "maps_url": "https://www.google.com/maps/search/?api=1&query=Shri%20Tapodhani%20Aluminium%20Trading%20Company&query_place_id=ChIJ48Zm1_P8DDkRFJuFgn5LWK4"}, {"place_id": "ChIJF-ok20n9DDkRj6FhZUiSfXI", "name": "Advance Services for Social & Administrative Reforms (ASSAR)", "street": "3rd Floor, 44, Regal Building, beside Ease of Doing Business, Hanuman Road Area, Connaught Place, New Delhi, Delhi 110001, India", "phone": "+91 11 4105 9899", "rating": "4.7", "review_count": "", "website": "http://assar.in/", "latitude": 28.6306726, "longitude": 77.21648929999999, "maps_url": "https://www.google.com/maps/search/?api=1&query=Advance%20Services%20for%20Social%20%26%20Administrative%20Reforms%20%28ASSAR%29&query_place_id=ChIJF-ok20n9DDkRj6FhZUiSfXI"}, {"place_id": "ChIJMVtvDE_9DDkRMcST9mPsEGA", "name": "All Juice Shakes and Vegetables Juice", "street": "Block 38, DIZ Area Sec 4Staff Quarters, Connaught Place, New Delhi, Delhi 110001, India", "phone": "+91 88602 21041", "rating": "4.4", "review_count": "", "website": "", "latitude": 28.6325333, "longitude": 77.2092188, "maps_url": "https://www.google.com/maps/search/?api=1&query=All%20Juice%20Shakes%20and%20Vegetables%20Juice&query_place_id=ChIJMVtvDE_9DDkRMcST9mPsEGA"}, {"place_id": "ChIJOxMhFmX9DDkR3Haru5MzAtY", "name": "Aesthetic Foreign Language Service", "street": "Mandir Marg, opp. Police Station, near Birla MandirNew, Sector D, Gole Market, Delhi, New Delhi, Delhi 110001, India", "phone": "+91 79084 03316", "rating": "5", "review_count": "", "website": "http://www.afltranslator.com/", "latitude": 28.6342364, "longitude": 77.2003617, "maps_url": "https://www.google.com/maps/search/?api=1&query=Aesthetic%20Foreign%20Language%20Service&query_place_id=ChIJOxMhFmX9DDkR3Haru5MzAtY"}, {"place_id": "ChIJMX5eQDH9DDkR_HygCJwXnxc", "name": "ICICI Lombard General Insurance Co. Ltd", "street": "4th Floor, Red Fort Capital, Parsvnath Towers, Bhai Veer Singh Marg, Gole Market, New Delhi, Delhi 110001, India", "phone": "+91 1800 2666", "rating": "4.1", "review_count": "", "website": "https://www.icicilombard.com/?utm_source=google&utm_medium=maps&utm_content=gole-market-delhi&utm_campaign=google-places", "latitude": 28.631793, "longitude": 77.2069848, "maps_url": "https://www.google.com/maps/search/?api=1&query=ICICI%20Lombard%20General%20Insurance%20Co.%20Ltd&query_place_id=ChIJMX5eQDH9DDkR_HygCJwXnxc"}, {"place_id": "ChIJ0wOvyCb9DDkR7kjgTmZ-q24", "name": "Qonaq Health and Wellness - Medical Tourism Company", "street": "2nd Floor, Property No. 44, QONAQ Health and Wellness Pvt Ltd, Regal Building, Hanuman Road Area, Connaught Place, New Delhi, Delhi 110001, India", "phone": "+91 70428 00891", "rating": "5", "review_count": "", "website": "https://www.qonaqhealth.com/", "latitude": 28.6306726, "longitude": 77.21648929999999, "maps_url": "https://www.google.com/maps/search/?api=1&query=Qonaq%20Health%20and%20Wellness%20-%20Medical%20Tourism%20Company&query_place_id=ChIJ0wOvyCb9DDkR7kjgTmZ-q24"}, {"place_id": "ChIJizZcE__9DDkRvg6oPe_0Zt4", "name": "USD Merchant", "street": "8, DLF Building, Sansad Marg, Janpath, Connaught Place, New Delhi, Delhi 110001, India", "phone": "+91 88690 49310", "rating": "5", "review_count": "", "website": "http://www.usdmerchant.com/", "latitude": 28.6284608, "longitude": 77.2172528, "maps_url": "https://www.google.com/maps/search/?api=1&query=USD%20Merchant&query_place_id=ChIJizZcE__9DDkRvg6oPe_0Zt4"}, {"place_id": "ChIJY4YRC3n9DDkRIJEyr6Syk1Y", "name": "GLOBAL ACTORS GROUP ( India Federation )", "street": "GLOBAL ACTORS GROUP, G - INDIA NATYA BALLET CENTRE, Global Actors Group, G.A, Bhai Vir Singh Marg, Sector 4, Gole Market, New Delhi, Delhi 110001, India", "phone": "", "rating": "5", "review_count": "", "website": "", "latitude": 28.6314496, "longitude": 77.20496949999999, "maps_url": "https://www.google.com/maps/search/?api=1&query=GLOBAL%20ACTORS%20GROUP%20%28%20India%20Federation%20%29&query_place_id=ChIJY4YRC3n9DDkRIJEyr6Syk1Y"}, {"place_id": "ChIJO1Zdzkn9DDkRoXYjxIA23dI", "name": "ALS Solicitors & Advocates", "street": "Level 1, Parsvnath Capital Tower, Bhai Veer Singh Marg Gole Market, Connaught Place, New Delhi, Delhi 110001, India", "phone": "+91 96546 36083", "rating": "4", "review_count": "", "website": "http://www.alssolicitors.com/", "latitude": 28.6318, "longitude": 77.206589, "maps_url": "https://www.google.com/maps/search/?api=1&query=ALS%20Solicitors%20%26%20Advocates&query_place_id=ChIJO1Zdzkn9DDkRoXYjxIA23dI"}, {"place_id": "ChIJCf1ERBP9DDkR98HVLehUgV8", "name": "A Credence Prints Pvt Ltd", "street": "Office No 1, Baird Ln, Sector 4, Gole Market, New Delhi, Delhi 110001, India", "phone": "+91 90137 46188", "rating": "4.8", "review_count": "", "website": "", "latitude": 28.632600099999998, "longitude": 77.2056097, "maps_url": "https://www.google.com/maps/search/?api=1&query=A%20Credence%20Prints%20Pvt%20Ltd&query_place_id=ChIJCf1ERBP9DDkR98HVLehUgV8"}, {"place_id": "ChIJbdh749j9DDkR7TV47Xdv328", "name": "Business Setup in Dubai - AE Setup", "street": "GF-39A, Indra Prakash Building, 21, Barakhamba Rd, Barakhamba, New Delhi, Delhi 110001, India", "phone": "", "rating": "", "review_count": "", "website": "https://aesetup.com/", "latitude": 28.6293059, "longitude": 77.22376489999999, "maps_url": "https://www.google.com/maps/search/?api=1&query=Business%20Setup%20in%20Dubai%20-%20AE%20Setup&query_place_id=ChIJbdh749j9DDkR7TV47Xdv328"}, {"place_id": "ChIJmcGeleD9DDkRuRknDiiHylE", "name": "Heritage Hotels of India", "street": "2nd Floor, 8, Doctor Ln, Sector 3, DIZ Area, Gole Market, New Delhi, Delhi 110001, India", "phone": "+91 11 4242 3100", "rating": "4.8", "review_count": "", "website": "https://www.heritagehotelsofindia.com/", "latitude": 28.634231099999997, "longitude": 77.2067459, "maps_url": "https://www.google.com/maps/search/?api=1&query=Heritage%20Hotels%20of%20India&query_place_id=ChIJmcGeleD9DDkRuRknDiiHylE"}, {"place_id": "ChIJp-sG-0_9DDkRcGhhOC3dogc", "name": "Sabharwal Color Labs", "street": "131, 132, Shaheed Bhagat Singh Marg, Gole Market, New Delhi, Delhi 110001, India", "phone": "+91 95990 66875", "rating": "4.4", "review_count": "", "website": "https://www.cinematicaproductions.com/", "latitude": 28.632974299999997, "longitude": 77.2071421, "maps_url": "https://www.google.com/maps/search/?api=1&query=Sabharwal%20Color%20Labs&query_place_id=ChIJp-sG-0_9DDkRcGhhOC3dogc"}, {"place_id": "ChIJ30RusDb9DDkR_HhV-3rfDV4", "name": "Neugene International Inc", "street": "4th floor, Statesman House, Barakhamba Rd, Connaught Place, New Delhi, Delhi 110001, India", "phone": "", "rating": "4.5", "review_count": "", "website": "https://www.neugeneinc.com/", "latitude": 28.6307992, "longitude": 77.22262549999999, "maps_url": "https://www.google.com/maps/search/?api=1&query=Neugene%20International%20Inc&query_place_id=ChIJ30RusDb9DDkR_HhV-3rfDV4"}, {"place_id": "ChIJVVVVBUX9DDkRatokAST4ihQ", "name": "Toshiba TV Service", "street": "Centre BLOCK 49, Sector 3, Block D, DIZ Area, Gole Market, New Delhi, Delhi 110001, India", "phone": "+91 98711 21669", "rating": "3.8", "review_count": "", "website": "http://toshibatvservicecentre.com/", "latitude": 28.636106299999998, "longitude": 77.20818009999999, "maps_url": "https://www.google.com/maps/search/?api=1&query=Toshiba%20TV%20Service&query_place_id=ChIJVVVVBUX9DDkRatokAST4ihQ"}, {"place_id": "ChIJBZ9HPVD9DDkR4mIgls0NYUM", "name": "White Rhino Brewing Co.", "street": "16, Bhai Vir Singh Marg, Sector 2, Gole Market, New Delhi, Delhi 110001, India", "phone": "+91 11 2374 7224", "rating": "5", "review_count": "", "website": "http://www.whiterhinobrewing.in/", "latitude": 28.630847, "longitude": 77.2049444, "maps_url": "https://www.google.com/maps/search/?api=1&query=White%20Rhino%20Brewing%20Co.&query_place_id=ChIJBZ9HPVD9DDkR4mIgls0NYUM"}, {"place_id": "ChIJCydeajT9DDkRamw9V-jfxSE", "name": "AAGS & Co.", "street": "9C 9th Floor, Atma Ram House, 1, Tolstoy Rd, Connaught Place, New Delhi, Delhi 110001, India", "phone": "+91 11 4308 0505", "rating": "4.7", "review_count": "", "website": "http://www.eindiacharteredaccountants.com/", "latitude": 28.6280337, "longitude": 77.225445, "maps_url": "https://www.google.com/maps/search/?api=1&query=AAGS%20%26%20Co.&query_place_id=ChIJCydeajT9DDkRamw9V-jfxSE"}, {"place_id": "ChIJx29DmNwFDTkR0fayPB0YHQs", "name": "Best MICE Company in India ( VIRKAUF DMC PVT LTD )", "street": "Regal Building, Hanuman Road Area, Connaught Place, New Delhi, Delhi 110001, India", "phone": "+91 89206 54676", "rating": "3.2", "review_count": "", "website": "https://virkaufdmc.com/", "latitude": 28.6306726, "longitude": 77.21648929999999, "maps_url": "https://www.google.com/maps/search/?api=1&query=Best%20MICE%20Company%20in%20India%20%28%20VIRKAUF%20DMC%20PVT%20LTD%20%29&query_place_id=ChIJx29DmNwFDTkR0fayPB0YHQs"}, {"place_id": "ChIJS3GO-U_9DDkRZuCVCa97loQ", "name": "Prism Printers", "street": "SHOP NO 146, Bhagat Singh Market, Gole Market, New Delhi, Delhi 110001, India", "phone": "+91 96544 01910", "rating": "4.2", "review_count": "", "website": "", "latitude": 28.6333628, "longitude": 77.2070615, "maps_url": "https://www.google.com/maps/search/?api=1&query=Prism%20Printers&query_place_id=ChIJS3GO-U_9DDkRZuCVCa97loQ"}, {"place_id": "ChIJHx_X-E_9DDkRg6nQfYB--nE", "name": "Deepak Chawla", "street": "F-71, BHAGAT SINGH MARKET, CONNAUGHT PLACE, NEW DELHI- 110001, New Delhi, Delhi 110001, India", "phone": "+91 98100 05171", "rating": "5", "review_count": "", "website": "http://www.southdelhirealestateagents.com/", "latitude": 28.632693, "longitude": 77.20715129999999, "maps_url": "https://www.google.com/maps/search/?api=1&query=Deepak%20Chawla&query_place_id=ChIJHx_X-E_9DDkRg6nQfYB--nE"}, {"place_id": "ChIJ4cWDQEX9DDkRWJpuHm-P-oA", "name": "CP VILLA Bed and Breakfast", "street": "7A, Doctor Ln, Sector 3, DIZ Area, Gole Market, New Delhi, Delhi 110001, India", "phone": "+91 99998 86796", "rating": "4.7", "review_count": "", "website": "http://www.cpvilla.in/", "latitude": 28.6352363, "longitude": 77.2073006, "maps_url": "https://www.google.com/maps/search/?api=1&query=CP%20VILLA%20Bed%20and%20Breakfast&query_place_id=ChIJ4cWDQEX9DDkRWJpuHm-P-oA"}, {"place_id": "ChIJUQbQB0L9DDkRVhz3LrT_boU", "name": "Travel India One Day", "street": "15/16, General Market, Ram Dwara Road, Main Bazar, 55, Paharganj, New Delhi, Delhi 110055, India", "phone": "+91 77000 75050", "rating": "4.5", "review_count": "", "website": "http://www.travelindiaoneday.com/", "latitude": 28.640463, "longitude": 77.2130802, "maps_url": "https://www.google.com/maps/search/?api=1&query=Travel%20India%20One%20Day&query_place_id=ChIJUQbQB0L9DDkRVhz3LrT_boU"}, {"place_id": "ChIJ30x9Jd_9DDkRv-0Cvc8h2wo", "name": "Urban Company (prev Urban Clap)", "street": "Palika Bazar, Connaught Place, New Delhi, Delhi 110001, India", "phone": "", "rating": "1", "review_count": "", "website": "https://www.urbancompany.com/delhi-ncr?utm_source=googlemaps&utm_campaign=gmb_pages&utm_medium=homepage", "latitude": 28.631249999999998, "longitude": 77.21875, "maps_url": "https://www.google.com/maps/search/?api=1&query=Urban%20Company%20%28prev%20Urban%20Clap%29&query_place_id=ChIJ30x9Jd_9DDkRv-0Cvc8h2wo"}, {"place_id": "ChIJy4oVr1r9DDkR9bmVk0uSoY0", "name": "Kalra Dry Cleaners", "street": "76, Shaheed Bhagat Singh Marg, New Khanna Market, Gole Market, New Delhi, Delhi 110001, India", "phone": "+91 92132 60716", "rating": "4.6", "review_count": "", "website": "", "latitude": 28.63278, "longitude": 77.2076304, "maps_url": "https://www.google.com/maps/search/?api=1&query=Kalra%20Dry%20Cleaners&query_place_id=ChIJy4oVr1r9DDkR9bmVk0uSoY0"}, {"place_id": "ChIJ_zDhw3_9DDkRmtu2bO6fkQE", "name": "Godrej Connaught One, New Delhi", "street": "Phase 1, situated at 14 Lady Hardinge Road, Connaught Place, New Delhi, Delhi 110001, India", "phone": "+91 82878 82878", "rating": "4.3", "review_count": "", "website": "https://www.godrejproperties.com/delhi/residential/godrej-connaught-one", "latitude": 28.6335758, "longitude": 77.20808749999999, "maps_url": "https://www.google.com/maps/search/?api=1&query=Godrej%20Connaught%20One%2C%20New%20Delhi&query_place_id=ChIJ_zDhw3_9DDkRmtu2bO6fkQE"}, {"place_id": "ChIJDcLTgVf9DDkRdRmQwxuhdpM", "name": "Cinematica Productions Weddings | Candid | Portraits", "street": "62, Bhagat Singh Market, Gole Market, New Delhi, Delhi 110001, India", "phone": "+91 79822 19530", "rating": "4.3", "review_count": "", "website": "https://www.cinematicaproductions.com/", "latitude": 28.6332459, "longitude": 77.2081725, "maps_url": "https://www.google.com/maps/search/?api=1&query=Cinematica%20Productions%20Weddings%20%7C%20Candid%20%7C%20Portraits&query_place_id=ChIJDcLTgVf9DDkRdRmQwxuhdpM"}, {"place_id": "ChIJ5R4DYsHhDDkRAMIGvjVSgfU", "name": "Aditi perfumery company", "street": "900, Chandi Wali Gali, Ratan Lal Market, Aram Bagh, Paharganj, New Delhi, Delhi 110055, India", "phone": "+91 98994 91115", "rating": "5", "review_count": "", "website": "https://www.liklastore.com/", "latitude": 28.6418675, "longitude": 77.2147358, "maps_url": "https://www.google.com/maps/search/?api=1&query=Aditi%20perfumery%20company&query_place_id=ChIJ5R4DYsHhDDkRAMIGvjVSgfU"}, {"place_id": "ChIJkf6DU0X9DDkREbQ1bwPI_RY", "name": "Kayson Enterprises", "street": "1/2, Doctor Ln, Sector 3, DIZ Area, Gole Market, New Delhi, Delhi 110001, India", "phone": "+91 11 2374 4079", "rating": "2.4", "review_count": "", "website": "", "latitude": 28.6341431, "longitude": 77.2063459, "maps_url": "https://www.google.com/maps/search/?api=1&query=Kayson%20Enterprises&query_place_id=ChIJkf6DU0X9DDkREbQ1bwPI_RY"}, {"place_id": "ChIJxStDIFD9DDkR6Ji7kojH0QU", "name": "Directorate General of Human Resource Development", "street": "Bhai Vir Singh Sahitya Sadan, 2nd & 3rd floor, Bhai Vir Singh Marg, New Delhi, Delhi 110001, India", "phone": "+91 11 2374 1690", "rating": "3.9", "review_count": "", "website": "https://dghrdcbic.gov.in/", "latitude": 28.6322083, "longitude": 77.2060039, "maps_url": "https://www.google.com/maps/search/?api=1&query=Directorate%20General%20of%20Human%20Resource%20Development&query_place_id=ChIJxStDIFD9DDkR6Ji7kojH0QU"}, {"place_id": "ChIJH0BJ5k_9DDkRa8vh5-NsWbs", "name": "Photo Studio", "street": "Shop No 64, Baird Ln, Sector 4, Gole Market, Delhi, New Delhi, Delhi 110001, India", "phone": "+91 98918 20388", "rating": "3.9", "review_count": "", "website": "", "latitude": 28.6325307, "longitude": 77.2066323, "maps_url": "https://www.google.com/maps/search/?api=1&query=Photo%20Studio&query_place_id=ChIJH0BJ5k_9DDkRa8vh5-NsWbs"}, {"place_id": "ChIJPZTdqVr9DDkRtdz4_J50yNU", "name": "National Medicos Organisation", "street": "13-Bhai Veer Singhjee Marg, near Petrol Pump, Gole Market, New Delhi, Delhi 110001, India", "phone": "+91 11 2374 2335", "rating": "4.9", "review_count": "", "website": "http://www.nationalmedicosorganisation.org/", "latitude": 28.633736, "longitude": 77.20557029999999, "maps_url": "https://www.google.com/maps/search/?api=1&query=National%20Medicos%20Organisation&query_place_id=ChIJPZTdqVr9DDkRtdz4_J50yNU"}, {"place_id": "ChIJhyI8hDH9DDkRXbeZLkH6JDs", "name": "Medi Connect India", "street": "Chandra House, 2nd Floor, Doctor Ln, Block 8, Gole Market, Delhi 110001, India", "phone": "+91 97177 66080", "rating": "5", "review_count": "", "website": "https://www.medicalindiatourism.com/", "latitude": 28.634246899999997, "longitude": 77.2065824, "maps_url": "https://www.google.com/maps/search/?api=1&query=Medi%20Connect%20India&query_place_id=ChIJhyI8hDH9DDkRXbeZLkH6JDs"}, {"place_id": "ChIJa4AS4U_9DDkR5n36zeD9bbU", "name": "Digital Prints Pulse", "street": "81 Barid Lane, Gole Market, Sector 4, Munrika, New Delhi, Delhi 110001, India", "phone": "+91 11 2374 3177", "rating": "3", "review_count": "", "website": "", "latitude": 28.6326856, "longitude": 77.2058045, "maps_url": "https://www.google.com/maps/search/?api=1&query=Digital%20Prints%20Pulse&query_place_id=ChIJa4AS4U_9DDkR5n36zeD9bbU"}, {"place_id": "ChIJ7aQz9CwDDTkReBA-Btx5gQI", "name": "THE BRANDNITY_ | Best Website Designing, Digital Marketing And AI ML Compnay In New Delhi", "street": "Shop No 59, Back Side, Station, near Metro Station Patel Nagar, Block 8, South Patel Nagar, New Delhi, Delhi 110008, India", "phone": "", "rating": "5", "review_count": "", "website": "http://www.brandnity.com/", "latitude": 28.6453991, "longitude": 77.1680413, "maps_url": "https://www.google.com/maps/search/?api=1&query=THE%20BRANDNITY_%20%7C%20Best%20Website%20Designing%2C%20Digital%20Marketing%20And%20AI%20ML%20Compnay%20In%20New%20Delhi&query_place_id=ChIJ7aQz9CwDDTkReBA-Btx5gQI"}]