{"timestamp": 1773733468.4308593, "keyword": "IT company", "location": "Indore", "cell_idx": 60, "results": [{"place_id": "0x3962367e582f0f65:0xabcb6b1d7969eec8", "name": "Mahavir Infotech", "category": "Computer support and services", "street": "Office No 4, 2nd Floor", "city": "Aadarsh Road", "phone": "09424003908", "website": "https://mahavirinfotech.in/", "rating": 4.8, "review_count": "", "latitude": 22.6002054, "longitude": 75.3087668, "maps_url": "https://www.google.com/maps/place/?q=place_id:0x3962367e582f0f65:0xabcb6b1d7969eec8"}, {"place_id": "0x39625774032b2dd1:0x101c44ef5a877752", "name": "Varcas Nexgen | Digital Marketing & IT Services Company", "category": "Software company", "street": "AL163", "city": "H.B Colony", "phone": "08602758854", "website": "https://www.varcasnexgen.com/", "rating": 5, "review_count": "", "latitude": 22.599356999999998, "longitude": 75.68772539999999, "maps_url": "https://www.google.com/maps/place/?q=place_id:0x39625774032b2dd1:0x101c44ef5a877752"}, {"place_id": "0x3962fd71266aaa83:0x82398caa17930a40", "name": "Octavian InfoTech LLP", "category": "Software company", "street": "A 41 Ayodhya Puri", "city": "Kodriya", "phone": "09977741168", "website": "https://www.octavianinfotech.com/", "rating": 5, "review_count": "", "latitude": 22.537258599999998, "longitude": 75.7726136, "maps_url": "https://www.google.com/maps/place/?q=place_id:0x3962fd71266aaa83:0x82398caa17930a40"}, {"place_id": "0x3962577de7732179:0xb01bf9b9dae7632f", "name": "C.S Technology", "category": "Computer support and services", "street": "near New Genius School", "city": "Chhatrachhaya, Sagour Kuti", "phone": "07000654574", "website": "https://www.cstechnologypithampur.com/", "rating": 4.9, "review_count": "", "latitude": 22.6051872, "longitude": 75.68249209999999, "maps_url": "https://www.google.com/maps/place/?q=place_id:0x3962577de7732179:0xb01bf9b9dae7632f"}, {"place_id": "0x390ce458d0000001:0xf2123bd299ec4501", "name": "IT Company India", "category": "Software company", "street": "D56", "city": "D Block, Sector 10", "phone": "09999244854", "website": "https://www.itcompanyindia.in/", "rating": 4.7, "review_count": "", "latitude": 28.589917699999997, "longitude": 77.3351153, "maps_url": "https://www.google.com/maps/place/?q=place_id:0x390ce458d0000001:0xf2123bd299ec4501"}, {"place_id": "0x39624d29a2f76af9:0xdb4df5e5e4f3c6de", "name": "Kodrish innovation & solutions", "category": "Software company", "street": "Mateshwari nagar", "city": "opposite to Annapurna temple", "phone": "07067954499", "website": "https://kodrish.me/", "rating": 5, "review_count": "", "latitude": 22.6657489, "longitude": 75.5113958, "maps_url": "https://www.google.com/maps/place/?q=place_id:0x39624d29a2f76af9:0xdb4df5e5e4f3c6de"}, {"place_id": "0x3962fd5eec2cf6a9:0xe1b5f67b53e20d06", "name": "Technoecorp Service Private Limited", "category": "Software company", "street": "C 180 chhatra Chhaya sector 01 Pithampur", "city": "Distt", "phone": "", "website": "http://www.technoecorp.com/", "rating": 4.9, "review_count": "", "latitude": 22.6052993, "longitude": 75.6858365, "maps_url": "https://www.google.com/maps/place/?q=place_id:0x3962fd5eec2cf6a9:0xe1b5f67b53e20d06"}, {"place_id": "0x396255efadca2437:0xfed5742d979c4770", "name": "PRATAP DIGITAL COMMUNICATIONS PVT. LTD.", "category": "Manufacturer", "street": "Smart Industrial Park Natrip", "city": "Plot no. 40", "phone": "", "website": "https://www.corsis.in/", "rating": 4.7, "review_count": "", "latitude": 22.5818367, "longitude": 75.593475, "maps_url": "https://www.google.com/maps/place/?q=place_id:0x396255efadca2437:0xfed5742d979c4770"}, {"place_id": "0x396256a28661ad75:0xa315a629fe76f6be", "name": "Cummins Turbo Technologies Ltd.", "category": "Manufacturer", "street": "Indore Special Economic Zone Phase II", "city": "Division of Cummins Technologies India ltd, Plot No. M5, Sector 3", "phone": "07292301300", "website": "http://www.cummins.com/turbos", "rating": 4.5, "review_count": "", "latitude": 22.625135699999998, "longitude": 75.6430572, "maps_url": "https://www.google.com/maps/place/?q=place_id:0x396256a28661ad75:0xa315a629fe76f6be"}, {"place_id": "0x3be7c21b5901e181:0x7fe794585addc1f6", "name": "Smartinfologiks - Software Development Company in India | IT Solutions", "category": "Software company", "street": "Hilton Center", "city": "514", "phone": "07400064691", "website": "https://www.smartinfologiks.com/", "rating": 4.6, "review_count": "", "latitude": 19.0139592, "longitude": 73.0382705, "maps_url": "https://www.google.com/maps/place/?q=place_id:0x3be7c21b5901e181:0x7fe794585addc1f6"}, {"place_id": "0x3962374822b4e92f:0x86498addb1b43b0a", "name": "Smart Technology Information", "category": "Computer service", "street": "District Bhoj Hospital 14", "city": "Bhoj Civil Hospital", "phone": "09685530890", "website": "", "rating": 4.8, "review_count": "", "latitude": 22.5942608, "longitude": 75.30929309999999, "maps_url": "https://www.google.com/maps/place/?q=place_id:0x3962374822b4e92f:0x86498addb1b43b0a"}, {"place_id": "0x3bc2becdc35b6937:0x515ac559c349eee3", "name": "Thinkitive Technologies Private Limited", "category": "Software company", "street": "4th Floor", "city": "ABIL IMPERIAL COMMERCIAL SPACES", "phone": "08956467327", "website": "https://www.thinkitive.com/", "rating": 3.9, "review_count": "", "latitude": 18.5563888, "longitude": 73.7729748, "maps_url": "https://www.google.com/maps/place/?q=place_id:0x3bc2becdc35b6937:0x515ac559c349eee3"}, {"place_id": "0x3962517f515688ed:0xde8f4000edf9aa47", "name": "Jalpa Devi Engineering Pvt. Ltd., Dilip Buildcon Limited", "category": "Corporate office", "street": "Plot no. 831 to 836", "city": "near Indorama Mandir", "phone": "", "website": "", "rating": 4.4, "review_count": "", "latitude": 22.6217869, "longitude": 75.5746976, "maps_url": "https://www.google.com/maps/place/?q=place_id:0x3962517f515688ed:0xde8f4000edf9aa47"}, {"place_id": "0x3962522c60474e65:0x7c886eb4fd5691be", "name": "SIMRAN AGRITECH PVT. LTD.", "category": "Food manufacturer", "street": "Plot no. 63", "city": "Pithampur Industrial Area, Industrial Area, Sector-3", "phone": "", "website": "", "rating": 4, "review_count": "", "latitude": 22.635094799999997, "longitude": 75.5705401, "maps_url": "https://www.google.com/maps/place/?q=place_id:0x3962522c60474e65:0x7c886eb4fd5691be"}, {"place_id": "0x396237efa1953b6d:0x47c8b365b4308d7b", "name": "S.G.Technologies", "category": "Computer store", "street": "14", "city": "Kashi Bagh Complex", "phone": "09131689787", "website": "", "rating": 5, "review_count": "", "latitude": 22.6033294, "longitude": 75.3115428, "maps_url": "https://www.google.com/maps/place/?q=place_id:0x396237efa1953b6d:0x47c8b365b4308d7b"}, {"place_id": "0x3962571f328ba1d1:0x7052e3a0dc6e3536", "name": "Altis Industries Pvt. Ltd.", "category": "Corporate office", "street": "BR 04, Industrial Growth Center Pithampur - V, De-Notified Area", "city": "Madhya Pradesh 454774", "phone": "07314780800", "website": "http://www.altis.in/", "rating": 4.1, "review_count": "", "latitude": 22.6199776, "longitude": 75.6465839, "maps_url": "https://www.google.com/maps/place/?q=place_id:0x3962571f328ba1d1:0x7052e3a0dc6e3536"}, {"place_id": "0x3962f9236d105caf:0xbbc3c9013b8d48dc", "name": "Compli-Tech - Startup Consultant | Company Registration | Website Designing | Ecommerce Website Development", "category": "Business management consultant", "street": "Malwa Complex", "city": "88", "phone": "09302151441", "website": "https://compli-tech.odoo.com/", "rating": "", "review_count": "", "latitude": 22.5676845, "longitude": 75.7600538, "maps_url": "https://www.google.com/maps/place/?q=place_id:0x3962f9236d105caf:0xbbc3c9013b8d48dc"}, {"place_id": "0x3962518119320775:0x7fdc9b44dfe0d9e5", "name": "Torrent Pharmaceuticals Ltd", "category": "Pharmaceutical company", "street": "Plot. No. 810, Sector III, Industrial Area Pithampur", "city": "Kalibillod, Madhya Pradesh 454774", "phone": "07292256224", "website": "http://www.torrentpharma.com/", "rating": 4.3, "review_count": "", "latitude": 22.6242345, "longitude": 75.56933529999999, "maps_url": "https://www.google.com/maps/place/?q=place_id:0x3962518119320775:0x7fdc9b44dfe0d9e5"}, {"place_id": "0x3962561639dcf60f:0x73f3c8893e81980b", "name": "Cipla Limited (Unit 1)", "category": "Pharmaceutical company", "street": "Plot no. 9, SEZ", "city": "Pithampur Industrial Area", "phone": "02224826000", "website": "http://www.cipla.com/", "rating": 4.2, "review_count": "", "latitude": 22.629214899999997, "longitude": 75.6227652, "maps_url": "https://www.google.com/maps/place/?q=place_id:0x3962561639dcf60f:0x73f3c8893e81980b"}, {"place_id": "0x396256a4c71572d3:0x347474341f5c85e3", "name": "Lupin Limited", "category": "Pharmaceutical company", "street": "Plot No. 2, SEZ Phase-II, Misc Zone, Apparel Park", "city": "District Dhar", "phone": "07292417300", "website": "https://www.lupin.com/", "rating": 4.1, "review_count": "", "latitude": 22.622044499999998, "longitude": 75.637076, "maps_url": "https://www.google.com/maps/place/?q=place_id:0x396256a4c71572d3:0x347474341f5c85e3"}, {"place_id": "0x3962367be790bf59:0x4ead4bf852529e4a", "name": "Mouse Computer Sales & Service", "category": "Computer store", "street": "VEER SAVARKAR NAGAR", "city": "167-B, Magajpura Rd", "phone": "", "website": "", "rating": 4.1, "review_count": "", "latitude": 22.597451, "longitude": 75.31164799999999, "maps_url": "https://www.google.com/maps/place/?q=place_id:0x3962367be790bf59:0x4ead4bf852529e4a"}, {"place_id": "0x39623677beaaaaab:0x3937265f339ac32d", "name": "NIIT Dhar Centre", "category": "Computer consultant", "street": "GHAR N", "city": "NIIT dhar center", "phone": "09827233485", "website": "", "rating": 3.6, "review_count": "", "latitude": 22.6014496, "longitude": 75.3080824, "maps_url": "https://www.google.com/maps/place/?q=place_id:0x39623677beaaaaab:0x3937265f339ac32d"}, {"place_id": "0x39624d0296aaaaab:0x8341276813468020", "name": "National Steel & Agro Industries Ltd", "category": "Steel industry", "street": "National Steel", "city": "Lebad, Madhya Pradesh 454773", "phone": "07292425300", "website": "", "rating": 4, "review_count": "", "latitude": 22.6775552, "longitude": 75.48086599999999, "maps_url": "https://www.google.com/maps/place/?q=place_id:0x39624d0296aaaaab:0x8341276813468020"}, {"place_id": "0x39625614deab87c9:0xac1a988eafd5ac01", "name": "Aeon Medical Private Limited", "category": "Manufacturer", "street": "Sector No.-1", "city": "62, 63 & 64A", "phone": "08989978403", "website": "http://www.aeonmedical.co.in/", "rating": 4.9, "review_count": "", "latitude": 22.6169555, "longitude": 75.6897161, "maps_url": "https://www.google.com/maps/place/?q=place_id:0x39625614deab87c9:0xac1a988eafd5ac01"}, {"place_id": "0x3962533a5c53424f:0x620a7b72f60151d6", "name": "SafeFlex International Limited Unit-2", "category": "Corporate office", "street": "Pithampur Industrial Area", "city": "Sulawad, Madhya Pradesh 454774", "phone": "", "website": "http://www.safeflex.org/", "rating": 4.3, "review_count": "", "latitude": 22.627546499999998, "longitude": 75.56337599999999, "maps_url": "https://www.google.com/maps/place/?q=place_id:0x3962533a5c53424f:0x620a7b72f60151d6"}, {"place_id": "0x39625181a8160835:0xc71f64a785bc90ce", "name": "Signet Industries Ltd.", "category": "Pipe Manufacturer", "street": "JHFC+JHC", "city": "Pithampur Industrial Area", "phone": "07314217800", "website": "https://www.groupsignet.com/contact-us.html", "rating": 3.2, "review_count": "", "latitude": 22.624068599999998, "longitude": 75.571404, "maps_url": "https://www.google.com/maps/place/?q=place_id:0x39625181a8160835:0xc71f64a785bc90ce"}, {"place_id": "0x39624b000a218147:0x7987cf8bd52ce338", "name": "Jital Solutions", "category": "Health food store", "street": "J965+CJ", "city": "Magajpura, Dhar, Madhya Pradesh 454001", "phone": "09039578852", "website": "https://jitalsolution.com/", "rating": 5, "review_count": "", "latitude": 22.6111173, "longitude": 75.3590657, "maps_url": "https://www.google.com/maps/place/?q=place_id:0x39624b000a218147:0x7987cf8bd52ce338"}, {"place_id": "0x396253e0f2611e75:0xe217224899890f7a", "name": "Larsen & Toubro Limited", "category": "Corporate office", "street": "158-B, 454774", "city": "Pithampur Industrial Area, Sector-3", "phone": "07292400740", "website": "http://www.larsentoubro.com/", "rating": 4.1, "review_count": "", "latitude": 22.6347052, "longitude": 75.59804799999999, "maps_url": "https://www.google.com/maps/place/?q=place_id:0x396253e0f2611e75:0xe217224899890f7a"}, {"place_id": "0x396253d6cb5bf6e3:0x35b077e731d80aef", "name": "Simplex Metal Processors(I) Pvt. Ltd.", "category": "Manufacturer", "street": "Plot No. 70 D & 70C", "city": "Pithampur Industrial Area, Sector-3", "phone": "09752494211", "website": "http://simplexmetalprocessors.com/", "rating": 4.3, "review_count": "", "latitude": 22.632206099999998, "longitude": 75.581861, "maps_url": "https://www.google.com/maps/place/?q=place_id:0x396253d6cb5bf6e3:0x35b077e731d80aef"}, {"place_id": "0x396257edbb3a0893:0xe7479b53ae320e14", "name": "Universe Capsules Biotech Pvt. Ltd", "category": "Pharmaceutical company", "street": "Plot No. 83, Smart Industrial Park", "city": "Pithampur", "phone": "09589872422", "website": "https://universecapsules.com/", "rating": 5, "review_count": "", "latitude": 22.5730923, "longitude": 75.5957118, "maps_url": "https://www.google.com/maps/place/?q=place_id:0x396257edbb3a0893:0xe7479b53ae320e14"}, {"place_id": "0x3962522ccec2044d:0xb118c4e81afaec7a", "name": "Gallard Steel Limited", "category": "Foundry", "street": "66, Sector 3", "city": "Pithampur Industrial Area", "phone": "09926904052", "website": "http://gallardsteel.com/", "rating": 4.3, "review_count": "", "latitude": 22.6203894, "longitude": 75.5703683, "maps_url": "https://www.google.com/maps/place/?q=place_id:0x3962522ccec2044d:0xb118c4e81afaec7a"}, {"place_id": "0x396256ac375b75eb:0x2401e406b4ae6cf9", "name": "Bridgestone India Private Limited", "category": "Corporate office", "street": "Kheda Growth Centre", "city": "Plot No. 12, Post", "phone": "07292423333", "website": "http://www.bridgestone.co.in/", "rating": 4.3, "review_count": "", "latitude": 22.6240867, "longitude": 75.6249787, "maps_url": "https://www.google.com/maps/place/?q=place_id:0x396256ac375b75eb:0x2401e406b4ae6cf9"}, {"place_id": "0x396256a9a6a6b611:0xd257ef1a76381913", "name": "Glenmark Pharmaceuticals Ltd.", "category": "Pharmaceutical company", "street": "Plot No.2, Phase II, Pharma Zone, ISEZ", "city": "Pithampur, Madhya Pradesh 454774", "phone": "07292667900", "website": "http://glenmarkpharma.com/", "rating": 4.5, "review_count": "", "latitude": 22.6303257, "longitude": 75.6284524, "maps_url": "https://www.google.com/maps/place/?q=place_id:0x396256a9a6a6b611:0xd257ef1a76381913"}, {"place_id": "0x396257738d472b69:0xac0ef39ab243dda7", "name": "ZF Steering Gear (India) Limited", "category": "Manufacturer", "street": "Pithampur Industrial Area", "city": "Pithampur, Madhya Pradesh 454774", "phone": "02137305100", "website": "http://www.zfindia.com/", "rating": 4.4, "review_count": "", "latitude": 22.6219598, "longitude": 75.6457784, "maps_url": "https://www.google.com/maps/place/?q=place_id:0x396257738d472b69:0xac0ef39ab243dda7"}, {"place_id": "0x396253ffce365433:0x2f204a66b907cbd6", "name": "Mylan laboratories LIMITED,PITHAMPUR", "category": "Company", "street": "JJM9+39P", "city": "Pithampur Industrial Area", "phone": "07292370200", "website": "http://www.mylan.com/", "rating": 4.1, "review_count": "", "latitude": 22.632723499999997, "longitude": 75.6184401, "maps_url": "https://www.google.com/maps/place/?q=place_id:0x396253ffce365433:0x2f204a66b907cbd6"}, {"place_id": "0x39624d9d3b82ed13:0x387a4453b571d906", "name": "MP Online Kiosk (Kelwa Computers)", "category": "Internet cafe", "street": "Sanwarya Nagar Dhar", "city": "behind Bharat Petrol Pump", "phone": "09009291948", "website": "", "rating": 4.4, "review_count": "", "latitude": 22.666974699999997, "longitude": 75.5149904, "maps_url": "https://www.google.com/maps/place/?q=place_id:0x39624d9d3b82ed13:0x387a4453b571d906"}, {"place_id": "0x39625163ce25524d:0xda13e14634646d84", "name": "Erawat Pharma Limited", "category": "Manufacturer", "street": "512, Industrial Area No. 3, Pithampur, Rau - Pithampur Rd", "city": "Pithampur Industrial Area", "phone": "07316659100", "website": "http://www.erawat.com/", "rating": 3.9, "review_count": "", "latitude": 22.6256748, "longitude": 75.59043489999999, "maps_url": "https://www.google.com/maps/place/?q=place_id:0x39625163ce25524d:0xda13e14634646d84"}, {"place_id": "0x396253d8042890b9:0x8bd88116fbab4c2a", "name": "SRF Limited", "category": "Manufacturer", "street": "JHHP+QGG", "city": "Mhow-Ghatabillod Road, Pithampur Industrial Area", "phone": "09425776389", "website": "http://www.srf.com/", "rating": 4.2, "review_count": "", "latitude": 22.62944, "longitude": 75.5863433, "maps_url": "https://www.google.com/maps/place/?q=place_id:0x396253d8042890b9:0x8bd88116fbab4c2a"}, {"place_id": "0x396256877c6df571:0xd046f0f12a79401f", "name": "Piramal Pharma Limited", "category": "Pharmaceutical company", "street": "plot 67", "city": "70", "phone": "07292428383", "website": "https://www.piramalpharmasolutions.com/", "rating": 4.3, "review_count": "", "latitude": 22.6280648, "longitude": 75.6670381, "maps_url": "https://www.google.com/maps/place/?q=place_id:0x396256877c6df571:0xd046f0f12a79401f"}, {"place_id": "0x396257148c4549b1:0x9a4ad0de3d372f5e", "name": "Motherson Sumi Wiring India Ltd (Plant 1)", "category": "Auto parts manufacturer", "street": "Plot No. 8", "city": "Sector-5", "phone": "", "website": "https://www.motherson.com/", "rating": 4.1, "review_count": "", "latitude": 22.618008, "longitude": 75.638375, "maps_url": "https://www.google.com/maps/place/?q=place_id:0x396257148c4549b1:0x9a4ad0de3d372f5e"}, {"place_id": "0x3962565de2c263eb:0x3f95f7eb8a7214c5", "name": "VE Commercial Vehicles Limited", "category": "Corporate office", "street": "Pithampur Industrial Area", "city": "Pithampur, Madhya Pradesh 454775", "phone": "01244415600", "website": "http://www.vecv.in/", "rating": 4.3, "review_count": "", "latitude": 22.611927299999998, "longitude": 75.6744796, "maps_url": "https://www.google.com/maps/place/?q=place_id:0x3962565de2c263eb:0x3f95f7eb8a7214c5"}, {"place_id": "0x396257adf5285e4f:0x47f23c9e72775fa", "name": "Eicher Company Pithampur", "category": "Manufacturer", "street": "Pithampur Industrial Area", "city": "Pithampur, Madhya Pradesh 454775", "phone": "", "website": "", "rating": 4.4, "review_count": "", "latitude": 22.6113166, "longitude": 75.6747529, "maps_url": "https://www.google.com/maps/place/?q=place_id:0x396257adf5285e4f:0x47f23c9e72775fa"}, {"place_id": "0x396253c4379a5143:0xca08a61266281a58", "name": "Ipca Laboratories Ltd. (Biotech)", "category": "Pharmaceutical company", "street": "JHHC+5H4", "city": "Unnamed Road", "phone": "", "website": "", "rating": 4.2, "review_count": "", "latitude": 22.6278893, "longitude": 75.57146089999999, "maps_url": "https://www.google.com/maps/place/?q=place_id:0x396253c4379a5143:0xca08a61266281a58"}, {"place_id": "0x3962515b2909ef5f:0xfa7d0d95951452f4", "name": "Makin Laboratories Pvt.Ltd", "category": "Pharmaceutical company", "street": "JJC3+68Q", "city": "Pithampur Industrial Area", "phone": "", "website": "http://makinlaboratories.com/", "rating": 3.5, "review_count": "", "latitude": 22.6205851, "longitude": 75.60336749999999, "maps_url": "https://www.google.com/maps/place/?q=place_id:0x3962515b2909ef5f:0xfa7d0d95951452f4"}, {"place_id": "0x3962522c36692551:0x3f26e768de176b91", "name": "Methodex Systems", "category": "Security system supplier", "street": "JHP9+8VP", "city": "Pithampur Industrial Area", "phone": "", "website": "", "rating": 4.2, "review_count": "", "latitude": 22.635843899999998, "longitude": 75.5697172, "maps_url": "https://www.google.com/maps/place/?q=place_id:0x3962522c36692551:0x3f26e768de176b91"}, {"place_id": "0x3962517e0c74fa11:0xa0a3d22fdafc3a15", "name": "Shakti Pumps India Limited", "category": "Corporate office", "street": "Plot No. 401, 402, & 413 Industrial Area", "city": "Sector-3", "phone": "07292410500", "website": "https://www.shaktipumps.com/", "rating": 4.3, "review_count": "", "latitude": 22.626606, "longitude": 75.58131569999999, "maps_url": "https://www.google.com/maps/place/?q=place_id:0x3962517e0c74fa11:0xa0a3d22fdafc3a15"}, {"place_id": "0x396253d5f1876d4d:0xf110959a715082b7", "name": "Shakti Irrigation India Limited", "category": "Farm equipment supplier", "street": "Pithampur Sector-3, Plot No. 396-399", "city": "Pithampur, Madhya Pradesh 454774", "phone": "18001035555", "website": "http://www.shaktiirrigation.com/", "rating": 4.3, "review_count": "", "latitude": 22.62889, "longitude": 75.578982, "maps_url": "https://www.google.com/maps/place/?q=place_id:0x396253d5f1876d4d:0xf110959a715082b7"}, {"place_id": "0x3962573e64a3132f:0x1fff58d012af4d03", "name": "Motherson Sumi Electric Wires(MSEW)", "category": "Automation company", "street": "Plot No 3, Industrial Growth Centre", "city": "Pithampur Industrial Area", "phone": "", "website": "http://www.motherson.com/", "rating": 4, "review_count": "", "latitude": 22.6211363, "longitude": 75.6293762, "maps_url": "https://www.google.com/maps/place/?q=place_id:0x3962573e64a3132f:0x1fff58d012af4d03"}, {"place_id": "0x39625792f4c37da9:0x46ed324b14a9e54b", "name": "TECHNO BUILD ENTERPRISES", "category": "Civil engineering company", "street": "", "city": "", "phone": "07024869869", "website": "", "rating": 4.6, "review_count": "", "latitude": 22.6051772, "longitude": 75.68250119999999, "maps_url": "https://www.google.com/maps/place/?q=place_id:0x39625792f4c37da9:0x46ed324b14a9e54b"}, {"place_id": "0x3962534ad2204585:0xb63f9d2ab0283922", "name": "Thinq pharmacutical pvt. limited", "category": "Chemical plant", "street": "Pithampur Industrial Area", "city": "Madhya Pradesh 454774", "phone": "", "website": "", "rating": 4.3, "review_count": "", "latitude": 22.6460269, "longitude": 75.5812791, "maps_url": "https://www.google.com/maps/place/?q=place_id:0x3962534ad2204585:0xb63f9d2ab0283922"}, {"place_id": "0x396253d8f5506d15:0x19fc54f1756e33f3", "name": "Mohini Health & Hygiene Ltd (Formerly known as Mohini Fibers Pvt Ltd)", "category": "Pharmaceutical company", "street": "JHJQ+GJ5", "city": "109, Sector 3", "phone": "07292426665", "website": "http://mohinihealthandhygiene.com/", "rating": 4.3, "review_count": "", "latitude": 22.631111, "longitude": 75.588921, "maps_url": "https://www.google.com/maps/place/?q=place_id:0x396253d8f5506d15:0x19fc54f1756e33f3"}, {"place_id": "0x396256bcd8cfab9b:0x2ab07550da5c6766", "name": "Rubicon Research Ltd, Pithampur", "category": "Manufacturer", "street": "JJCR+G98", "city": "Pithampur Industrial Area", "phone": "", "website": "http://www.rubicon.co.in/", "rating": 4.4, "review_count": "", "latitude": 22.6212967, "longitude": 75.6409537, "maps_url": "https://www.google.com/maps/place/?q=place_id:0x396256bcd8cfab9b:0x2ab07550da5c6766"}, {"place_id": "0x3962367b1c33d905:0x7dac593feecc57f9", "name": "Amardeep Computers Electronics And Mobiles Store", "category": "Computer store", "street": "39 Jeevan Dhara Complex G Building Jay Prakash Narayan Marg Kailash Nagar, Majura Gate", "city": "Surat, Gujarat 454001", "phone": "09179141434", "website": "", "rating": 4.3, "review_count": "", "latitude": 22.5931215, "longitude": 75.30311259999999, "maps_url": "https://www.google.com/maps/place/?q=place_id:0x3962367b1c33d905:0x7dac593feecc57f9"}, {"place_id": "0x39625619956530f7:0x52ada2b7713e79d5", "name": "Diversitech General Engg. Pvt. Ltd. Unit 2", "category": "Manufacturer", "street": "Plot no. 201 A", "city": "Pithampur Industrial Area, Sector no. 1", "phone": "07292403106", "website": "https://www.diversitech.in/", "rating": 4.3, "review_count": "", "latitude": 22.621321, "longitude": 75.70338319999999, "maps_url": "https://www.google.com/maps/place/?q=place_id:0x39625619956530f7:0x52ada2b7713e79d5"}, {"place_id": "0x396253de8c7adf6b:0xdb3f21d76c7f446a", "name": "Case New Holland Construction Equipment India Pvt Ltd", "category": "Construction equipment supplier", "street": "Sector C, Plot No 157", "city": "Industrial Area, III", "phone": "18004199770", "website": "https://www.casece.com/", "rating": 4, "review_count": "", "latitude": 22.634287699999998, "longitude": 75.5942148, "maps_url": "https://www.google.com/maps/place/?q=place_id:0x396253de8c7adf6b:0xdb3f21d76c7f446a"}, {"place_id": "0x3962573e40e05fa1:0xe348ab6cc0aed9ad", "name": "Liugong India plant", "category": "Manufacturer", "street": "Plot no 163", "city": "Pithampur Industrial Area, Sector-3", "phone": "", "website": "http://www.liugong.com/", "rating": 4.1, "review_count": "", "latitude": 22.6403398, "longitude": 75.5938698, "maps_url": "https://www.google.com/maps/place/?q=place_id:0x3962573e40e05fa1:0xe348ab6cc0aed9ad"}, {"place_id": "0x396236708593667b:0xec646c135b35ccfb", "name": "AKHILESH ONLINE & COMPUTER CENTER", "category": "Kiosk", "street": "Dhar, Madhya Pradesh 454001", "city": "", "phone": "09630114777", "website": "", "rating": 4.4, "review_count": "", "latitude": 22.594972499999997, "longitude": 75.3069483, "maps_url": "https://www.google.com/maps/place/?q=place_id:0x396236708593667b:0xec646c135b35ccfb"}, {"place_id": "0x396256a3e438039f:0x15974c118b438a5b", "name": "Kusum Healthcare Pvt. Ltd.", "category": "Corporate office", "street": "M-3 SEZ", "city": "Pithampur, 454774", "phone": "01141005147", "website": "http://www.kusumhealthcare.com/", "rating": 4.4, "review_count": "", "latitude": 22.6272023, "longitude": 75.6386335, "maps_url": "https://www.google.com/maps/place/?q=place_id:0x396256a3e438039f:0x15974c118b438a5b"}, {"place_id": "0x396253e074908293:0x769be4c5c8f5c442", "name": "Tata Steel Limited", "category": "Manufacturer", "street": "JHJX+M5C", "city": "Pithampur Industrial Area", "phone": "07312739453", "website": "https://www.tatasteel.com/", "rating": 4.2, "review_count": "", "latitude": 22.631683799999998, "longitude": 75.5978808, "maps_url": "https://www.google.com/maps/place/?q=place_id:0x396253e074908293:0x769be4c5c8f5c442"}, {"place_id": "0x396253322b5203eb:0x9811e9be33f4f9bd", "name": "mittal packaging", "category": "Packaging company", "street": "JHMG+4XM", "city": "Pithampur Industrial Area", "phone": "09754222228", "website": "https://mittalpackaging.com/", "rating": 3.5, "review_count": "", "latitude": 22.6328305, "longitude": 75.5774134, "maps_url": "https://www.google.com/maps/place/?q=place_id:0x396253322b5203eb:0x9811e9be33f4f9bd"}, {"place_id": "0x3962515dde4668a3:0x7286ce5608020e7a", "name": "NBR COOLING SYSTEMS PRIVATE LIMITED", "category": "Manufacturer", "street": "Plot No. 36/A", "city": "near Bridgestone Factory", "phone": "09926906819", "website": "http://nbrradiator.co.in/", "rating": 4.3, "review_count": "", "latitude": 22.6181075, "longitude": 75.6050261, "maps_url": "https://www.google.com/maps/place/?q=place_id:0x3962515dde4668a3:0x7286ce5608020e7a"}, {"place_id": "0x396253c0ce7c1615:0x954bdde2dd06fc6c", "name": "Qualipack packagings pvt. Ltd.", "category": "Suppliers", "street": "Plot no.152-A sector-3", "city": "behind Bagdun police Station", "phone": "", "website": "", "rating": 4.3, "review_count": "", "latitude": 22.6369316, "longitude": 75.5911464, "maps_url": "https://www.google.com/maps/place/?q=place_id:0x396253c0ce7c1615:0x954bdde2dd06fc6c"}, {"place_id": "0x396235d8ac3fa723:0xfe0fc17662cc5449", "name": "E-Gyan Learning Pvt. Ltd.", "category": "Training center", "street": "125/2 Gol Chakkar", "city": "Trimurti Nagar", "phone": "09770865437", "website": "http://egyanlearning.ac.in/", "rating": 4.9, "review_count": "", "latitude": 22.6005798, "longitude": 75.312983, "maps_url": "https://www.google.com/maps/place/?q=place_id:0x396235d8ac3fa723:0xfe0fc17662cc5449"}, {"place_id": "0x3962510cf276ec53:0xafd50c42944e01fe", "name": "J S Machine India Private Limited", "category": "Manufacturer", "street": "plot number 628", "city": "Pithampur Industrial Area, Sector-3", "phone": "", "website": "http://www.jspackmach.com/", "rating": 3.7, "review_count": "", "latitude": 22.6229496, "longitude": 75.5848049, "maps_url": "https://www.google.com/maps/place/?q=place_id:0x3962510cf276ec53:0xafd50c42944e01fe"}, {"place_id": "0x39625742e7f09c03:0x1422e205ccbcfc55", "name": "PEB Konstruct Technofab Pvt Ltd", "category": "Manufacturer", "street": "AH47", "city": "Pithampur Industrial Area", "phone": "08718000037", "website": "https://www.konstructpeb.com/", "rating": 5, "review_count": "", "latitude": 22.6193705, "longitude": 75.71231019999999, "maps_url": "https://www.google.com/maps/place/?q=place_id:0x39625742e7f09c03:0x1422e205ccbcfc55"}, {"place_id": "0x396237eec4b4dc39:0xb0888eb86e99ea8c", "name": "NAVERIYA GAS PRIVATE LIMITED", "category": "Corporate office", "street": "behind NAVERIYA GAS CNG STATION", "city": "near National Highway 47", "phone": "09872279872", "website": "https://ngplindia.com/", "rating": 4.3, "review_count": "", "latitude": 22.6131898, "longitude": 75.3494551, "maps_url": "https://www.google.com/maps/place/?q=place_id:0x396237eec4b4dc39:0xb0888eb86e99ea8c"}, {"place_id": "0x396256630fad880d:0x34336f61dc52c36", "name": "Swaraj Technocraft Ltd", "category": "Industrial equipment supplier", "street": "plot no. 40", "city": "Pithampur Industrial Area, Sector 2", "phone": "09752265813", "website": "http://swarajtechnocrafts.com/", "rating": 3.9, "review_count": "", "latitude": 22.6231241, "longitude": 75.6709223, "maps_url": "https://www.google.com/maps/place/?q=place_id:0x396256630fad880d:0x34336f61dc52c36"}, {"place_id": "0x3962530c7cdc5143:0xc933a67c89f20d34", "name": "Worth Peripherals Ltd.", "category": "Bus company", "street": "JHPR+9JG", "city": "Pithampur Industrial Area", "phone": "02262638200", "website": "https://www.worthindia.com/", "rating": 3.9, "review_count": "", "latitude": 22.6359375, "longitude": 75.5915625, "maps_url": "https://www.google.com/maps/place/?q=place_id:0x3962530c7cdc5143:0xc933a67c89f20d34"}, {"place_id": "0x3962370ab5a8765d:0x1ea42ec672d25680", "name": "Arjun Bilwar", "category": "Computer support and services", "street": "01, Indore - Dhar Rd", "city": "Indira Colony", "phone": "", "website": "", "rating": 1, "review_count": "", "latitude": 22.5952923, "longitude": 75.3068456, "maps_url": "https://www.google.com/maps/place/?q=place_id:0x3962370ab5a8765d:0x1ea42ec672d25680"}, {"place_id": "0x396256a8432f8aeb:0x95bc2c7ac0e1f5bf", "name": "ACG - Associated Capsules", "category": "Corporate office", "street": "Plot No M29-44, Indore Special Economic Zone Phase II", "city": "Pharma Zone", "phone": "", "website": "", "rating": 4.2, "review_count": "", "latitude": 22.630894899999998, "longitude": 75.630771, "maps_url": "https://www.google.com/maps/place/?q=place_id:0x396256a8432f8aeb:0x95bc2c7ac0e1f5bf"}, {"place_id": "0x39625646b84ffd91:0xceee27e308cc205d", "name": "Medilux Laboratories Pvt. Ltd.", "category": "Pharmaceutical company", "street": "Plot No. 98-99, Sector-1 454 775", "city": "Pithampur Industrial Area", "phone": "07292409991", "website": "https://www.medilux.co.in/", "rating": 4.4, "review_count": "", "latitude": 22.608520199999997, "longitude": 75.6872619, "maps_url": "https://www.google.com/maps/place/?q=place_id:0x39625646b84ffd91:0xceee27e308cc205d"}, {"place_id": "0x3962564372fffbb7:0x3dc6aed1005384af", "name": "LEKHISOFT IT SERVICES AND CONSULTANCY", "category": "Software company", "street": "UG-2, Kesar Complex, Pithampur Sec 1, Dist. Dhar MP - 454775", "city": "Pithampur, Madhya Pradesh 454775", "phone": "07292400100", "website": "", "rating": 3.3, "review_count": "", "latitude": 22.620465, "longitude": 75.6848074, "maps_url": "https://www.google.com/maps/place/?q=place_id:0x3962564372fffbb7:0x3dc6aed1005384af"}, {"place_id": "0x39625692ebc32c0d:0x3544b529a6193a49", "name": "Sb It Automation Solutions", "category": "Automation company", "street": "Kesar Complex", "city": "Mhow - Neemuch Rd", "phone": "", "website": "", "rating": "", "review_count": "", "latitude": 22.6135576, "longitude": 75.653949, "maps_url": "https://www.google.com/maps/place/?q=place_id:0x39625692ebc32c0d:0x3544b529a6193a49"}, {"place_id": "0x396251541255d393:0xa2fa2b33030e3279", "name": "RITSPIN SYNTHETICS LIMITED", "category": "Corporate office", "street": "Pithampur Industrial Area", "city": "Pithampur, Madhya Pradesh 454774", "phone": "07292400102", "website": "http://www.wearitgroup.com/", "rating": 3.6, "review_count": "", "latitude": 22.6280395, "longitude": 75.6165339, "maps_url": "https://www.google.com/maps/place/?q=place_id:0x396251541255d393:0xa2fa2b33030e3279"}, {"place_id": "0x396256433b7bfef9:0x114fbbd1d0000000", "name": "Vaishnav Cyber Cafe", "category": "Software company", "street": "9 Azad Squre", "city": "Indus Town Road", "phone": "07898551002", "website": "", "rating": 3, "review_count": "", "latitude": 22.6104442, "longitude": 75.6800919, "maps_url": "https://www.google.com/maps/place/?q=place_id:0x396256433b7bfef9:0x114fbbd1d0000000"}, {"place_id": "0x3962f7258c7e67f5:0x3997f7bd639d8477", "name": "Business Consultant", "category": "Business management consultant", "street": "551,Vishwas Nagar, Banjari", "city": "Post", "phone": "08319803782", "website": "", "rating": "", "review_count": "", "latitude": 22.594945799999998, "longitude": 75.6916344, "maps_url": "https://www.google.com/maps/place/?q=place_id:0x3962f7258c7e67f5:0x3997f7bd639d8477"}, {"place_id": "0x396237fd90da48a1:0x6ec52fad552b0b3b", "name": "Ganesh Online", "category": "Computer support and services", "street": "68 Trusmal", "city": "Dindayal, Colony Rd", "phone": "09755598206", "website": "", "rating": 3, "review_count": "", "latitude": 22.599427499999997, "longitude": 75.3241748, "maps_url": "https://www.google.com/maps/place/?q=place_id:0x396237fd90da48a1:0x6ec52fad552b0b3b"}]}