{"timestamp": 1773729880.6628964, "keyword": "IT company", "location": "delhi", "cell_idx": 152, "results": [{"place_id": "0x390d195b3d2c83ab:0x3dedc435b1e10e51", "name": "Gemini Solutions pvt ltd", "category": "Software company", "street": "Plot No. 119", "city": "Udyog Vihar, Phase I, Sector 20", "phone": "08800998042", "website": "https://geminisolutions.com/", "rating": 4.2, "review_count": "", "latitude": 28.5133342, "longitude": 77.08256279999999, "maps_url": "https://www.google.com/maps/place/?q=place_id:0x390d195b3d2c83ab:0x3dedc435b1e10e51"}, {"place_id": "0x390d191100000001:0x424476192b3b5b5b", "name": "Binary Semantics Limited", "category": "Software company", "street": "PLot no", "city": "38", "phone": "08929156505", "website": "https://www.binarysemantics.com/", "rating": 3.7, "review_count": "", "latitude": 28.5018823, "longitude": 77.0701466, "maps_url": "https://www.google.com/maps/place/?q=place_id:0x390d191100000001:0x424476192b3b5b5b"}, {"place_id": "0x390d195e4483ae05:0xec67b2579bb38803", "name": "eXtendCode - Software Development Company", "category": "Software company", "street": "Plot 63, Second Floor, Udyog Vihar Phase -1,", "city": "Gurugram, Haryana 122016", "phone": "01244261219", "website": "http://www.extendcode.com/", "rating": 4.1, "review_count": "", "latitude": 28.514535199999997, "longitude": 77.0815075, "maps_url": "https://www.google.com/maps/place/?q=place_id:0x390d195e4483ae05:0xec67b2579bb38803"}, {"place_id": "0x390d1a34dce10001:0x81ee938136b1aabf", "name": "GANGATIKA TECHNOLOGIES PRIVATE LIMITED", "category": "Software company", "street": "Plot No. 551", "city": "Near, Holi Chowk Rd", "phone": "07838189178", "website": "", "rating": 4.4, "review_count": "", "latitude": 28.5355068, "longitude": 77.0551984, "maps_url": "https://www.google.com/maps/place/?q=place_id:0x390d1a34dce10001:0x81ee938136b1aabf"}, {"place_id": "0x390d19472c0ed765:0x3448f98cc74febf6", "name": "Vichara Technology", "category": "Software company", "street": "Infotech Center", "city": "Old Delhi Gurugram Rd", "phone": "08887631346", "website": "http://www.vichara.com/", "rating": 4.1, "review_count": "", "latitude": 28.5110438, "longitude": 77.07454489999999, "maps_url": "https://www.google.com/maps/place/?q=place_id:0x390d19472c0ed765:0x3448f98cc74febf6"}, {"place_id": "0x390d181b03ac9f6f:0x3ec5a92a519f94ad", "name": "Daffodil Software", "category": "Software company", "street": "9th Floor, Tower B1, DLF", "city": "World Tech Park", "phone": "01246817000", "website": "https://www.daffodilsw.com/", "rating": 4.1, "review_count": "", "latitude": 28.465191599999997, "longitude": 77.0564785, "maps_url": "https://www.google.com/maps/place/?q=place_id:0x390d181b03ac9f6f:0x3ec5a92a519f94ad"}, {"place_id": "0x390d19440bc59efb:0xda6549686148f7b4", "name": "PerfectionGeeks Technologies", "category": "Software company", "street": "Plot 378-379, Udyog Vihar Phase 4 Rd", "city": "near nokia building", "phone": "08920947884", "website": "http://www.perfectiongeeks.com/", "rating": 4.9, "review_count": "", "latitude": 28.5002221, "longitude": 77.0730516, "maps_url": "https://www.google.com/maps/place/?q=place_id:0x390d19440bc59efb:0xda6549686148f7b4"}, {"place_id": "0x390d1dcb22bede17:0xaa69daaeb6f9f53", "name": "Redesys Innovative Pvt Ltd", "category": "Computer support and services", "street": "108", "city": "Udyog Vihar Phase 1, Udyog Vihar, Sector 20", "phone": "09540094851", "website": "http://www.redesys.co.in/", "rating": 4.8, "review_count": "", "latitude": 28.516242599999998, "longitude": 77.0828938, "maps_url": "https://www.google.com/maps/place/?q=place_id:0x390d1dcb22bede17:0xaa69daaeb6f9f53"}, {"place_id": "0x390d192ead051335:0x1f45fb98e90cc397", "name": "Honeysha Technologies, Software Company in Gurgaon, Digital Marketing Agency in Gurgaon", "category": "Software company", "street": "Cyber City", "city": "U-79/18, Rd Number 79", "phone": "07692079000", "website": "https://honeyshatech.com/", "rating": 4.5, "review_count": "", "latitude": 28.4900566, "longitude": 77.09324459999999, "maps_url": "https://www.google.com/maps/place/?q=place_id:0x390d192ead051335:0x1f45fb98e90cc397"}, {"place_id": "0x390d195c57ccd5e1:0x1b2c706c8f63247e", "name": "Byteprojects - Technologies", "category": "Software company", "street": "Skootr Offices", "city": "PlotNo. 264", "phone": "07876435599", "website": "http://byteprojects.in/", "rating": 4.8, "review_count": "", "latitude": 28.5101685, "longitude": 77.0828891, "maps_url": "https://www.google.com/maps/place/?q=place_id:0x390d195c57ccd5e1:0x1b2c706c8f63247e"}, {"place_id": "0x390d19f36f09bccb:0x922b9ed67b679fb8", "name": "Webdecorum | Best Web Development Company in India", "category": "Software company", "street": "7th Floor", "city": "108", "phone": "09599110321", "website": "https://www.webdecorum.com/", "rating": 4.9, "review_count": "", "latitude": 28.5161558, "longitude": 77.08289289999999, "maps_url": "https://www.google.com/maps/place/?q=place_id:0x390d19f36f09bccb:0x922b9ed67b679fb8"}, {"place_id": "0x390cfd00fd453a1b:0x9b04afa48c2538ec", "name": "Inwoin Technologies Pvt. Ltd.", "category": "Software company", "street": "Building No. 309", "city": "310", "phone": "", "website": "http://www.inwoin.com/", "rating": 4.5, "review_count": "", "latitude": 28.4999559, "longitude": 77.07965879999999, "maps_url": "https://www.google.com/maps/place/?q=place_id:0x390cfd00fd453a1b:0x9b04afa48c2538ec"}, {"place_id": "0x390ce458d0000001:0xf2123bd299ec4501", "name": "IT Company India", "category": "Software company", "street": "D56", "city": "D Block, Sector 10", "phone": "09999244854", "website": "https://www.itcompanyindia.in/", "rating": 4.7, "review_count": "", "latitude": 28.589917699999997, "longitude": 77.3351153, "maps_url": "https://www.google.com/maps/place/?q=place_id:0x390ce458d0000001:0xf2123bd299ec4501"}, {"place_id": "0x390d1905cf9418ab:0x68c73ef2c55c6a92", "name": "Dixinfotech | Best Web Development Company in Gurgaon", "category": "Software company", "street": "Plot No. 96, 1st Floor", "city": "Udyog Vihar Phase 1, Sector 20", "phone": "09717106162", "website": "https://www.dixinfotech.com/website-designing-company-in-gurgaon", "rating": 5, "review_count": "", "latitude": 28.5169219, "longitude": 77.0803425, "maps_url": "https://www.google.com/maps/place/?q=place_id:0x390d1905cf9418ab:0x68c73ef2c55c6a92"}, {"place_id": "0x390d1d849440e78f:0x5c59e9bcc2168a6", "name": "INlead INdia", "category": "Software company", "street": "1st Floor", "city": "Tower-D", "phone": "09911415373", "website": "https://www.inleadindia.com/", "rating": 5, "review_count": "", "latitude": 28.524362, "longitude": 77.0803966, "maps_url": "https://www.google.com/maps/place/?q=place_id:0x390d1d849440e78f:0x5c59e9bcc2168a6"}, {"place_id": "0x390d1923af5d91ed:0xbe103b16161f5631", "name": "Condeco Software Private Limited", "category": "Software company", "street": "Tower C", "city": "4th floor building 10", "phone": "01244760150", "website": "http://www.condecosoftware.com/apac", "rating": 4.3, "review_count": "", "latitude": 28.4940696, "longitude": 77.0885457, "maps_url": "https://www.google.com/maps/place/?q=place_id:0x390d1923af5d91ed:0xbe103b16161f5631"}, {"place_id": "0x390d19174792f4db:0xcb5f589caa71b6e7", "name": "Knocial India Limited", "category": "Software company", "street": "60B", "city": "Udyog Vihar, Sector 22", "phone": "09354120847", "website": "https://www.knocialindia.com/", "rating": 4.7, "review_count": "", "latitude": 28.504239499999997, "longitude": 77.0651981, "maps_url": "https://www.google.com/maps/place/?q=place_id:0x390d19174792f4db:0xcb5f589caa71b6e7"}, {"place_id": "0x390d19298db2fb35:0xcaa0d46737c4561c", "name": "MLM Software Developer | Sunny citrix", "category": "Software company", "street": "office no 427C, 4th floor, vashisht complex", "city": "Sikanderpur", "phone": "07906059336", "website": "http://sunnycitrix.com/", "rating": 4.8, "review_count": "", "latitude": 28.4816798, "longitude": 77.09770569999999, "maps_url": "https://www.google.com/maps/place/?q=place_id:0x390d19298db2fb35:0xcaa0d46737c4561c"}, {"place_id": "0x390d013ca8ac1387:0x8a0db85b518267d5", "name": "NexGen Innovators", "category": "Software company", "street": "114B, 3rd floor, Dwarka Mor", "city": "New Delhi, Delhi 110059", "phone": "", "website": "https://www.nexgi.com/", "rating": 4.9, "review_count": "", "latitude": 28.618961, "longitude": 77.0322202, "maps_url": "https://www.google.com/maps/place/?q=place_id:0x390d013ca8ac1387:0x8a0db85b518267d5"}, {"place_id": "0x390d1993bd871777:0x59b8dceaab966d6e", "name": "Web & Mobile App Development Company in Gurgaon - WEBIENT TECHNOLOGIES", "category": "Software company", "street": "97, 2nd Floor", "city": "Udyog Vihar Phase V Rd", "phone": "09075069326", "website": "https://webienttechnologies.in/", "rating": 5, "review_count": "", "latitude": 28.4993746, "longitude": 77.0833406, "maps_url": "https://www.google.com/maps/place/?q=place_id:0x390d1993bd871777:0x59b8dceaab966d6e"}, {"place_id": "0x390d1b0076c735ad:0x13551f319095520a", "name": "Aftab IT information technology", "category": "Computer Hardware Company", "street": "C58", "city": "D Block, Kapas Hera Estate", "phone": "", "website": "", "rating": 5, "review_count": "", "latitude": 28.5221669, "longitude": 77.08510989999999, "maps_url": "https://www.google.com/maps/place/?q=place_id:0x390d1b0076c735ad:0x13551f319095520a"}, {"place_id": "0x390d19f4b550a8d5:0x4ea60370034178d0", "name": "HCLTech", "category": "Software company", "street": "1st and 2nd Floor", "city": "Candor Tech Space Gate", "phone": "", "website": "https://www.hcltech.com/geo-presence/india", "rating": 4.4, "review_count": "", "latitude": 28.5151547, "longitude": 77.0752493, "maps_url": "https://www.google.com/maps/place/?q=place_id:0x390d19f4b550a8d5:0x4ea60370034178d0"}, {"place_id": "0x390d192f80e784d3:0x2c271ddf93d663b4", "name": "Tranciscolabs | Mobile App Development Company | Web Development Company", "category": "Software company", "street": "Park", "city": "RGREP", "phone": "09580174570", "website": "https://tranciscolabs.com/", "rating": 4.4, "review_count": "", "latitude": 28.4695091, "longitude": 77.06860209999999, "maps_url": "https://www.google.com/maps/place/?q=place_id:0x390d192f80e784d3:0x2c271ddf93d663b4"}, {"place_id": "0x390d19437cb628b3:0x12e71803eb09ac16", "name": "Clavax Technologies", "category": "Software company", "street": "727", "city": "Udyog Vihar, Phase 5", "phone": "+18444252829", "website": "http://www.clavax.com/", "rating": 4.1, "review_count": "", "latitude": 28.5052123, "longitude": 77.0850025, "maps_url": "https://www.google.com/maps/place/?q=place_id:0x390d19437cb628b3:0x12e71803eb09ac16"}, {"place_id": "0x390d1be0178a9bc9:0x859831577d94c68e", "name": "VBE SERVICES", "category": "Computer support and services", "street": "II, III, PLOT IN KHASRA NO 135", "city": "RAO MATADIN BUILDING", "phone": "01143381919", "website": "http://www.vbeservices.com/", "rating": 4.7, "review_count": "", "latitude": 28.5287723, "longitude": 77.08648769999999, "maps_url": "https://www.google.com/maps/place/?q=place_id:0x390d1be0178a9bc9:0x859831577d94c68e"}, {"place_id": "0x390d1b8e5b6999a1:0x522ffbc2c7c23362", "name": "Techthastu Private Limited (Techthaastu)", "category": "Software company", "street": "Techthaastu Office, Pt. Mehru Marg, Outer Bharthal Firni road Bharthal Village", "city": "near Govt. Girls senior secondary School", "phone": "08383889042", "website": "https://www.techthaastu.com/", "rating": 5, "review_count": "", "latitude": 28.5403192, "longitude": 77.0524594, "maps_url": "https://www.google.com/maps/place/?q=place_id:0x390d1b8e5b6999a1:0x522ffbc2c7c23362"}, {"place_id": "0x390d196e9644b393:0xaa6853d2ff7a2e6d", "name": "Paxcom India Pvt. Ltd.", "category": "Software company", "street": "7th Floor", "city": "Nimai Tower", "phone": "01244692969", "website": "http://paxcom.ai/", "rating": 4, "review_count": "", "latitude": 28.499856899999997, "longitude": 77.0760152, "maps_url": "https://www.google.com/maps/place/?q=place_id:0x390d196e9644b393:0xaa6853d2ff7a2e6d"}, {"place_id": "0x390d195c26bfa369:0x69bd8efd2e3a31fe", "name": "Radical Minds Technologies Pvt. Ltd.", "category": "BPO Company", "street": "368", "city": "Phase II, Udyog Vihar, Sector 20", "phone": "01244338366", "website": "http://www.radicalminds.in/", "rating": 4.2, "review_count": "", "latitude": 28.506335099999998, "longitude": 77.0877546, "maps_url": "https://www.google.com/maps/place/?q=place_id:0x390d195c26bfa369:0x69bd8efd2e3a31fe"}, {"place_id": "0x390d053af4b9fae1:0xa955718786ea4c90", "name": "Efficient IT & Electronic Services Private Limited", "category": "Software company", "street": "1st floor", "city": "VV Plaza building", "phone": "08750042191", "website": "http://www.efficientindia.com/", "rating": 4.4, "review_count": "", "latitude": 28.6100702, "longitude": 77.03385709999999, "maps_url": "https://www.google.com/maps/place/?q=place_id:0x390d053af4b9fae1:0xa955718786ea4c90"}, {"place_id": "0x390d1b0ad6565c37:0x9ee772d45ffed70d", "name": "IOTtech Softwares", "category": "Software company", "street": "First & Second Floor", "city": "Lucky Plaza", "phone": "08034798583", "website": "", "rating": 4.9, "review_count": "", "latitude": 28.5847981, "longitude": 77.07323199999999, "maps_url": "https://www.google.com/maps/place/?q=place_id:0x390d1b0ad6565c37:0x9ee772d45ffed70d"}, {"place_id": "0x390d1ca8de94abb1:0xc070687f1d5f8558", "name": "Bita Infotech IT Solutions:: Website Designing & Development Company", "category": "Software company", "street": "Rz-31 B, Street No. 5", "city": "Block M, West Sagarpur, Sagar Pur", "phone": "08178256664", "website": "https://bitainfotech.com/", "rating": 4.7, "review_count": "", "latitude": 28.6056495, "longitude": 77.1012293, "maps_url": "https://www.google.com/maps/place/?q=place_id:0x390d1ca8de94abb1:0xc070687f1d5f8558"}, {"place_id": "0x390d195b233aaaab:0x416cb7b74c179f86", "name": "Trantor Software Pvt Ltd.", "category": "Corporate office", "street": "2nd floor, 91 Springboard, Business Hub Private Limited", "city": "Cabin 2", "phone": "06506467818", "website": "http://trantorinc.com/", "rating": 4.1, "review_count": "", "latitude": 28.486732399999998, "longitude": 77.0745902, "maps_url": "https://www.google.com/maps/place/?q=place_id:0x390d195b233aaaab:0x416cb7b74c179f86"}, {"place_id": "0x390d1b3d620205b1:0xe21a1fe217f40c4", "name": "InFutive Technology Pvt Ltd.", "category": "Software company", "street": "C-Block", "city": "B - 282 Palam Extension", "phone": "08882283917", "website": "http://www.infutive.com/", "rating": 5, "review_count": "", "latitude": 28.5862752, "longitude": 77.0697868, "maps_url": "https://www.google.com/maps/place/?q=place_id:0x390d1b3d620205b1:0xe21a1fe217f40c4"}, {"place_id": "0x390ce3c153b89811:0xe7a279685777e9ca", "name": "IT Company", "category": "Automation company", "street": "A-14", "city": "near iskcon temple", "phone": "", "website": "http://www.opuswiz.com/", "rating": 3, "review_count": "", "latitude": 28.557167, "longitude": 77.25424819999999, "maps_url": "https://www.google.com/maps/place/?q=place_id:0x390ce3c153b89811:0xe7a279685777e9ca"}, {"place_id": "0x390d191598f48ef3:0x70991b4ff870f05d", "name": "Shree Partners LLC", "category": "Software company", "street": "1, Tower A, Building, Cyber City", "city": "Corporate Edge Level", "phone": "01246728815", "website": "https://www.shreepartners.com/", "rating": 4.3, "review_count": "", "latitude": 28.4936018, "longitude": 77.088325, "maps_url": "https://www.google.com/maps/place/?q=place_id:0x390d191598f48ef3:0x70991b4ff870f05d"}, {"place_id": "0x390d192ca95aaaab:0xc152e62b92cf35b4", "name": "ISMEDU Software Solutions Pvt. Ltd.", "category": "Software company", "street": "204, 2nd Floor", "city": "GLOBAL BUSINESS PARK", "phone": "09205444090", "website": "https://www.ismedusoftsol.com/", "rating": 5, "review_count": "", "latitude": 28.4807173, "longitude": 77.1020856, "maps_url": "https://www.google.com/maps/place/?q=place_id:0x390d192ca95aaaab:0xc152e62b92cf35b4"}, {"place_id": "0x2a72b8b69d7b6493:0x11251466d4d34cac", "name": "WebZonal IT Company", "category": "Website designer", "street": "Wz-258/2-3, D Block Rd", "city": "Khazan Basti, Nangal Raya, Janakpuri", "phone": "09811170903", "website": "http://webzonal.com/", "rating": 5, "review_count": "", "latitude": 28.6122102, "longitude": 77.11159549999999, "maps_url": "https://www.google.com/maps/place/?q=place_id:0x2a72b8b69d7b6493:0x11251466d4d34cac"}, {"place_id": "0x390d196aa65f2787:0x206eea180dde1151", "name": "Targus Technologies", "category": "Software company", "street": "S&A Tower First Floor, Plot 5", "city": "6 and 7", "phone": "01244742300", "website": "http://www.targustech.com/", "rating": 4.1, "review_count": "", "latitude": 28.4914788, "longitude": 77.07879179999999, "maps_url": "https://www.google.com/maps/place/?q=place_id:0x390d196aa65f2787:0x206eea180dde1151"}, {"place_id": "0x390d1946a4b0d01f:0xab23cbaa408b3b9c", "name": "Tagbin Services Pvt. Ltd. \u2013 Best AI & Experiential Tech Company in Gurgaon", "category": "Software company", "street": "3rd Floor, Wing A, Enkay Centre", "city": "Vaniya Kunj", "phone": "08178112682", "website": "https://tagbin.in/", "rating": 4.2, "review_count": "", "latitude": 28.4974691, "longitude": 77.08654609999999, "maps_url": "https://www.google.com/maps/place/?q=place_id:0x390d1946a4b0d01f:0xab23cbaa408b3b9c"}, {"place_id": "0x390ce1877a5ef8eb:0xd5abb94a30425144", "name": "Plusone Technologies Private Limited", "category": "Software company", "street": "Phase IV, Udyog Vihar, Sector 18", "city": "Gurugram, Haryana 122015", "phone": "09891387094", "website": "https://www.plusonetech.co/", "rating": 4.7, "review_count": "", "latitude": 28.4941475, "longitude": 77.0808448, "maps_url": "https://www.google.com/maps/place/?q=place_id:0x390ce1877a5ef8eb:0xd5abb94a30425144"}, {"place_id": "0x390d1ac4f284e761:0x9464ca79c229a74d", "name": "Times IT Services Pvt. Ltd", "category": "Software company", "street": "Vardhman Bahnhof Plaza", "city": "204", "phone": "09650012304", "website": "https://www.timesitservices.com/", "rating": 4.9, "review_count": "", "latitude": 28.5906919, "longitude": 77.043549, "maps_url": "https://www.google.com/maps/place/?q=place_id:0x390d1ac4f284e761:0x9464ca79c229a74d"}, {"place_id": "0x390d1960c2b8367f:0xd2d30e45ac71acea", "name": "Vorombetech Solutions - Top IT & Digitalization Service Company in Gurugram", "category": "Software company", "street": "249", "city": "Phase IV, Udyog Vihar, Sector 19", "phone": "", "website": "https://vorombetech.com/", "rating": 4.8, "review_count": "", "latitude": 28.4941475, "longitude": 77.0808448, "maps_url": "https://www.google.com/maps/place/?q=place_id:0x390d1960c2b8367f:0xd2d30e45ac71acea"}, {"place_id": "0x390ce3b5c2a11543:0xc4df0cd95534bf85", "name": "LimeTray", "category": "Software company", "street": "2nd Floor", "city": "815", "phone": "", "website": "https://limetray.com/", "rating": 3.6, "review_count": "", "latitude": 28.5015508, "longitude": 77.08626919999999, "maps_url": "https://www.google.com/maps/place/?q=place_id:0x390ce3b5c2a11543:0xc4df0cd95534bf85"}, {"place_id": "0x390d1b1fb85c71ed:0x1aa4ba2a08b02c1d", "name": "Tecmicra Solutions - Software, Website Development & Digital Marketing Company", "category": "Software company", "street": "Floor, D410", "city": "3rd", "phone": "07042387253", "website": "https://tecmicra.co.in/", "rating": 5, "review_count": "", "latitude": 28.5849324, "longitude": 77.071085, "maps_url": "https://www.google.com/maps/place/?q=place_id:0x390d1b1fb85c71ed:0x1aa4ba2a08b02c1d"}, {"place_id": "0x390d1b400a44a6b9:0x16b34bde95380182", "name": "Deliver Future Technologies (Graphics, Websites, apps, hosting & One destination - Complete IT solutions )", "category": "Software company", "street": "Palam Village, Palam", "city": "New Delhi, Delhi, 110045", "phone": "09555534066", "website": "http://www.deliverfuture.com/", "rating": 5, "review_count": "", "latitude": 28.5883981, "longitude": 77.07953789999999, "maps_url": "https://www.google.com/maps/place/?q=place_id:0x390d1b400a44a6b9:0x16b34bde95380182"}, {"place_id": "0x390d18895e47a5a9:0x498fa0445e22352", "name": "IGT Solutions Pvt Ltd", "category": "Corporate office", "street": "2nd Floor InfoTech Centre Old Delhi Gurgaon Road Sector 21 Milestone 14/2", "city": "Old Delhi Gurugram Rd", "phone": "01244587000", "website": "https://www.igtsolutions.com/", "rating": 3.9, "review_count": "", "latitude": 28.5106535, "longitude": 77.0752528, "maps_url": "https://www.google.com/maps/place/?q=place_id:0x390d18895e47a5a9:0x498fa0445e22352"}, {"place_id": "0x390d1b86b6b5582d:0x36c722e124b57be8", "name": "kdrsoft Technologies - website designing company in delhi", "category": "Website designer", "street": "2nd Floor", "city": "Manish Global Mall", "phone": "09910258463", "website": "https://www.kdrsoft.com/", "rating": 4.9, "review_count": "", "latitude": 28.559937299999998, "longitude": 77.0596687, "maps_url": "https://www.google.com/maps/place/?q=place_id:0x390d1b86b6b5582d:0x36c722e124b57be8"}, {"place_id": "0x390d19361c56cecd:0x50517af3dc928d70", "name": "Mycom", "category": "Software company", "street": "7th Floor", "city": "Building 8b", "phone": "01244508000", "website": "http://www.mycom-osi.com/", "rating": 4.3, "review_count": "", "latitude": 28.4982059, "longitude": 77.0900367, "maps_url": "https://www.google.com/maps/place/?q=place_id:0x390d19361c56cecd:0x50517af3dc928d70"}, {"place_id": "0x390fef4fa25e93a1:0xe15860d4b546f938", "name": "Raju Bros Softech Private Limited", "category": "Software company", "street": "A BLOCK", "city": "A-4B, Bajghera Rd", "phone": "08826273552", "website": "https://www.rajubros.com/", "rating": 5, "review_count": "", "latitude": 28.512082099999997, "longitude": 77.0251842, "maps_url": "https://www.google.com/maps/place/?q=place_id:0x390fef4fa25e93a1:0xe15860d4b546f938"}, {"place_id": "0x390d192409eb1411:0xbf1f68f4b2dd1d69", "name": "Appicia Technologies", "category": "Software company", "street": "Third floor", "city": "Ashirwad", "phone": "08076917265", "website": "https://appicia.com/", "rating": 5, "review_count": "", "latitude": 28.4885505, "longitude": 77.01963889999999, "maps_url": "https://www.google.com/maps/place/?q=place_id:0x390d192409eb1411:0xbf1f68f4b2dd1d69"}, {"place_id": "0x390d191d0bb8a9db:0xf6295047e107a843", "name": "Robust Infotech - IT Services | Digital Transformation | Best Website/Software Development Company", "category": "Software company", "street": "90B, Delhi - Jaipur Expy", "city": "Nitin Vihar, Udyog Vihar, Sector 18", "phone": "07982914476", "website": "", "rating": 5, "review_count": "", "latitude": 28.441292299999997, "longitude": 77.0148859, "maps_url": "https://www.google.com/maps/place/?q=place_id:0x390d191d0bb8a9db:0xf6295047e107a843"}, {"place_id": "0x390d1b0baba5d5ef:0x8e97bd9f00f59f69", "name": "AR IT Solutions", "category": "Computer repair service", "street": "opposite Axis Bank Branch", "city": "Bijwasan", "phone": "09015936236", "website": "", "rating": 5, "review_count": "", "latitude": 28.532836099999997, "longitude": 77.0544587, "maps_url": "https://www.google.com/maps/place/?q=place_id:0x390d1b0baba5d5ef:0x8e97bd9f00f59f69"}, {"place_id": "0x390d1981bffb1f6b:0xf891b0df53e98e19", "name": "Ketaki Technologies", "category": "Software company", "street": "Pocket F, Sector 2, Palam Vihar", "city": "Gurugram, Haryana 122017", "phone": "09667435592", "website": "https://sites.google.com/view/ketaki-and-rohit-technologies", "rating": 5, "review_count": "", "latitude": 28.5127843, "longitude": 77.0369834, "maps_url": "https://www.google.com/maps/place/?q=place_id:0x390d1981bffb1f6b:0xf891b0df53e98e19"}, {"place_id": "0x390d195e96bb4105:0xfba8615a67d65660", "name": "Onkar Infotech", "category": "BPO Company", "street": "117", "city": "Udyog Vihar Phase 1, Udyog Vihar, Sector 20", "phone": "01244004742", "website": "http://www.onkarinfotech.com/", "rating": 3.9, "review_count": "", "latitude": 28.5137038, "longitude": 77.0832096, "maps_url": "https://www.google.com/maps/place/?q=place_id:0x390d195e96bb4105:0xfba8615a67d65660"}, {"place_id": "0x390d1bb72bd328b1:0xd9425539dc10edb3", "name": "SOFT INDIA WEB SOFTWARE DEVELOPMENT PVT LTD", "category": "Software company", "street": "Ground Floor", "city": "A- 107", "phone": "09625503688", "website": "http://www.softindia.in/", "rating": 3.2, "review_count": "", "latitude": 28.587611, "longitude": 77.0704514, "maps_url": "https://www.google.com/maps/place/?q=place_id:0x390d1bb72bd328b1:0xd9425539dc10edb3"}, {"place_id": "0x390d195b3d68bfd5:0x33d426418fb46db7", "name": "Kockpit Analytics Pvt. Ltd", "category": "Corporate office", "street": "No.1", "city": "Bhikaji Cama Place, Rama Krishna Puram", "phone": "09599080265", "website": "", "rating": 4.7, "review_count": "", "latitude": 28.508890599999997, "longitude": 77.087429, "maps_url": "https://www.google.com/maps/place/?q=place_id:0x390d195b3d68bfd5:0x33d426418fb46db7"}, {"place_id": "0x390d192fc20b97e7:0x3048b25634f6d955", "name": "Nagarro", "category": "Software company", "street": "Plot 6B, Sub. Major Laxmi Chand Rd", "city": "Maruti Udyog, Sector 18", "phone": "", "website": "https://www.nagarro.com/en", "rating": 4.5, "review_count": "", "latitude": 28.491098599999997, "longitude": 77.0673492, "maps_url": "https://www.google.com/maps/place/?q=place_id:0x390d192fc20b97e7:0x3048b25634f6d955"}, {"place_id": "0x390d193c3a36e523:0xe68f8d2568faeaad", "name": "Espire Infolabs Pvt. Ltd.", "category": "Software company", "street": "486 & 487", "city": "Phase III, Udyog Vihar III, Sector 20", "phone": "01247173000", "website": "http://www.espire.com/", "rating": 4.1, "review_count": "", "latitude": 28.5119516, "longitude": 77.0899661, "maps_url": "https://www.google.com/maps/place/?q=place_id:0x390d193c3a36e523:0xe68f8d2568faeaad"}, {"place_id": "0x390d19404f4f65d5:0xc7a5e785eb2e8ef6", "name": "Infodart Technologies Ltd", "category": "Software company", "street": "2nd floor", "city": "plot no 254", "phone": "", "website": "https://www.infodartglobal.com/", "rating": 4, "review_count": "", "latitude": 28.4979135, "longitude": 77.0815518, "maps_url": "https://www.google.com/maps/place/?q=place_id:0x390d19404f4f65d5:0xc7a5e785eb2e8ef6"}, {"place_id": "0x390d05befd73251b:0x5b1f0b14ae5f78dd", "name": "Trank Tec. | Web & Mobile App Developers : eCommerce Web Development Company in Delhi, India", "category": "Software company", "street": "Plot no. 112, 3rd Floor", "city": "Udyog Vihar Phase 1, Udyog Vihar, Sector 20", "phone": "09311397535", "website": "https://www.tranktechnologies.com/", "rating": 3.8, "review_count": "", "latitude": 28.514941399999998, "longitude": 77.0849483, "maps_url": "https://www.google.com/maps/place/?q=place_id:0x390d05befd73251b:0x5b1f0b14ae5f78dd"}, {"place_id": "0x390d195a7c8a06a7:0x34d8dddb7a7933ed", "name": "VDC Technologies Private Limited", "category": "Engineering consultant", "street": "2nd floor", "city": "Plot no 29", "phone": "01244281413", "website": "http://vdcint.com/", "rating": 3.5, "review_count": "", "latitude": 28.514978, "longitude": 77.080433, "maps_url": "https://www.google.com/maps/place/?q=place_id:0x390d195a7c8a06a7:0x34d8dddb7a7933ed"}, {"place_id": "0x390d19414b0e5321:0xf7a5ae3e08b20907", "name": "Real Time Data Services Pvt. Ltd.", "category": "Corporate office", "street": "809-A", "city": "Phase V, Udyog Vihar, Sector 19", "phone": "01244018891", "website": "https://www.myrealdata.in/", "rating": 3.8, "review_count": "", "latitude": 28.5007093, "longitude": 77.08505699999999, "maps_url": "https://www.google.com/maps/place/?q=place_id:0x390d19414b0e5321:0xf7a5ae3e08b20907"}, {"place_id": "0x390d19afd1d64805:0xdc0ff76292f115a0", "name": "ichhapurti Corporate Office", "category": "E-commerce service", "street": "GGJ SOLUTIONS PVT. LTD, Plot No. 112, 3rd Floor", "city": "Udyog Vihar, Phase I, Sector 20", "phone": "", "website": "", "rating": 3.3, "review_count": "", "latitude": 28.5147753, "longitude": 77.0848065, "maps_url": "https://www.google.com/maps/place/?q=place_id:0x390d19afd1d64805:0xdc0ff76292f115a0"}, {"place_id": "0x390d1b03afd847d1:0x3f8589776214e47b", "name": "Techbizz - IT Solutions", "category": "Software company", "street": "1st floor", "city": "Najafgarh Kapashera Rd", "phone": "08130622472", "website": "", "rating": 5, "review_count": "", "latitude": 28.5325596, "longitude": 77.0540195, "maps_url": "https://www.google.com/maps/place/?q=place_id:0x390d1b03afd847d1:0x3f8589776214e47b"}, {"place_id": "0x390d19b51e5edf49:0xd17618454eb66b58", "name": "STERLING MANUFACTURING COMPANY", "category": "Manufacturer", "street": "2nd Floor", "city": "249", "phone": "09310644419", "website": "https://sterlingmfgco.com/", "rating": 4.8, "review_count": "", "latitude": 28.498040099999997, "longitude": 77.0824007, "maps_url": "https://www.google.com/maps/place/?q=place_id:0x390d19b51e5edf49:0xd17618454eb66b58"}, {"place_id": "0x390d1be7f1a44f95:0x84524a5425f8930d", "name": "InfraDost Technologies Pvt Ltd.- Microsoft Adobe Corel Draw & Security Solution Provider", "category": "Software company", "street": "Gurgaon - Delhi Expy", "city": "Block B, Mahipalpur Village, Mahipalpur", "phone": "08287792542", "website": "http://www.infradost.com/", "rating": 4.6, "review_count": "", "latitude": 28.5485743, "longitude": 77.1264697, "maps_url": "https://www.google.com/maps/place/?q=place_id:0x390d1be7f1a44f95:0x84524a5425f8930d"}, {"place_id": "0x390d198f62c557d7:0x4b037444663d7f50", "name": "Triyuga Soft Tech Pvt Ltd | IT Company in Gurgaon | Digital Marketing Company in Gurgaon", "category": "Software company", "street": "Shop No : 4", "city": "Main, Bajghera Rd", "phone": "09999699936", "website": "https://www.triyugasofttech.com/", "rating": "", "review_count": "", "latitude": 28.495755199999998, "longitude": 77.011887, "maps_url": "https://www.google.com/maps/place/?q=place_id:0x390d198f62c557d7:0x4b037444663d7f50"}, {"place_id": "0x390d1bb0ed2b78c9:0xb962a26eb951c969", "name": "New India Structures pvt. ltd", "category": "Civil engineering company", "street": "Main Rd", "city": "Kapas Hera Extension, Samalka", "phone": "01140686630", "website": "", "rating": 4.8, "review_count": "", "latitude": 28.5306568, "longitude": 77.08498519999999, "maps_url": "https://www.google.com/maps/place/?q=place_id:0x390d1bb0ed2b78c9:0xb962a26eb951c969"}, {"place_id": "0x390d18574741abd3:0x6533204c7dde11d0", "name": "Analec Infotech Pvt. Ltd.", "category": "Software company", "street": "6th floor, Tower B", "city": "Park Centra", "phone": "", "website": "http://www.analec.com/", "rating": 3.7, "review_count": "", "latitude": 28.459702399999998, "longitude": 77.0516896, "maps_url": "https://www.google.com/maps/place/?q=place_id:0x390d18574741abd3:0x6533204c7dde11d0"}, {"place_id": "0x390d02e520aee25b:0x322870f3355c7f4b", "name": "Delphi Infotech (Cybersecurity & Cloud Solutions)", "category": "Software company", "street": "225A, D-21", "city": "Corporate Park", "phone": "01145075151", "website": "https://www.delphiinfo.com/", "rating": 4.2, "review_count": "", "latitude": 28.5618181, "longitude": 77.0670596, "maps_url": "https://www.google.com/maps/place/?q=place_id:0x390d02e520aee25b:0x322870f3355c7f4b"}, {"place_id": "0x4156579e876131e7:0x356c887f8dac5e97", "name": "Haaditech Private Limited", "category": "Software company", "street": "Gate No. 04", "city": "Ambience Mall", "phone": "", "website": "https://www.haaditech.com/", "rating": 5, "review_count": "", "latitude": 28.5057491, "longitude": 77.0960972, "maps_url": "https://www.google.com/maps/place/?q=place_id:0x4156579e876131e7:0x356c887f8dac5e97"}, {"place_id": "0x390d19437e719739:0x14737a286b425c55", "name": "Mediology Software", "category": "Software company", "street": "Tower B, 4th Floor", "city": "ASF Towers", "phone": "01244747500", "website": "https://www.mediologysoftware.com/", "rating": 4.1, "review_count": "", "latitude": 28.4966176, "longitude": 77.0842566, "maps_url": "https://www.google.com/maps/place/?q=place_id:0x390d19437e719739:0x14737a286b425c55"}, {"place_id": "0x390d05c8987801e5:0x128e04dce6c4cbc4", "name": "Matrix Infotech Solution | Software Development Company", "category": "Software company", "street": "j j", "city": "Dwarka Mor, Block WE, Mohan Garden, Razapur Khurd", "phone": "08920817059", "website": "http://www.matrixinfotechsolution.com/", "rating": 3.9, "review_count": "", "latitude": 28.637037, "longitude": 77.0291258, "maps_url": "https://www.google.com/maps/place/?q=place_id:0x390d05c8987801e5:0x128e04dce6c4cbc4"}, {"place_id": "0x29182cd90b477205:0xafbdc18388b8d100", "name": "Ananta Technology - IT Company", "category": "Web hosting company", "street": "RZB-214, Old Mehrauli Rd", "city": "Palam Colony, Part - I, Raj Nagar", "phone": "", "website": "https://anantatechnology.com/", "rating": 5, "review_count": "", "latitude": 28.584313899999998, "longitude": 77.0862543, "maps_url": "https://www.google.com/maps/place/?q=place_id:0x29182cd90b477205:0xafbdc18388b8d100"}, {"place_id": "0x390d1960b5895949:0x95f114824fd58a5a", "name": "IOTA Engineering Corporation", "category": "Business to business service", "street": "Opp. Plot No. 127", "city": "Udyog Vihar Phase 1, Dundahera Village, Sector 20", "phone": "09315873177", "website": "http://www.iotaindia.in/", "rating": 4.6, "review_count": "", "latitude": 28.5134376, "longitude": 77.0801899, "maps_url": "https://www.google.com/maps/place/?q=place_id:0x390d1960b5895949:0x95f114824fd58a5a"}, {"place_id": "0x390d1f4effffffff:0xcfc715ac63417946", "name": "Bechtel India Private Limited", "category": "Corporate office", "street": "244-245", "city": "Phase IV, Udyog Vihar, Knowledge Park", "phone": "01244098000", "website": "http://www.bechtel.com/", "rating": 4.4, "review_count": "", "latitude": 28.4956277, "longitude": 77.0839426, "maps_url": "https://www.google.com/maps/place/?q=place_id:0x390d1f4effffffff:0xcfc715ac63417946"}, {"place_id": "0x390d19454748b5f1:0x930fdb13eea6af9b", "name": "Auquall BPO - Best BPO and BPM company in gurgaon", "category": "BPO Company", "street": "698, Udyog Vihar Phase V Rd", "city": "Phase V, Udyog Vihar, Sector 19", "phone": "09899005897", "website": "", "rating": 4.4, "review_count": "", "latitude": 28.505634099999998, "longitude": 77.0837823, "maps_url": "https://www.google.com/maps/place/?q=place_id:0x390d19454748b5f1:0x930fdb13eea6af9b"}, {"place_id": "0x390d19c4f81c373b:0x569790526001fe47", "name": "Pasenture Technologies - Web Development Company in Gurugram, Software Development Company in Gurgaon for CRM & Saas Software", "category": "Software company", "street": "2nd Floor", "city": "90, IDC", "phone": "09717197498", "website": "https://pasenture.in/", "rating": 4, "review_count": "", "latitude": 28.4716508, "longitude": 77.0509349, "maps_url": "https://www.google.com/maps/place/?q=place_id:0x390d19c4f81c373b:0x569790526001fe47"}, {"place_id": "0x20616dbf813c03ef:0xc8fd1ca47f902e9e", "name": "Bloatware IT Software Company | website Designing Company | Software Company | MLM |CRM | Android Apps", "category": "Software company", "street": "C1", "city": "Rama Park", "phone": "08920750797", "website": "https://bloatwareitsolutions.com/", "rating": 4.5, "review_count": "", "latitude": 28.621265599999997, "longitude": 77.0324943, "maps_url": "https://www.google.com/maps/place/?q=place_id:0x20616dbf813c03ef:0xc8fd1ca47f902e9e"}, {"place_id": "0x390d19646ffbf79f:0x43f99f150397ed08", "name": "Accenture", "category": "Business management consultant", "street": "A Building No.1, Tower-B, Tower, Unitech Infospace", "city": "Building No. 2", "phone": "01246164100", "website": "https://www.accenture.com/in-en/about/company-index?c=acn_glb_locationmarketiyext_14216810&n=otc_1224", "rating": 4.4, "review_count": "", "latitude": 28.517601199999998, "longitude": 77.07406259999999, "maps_url": "https://www.google.com/maps/place/?q=place_id:0x390d19646ffbf79f:0x43f99f150397ed08"}, {"place_id": "0x390d1bb0ed2b78c9:0xb962a26eb951c969", "name": "New India Structures pvt. ltd", "category": "Civil engineering company", "street": "Main Rd", "city": "Kapas Hera Extension, Samalka", "phone": "01140686630", "website": "", "rating": 4.8, "review_count": "", "latitude": 28.5306568, "longitude": 77.08498519999999, "maps_url": "https://www.google.com/maps/place/?q=place_id:0x390d1bb0ed2b78c9:0xb962a26eb951c969"}, {"place_id": "0x390d18574741abd3:0x6533204c7dde11d0", "name": "Analec Infotech Pvt. Ltd.", "category": "Software company", "street": "6th floor, Tower B", "city": "Park Centra", "phone": "", "website": "http://www.analec.com/", "rating": 3.7, "review_count": "", "latitude": 28.459702399999998, "longitude": 77.0516896, "maps_url": "https://www.google.com/maps/place/?q=place_id:0x390d18574741abd3:0x6533204c7dde11d0"}, {"place_id": "0x390d02e520aee25b:0x322870f3355c7f4b", "name": "Delphi Infotech (Cybersecurity & Cloud Solutions)", "category": "Software company", "street": "225A, D-21", "city": "Corporate Park", "phone": "01145075151", "website": "https://www.delphiinfo.com/", "rating": 4.2, "review_count": "", "latitude": 28.5618181, "longitude": 77.0670596, "maps_url": "https://www.google.com/maps/place/?q=place_id:0x390d02e520aee25b:0x322870f3355c7f4b"}, {"place_id": "0x4156579e876131e7:0x356c887f8dac5e97", "name": "Haaditech Private Limited", "category": "Software company", "street": "Gate No. 04", "city": "Ambience Mall", "phone": "", "website": "https://www.haaditech.com/", "rating": 5, "review_count": "", "latitude": 28.5057491, "longitude": 77.0960972, "maps_url": "https://www.google.com/maps/place/?q=place_id:0x4156579e876131e7:0x356c887f8dac5e97"}, {"place_id": "0x390d19437e719739:0x14737a286b425c55", "name": "Mediology Software", "category": "Software company", "street": "Tower B, 4th Floor", "city": "ASF Towers", "phone": "01244747500", "website": "https://www.mediologysoftware.com/", "rating": 4.1, "review_count": "", "latitude": 28.4966176, "longitude": 77.0842566, "maps_url": "https://www.google.com/maps/place/?q=place_id:0x390d19437e719739:0x14737a286b425c55"}, {"place_id": "0x390d05c8987801e5:0x128e04dce6c4cbc4", "name": "Matrix Infotech Solution | Software Development Company", "category": "Software company", "street": "j j", "city": "Dwarka Mor, Block WE, Mohan Garden, Razapur Khurd", "phone": "08920817059", "website": "http://www.matrixinfotechsolution.com/", "rating": 3.9, "review_count": "", "latitude": 28.637037, "longitude": 77.0291258, "maps_url": "https://www.google.com/maps/place/?q=place_id:0x390d05c8987801e5:0x128e04dce6c4cbc4"}, {"place_id": "0x29182cd90b477205:0xafbdc18388b8d100", "name": "Ananta Technology - IT Company", "category": "Web hosting company", "street": "RZB-214, Old Mehrauli Rd", "city": "Palam Colony, Part - I, Raj Nagar", "phone": "", "website": "https://anantatechnology.com/", "rating": 5, "review_count": "", "latitude": 28.584313899999998, "longitude": 77.0862543, "maps_url": "https://www.google.com/maps/place/?q=place_id:0x29182cd90b477205:0xafbdc18388b8d100"}, {"place_id": "0x390d1960b5895949:0x95f114824fd58a5a", "name": "IOTA Engineering Corporation", "category": "Business to business service", "street": "Opp. Plot No. 127", "city": "Udyog Vihar Phase 1, Dundahera Village, Sector 20", "phone": "09315873177", "website": "http://www.iotaindia.in/", "rating": 4.6, "review_count": "", "latitude": 28.5134376, "longitude": 77.0801899, "maps_url": "https://www.google.com/maps/place/?q=place_id:0x390d1960b5895949:0x95f114824fd58a5a"}, {"place_id": "0x390d04bf231d4979:0xa2cd2b7e8bfd68ff", "name": "TN Infotech Pvt. Ltd.", "category": "Computer support and services", "street": "E-594, FIRST FLOOR", "city": "Ramphal Chowk Rd", "phone": "09810782194", "website": "http://tninfotech.net/", "rating": 5, "review_count": "", "latitude": 28.585736699999998, "longitude": 77.0719481, "maps_url": "https://www.google.com/maps/place/?q=place_id:0x390d04bf231d4979:0xa2cd2b7e8bfd68ff"}, {"place_id": "0x390d1f4effffffff:0xcfc715ac63417946", "name": "Bechtel India Private Limited", "category": "Corporate office", "street": "244-245", "city": "Phase IV, Udyog Vihar, Knowledge Park", "phone": "01244098000", "website": "http://www.bechtel.com/", "rating": 4.4, "review_count": "", "latitude": 28.4956277, "longitude": 77.0839426, "maps_url": "https://www.google.com/maps/place/?q=place_id:0x390d1f4effffffff:0xcfc715ac63417946"}, {"place_id": "0x390d19454748b5f1:0x930fdb13eea6af9b", "name": "Auquall BPO - Best BPO and BPM company in gurgaon", "category": "BPO Company", "street": "698, Udyog Vihar Phase V Rd", "city": "Phase V, Udyog Vihar, Sector 19", "phone": "09899005897", "website": "", "rating": 4.4, "review_count": "", "latitude": 28.505634099999998, "longitude": 77.0837823, "maps_url": "https://www.google.com/maps/place/?q=place_id:0x390d19454748b5f1:0x930fdb13eea6af9b"}, {"place_id": "0x390d19c4f81c373b:0x569790526001fe47", "name": "Pasenture Technologies - Web Development Company in Gurugram, Software Development Company in Gurgaon for CRM & Saas Software", "category": "Software company", "street": "2nd Floor", "city": "90, IDC", "phone": "09717197498", "website": "https://pasenture.in/", "rating": 4, "review_count": "", "latitude": 28.4716508, "longitude": 77.0509349, "maps_url": "https://www.google.com/maps/place/?q=place_id:0x390d19c4f81c373b:0x569790526001fe47"}, {"place_id": "0x20616dbf813c03ef:0xc8fd1ca47f902e9e", "name": "Bloatware IT Software Company | website Designing Company | Software Company | MLM |CRM | Android Apps", "category": "Software company", "street": "C1", "city": "Rama Park", "phone": "08920750797", "website": "https://bloatwareitsolutions.com/", "rating": 4.5, "review_count": "", "latitude": 28.621265599999997, "longitude": 77.0324943, "maps_url": "https://www.google.com/maps/place/?q=place_id:0x20616dbf813c03ef:0xc8fd1ca47f902e9e"}, {"place_id": "0x390d19646ffbf79f:0x43f99f150397ed08", "name": "Accenture", "category": "Business management consultant", "street": "A Building No.1, Tower-B, Tower, Unitech Infospace", "city": "Building No. 2", "phone": "01246164100", "website": "https://www.accenture.com/in-en/about/company-index?c=acn_glb_locationmarketiyext_14216810&n=otc_1224", "rating": 4.4, "review_count": "", "latitude": 28.517601199999998, "longitude": 77.07406259999999, "maps_url": "https://www.google.com/maps/place/?q=place_id:0x390d19646ffbf79f:0x43f99f150397ed08"}, {"place_id": "0x390ce58c7403e0a1:0x2a35ba3fcd3ecb95", "name": "Akhil Systems Pvt Ltd - Electronic Medical Records Software, Best Hospital Software India, Hospital Management Software", "category": "Software company", "street": "5th Floor", "city": "Incuspaze Building", "phone": "08448799453", "website": "https://akhilsystems.com/", "rating": 3.4, "review_count": "", "latitude": 28.4914019, "longitude": 77.0771321, "maps_url": "https://www.google.com/maps/place/?q=place_id:0x390ce58c7403e0a1:0x2a35ba3fcd3ecb95"}, {"place_id": "0x390d195c405a28cd:0x601d98b0e3748746", "name": "SupportMart Global Services Pvt Ltd", "category": "Computer service", "street": "29", "city": "Udyog Vihar Phase 1, Dundahera Village, Sector 20", "phone": "01244618200", "website": "", "rating": 3.7, "review_count": "", "latitude": 28.512702599999997, "longitude": 77.0800531, "maps_url": "https://www.google.com/maps/place/?q=place_id:0x390d195c405a28cd:0x601d98b0e3748746"}, {"place_id": "0x390d1915fa5d766d:0x1d92c0eb013cd4f2", "name": "FIS Global Business Solutions India Pvt. Ltd.", "category": "Corporate office", "street": "402, I Park, Plot No. 15", "city": "Phase IV", "phone": "01243927500", "website": "https://www.fisglobal.com/", "rating": 4.1, "review_count": "", "latitude": 28.490092899999997, "longitude": 77.078841, "maps_url": "https://www.google.com/maps/place/?q=place_id:0x390d1915fa5d766d:0x1d92c0eb013cd4f2"}, {"place_id": "0x390d1bdd489f9aab:0xeb61cd755aa5b5c3", "name": "Nysaa Retail Pvt. Ltd.", "category": "Corporate office", "street": "Khasra", "city": "556, Najafgarh Kapashera Rd", "phone": "1800121848484", "website": "http://www.1indiafamilymart.com/", "rating": 4, "review_count": "", "latitude": 28.529042699999998, "longitude": 77.0782062, "maps_url": "https://www.google.com/maps/place/?q=place_id:0x390d1bdd489f9aab:0xeb61cd755aa5b5c3"}, {"place_id": "0x390d1972e4565885:0xdbb0a0c36370d249", "name": "Hosting Precise - Web Hosting Company", "category": "Web hosting company", "street": "Plot No 23", "city": "Maruti Industrial Area, Sector 18", "phone": "08595104872", "website": "https://www.hostingprecise.com/", "rating": 4.9, "review_count": "", "latitude": 28.4898737, "longitude": 77.0620363, "maps_url": "https://www.google.com/maps/place/?q=place_id:0x390d1972e4565885:0xdbb0a0c36370d249"}, {"place_id": "0x390d19ad585bba37:0xc7a1380f3c30571a", "name": "Wroffy Technologies Pvt Ltd", "category": "Software company", "street": "304", "city": "Vipul Business Park", "phone": "01244349014", "website": "https://www.wroffy.com/", "rating": 4.3, "review_count": "", "latitude": 28.4226457, "longitude": 77.0376039, "maps_url": "https://www.google.com/maps/place/?q=place_id:0x390d19ad585bba37:0xc7a1380f3c30571a"}]}