{"timestamp": 1773733631.4980185, "keyword": "IT company", "location": "Indore", "cell_idx": 109, "results": [{"place_id": "0x396253e13e5d1b53:0xd09d184af7f4b440", "name": "Abhijay Softech", "category": "Software company", "street": "Plot no. 224-225", "city": "Betma, Madhya Pradesh 453001", "phone": "08719937288", "website": "https://abhijaysoftech.in/", "rating": 5, "review_count": "", "latitude": 22.686857699999997, "longitude": 75.6169954, "maps_url": "https://www.google.com/maps/place/?q=place_id:0x396253e13e5d1b53:0xd09d184af7f4b440"}, {"place_id": "0x3962fcfabafa14b9:0x8c7a302459aaec0", "name": "Dollop Infotech Pvt. Ltd. | Indore | India", "category": "Software company", "street": "302, Sukhmani Apartment", "city": "Bhawarkua Main Rd", "phone": "09644704844", "website": "https://www.dollopinfotech.com/", "rating": 4.6, "review_count": "", "latitude": 22.6899904, "longitude": 75.8640863, "maps_url": "https://www.google.com/maps/place/?q=place_id:0x3962fcfabafa14b9:0x8c7a302459aaec0"}, {"place_id": "0x3962fcf129c55555:0xf972ad5c5b881813", "name": "Technorizen Software Solution | Software Development Company | Mobile Apps l AI/ML Solution l Blockchain l Digital Marketing", "category": "Software company", "street": "Sapphire House", "city": "402 A, B, C", "phone": "07828407092", "website": "https://technorizen.com/", "rating": 4.7, "review_count": "", "latitude": 22.702807, "longitude": 75.871596, "maps_url": "https://www.google.com/maps/place/?q=place_id:0x3962fcf129c55555:0xf972ad5c5b881813"}, {"place_id": "0x3962fb9e7ee26cd1:0x6e8b064681fc929b", "name": "Ozlo IT Services Pvt Ltd", "category": "Software company", "street": "Nakoda Apt", "city": "203", "phone": "07389028888", "website": "https://www.ozloits.com/", "rating": 4.9, "review_count": "", "latitude": 22.646292, "longitude": 75.8283652, "maps_url": "https://www.google.com/maps/place/?q=place_id:0x3962fb9e7ee26cd1:0x6e8b064681fc929b"}, {"place_id": "0x3962fdad8755290d:0xae9be52a6226ab72", "name": "ThoughtWin IT Solutions Pvt. Ltd.", "category": "Software company", "street": "1 Panna estate", "city": "Kesar Bagh Rd", "phone": "09977069348", "website": "https://www.thoughtwin.com/", "rating": 4.1, "review_count": "", "latitude": 22.699189099999998, "longitude": 75.84473919999999, "maps_url": "https://www.google.com/maps/place/?q=place_id:0x3962fdad8755290d:0xae9be52a6226ab72"}, {"place_id": "0x3962fd115f9bdb93:0x763ee98f66e77650", "name": "Young Decade IT Software Solution", "category": "Software company", "street": "office No 202, 2nd floor, Gracia Heights", "city": "Devi Ahilya Marg", "phone": "07987611372", "website": "http://www.youngdecade.com/", "rating": 4.7, "review_count": "", "latitude": 22.7279596, "longitude": 75.8631723, "maps_url": "https://www.google.com/maps/place/?q=place_id:0x3962fd115f9bdb93:0x763ee98f66e77650"}, {"place_id": "0x3962fd4a61ffaf05:0xc08ff92a0d89d11d", "name": "Top Custom Software Development Company | AI, IoT & IT Solutions \u2013 Hiteshi", "category": "Software company", "street": "8th Floor Crystal IT Park", "city": "Madhya Pradesh 452001", "phone": "07312971133", "website": "https://www.hiteshi.com/", "rating": 3.6, "review_count": "", "latitude": 22.685651999999997, "longitude": 75.872211, "maps_url": "https://www.google.com/maps/place/?q=place_id:0x3962fd4a61ffaf05:0xc08ff92a0d89d11d"}, {"place_id": "0x3962fdc6969403b1:0xde0646c82299c250", "name": "IT Spark Technology Pvt. Ltd.", "category": "Software company", "street": "4th Floor 418 Shekhar Central Manoramaganj", "city": "New Palasia", "phone": "09109845654", "website": "http://www.itsparktechnology.com/", "rating": 4.8, "review_count": "", "latitude": 22.722727, "longitude": 75.88707099999999, "maps_url": "https://www.google.com/maps/place/?q=place_id:0x3962fdc6969403b1:0xde0646c82299c250"}, {"place_id": "0x3962fdadc95533b3:0x3c9e4e8a432e4e8b", "name": "Diaspark Infotech", "category": "Software company", "street": "60/2 Babulabh Chand Chajlani Marg Naidunia Parishar", "city": "Babu Lalchand Chajlani Rd", "phone": "07314756000", "website": "http://www.diaspark.com/", "rating": 4.2, "review_count": "", "latitude": 22.7036818, "longitude": 75.84430929999999, "maps_url": "https://www.google.com/maps/place/?q=place_id:0x3962fdadc95533b3:0x3c9e4e8a432e4e8b"}, {"place_id": "0x3963029cbe7dad9d:0x2702a5ef1ada853d", "name": "Vista IT Solutions Pvt. Ltd.", "category": "Software company", "street": "142-A, New IT Park building", "city": "Electronic Complex, Pardesipura", "phone": "", "website": "http://www.vitspl.com/", "rating": 4, "review_count": "", "latitude": 22.7532702, "longitude": 75.8653544, "maps_url": "https://www.google.com/maps/place/?q=place_id:0x3963029cbe7dad9d:0x2702a5ef1ada853d"}, {"place_id": "0x3962fdf54164d23d:0xc82210a6e7c5c954", "name": "Dcode Infocorp Pvt Ltd.", "category": "Software company", "street": "Atulya IT park", "city": "Aditya Nagar, Bhanwar Kuwa", "phone": "", "website": "", "rating": 4.9, "review_count": "", "latitude": 22.6929136, "longitude": 75.8646807, "maps_url": "https://www.google.com/maps/place/?q=place_id:0x3962fdf54164d23d:0xc82210a6e7c5c954"}, {"place_id": "0x396302a8544ff46f:0x7c09afb7ae4f2c08", "name": "Conative IT Solutions Pvt. Ltd.", "category": "Software company", "street": "Office No. 608, 6th Floor", "city": "Airen Heights", "phone": "08269788173", "website": "https://conativeitsolutions.com/", "rating": 3.7, "review_count": "", "latitude": 22.745121299999997, "longitude": 75.89222699999999, "maps_url": "https://www.google.com/maps/place/?q=place_id:0x396302a8544ff46f:0x7c09afb7ae4f2c08"}, {"place_id": "0x3962fd480d635977:0x72f82e2825baa4f3", "name": "Mango IT Solutions", "category": "Software company", "street": "15/3, Old Palasia Rd", "city": "behind sarda house", "phone": "07314046693", "website": "http://www.mangoitsolutions.com/", "rating": 4.3, "review_count": "", "latitude": 22.7276298, "longitude": 75.8888766, "maps_url": "https://www.google.com/maps/place/?q=place_id:0x3962fd480d635977:0x72f82e2825baa4f3"}, {"place_id": "0x3963029b14b59d97:0x2910f9065ca3612e", "name": "SynergyTop Inc", "category": "Software company", "street": "114 Ground Floor, IT Park", "city": "New IT Park Building", "phone": "07879123770", "website": "http://synergytop.com/", "rating": 4.6, "review_count": "", "latitude": 22.7522576, "longitude": 75.865411, "maps_url": "https://www.google.com/maps/place/?q=place_id:0x3963029b14b59d97:0x2910f9065ca3612e"}, {"place_id": "0x3962fd77fe66251b:0xf341c0ace0b98f53", "name": "Neyonix Infotech", "category": "Software company", "street": "Scheme No", "city": "Gopur Square", "phone": "08962402789", "website": "https://neyonix.com/", "rating": 4.9, "review_count": "", "latitude": 22.6845331, "longitude": 75.82877479999999, "maps_url": "https://www.google.com/maps/place/?q=place_id:0x3962fd77fe66251b:0xf341c0ace0b98f53"}, {"place_id": "0x39631dbc5e7d2a29:0x1c8746aae1d098c8", "name": "Logical Soft Tech Private Limited ( Software Development IT Company and Software IT training)", "category": "Software company", "street": "388, PU4", "city": "next to Krozzon Hotel", "phone": "08210251824", "website": "http://logicalsofttech.com/", "rating": 4.3, "review_count": "", "latitude": 22.747576, "longitude": 75.896326, "maps_url": "https://www.google.com/maps/place/?q=place_id:0x39631dbc5e7d2a29:0x1c8746aae1d098c8"}, {"place_id": "0x3962fbe2776846d3:0x99a7ea634a997a68", "name": "Pushkal IT Solution (owner Divya Dubey )", "category": "Software company", "street": "Sai Vihar Colony, Rau", "city": "Indore, Madhya Pradesh 453331", "phone": "07314878045", "website": "http://www.pushkalit.com/", "rating": 4.1, "review_count": "", "latitude": 22.633637, "longitude": 75.807174, "maps_url": "https://www.google.com/maps/place/?q=place_id:0x3962fbe2776846d3:0x99a7ea634a997a68"}, {"place_id": "0x3962fd35e73d0c9f:0x20bfb80cfbe962fe", "name": "Ignis IT Solutions", "category": "Software company", "street": "406, 410", "city": "The Mark", "phone": "09977255575", "website": "http://www.ignisitsolutions.com/", "rating": 4.2, "review_count": "", "latitude": 22.725711, "longitude": 75.894176, "maps_url": "https://www.google.com/maps/place/?q=place_id:0x3962fd35e73d0c9f:0x20bfb80cfbe962fe"}, {"place_id": "0x3962fd558cb68b8f:0xa5df2c7d0568e24", "name": "BestPeers", "category": "Software company", "street": "Bestpeers InfoSystem Pvt. Ltd. 142-A, First Floor, New IT Park Building", "city": "Electronic Complex, Pardesipura", "phone": "07314984840", "website": "https://www.bestpeers.com/", "rating": 4.2, "review_count": "", "latitude": 22.7533355, "longitude": 75.86544339999999, "maps_url": "https://www.google.com/maps/place/?q=place_id:0x3962fd558cb68b8f:0xa5df2c7d0568e24"}, {"place_id": "0x3962feaa86d43203:0xff2d44d70da2b47e", "name": "Fealty Technologies", "category": "Software company", "street": "211, Jawahar Nagar Rd", "city": "near DMART", "phone": "09755038393", "website": "https://fealtytechnologies.com/", "rating": 4.9, "review_count": "", "latitude": 22.6694501, "longitude": 75.82391009999999, "maps_url": "https://www.google.com/maps/place/?q=place_id:0x3962feaa86d43203:0xff2d44d70da2b47e"}, {"place_id": "0x3962fd406f121e19:0x24de4839d9a8539c", "name": "bluCursor Infotech Pvt Ltd", "category": "Software company", "street": "315, 2nd Floor 142 A, Electronic Complex Pardesi Pura", "city": "Sukhliya", "phone": "09165304278", "website": "https://www.blucursor.com/", "rating": 4.6, "review_count": "", "latitude": 22.7524418, "longitude": 75.8654639, "maps_url": "https://www.google.com/maps/place/?q=place_id:0x3962fd406f121e19:0x24de4839d9a8539c"}, {"place_id": "0x3962fd7221978859:0xf7a3ac341920f06f", "name": "Parkhya Solutions Pvt. Ltd.", "category": "Software company", "street": "121, Devi Ahilya Marg", "city": "Sahakar Nagar, Snehlataganj", "phone": "", "website": "http://www.parkhya.com/", "rating": 4.4, "review_count": "", "latitude": 22.729563499999998, "longitude": 75.863581, "maps_url": "https://www.google.com/maps/place/?q=place_id:0x3962fd7221978859:0xf7a3ac341920f06f"}, {"place_id": "0x3962fd16be970387:0xc737f343f0e4f9a7", "name": "Top Software Development Company in USA | AI/ML | AI Agent | Gen AI | UXUI | Product Development", "category": "Software company", "street": "Crystal IT Park STP-1, 4th Floor Right Wing Ring Road", "city": "Madhya Pradesh 452001", "phone": "07312973109", "website": "https://47billion.com/", "rating": 4.8, "review_count": "", "latitude": 22.6858591, "longitude": 75.8723211, "maps_url": "https://www.google.com/maps/place/?q=place_id:0x3962fd16be970387:0xc737f343f0e4f9a7"}, {"place_id": "0x3962fd3785155555:0x839d1e33ed814607", "name": "Abut Technology", "category": "Software company", "street": "Badwani plaza Building", "city": "19/2", "phone": "08839753153", "website": "http://www.abuttechnology.com/", "rating": 4.9, "review_count": "", "latitude": 22.7241476, "longitude": 75.88906949999999, "maps_url": "https://www.google.com/maps/place/?q=place_id:0x3962fd3785155555:0x839d1e33ed814607"}, {"place_id": "0x3962fd319c598969:0xa4e99d10e653ecb8", "name": "Shanti Infosoft LLP - AI / Web and App Design And Development Company", "category": "Software company", "street": "1st - 3rd floor PU4", "city": "Plot no 70, Vijay Nagar Square", "phone": "09981225000", "website": "https://shantiinfosoft.com/", "rating": 4.7, "review_count": "", "latitude": 22.7437818, "longitude": 75.89660649999999, "maps_url": "https://www.google.com/maps/place/?q=place_id:0x3962fd319c598969:0xa4e99d10e653ecb8"}, {"place_id": "0x3962fce49bc36553:0x367dceaf7fdaaf4e", "name": "LMS Solutions (India) Pvt. Ltd.", "category": "Software company", "street": "18, Bhawarkua Main Rd", "city": "Professor Colony", "phone": "07314025567", "website": "http://www.lmsin.com/", "rating": 4.4, "review_count": "", "latitude": 22.694553799999998, "longitude": 75.8668371, "maps_url": "https://www.google.com/maps/place/?q=place_id:0x3962fce49bc36553:0x367dceaf7fdaaf4e"}, {"place_id": "0x3962fd1df61c9d07:0xf71a456db0d3920a", "name": "SyStos Technology", "category": "Software company", "street": "2nd Floor", "city": "VAIKUNTA BUSINESS PARK", "phone": "09893530547", "website": "http://www.systostechnology.com/", "rating": 4.7, "review_count": "", "latitude": 22.6788907, "longitude": 75.8341894, "maps_url": "https://www.google.com/maps/place/?q=place_id:0x3962fd1df61c9d07:0xf71a456db0d3920a"}, {"place_id": "0x3962fd144b8f674d:0x368e971cd0aedabc", "name": "AM Webtech Pvt Ltd.", "category": "Software company", "street": "BCC House", "city": "8/5/5", "phone": "08448449003", "website": "https://amwebtech.com/", "rating": 4.2, "review_count": "", "latitude": 22.7156013, "longitude": 75.8855232, "maps_url": "https://www.google.com/maps/place/?q=place_id:0x3962fd144b8f674d:0x368e971cd0aedabc"}, {"place_id": "0x39630290e555553f:0x3e3f56427ca41603", "name": "Software Company Indore Msorasys", "category": "Software company", "street": "6 radhika society , Scheme No 54", "city": "DDU Nagar, Sukhliya", "phone": "09630186161", "website": "", "rating": 5, "review_count": "", "latitude": 22.7615931, "longitude": 75.8692351, "maps_url": "https://www.google.com/maps/place/?q=place_id:0x39630290e555553f:0x3e3f56427ca41603"}, {"place_id": "0x3962fd47fd6da719:0x27b869ecdc06d81", "name": "Impetus Technologies India Pvt. Ltd.", "category": "Software company", "street": "Sarda House", "city": "24-B", "phone": "07314269300", "website": "http://www.impetus.com/", "rating": 4.5, "review_count": "", "latitude": 22.7274711, "longitude": 75.888379, "maps_url": "https://www.google.com/maps/place/?q=place_id:0x3962fd47fd6da719:0x27b869ecdc06d81"}, {"place_id": "0x3962fd6d5c629411:0xf6c83fcf3257fec1", "name": "Appalto Electronics Pvt Ltd", "category": "Electronics Company", "street": "IT Park", "city": "24-25, Indore - Dhar Rd", "phone": "07314780800", "website": "http://www.appalto.in/", "rating": 4, "review_count": "", "latitude": 22.6925815, "longitude": 75.7888832, "maps_url": "https://www.google.com/maps/place/?q=place_id:0x3962fd6d5c629411:0xf6c83fcf3257fec1"}, {"place_id": "0x3962fcc4b88b97ef:0x4f66ffd5f4437c1c", "name": "VKAPS IT Solutions Pvt. Ltd", "category": "Software company", "street": "Swadesh Bhawan", "city": "1-B, AB Rd", "phone": "07314239176", "website": "http://vkaps.com/", "rating": 4.7, "review_count": "", "latitude": 22.738246999999998, "longitude": 75.89278929999999, "maps_url": "https://www.google.com/maps/place/?q=place_id:0x3962fcc4b88b97ef:0x4f66ffd5f4437c1c"}, {"place_id": "0x3962fd19c553ee35:0x764cedb2503060d6", "name": "ThinkDebug Indore", "category": "Software company", "street": "301,302", "city": "Shanti Corporate 116", "phone": "09098002268", "website": "https://thinkdebug.com/", "rating": 4.9, "review_count": "", "latitude": 22.702656299999997, "longitude": 75.87068699999999, "maps_url": "https://www.google.com/maps/place/?q=place_id:0x3962fd19c553ee35:0x764cedb2503060d6"}, {"place_id": "0x396303818a953817:0xf67c56bdd73dbf71", "name": "InfiminTus Technologies - Website Design, Application and Software Development IT Company", "category": "Website designer", "street": "2nd Floor", "city": "Chetak Chamber", "phone": "09754316154", "website": "https://infimintustech.com/", "rating": 4.4, "review_count": "", "latitude": 22.7128428, "longitude": 75.8758618, "maps_url": "https://www.google.com/maps/place/?q=place_id:0x396303818a953817:0xf67c56bdd73dbf71"}, {"place_id": "0x396255fc5eb100b1:0x7e34ed44b8c4f58f", "name": "SUMIT MAKWANA", "category": "Computer support and services", "street": "Boriya, Madhya Pradesh 453001", "city": "", "phone": "", "website": "", "rating": 5, "review_count": "", "latitude": 22.7231033, "longitude": 75.6896977, "maps_url": "https://www.google.com/maps/place/?q=place_id:0x396255fc5eb100b1:0x7e34ed44b8c4f58f"}, {"place_id": "0x39630396f8f29591:0x89941c1df2cc0c2e", "name": "Cerbosys Technologies Private Limited | Enterprise Solutions & IT Consulting", "category": "Software company", "street": "Trade Center", "city": "M 24, Jain Mandir Rd", "phone": "", "website": "https://www.cerbosys.com/", "rating": 4.7, "review_count": "", "latitude": 22.7215173, "longitude": 75.8831027, "maps_url": "https://www.google.com/maps/place/?q=place_id:0x39630396f8f29591:0x89941c1df2cc0c2e"}, {"place_id": "0x3962fcfd2ac6c2f3:0x84bcc6d5601300ef", "name": "TechInfini Solutions Pvt Ltd", "category": "Software company", "street": "Airen Heights", "city": "402", "phone": "09302974394", "website": "https://techinfini.in/", "rating": 4.3, "review_count": "", "latitude": 22.745121299999997, "longitude": 75.89222699999999, "maps_url": "https://www.google.com/maps/place/?q=place_id:0x3962fcfd2ac6c2f3:0x84bcc6d5601300ef"}, {"place_id": "0x3962fdfb0d82c841:0x112ab34055682f9e", "name": "OT Solutions Tech Pvt Ltd", "category": "Corporate office", "street": "180", "city": "Slice 4, Scheme 97, Vip Paraspar Nagar", "phone": "09179943453", "website": "https://www.otsolutionstech.com/", "rating": 4.4, "review_count": "", "latitude": 22.6753617, "longitude": 75.8245575, "maps_url": "https://www.google.com/maps/place/?q=place_id:0x3962fdfb0d82c841:0x112ab34055682f9e"}, {"place_id": "0x3962fc41ca24cfd1:0xaf6e0a08362244ec", "name": "Kiaan Technology", "category": "Software company", "street": "2341/e", "city": "Sector E, Sudama Nagar", "phone": "09752100980", "website": "http://kiaantechnology.com/", "rating": 4.6, "review_count": "", "latitude": 22.6886849, "longitude": 75.828512, "maps_url": "https://www.google.com/maps/place/?q=place_id:0x3962fc41ca24cfd1:0xaf6e0a08362244ec"}, {"place_id": "0x3962fd470f1c8cf3:0x7fc7417560117321", "name": "Maverick Console Services Pvt. Ltd.", "category": "Software company", "street": "MG Road 109 , Royal Ratan Building", "city": "Madhya Pradesh 452007", "phone": "08889785888", "website": "http://www.maverickconsole.com/", "rating": 4.8, "review_count": "", "latitude": 22.7195626, "longitude": 75.8577153, "maps_url": "https://www.google.com/maps/place/?q=place_id:0x3962fd470f1c8cf3:0x7fc7417560117321"}]}