{"timestamp": 1773730268.918825, "keyword": "IT company", "location": "delhi", "cell_idx": 212, "results": [{"place_id": "0x390ce3d37923490d:0xdfb649d44b805ce8", "name": "IndiQus Technologies", "category": "Software company", "street": "Plot 5 & 6, Allied House, B-7", "city": "C/o AWFIS", "phone": "01140551411", "website": "https://www.apiculus.com/", "rating": 4.4, "review_count": 19, "latitude": 28.5338876, "longitude": 77.15280159999999, "maps_url": "https://www.google.com/maps/place/?q=place_id:0x390ce3d37923490d:0xdfb649d44b805ce8"}, {"place_id": "0x390d1c32a16c2629:0xa37e7b027558a29e", "name": "Avalon Information Systems Pvt. Ltd.", "category": "Software company", "street": "Plot No. 7, Institutional Area Phase II, 3rd Floor", "city": "Vasant Kunj", "phone": "09319391086", "website": "https://www.avaloninfosys.com/", "rating": 3.7, "review_count": 46, "latitude": 28.5431746, "longitude": 77.146245, "maps_url": "https://www.google.com/maps/place/?q=place_id:0x390d1c32a16c2629:0xa37e7b027558a29e"}, {"place_id": "0x390ce458d0000001:0xf2123bd299ec4501", "name": "IT Company India", "category": "Software company", "street": "D56", "city": "D Block, Sector 10", "phone": "09999244854", "website": "https://www.itcompanyindia.in/", "rating": 4.7, "review_count": 68, "latitude": 28.589917699999997, "longitude": 77.3351153, "maps_url": "https://www.google.com/maps/place/?q=place_id:0x390ce458d0000001:0xf2123bd299ec4501"}, {"place_id": "0x390ce3ad10000061:0xeff7e6017a22cce7", "name": "Alpinesoft IT Solutions Authorized Google Workspace Reseller", "category": "Software company", "street": "162/9 Ist Floor, KIshangarh - Gaushala Marg", "city": "Lakhi Nath Kuti, Mehrauli, Vasant Kunj", "phone": "09999011157", "website": "https://www.alpinesoftit.com/", "rating": 4.3, "review_count": 22, "latitude": 28.515394399999998, "longitude": 77.16460359999999, "maps_url": "https://www.google.com/maps/place/?q=place_id:0x390ce3ad10000061:0xeff7e6017a22cce7"}, {"place_id": "0x390ce1fb44618b65:0x8e06b2a6128352d1", "name": "Acropolis Infotech - Delhi Office", "category": "Software company", "street": "metro station gate", "city": "55, 2nd Floor, Lane 2", "phone": "09999876593", "website": "https://www.acropolisinfotech.com/", "rating": 4.6, "review_count": 38, "latitude": 28.518907, "longitude": 77.2015435, "maps_url": "https://www.google.com/maps/place/?q=place_id:0x390ce1fb44618b65:0x8e06b2a6128352d1"}, {"place_id": "0x390d1d9ce0eaada3:0xc5a1a0a2458099e3", "name": "CODENCREATIVE TECH PVT LTD", "category": "Software company", "street": "DDA Flat", "city": "RBI Officers Colony, Vasant Vihar", "phone": "09717047610", "website": "https://codencreative.com/", "rating": 4.9, "review_count": 13, "latitude": 28.563302099999998, "longitude": 77.1519732, "maps_url": "https://www.google.com/maps/place/?q=place_id:0x390d1d9ce0eaada3:0xc5a1a0a2458099e3"}, {"place_id": "0x390ce3c153b89811:0xe7a279685777e9ca", "name": "IT Company", "category": "Automation company", "street": "A-14", "city": "near iskcon temple", "phone": "", "website": "http://www.opuswiz.com/", "rating": 3, "review_count": 1, "latitude": 28.557167, "longitude": 77.25424819999999, "maps_url": "https://www.google.com/maps/place/?q=place_id:0x390ce3c153b89811:0xe7a279685777e9ca"}, {"place_id": "0x390d1d74a743c637:0x9eac2f968d6c5a73", "name": "NISHKAJAY INFOTECH SOLUTION", "category": "Software company", "street": "D-48", "city": "Block -D, Harijan Basti, Masoodpur, Vasant Kunj", "phone": "09380495499", "website": "", "rating": 4.5, "review_count": 6, "latitude": 28.527437199999998, "longitude": 77.1578986, "maps_url": "https://www.google.com/maps/place/?q=place_id:0x390d1d74a743c637:0x9eac2f968d6c5a73"}, {"place_id": "0x390d1f5abfb25fe1:0x7d9c4d5e159f2955", "name": "Jaimru Technology Pvt Ltd", "category": "Software company", "street": "WARD NO. 2", "city": "Plot No. 178 M 33 A/1", "phone": "07838153420", "website": "https://www.jaimru.com/", "rating": 4.9, "review_count": 60, "latitude": 28.524347499999998, "longitude": 77.1731889, "maps_url": "https://www.google.com/maps/place/?q=place_id:0x390d1f5abfb25fe1:0x7d9c4d5e159f2955"}, {"place_id": "0x390d1d86a4f12173:0x3a6b42ea6f4b8260", "name": "Softvanz Technologies Private Limited", "category": "Software company", "street": "Somdutt Chamber 1", "city": "BT-22/9", "phone": "", "website": "https://softvanz.com/", "rating": 5, "review_count": 27, "latitude": 28.567948899999998, "longitude": 77.1889269, "maps_url": "https://www.google.com/maps/place/?q=place_id:0x390d1d86a4f12173:0x3a6b42ea6f4b8260"}, {"place_id": "0x390d1df079759d1f:0x8bfa70033f6c672a", "name": "NR Technoserve Pvt. Ltd.", "category": "Software company", "street": "133, Katwaria Sarai", "city": "Phase-2, Qutab Institutional Area", "phone": "07289096762", "website": "http://www.nrtechnoserve.co.in/", "rating": 4.4, "review_count": 20, "latitude": 28.5413306, "longitude": 77.18495519999999, "maps_url": "https://www.google.com/maps/place/?q=place_id:0x390d1df079759d1f:0x8bfa70033f6c672a"}, {"place_id": "0x390d1daf5bbb6d71:0xd493e8d457a28388", "name": "DPM IT SOLUTIONS", "category": "Software company", "street": "2nd floor, madangiri", "city": "111, E-2", "phone": "09650413450", "website": "https://dpmitsolutions.com/", "rating": 5, "review_count": 28, "latitude": 28.565620799999998, "longitude": 77.16005679999999, "maps_url": "https://www.google.com/maps/place/?q=place_id:0x390d1daf5bbb6d71:0xd493e8d457a28388"}, {"place_id": "0x390d19298db2fb35:0xcaa0d46737c4561c", "name": "MLM Software Developer | Sunny citrix", "category": "Software company", "street": "office no 427C, 4th floor, vashisht complex", "city": "Sikanderpur", "phone": "07906059336", "website": "http://sunnycitrix.com/", "rating": 4.8, "review_count": 23, "latitude": 28.4816798, "longitude": 77.09770569999999, "maps_url": "https://www.google.com/maps/place/?q=place_id:0x390d19298db2fb35:0xcaa0d46737c4561c"}, {"place_id": "0x390ce5fdcc79e755:0x309ce99251b84ef6", "name": "Optyminds IT Solutions - Top AI and IT company I Best Digital agency in Noida | Delhi NCR | India", "category": "Software company", "street": "1st Floor", "city": "B-70", "phone": "08929075975", "website": "https://optyminds.com/", "rating": 4.9, "review_count": 36, "latitude": 28.584679599999998, "longitude": 77.3135042, "maps_url": "https://www.google.com/maps/place/?q=place_id:0x390ce5fdcc79e755:0x309ce99251b84ef6"}, {"place_id": "0x2a72b8b69d7b6493:0x11251466d4d34cac", "name": "WebZonal IT Company", "category": "Website designer", "street": "Wz-258/2-3, D Block Rd", "city": "Khazan Basti, Nangal Raya, Janakpuri", "phone": "09811170903", "website": "http://webzonal.com/", "rating": 5, "review_count": 29, "latitude": 28.6122102, "longitude": 77.11159549999999, "maps_url": "https://www.google.com/maps/place/?q=place_id:0x2a72b8b69d7b6493:0x11251466d4d34cac"}, {"place_id": "0x390d1be7f1a44f95:0x84524a5425f8930d", "name": "InfraDost Technologies Pvt Ltd.- Microsoft Adobe Corel Draw & Security Solution Provider", "category": "Software company", "street": "Gurgaon - Delhi Expy", "city": "Block B, Mahipalpur Village, Mahipalpur", "phone": "08287792542", "website": "http://www.infradost.com/", "rating": 4.6, "review_count": 8, "latitude": 28.5485743, "longitude": 77.1264697, "maps_url": "https://www.google.com/maps/place/?q=place_id:0x390d1be7f1a44f95:0x84524a5425f8930d"}, {"place_id": "0x390d165555555555:0xf57c20f7d07d8fd1", "name": "Teckinfo Solutions Pvt Ltd", "category": "Software company", "street": "1/1 BA, 3rd Floor, Mohammadpur,", "city": "Bhikaji Cama Place", "phone": "01149605500", "website": "https://www.teckinfo.com/", "rating": 4.6, "review_count": 57, "latitude": 28.566004099999997, "longitude": 77.187579, "maps_url": "https://www.google.com/maps/place/?q=place_id:0x390d165555555555:0xf57c20f7d07d8fd1"}, {"place_id": "0x390d02994de5e515:0xd908bc03409a0d37", "name": "Himalayan IT Solutions | Best Website Designing Company in Delhi | SEO/Digital Marketing Company in Delhi NCR, India", "category": "Software company", "street": "61/4255, Padam Singh Rd", "city": "Block 29, Block 1, Regar Pura, Karol Bagh", "phone": "09899098509", "website": "http://www.himalayanitsolutions.com/", "rating": 3.9, "review_count": 47, "latitude": 28.649673999999997, "longitude": 77.186599, "maps_url": "https://www.google.com/maps/place/?q=place_id:0x390d02994de5e515:0xd908bc03409a0d37"}, {"place_id": "0x390ce1e4317e5aab:0x5d1c04d23170494d", "name": "RoboSlog", "category": "Automation company", "street": "75/9, kishangarh", "city": "Aruna Asaf Ali Marg", "phone": "06306854780", "website": "https://roboslog.in/", "rating": 4.1, "review_count": 47, "latitude": 28.5201557, "longitude": 77.163664, "maps_url": "https://www.google.com/maps/place/?q=place_id:0x390ce1e4317e5aab:0x5d1c04d23170494d"}, {"place_id": "0x390d1da3b4d40c49:0x808ae3f0292f74d6", "name": "ASUS Exclusive Store - Cass Infotech, Ambience Mall", "category": "Computer store", "street": "Second Floor", "city": "Ambience Mall", "phone": "08037016569", "website": "https://shopnearme.asus.com/in-asus/laptop-store-in-new-delhi/laptop-store-in-vasant-kunj/asus-exclusive-store-cass-infotech-in-vasant-kunj-new-delhi--8ee7dca5-e105-42b3-a05e-04b169e129e3/home", "rating": 4.9, "review_count": 561, "latitude": 28.5409385, "longitude": 77.1555305, "maps_url": "https://www.google.com/maps/place/?q=place_id:0x390d1da3b4d40c49:0x808ae3f0292f74d6"}, {"place_id": "0x390d1da3b4d40c49:0x808ae3f0292f74d6", "name": "ASUS Exclusive Store - Cass Infotech, Ambience Mall", "category": "Computer store", "street": "Second Floor", "city": "Ambience Mall", "phone": "08037016569", "website": "https://shopnearme.asus.com/in-asus/laptop-store-in-new-delhi/laptop-store-in-vasant-kunj/asus-exclusive-store-cass-infotech-in-vasant-kunj-new-delhi--8ee7dca5-e105-42b3-a05e-04b169e129e3/home", "rating": 4.9, "review_count": "", "latitude": 28.5409385, "longitude": 77.1555305, "maps_url": "https://www.google.com/maps/place/?q=place_id:0x390d1da3b4d40c49:0x808ae3f0292f74d6"}, {"place_id": "0x390ce253e1a13e4b:0xb206f61d818e9126", "name": "K2S Consulting Pvt Ltd", "category": "Business management consultant", "street": "B-7, Allied House, Plot no. 5 and 6, Shopping complex", "city": "Vasant Kunj", "phone": "04083007899", "website": "https://www.k2s.co/", "rating": 2, "review_count": "", "latitude": 28.5337954, "longitude": 77.1526956, "maps_url": "https://www.google.com/maps/place/?q=place_id:0x390ce253e1a13e4b:0xb206f61d818e9126"}, {"place_id": "0x390d1d2cb4e3885f:0x9ff5229476e1da80", "name": "Lenovo Exclusive Store - DG Infotech", "category": "Computer store", "street": "S-223 2nd floor", "city": "Ambience Mall", "phone": "08048158682", "website": "https://store.lenovo.com/in/en/marketplace/seller/profile/shop/1690542999", "rating": 4.9, "review_count": "", "latitude": 28.5410947, "longitude": 77.1551367, "maps_url": "https://www.google.com/maps/place/?q=place_id:0x390d1d2cb4e3885f:0x9ff5229476e1da80"}, {"place_id": "0x390d1dcc2af98305:0x3a2256908388d2bd", "name": "Indus Towers Ltd", "category": "Back Office", "street": "1, Aravali Crescent", "city": "Nelson Mandela Marg", "phone": "01244296766", "website": "https://www.industowers.com/", "rating": 3.8, "review_count": "", "latitude": 28.5399893, "longitude": 77.154032, "maps_url": "https://www.google.com/maps/place/?q=place_id:0x390d1dcc2af98305:0x3a2256908388d2bd"}, {"place_id": "0x390d1d75739a3c07:0xae6dfa05588e14e3", "name": "C S Construction Company Pvt. Ltd", "category": "Real Estate Builders & Construction Company", "street": "Plot No. 2, near HDFC bank, Local Shopping Complex", "city": "9", "phone": "01147169900", "website": "", "rating": 4.6, "review_count": "", "latitude": 28.5380695, "longitude": 77.1431051, "maps_url": "https://www.google.com/maps/place/?q=place_id:0x390d1d75739a3c07:0xae6dfa05588e14e3"}, {"place_id": "0x390d1f61836cd921:0x776e9717979fe108", "name": "Saiway Tech", "category": "Web hosting company", "street": "702", "city": "Near, Maruti Chowk", "phone": "07982506339", "website": "http://saiwaytech.com/", "rating": 4.8, "review_count": "", "latitude": 28.4924629, "longitude": 77.1411129, "maps_url": "https://www.google.com/maps/place/?q=place_id:0x390d1f61836cd921:0x776e9717979fe108"}, {"place_id": "0x390d191598f48ef3:0x70991b4ff870f05d", "name": "Shree Partners LLC", "category": "Software company", "street": "1, Tower A, Building, Cyber City", "city": "Corporate Edge Level", "phone": "01246728815", "website": "https://www.shreepartners.com/", "rating": 4.3, "review_count": "", "latitude": 28.4936018, "longitude": 77.088325, "maps_url": "https://www.google.com/maps/place/?q=place_id:0x390d191598f48ef3:0x70991b4ff870f05d"}, {"place_id": "0x390ce26dc4d4ba2d:0x9486a6d620e379f9", "name": "Akal Information Systems Ltd.", "category": "Software company", "street": "Tower J, World Trade Center", "city": "103", "phone": "01146503545", "website": "https://www.akalinfo.com/", "rating": 3.9, "review_count": "", "latitude": 28.567935499999997, "longitude": 77.1923202, "maps_url": "https://www.google.com/maps/place/?q=place_id:0x390ce26dc4d4ba2d:0x9486a6d620e379f9"}, {"place_id": "0x390d1dcda4226131:0xa904d88f126c2e0f", "name": "Bharti Enterprises Corporate Office", "category": "Corporate office", "street": "1, Nelson Mandela Marg", "city": "Vasant Kunj II, Vasant Kunj", "phone": "01146666100", "website": "http://www.bharti.com/", "rating": 3.6, "review_count": "", "latitude": 28.5401398, "longitude": 77.1541195, "maps_url": "https://www.google.com/maps/place/?q=place_id:0x390d1dcda4226131:0xa904d88f126c2e0f"}, {"place_id": "0x390ce3c50d455555:0x625e4cf2def0b6ac", "name": "Infonative Solutions Limited", "category": "Computer support and services", "street": "107, 108", "city": "DLF South Court", "phone": "08448141818", "website": "https://infonative.net/", "rating": 4.7, "review_count": "", "latitude": 28.5274255, "longitude": 77.2209031, "maps_url": "https://www.google.com/maps/place/?q=place_id:0x390ce3c50d455555:0x625e4cf2def0b6ac"}, {"place_id": "0x65afd373fe4cb277:0xb57ca7e757c2def3", "name": "Eimager -Employees Background Verification SaaS", "category": "Software company", "street": "GF 5", "city": "672, Mehrauli-Gurgaon Rd", "phone": "", "website": "https://eimager.com/", "rating": 5, "review_count": "", "latitude": 28.4911376, "longitude": 77.1398955, "maps_url": "https://www.google.com/maps/place/?q=place_id:0x65afd373fe4cb277:0xb57ca7e757c2def3"}, {"place_id": "0x390cfd3522132487:0x5decdf23b12670c3", "name": "All India Council For Technical Education (AICTE)", "category": "Government office", "street": "G5P3+8PH", "city": "Nelson Mandela Marg", "phone": "01126131578", "website": "http://www.aicte-india.org/", "rating": 4.4, "review_count": "", "latitude": 28.535802099999998, "longitude": 77.1543733, "maps_url": "https://www.google.com/maps/place/?q=place_id:0x390cfd3522132487:0x5decdf23b12670c3"}, {"place_id": "0x390d1e186527b451:0x3d552630d3703e21", "name": "Inca Infotech Technologies Pvt Ltd", "category": "Computer support and services", "street": "D-23/405, UGF", "city": "100 Feet Rd", "phone": "18008891907", "website": "https://www.incainfotech.com/", "rating": 3.6, "review_count": "", "latitude": 28.506226899999998, "longitude": 77.1850521, "maps_url": "https://www.google.com/maps/place/?q=place_id:0x390d1e186527b451:0x3d552630d3703e21"}, {"place_id": "0x390d1ed3c6e9f579:0x322eccdb00f350d2", "name": "Techjockey", "category": "Software company", "street": "Ground floor, Habitat India", "city": "C-3", "phone": "01142213003", "website": "https://www.techjockey.com/", "rating": 4, "review_count": "", "latitude": 28.536615299999998, "longitude": 77.1902978, "maps_url": "https://www.google.com/maps/place/?q=place_id:0x390d1ed3c6e9f579:0x322eccdb00f350d2"}, {"place_id": "0x390d1db98fbbe5b7:0xabdb488c915e4ba4", "name": "NEW IT VENTURE INDIA PVT. LTD. (NITV INDIA)", "category": "Software company", "street": "C-9", "city": "9401", "phone": "01141755580", "website": "https://www.newitventure.com/", "rating": "", "review_count": "", "latitude": 28.5400377, "longitude": 77.1432359, "maps_url": "https://www.google.com/maps/place/?q=place_id:0x390d1db98fbbe5b7:0xabdb488c915e4ba4"}, {"place_id": "0x390d195c26bfa369:0x69bd8efd2e3a31fe", "name": "Radical Minds Technologies Pvt. Ltd.", "category": "BPO Company", "street": "368", "city": "Phase II, Udyog Vihar, Sector 20", "phone": "01244338366", "website": "http://www.radicalminds.in/", "rating": 4.2, "review_count": "", "latitude": 28.506335099999998, "longitude": 77.0877546, "maps_url": "https://www.google.com/maps/place/?q=place_id:0x390d195c26bfa369:0x69bd8efd2e3a31fe"}, {"place_id": "0x390d1dcc2ad28223:0xe6c9335344cab1e3", "name": "Gourmet Investments Private Limited", "category": "Corporate office", "street": "MARUTI SUZUKI HO", "city": "1, Nelson Mandela Marg", "phone": "", "website": "", "rating": 4.2, "review_count": "", "latitude": 28.539903199999998, "longitude": 77.15413319999999, "maps_url": "https://www.google.com/maps/place/?q=place_id:0x390d1dcc2ad28223:0xe6c9335344cab1e3"}, {"place_id": "0x390ce1b9de54d101:0xc5184256693b27dd", "name": "LCK Technologies - Website designing development company South Delhi", "category": "Website designer", "street": "439 1st floor", "city": "438", "phone": "09891337955", "website": "https://lckdigitalmedia.in/", "rating": 4.9, "review_count": "", "latitude": 28.5089698, "longitude": 77.20114769999999, "maps_url": "https://www.google.com/maps/place/?q=place_id:0x390ce1b9de54d101:0xc5184256693b27dd"}, {"place_id": "0x390d1c2b215f5677:0x3cea38f12f0a4689", "name": "Greenstar Landscape Pvt. Ltd. | Landscape Services in Delhi", "category": "Landscaper", "street": "8310", "city": "Pocket 6, Sector C, Vasant Kunj", "phone": "09811140401", "website": "https://www.greenstarlandscape.com/", "rating": 4.8, "review_count": "", "latitude": 28.537887299999998, "longitude": 77.145371, "maps_url": "https://www.google.com/maps/place/?q=place_id:0x390d1c2b215f5677:0x3cea38f12f0a4689"}, {"place_id": "0x390d1dce62f3a397:0x347357ccf44b3e89", "name": "Maruti Suzuki Insurance Broking Private Limited", "category": "Insurance broker", "street": "Plot No", "city": "1, Nelson Mandela Marg", "phone": "01133774477", "website": "https://www.marutisuzukiinsurance.com/", "rating": 4.6, "review_count": "", "latitude": 28.5399283, "longitude": 77.154096, "maps_url": "https://www.google.com/maps/place/?q=place_id:0x390d1dce62f3a397:0x347357ccf44b3e89"}, {"place_id": "0x390d1d9667209773:0xaa313aaa5d0e3828", "name": "Pac Asia Services Private Limited", "category": "Educational consultant", "street": "Plot No. 2, 3rd Floor", "city": "Nelson Mandela Marg", "phone": "01126765000", "website": "http://pacasia.org/", "rating": 4.4, "review_count": "", "latitude": 28.5353528, "longitude": 77.15236039999999, "maps_url": "https://www.google.com/maps/place/?q=place_id:0x390d1d9667209773:0xaa313aaa5d0e3828"}, {"place_id": "0x390d1b2e70dc4643:0x7169c217c950fb21", "name": "SM workforce Pvt Ltd", "category": "Event management company", "street": "55, Street Number 1", "city": "Masoodpur, Sector B, Vasant Kunj", "phone": "09116103492", "website": "http://smworkforce.com/", "rating": 4.8, "review_count": "", "latitude": 28.530208499999997, "longitude": 77.1504137, "maps_url": "https://www.google.com/maps/place/?q=place_id:0x390d1b2e70dc4643:0x7169c217c950fb21"}, {"place_id": "0x390d1dcc2ad28223:0x346965a077a035ad", "name": "NEXA HO", "category": "Corporate office", "street": "Maruti Suzuki India Head Office", "city": "1, Nelson Mandela Marg", "phone": "01146781000", "website": "https://www.nexaexperience.com/", "rating": 4.2, "review_count": "", "latitude": 28.5401398, "longitude": 77.1541195, "maps_url": "https://www.google.com/maps/place/?q=place_id:0x390d1dcc2ad28223:0x346965a077a035ad"}, {"place_id": "0x390d1960c2b8367f:0xd2d30e45ac71acea", "name": "Vorombetech Solutions - Top IT & Digitalization Service Company in Gurugram", "category": "Software company", "street": "249", "city": "Phase IV, Udyog Vihar, Sector 19", "phone": "", "website": "https://vorombetech.com/", "rating": 4.8, "review_count": "", "latitude": 28.4941475, "longitude": 77.0808448, "maps_url": "https://www.google.com/maps/place/?q=place_id:0x390d1960c2b8367f:0xd2d30e45ac71acea"}, {"place_id": "0x390d1ff0709f9a15:0x73645b28383600af", "name": "Pronounce Solar | Pronounce Sunhealth Services Pvt Ltd", "category": "Solar Energy Company", "street": "First Floor, Plot No 30, Masoodpur Dairy", "city": "near JIMS", "phone": "08368603894", "website": "https://pronouncesolar.in/", "rating": 4.7, "review_count": "", "latitude": 28.528717399999998, "longitude": 77.1505494, "maps_url": "https://www.google.com/maps/place/?q=place_id:0x390d1ff0709f9a15:0x73645b28383600af"}, {"place_id": "0x390d1dc8e1c70ee3:0x3d8673eb9d295b8e", "name": "Oil and Natural Gas Corporation Limited (ONGC)", "category": "Oil & natural gas company", "street": "5, Nelson Mandela Marg", "city": "Vasant Kunj II, Vasant Kunj", "phone": "01126750111", "website": "https://www.ongcindia.com/wps/wcm/connect/en/home/", "rating": 4.7, "review_count": "", "latitude": 28.5444951, "longitude": 77.1572075, "maps_url": "https://www.google.com/maps/place/?q=place_id:0x390d1dc8e1c70ee3:0x3d8673eb9d295b8e"}, {"place_id": "0x390d1e854292abc5:0xcb14842b26202d2d", "name": "Excel Systems", "category": "Computer support and services", "street": "C9/9798", "city": "Pocket 9, Sector C, Vasant Kunj", "phone": "01126121192", "website": "http://exlhosting.com/", "rating": "", "review_count": "", "latitude": 28.5387775, "longitude": 77.1442486, "maps_url": "https://www.google.com/maps/place/?q=place_id:0x390d1e854292abc5:0xcb14842b26202d2d"}, {"place_id": "0x390d1dce7e5e769f:0x8e0cab7c9821a6cf", "name": "Maruti Suzuki India Head Office", "category": "Corporate office", "street": "Corporate Communications, Maruti Suzuki India Limited", "city": "1, Nelson Mandela Marg", "phone": "18001026392", "website": "https://www.marutisuzuki.com/", "rating": 4, "review_count": "", "latitude": 28.539903199999998, "longitude": 77.1541331, "maps_url": "https://www.google.com/maps/place/?q=place_id:0x390d1dce7e5e769f:0x8e0cab7c9821a6cf"}, {"place_id": "0x390d1e748ef61961:0x754ceb660996cfdb", "name": "ACS System Solutions", "category": "Software company", "street": "Kishangarh, Kishangarh Village, Vasant Kunj", "city": "New Delhi, Delhi 110070", "phone": "01149858620", "website": "http://acssystem.in/", "rating": 3.4, "review_count": "", "latitude": 28.522178699999998, "longitude": 77.1692609, "maps_url": "https://www.google.com/maps/place/?q=place_id:0x390d1e748ef61961:0x754ceb660996cfdb"}, {"place_id": "0x390d1dac6517e03d:0x9db70a08e0c36a03", "name": "Apple Premium Reseller - Aptronix - Ambience Mall, Vasant Kunj, New Delhi", "category": "Cell phone store", "street": "Ambience Mall", "city": "F-106", "phone": "08044953837", "website": "https://www.aptronixindia.com/", "rating": 4.4, "review_count": "", "latitude": 28.5410713, "longitude": 77.1550781, "maps_url": "https://www.google.com/maps/place/?q=place_id:0x390d1dac6517e03d:0x9db70a08e0c36a03"}, {"place_id": "0x390d1d265ef19a63:0x66262128aabca13", "name": "SUCG Infrastructure India Pvt. Ltd", "category": "Real Estate Builders & Construction Company", "street": "Pawa Presidential Business Park", "city": "Pawa Presidential Business Park, Tower No.4,5 & 6", "phone": "01146001203", "website": "", "rating": 3.6, "review_count": "", "latitude": 28.5382569, "longitude": 77.1427532, "maps_url": "https://www.google.com/maps/place/?q=place_id:0x390d1d265ef19a63:0x66262128aabca13"}, {"place_id": "0x390d05677ee3aecd:0xa51743b53fa39187", "name": "Weblife Infotech Pvt Ltd (Destech Media)", "category": "Software company", "street": "", "city": "", "phone": "07042569776", "website": "http://www.weblifeindia.in/", "rating": 2.9, "review_count": "", "latitude": 28.5273522, "longitude": 77.20898509999999, "maps_url": "https://www.google.com/maps/place/?q=place_id:0x390d05677ee3aecd:0xa51743b53fa39187"}, {"place_id": "0x390d1f0df92e353d:0x54e79553d987073c", "name": "Zombie Marketers | Performance Marketing | Digital Marketing | Website development company in Delhi | SEO company in Delhi", "category": "Marketing agency", "street": "89/9 Mamman House B Block 4th Floor", "city": "Kishangarh Village, Vasant Kunj", "phone": "08527273938", "website": "", "rating": 4.4, "review_count": "", "latitude": 28.5189249, "longitude": 77.1646754, "maps_url": "https://www.google.com/maps/place/?q=place_id:0x390d1f0df92e353d:0x54e79553d987073c"}, {"place_id": "0x390d1dfc87bfee7d:0xef56b6a091714ee8", "name": "Croma - Ambience Mall (Vasantkunj)", "category": "Electronics store", "street": "Bearing No 2, Ambience Mall", "city": "No S232, 2nd Flr", "phone": "08929519904", "website": "https://store.croma.com/croma-ambience-mall-vasantkunj-electronics-retail-and-repair-shop-vasant-kunj-2-new-delhi-263478/Home", "rating": 4.7, "review_count": "", "latitude": 28.540691799999998, "longitude": 77.1546201, "maps_url": "https://www.google.com/maps/place/?q=place_id:0x390d1dfc87bfee7d:0xef56b6a091714ee8"}, {"place_id": "0x390d1db0aef40171:0xb748a2e6079dd53d", "name": "YB INFORMATICS", "category": "Computer support and services", "street": "43, Poorvi Marg", "city": "Block A, Vasant Vihar", "phone": "09650920040", "website": "http://www.ybinformatics.com/", "rating": 5, "review_count": "", "latitude": 28.560817399999998, "longitude": 77.1666408, "maps_url": "https://www.google.com/maps/place/?q=place_id:0x390d1db0aef40171:0xb748a2e6079dd53d"}, {"place_id": "0x390d1dd455555555:0xf0c0ae7cb8e85b43", "name": "AtoZ Group of Companies", "category": "Property management company", "street": "37/537, Vasant Kunj Rd", "city": "Block A, Mahipalpur Village, Mahipalpur", "phone": "09810818888", "website": "http://www.atozgroup.in/", "rating": 3.7, "review_count": "", "latitude": 28.5452659, "longitude": 77.128058, "maps_url": "https://www.google.com/maps/place/?q=place_id:0x390d1dd455555555:0xf0c0ae7cb8e85b43"}, {"place_id": "0x390ce1bef0c8c071:0xb0a64e46c6405fc6", "name": "Tech rise dynamics", "category": "Website designer", "street": "293, Lane-2, Westend Marg", "city": "near Saket Metro Station", "phone": "08750557052", "website": "https://www.techrisedynamics.com/", "rating": 5, "review_count": "", "latitude": 28.5177321, "longitude": 77.1986237, "maps_url": "https://www.google.com/maps/place/?q=place_id:0x390ce1bef0c8c071:0xb0a64e46c6405fc6"}, {"place_id": "0x390d1dd3e3fffffd:0x3fa53120b13a4725", "name": "Asian Travel Company Private Limited", "category": "Travel agency", "street": "Shop No. 9 Second Floor DDA Market", "city": "10, Nelson Mandela Marg", "phone": "01143470000", "website": "http://www.asiantravelhouse.com/", "rating": 4.5, "review_count": "", "latitude": 28.5333346, "longitude": 77.152028, "maps_url": "https://www.google.com/maps/place/?q=place_id:0x390d1dd3e3fffffd:0x3fa53120b13a4725"}, {"place_id": "0x390d1dcec630c751:0x989ae7383d7c3859", "name": "Dyson Store, DLF Promenade, Vasant Kunj, New Delhi", "category": "Electronics Company", "street": "Shop Number 212", "city": "3, Nelson Mandela Marg", "phone": "09599110942", "website": "https://www.dyson.in/?utm_source=GMB&utm_medium=Organic&utm_campaign=DLF_Promenade_Delhi_Direct_Demo", "rating": 4.6, "review_count": "", "latitude": 28.5427158, "longitude": 77.1555266, "maps_url": "https://www.google.com/maps/place/?q=place_id:0x390d1dcec630c751:0x989ae7383d7c3859"}, {"place_id": "0x390d1dce277411dd:0xb06fb46241b11675", "name": "DELNET", "category": "Library", "street": "G5P4+WGW, Jawaharlal Nehru University", "city": "J.N.U Campus, Nelson Mandela Road (Next to Paschimabad Gate of", "phone": "01126742222", "website": "http://www.delnet.in/", "rating": 4.6, "review_count": "", "latitude": 28.5373511, "longitude": 77.156339, "maps_url": "https://www.google.com/maps/place/?q=place_id:0x390d1dce277411dd:0xb06fb46241b11675"}, {"place_id": "0x390d1d92598b53ad:0x84761bd4cf00c7f7", "name": "Sepoy Beverages LLP", "category": "Food & Beverage Exporter", "street": "C-6&7", "city": "First Floor, Block 5", "phone": "08130308277", "website": "http://www.sepoyandco.com/", "rating": 4.4, "review_count": "", "latitude": 28.536571, "longitude": 77.147463, "maps_url": "https://www.google.com/maps/place/?q=place_id:0x390d1d92598b53ad:0x84761bd4cf00c7f7"}, {"place_id": "0x390d1e786e80941f:0x4c3bad4f2cf23e27", "name": "Dr Lal Pathlabs - Patient Service & Radiology Centre", "category": "Diagnostic center", "street": "Building No 1", "city": "Local Shopping Complex", "phone": "08071889502", "website": "https://labs.lalpathlabs.com/dr-lal-pathlabs-patient-service-radiology-centre-diagnostic-centre-vasant-kunj-sector-b-ghaziabad-289049/Home", "rating": 4.9, "review_count": "", "latitude": 28.534422499999998, "longitude": 77.15245809999999, "maps_url": "https://www.google.com/maps/place/?q=place_id:0x390d1e786e80941f:0x4c3bad4f2cf23e27"}, {"place_id": "0x390d1e468f7d9be9:0xa99cc0711073f53e", "name": "Brands Impact", "category": "Media company", "street": "Building No. 2A, 4th Floor", "city": "Masoodpur, Sector B, Vasant Kunj", "phone": "08949748185", "website": "http://brandsimpact.in/", "rating": 4.9, "review_count": "", "latitude": 28.528944, "longitude": 77.15211099999999, "maps_url": "https://www.google.com/maps/place/?q=place_id:0x390d1e468f7d9be9:0xa99cc0711073f53e"}, {"place_id": "0x390d1dce984ae8d1:0x1bcc94df12f20b99", "name": "Helios Watch Store - Ambience Mall, New Delhi", "category": "Watch store", "street": "Shop No F112-124, First Floor", "city": "Ambience Mall", "phone": "08929879269", "website": "https://www.helioswatchstore.com/store-locator/new-delhi/watch-store-in-ambience-mall-hamn", "rating": 5, "review_count": "", "latitude": 28.5412105, "longitude": 77.1548679, "maps_url": "https://www.google.com/maps/place/?q=place_id:0x390d1dce984ae8d1:0x1bcc94df12f20b99"}, {"place_id": "0x390d1dd3ae5c0c63:0xb91616f264d1b902", "name": "Antara Cruises", "category": "Cruise line company", "street": "Vasant Arcade", "city": "Office No. 7, Second Floor, Local Shopping Centre", "phone": "01126124069", "website": "http://www.antaracruises.com/", "rating": 4.6, "review_count": "", "latitude": 28.533393, "longitude": 77.151926, "maps_url": "https://www.google.com/maps/place/?q=place_id:0x390d1dd3ae5c0c63:0xb91616f264d1b902"}, {"place_id": "0x390d193c3a36e523:0xe68f8d2568faeaad", "name": "Espire Infolabs Pvt. Ltd.", "category": "Software company", "street": "486 & 487", "city": "Phase III, Udyog Vihar III, Sector 20", "phone": "01247173000", "website": "http://www.espire.com/", "rating": 4.1, "review_count": "", "latitude": 28.5119516, "longitude": 77.0899661, "maps_url": "https://www.google.com/maps/place/?q=place_id:0x390d193c3a36e523:0xe68f8d2568faeaad"}, {"place_id": "0x390d1d31ddcef34f:0xd36dedb772c2682f", "name": "Best Service Packers and Movers", "category": "Moving and storage service", "street": "Yamuna apartment", "city": "Y-2-705", "phone": "09654610989", "website": "https://bestservicepackers.in/vasant-kunj-packers-movers-delhi", "rating": 4.9, "review_count": "", "latitude": 28.5356368, "longitude": 77.1486226, "maps_url": "https://www.google.com/maps/place/?q=place_id:0x390d1d31ddcef34f:0xd36dedb772c2682f"}, {"place_id": "0xa3f7b500ba6bee9b:0xbf6f44de92b28de", "name": "Yuvocreations Private Limited ( \u092f\u0941\u0935\u094b\u0915\u094d\u0930\u093f\u090f\u0936\u0928\u094d\u0938 \u092a\u094d\u0930\u093e\u0907\u0935\u0947\u091f \u0932\u093f\u092e\u093f\u091f\u0947\u0921 ) - Website Designing & Digital Marketing Agency", "category": "Software company", "street": "Lane no.4", "city": "Khasra no. 258, Westend Marg", "phone": "07042123166", "website": "https://yuvocreations.com/", "rating": 5, "review_count": "", "latitude": 28.5169774, "longitude": 77.19925789999999, "maps_url": "https://www.google.com/maps/place/?q=place_id:0xa3f7b500ba6bee9b:0xbf6f44de92b28de"}, {"place_id": "0x61679272b097afaf:0x2d8ff2b0d95a1e18", "name": "Busybots | RPA & Robotic Process Automation for Banking, Healthcare, AI Services & UiPath, Python Training in Delhi", "category": "Software company", "street": "1st Floor, D", "city": "25, 100 Feet Rd", "phone": "09315867465", "website": "https://www.busybots.in/", "rating": 5, "review_count": "", "latitude": 28.5055157, "longitude": 77.1852263, "maps_url": "https://www.google.com/maps/place/?q=place_id:0x61679272b097afaf:0x2d8ff2b0d95a1e18"}, {"place_id": "0x390d1db820cd0303:0x191edb9cfb3d8de9", "name": "CtrlFlux co-working space", "category": "Coworking space", "street": "2nd floor", "city": "A-58", "phone": "07011516672", "website": "", "rating": 5, "review_count": "", "latitude": 28.5258461, "longitude": 77.1541525, "maps_url": "https://www.google.com/maps/place/?q=place_id:0x390d1db820cd0303:0x191edb9cfb3d8de9"}, {"place_id": "0x390d1c2e72eab10f:0xf6be98993c5ec6b8", "name": "MYTAT Private Limited", "category": "Corporate office", "street": "1, Vasant Kunj Rd", "city": "IAA Colony, Sector C, Vasant Kunj", "phone": "01140538619", "website": "https://mytat.co/", "rating": 5, "review_count": "", "latitude": 28.5339481, "longitude": 77.1419921, "maps_url": "https://www.google.com/maps/place/?q=place_id:0x390d1c2e72eab10f:0xf6be98993c5ec6b8"}, {"place_id": "0x390d1da09ec61919:0x93817aceaa0eb2dd", "name": "lineage consultants India Pvt. Ltd", "category": "Security guard service", "street": "D-68", "city": "Nangal Dewat, Sector D, Vasant Kunj", "phone": "", "website": "http://www.lineageindia.com/", "rating": 4.2, "review_count": "", "latitude": 28.526434899999998, "longitude": 77.14086379999999, "maps_url": "https://www.google.com/maps/place/?q=place_id:0x390d1da09ec61919:0x93817aceaa0eb2dd"}, {"place_id": "0x390d1dd3ae1040fd:0xf208878ec134778a", "name": "Parth Copy Cafe", "category": "Print shop", "street": "Shop No. 19, Vasant Arcade", "city": "DDA Market", "phone": "09873833836", "website": "", "rating": 4.9, "review_count": "", "latitude": 28.5334491, "longitude": 77.15188669999999, "maps_url": "https://www.google.com/maps/place/?q=place_id:0x390d1dd3ae1040fd:0xf208878ec134778a"}, {"place_id": "0x390d1c32a47a9b01:0x12889e733e83cd82", "name": "Export Promotion Council for Handicrafts", "category": "Corporate office", "street": "Pocket 6 & 7", "city": "LSC, Sector C, Vasant Kunj", "phone": "01126135256", "website": "https://www.epch.in/", "rating": 4.3, "review_count": "", "latitude": 28.5367024, "longitude": 77.14748279999999, "maps_url": "https://www.google.com/maps/place/?q=place_id:0x390d1c32a47a9b01:0x12889e733e83cd82"}, {"place_id": "0x390d1d9667209773:0x28dc24963ed103fe", "name": "Mapmystudy", "category": "Educational consultant", "street": "Plot No. 2, 3rd Floor", "city": "Nelson Mandela Marg", "phone": "08800407108", "website": "https://www.mapmystudy.com/", "rating": 4.7, "review_count": "", "latitude": 28.535344, "longitude": 77.1523674, "maps_url": "https://www.google.com/maps/place/?q=place_id:0x390d1d9667209773:0x28dc24963ed103fe"}, {"place_id": "0x390d1de4927b2a03:0x2533739c7b861d05", "name": "ONGC Videsh Ltd.", "category": "Corporate campus", "street": "Tower B", "city": "5, Nelson Mandela Marg", "phone": "01126129344", "website": "https://ongcvidesh.com/", "rating": 4.8, "review_count": "", "latitude": 28.544493199999998, "longitude": 77.15786229999999, "maps_url": "https://www.google.com/maps/place/?q=place_id:0x390d1de4927b2a03:0x2533739c7b861d05"}, {"place_id": "0x390cfb4bf15a6733:0xaf50e6f3c5fb7641", "name": "Digitals Daddy: Web & App Development Company", "category": "Software company", "street": "Metro Gate No. 2", "city": "Nearest Sikandarpur", "phone": "09818286609", "website": "https://www.digitalsdaddy.com/", "rating": 4.9, "review_count": "", "latitude": 28.4847884, "longitude": 77.0922192, "maps_url": "https://www.google.com/maps/place/?q=place_id:0x390cfb4bf15a6733:0xaf50e6f3c5fb7641"}, {"place_id": "0x390d19345bcdc4f3:0x61d5221ed2c17f35", "name": "Cognizant", "category": "Software company", "street": "Tower C, SEZ Building, Building No 6, 5th & 6th Floor DLF C yber City Rd W Block", "city": "Near Shankar Chowk", "phone": "", "website": "http://www.cognizant.com/india", "rating": 4.1, "review_count": "", "latitude": 28.4964521, "longitude": 77.096576, "maps_url": "https://www.google.com/maps/place/?q=place_id:0x390d19345bcdc4f3:0x61d5221ed2c17f35"}, {"place_id": "0x390d1d8509165d25:0x2d24b6310521f390", "name": "5 Elements", "category": "Interior designer", "street": "4th floor Ajit, Singh\u2019s House", "city": "Green park", "phone": "", "website": "https://5elementsgroups.com/", "rating": 5, "review_count": "", "latitude": 28.537340699999998, "longitude": 77.14642669999999, "maps_url": "https://www.google.com/maps/place/?q=place_id:0x390d1d8509165d25:0x2d24b6310521f390"}, {"place_id": "0x390d1db77f092177:0x1635566babff48d", "name": "Wingtip Management & Coordination Pvt.Ltd", "category": "Event management company", "street": "Shop no 3", "city": "B7, Vasant Kunj Rd", "phone": "", "website": "", "rating": 5, "review_count": "", "latitude": 28.536740899999998, "longitude": 77.14432959999999, "maps_url": "https://www.google.com/maps/place/?q=place_id:0x390d1db77f092177:0x1635566babff48d"}, {"place_id": "0x390d1dd5a7b16df9:0x544ccc593ee7db95", "name": "Munjaal Realtors", "category": "Property management company", "street": "Ground Floor", "city": "2659", "phone": "", "website": "http://www.munjaalrealtors.com/", "rating": 4.7, "review_count": "", "latitude": 28.534209099999998, "longitude": 77.1500676, "maps_url": "https://www.google.com/maps/place/?q=place_id:0x390d1dd5a7b16df9:0x544ccc593ee7db95"}, {"place_id": "0x390d1c32a9b8a3a1:0xb181761c8b9555e2", "name": "MINI Bird Automotive Private Limited", "category": "Car dealer", "street": "Plot # 8 & 9 C-6&7", "city": "adjacent to Nanking", "phone": "01130975555", "website": "https://mini-birdautomotive.in/", "rating": 4.5, "review_count": "", "latitude": 28.5366039, "longitude": 77.1481089, "maps_url": "https://www.google.com/maps/place/?q=place_id:0x390d1c32a9b8a3a1:0xb181761c8b9555e2"}, {"place_id": "0xac577056c2b5ff3d:0xaf00253141553d04", "name": "Devnotam | IT Company", "category": "Internet marketing service", "street": "", "city": "", "phone": "", "website": "https://devnotam.com/", "rating": 5, "review_count": "", "latitude": 28.692404999999997, "longitude": 77.090042, "maps_url": "https://www.google.com/maps/place/?q=place_id:0xac577056c2b5ff3d:0xaf00253141553d04"}, {"place_id": "0x390d1d00587474e3:0x366c82c8e39c530c", "name": "Tventurer Pvt Ltd", "category": "E - Commerce Agency", "street": "7325", "city": "B-10", "phone": "", "website": "https://tventurer.carrd.co/", "rating": 4, "review_count": "", "latitude": 28.5314211, "longitude": 77.1519788, "maps_url": "https://www.google.com/maps/place/?q=place_id:0x390d1d00587474e3:0x366c82c8e39c530c"}, {"place_id": "0x390d1c2ced9cf3f5:0x4a342c4670ffb8ec", "name": "Infinity Pools- Leading Swimming pool construction company in Delhi NCR", "category": "Swimming pool contractor", "street": "1475", "city": "C1 Vasant Kunj, Sector C, Vasant Kunj", "phone": "09717452674", "website": "https://www.infinitypools.co.in/", "rating": 4, "review_count": "", "latitude": 28.532507499999998, "longitude": 77.1482863, "maps_url": "https://www.google.com/maps/place/?q=place_id:0x390d1c2ced9cf3f5:0x4a342c4670ffb8ec"}, {"place_id": "0x390d1d7764ca19a3:0x9c317fb690b7151b", "name": "Journey Himalayan", "category": "Travel agency", "street": "32", "city": "Pocket 3, Sector C, Vasant Kunj", "phone": "07837516187", "website": "http://journeyhimalayan.com/", "rating": 4.7, "review_count": "", "latitude": 28.534285999999998, "longitude": 77.150959, "maps_url": "https://www.google.com/maps/place/?q=place_id:0x390d1d7764ca19a3:0x9c317fb690b7151b"}, {"place_id": "0x390d1d3e537bd869:0x552ddec2a8477689", "name": "LegalMen Law Firm", "category": "Law firm", "street": "Pocket 11, Sector B, Vasant Kunj", "city": "New Delhi, Delhi 110070", "phone": "09811159912", "website": "https://www.advadarshvarma.com/", "rating": 5, "review_count": "", "latitude": 28.532903299999997, "longitude": 77.1532639, "maps_url": "https://www.google.com/maps/place/?q=place_id:0x390d1d3e537bd869:0x552ddec2a8477689"}, {"place_id": "0x390d1f582d81112d:0x87737337dc0a141", "name": "Kravings Foods", "category": "Food manufacturer", "street": "C2 Vasant Kunj, Pocket 3, Sector C, Vasant Kunj", "city": "New Delhi, Delhi 110070", "phone": "09667908399", "website": "https://kravingsfoods.com/", "rating": 5, "review_count": "", "latitude": 28.5346096, "longitude": 77.1491054, "maps_url": "https://www.google.com/maps/place/?q=place_id:0x390d1f582d81112d:0x87737337dc0a141"}, {"place_id": "0x390d193c3a36fabd:0x8bd7aacd8793bdb7", "name": "Orange Business Services", "category": "Public relations firm", "street": "Infinity Tower 8, Tower B", "city": "DLF Cyber City, DLF Phase 2, Sector 25", "phone": "", "website": "http://www.orange-business.com/", "rating": 4.5, "review_count": "", "latitude": 28.495814199999998, "longitude": 77.0910088, "maps_url": "https://www.google.com/maps/place/?q=place_id:0x390d193c3a36fabd:0x8bd7aacd8793bdb7"}, {"place_id": "0x390d1dcf3ba44831:0x22208fe6f4c7e75b", "name": "Ministry of Human Resource Development", "category": "City government office", "street": "Room No 316", "city": "All India Council for Technical Education (AICTE", "phone": "01129581316", "website": "", "rating": 5, "review_count": "", "latitude": 28.535285599999998, "longitude": 77.1549113, "maps_url": "https://www.google.com/maps/place/?q=place_id:0x390d1dcf3ba44831:0x22208fe6f4c7e75b"}, {"place_id": "0x390d1c1375428d95:0x329a5350d2f550ec", "name": "Global India Express Pvt Ltd", "category": "Corporate office", "street": "L-204, Street Number 7C", "city": "near Vijaya Bank", "phone": "09810497982", "website": "https://www.globalindiaexpress.com/", "rating": 4.6, "review_count": "", "latitude": 28.544389499999998, "longitude": 77.1232125, "maps_url": "https://www.google.com/maps/place/?q=place_id:0x390d1c1375428d95:0x329a5350d2f550ec"}, {"place_id": "0x390d1dd5a7b16df9:0x7bdaf56991db93e8", "name": "SARIKA & CO., Chartered Accountants", "category": "Certified public accountant", "street": "6155/1", "city": "Santushti Apartments", "phone": "09910472202", "website": "http://www.sarikaca.com/", "rating": 4.7, "review_count": "", "latitude": 28.527147, "longitude": 77.1484377, "maps_url": "https://www.google.com/maps/place/?q=place_id:0x390d1dd5a7b16df9:0x7bdaf56991db93e8"}, {"place_id": "0x390d1e7885efdf6b:0x4aef03ed99d7f1ac", "name": "Manas Geo Tech", "category": "Textile Exporter", "street": "FF-25, Vasant Square Mall, Plot No.-A Community Centre, Pocket-V,", "city": "Sector B, Vasant Kunj", "phone": "01146000770", "website": "http://manasgeotextile.com/", "rating": 4.5, "review_count": "", "latitude": 28.5251308, "longitude": 77.1567328, "maps_url": "https://www.google.com/maps/place/?q=place_id:0x390d1e7885efdf6b:0x4aef03ed99d7f1ac"}, {"place_id": "0x390d1ddafd55fced:0x8fd3ecef1dd37dda", "name": "Sattvika hospitality and real estate private limited", "category": "Consultant", "street": "4th floor, 12", "city": "Ajit Singh house yusuf Sarai commercial complex", "phone": "", "website": "http://www.sattvikarealty.com/", "rating": 5, "review_count": "", "latitude": 28.5373332, "longitude": 77.1464972, "maps_url": "https://www.google.com/maps/place/?q=place_id:0x390d1ddafd55fced:0x8fd3ecef1dd37dda"}, {"place_id": "0x390d1dce9d2e3191:0x28f5c819f1ce7600", "name": "Titan Eye+ at Vasant Kunj, Delhi", "category": "Optician", "street": "F-112/124, First floor, Ambience Mall", "city": "Nelson Mandela Marg", "phone": "01140870723", "website": "https://www.titaneyeplus.com/stores/india/national-capital-territory-of-delhi/new-delhi/titan-eye-vasant-kunj", "rating": 5, "review_count": "", "latitude": 28.541054499999998, "longitude": 77.1548376, "maps_url": "https://www.google.com/maps/place/?q=place_id:0x390d1dce9d2e3191:0x28f5c819f1ce7600"}, {"place_id": "0x390d1dd15d4ee3af:0x95fb482331bd1a66", "name": "Roasted by Roseate", "category": "Cafe", "street": "Ground Floor, Plot No. 7 LSC, Pocket 6 & 7", "city": "opposite Delhi Public School", "phone": "09871200654", "website": "https://www.roseatehotels.com/newdelhi/upstage/", "rating": 4.5, "review_count": "", "latitude": 28.5363752, "longitude": 77.14783589999999, "maps_url": "https://www.google.com/maps/place/?q=place_id:0x390d1dd15d4ee3af:0x95fb482331bd1a66"}, {"place_id": "0x390d1b0010fc2321:0x12e9154c815cf007", "name": "Prashant Dwivedi IT company", "category": "Warehouse", "street": "G3P5+GVC", "city": "Nayak Pura, Bijwasan", "phone": "", "website": "", "rating": "", "review_count": "", "latitude": 28.536316, "longitude": 77.059649, "maps_url": "https://www.google.com/maps/place/?q=place_id:0x390d1b0010fc2321:0x12e9154c815cf007"}, {"place_id": "0x390ce3c5ed20b779:0x11e3225fc5ce21a1", "name": "North By Mile (NBM) India", "category": "Car rental agency", "street": "Nelson Mandela Marg", "city": "Pocket 10, Sector B, Vasant Kunj", "phone": "", "website": "https://www.nbmindia.in/", "rating": 5, "review_count": "", "latitude": 28.5337954, "longitude": 77.1526956, "maps_url": "https://www.google.com/maps/place/?q=place_id:0x390ce3c5ed20b779:0x11e3225fc5ce21a1"}, {"place_id": "0x390ce3273f9d9649:0x384167405fb48535", "name": "Happy Checkin", "category": "Travel agency", "street": "C-3", "city": "3112", "phone": "09818850388", "website": "https://happycheckin.com/", "rating": 4.5, "review_count": "", "latitude": 28.533934, "longitude": 77.1507918, "maps_url": "https://www.google.com/maps/place/?q=place_id:0x390ce3273f9d9649:0x384167405fb48535"}, {"place_id": "0x390cfb6f5f355171:0x293ef389560eaf8a", "name": "Solis Tractors", "category": "Corporate office", "street": "TERI UNIVERSITY", "city": "Plot No. 10", "phone": "01166455200", "website": "https://www.solisworld.com/", "rating": 4.5, "review_count": "", "latitude": 28.5447602, "longitude": 77.14801829999999, "maps_url": "https://www.google.com/maps/place/?q=place_id:0x390cfb6f5f355171:0x293ef389560eaf8a"}]}