{"timestamp": 1773731500.079607, "keyword": "IT company", "location": "delhi", "cell_idx": 492, "results": [{"place_id": "0x390ce458d0000001:0xf2123bd299ec4501", "name": "IT Company India", "category": "Software company", "street": "D56", "city": "D Block, Sector 10", "phone": "09999244854", "website": "https://www.itcompanyindia.in/", "rating": 4.7, "review_count": "", "latitude": 28.589917699999997, "longitude": 77.3351153, "maps_url": "https://www.google.com/maps/place/?q=place_id:0x390ce458d0000001:0xf2123bd299ec4501"}, {"place_id": "0x390ce3c153b89811:0xe7a279685777e9ca", "name": "IT Company", "category": "Automation company", "street": "A-14", "city": "near iskcon temple", "phone": "", "website": "http://www.opuswiz.com/", "rating": 3, "review_count": "", "latitude": 28.557167, "longitude": 77.25424819999999, "maps_url": "https://www.google.com/maps/place/?q=place_id:0x390ce3c153b89811:0xe7a279685777e9ca"}, {"place_id": "0x390d03d2e32b8b3b:0x82fa2b6b795ab600", "name": "Iraitech | Software Development Company", "category": "Software company", "street": "Central Square Complex 3, Unit No-1051, 1st Floor, Near Filmistan, DCM chowk", "city": "Bara Hindu Rao, Kishan Ganj", "phone": "08130104108", "website": "https://www.iraitech.com/", "rating": 4.1, "review_count": "", "latitude": 28.6631951, "longitude": 77.20308639999999, "maps_url": "https://www.google.com/maps/place/?q=place_id:0x390d03d2e32b8b3b:0x82fa2b6b795ab600"}, {"place_id": "0x390d02994de5e515:0xd908bc03409a0d37", "name": "Himalayan IT Solutions | Best Website Designing Company in Delhi | SEO/Digital Marketing Company in Delhi NCR, India", "category": "Website designer", "street": "61/4255, Padam Singh Rd", "city": "Block 29, Block 1, Regar Pura, Karol Bagh", "phone": "09899098509", "website": "http://www.himalayanitsolutions.com/", "rating": 3.9, "review_count": "", "latitude": 28.649673999999997, "longitude": 77.186599, "maps_url": "https://www.google.com/maps/place/?q=place_id:0x390d02994de5e515:0xd908bc03409a0d37"}, {"place_id": "0x390cfd36df0d730b:0xd425c6f106d9cf8", "name": "I. T. Solutions", "category": "Computer repair service", "street": "Gate No. 8", "city": "A-6, 1st Floor, Inner Circle, Above Post office", "phone": "01141523242", "website": "http://www.itsolutioncp.com/", "rating": 4.9, "review_count": "", "latitude": 28.6324367, "longitude": 77.2183441, "maps_url": "https://www.google.com/maps/place/?q=place_id:0x390cfd36df0d730b:0xd425c6f106d9cf8"}, {"place_id": "0x390ce2e52043e633:0x3ed44d79ea4bd91c", "name": "Wirecto", "category": "Software company", "street": "Triloki Colony", "city": "C-49", "phone": "09716670074", "website": "https://wirecto.app/", "rating": 5, "review_count": "", "latitude": 28.575404799999998, "longitude": 77.2250054, "maps_url": "https://www.google.com/maps/place/?q=place_id:0x390ce2e52043e633:0x3ed44d79ea4bd91c"}, {"place_id": "0x390d1d86a4f12173:0x3a6b42ea6f4b8260", "name": "Softvanz Technologies Private Limited", "category": "Software company", "street": "Somdutt Chamber 1", "city": "BT-22/9", "phone": "", "website": "https://softvanz.com/", "rating": 5, "review_count": "", "latitude": 28.567948899999998, "longitude": 77.1889269, "maps_url": "https://www.google.com/maps/place/?q=place_id:0x390d1d86a4f12173:0x3a6b42ea6f4b8260"}, {"place_id": "0x390ce5fdcc79e755:0x309ce99251b84ef6", "name": "Optyminds IT Solutions - Top AI and IT company I Best Digital agency in Noida | Delhi NCR | India", "category": "Software company", "street": "1st Floor", "city": "B-70", "phone": "08929075975", "website": "https://optyminds.com/", "rating": 4.9, "review_count": "", "latitude": 28.584679599999998, "longitude": 77.3135042, "maps_url": "https://www.google.com/maps/place/?q=place_id:0x390ce5fdcc79e755:0x309ce99251b84ef6"}, {"place_id": "0x2a72b8b69d7b6493:0x11251466d4d34cac", "name": "WebZonal IT Company", "category": "Website designer", "street": "Wz-258/2-3, D Block Rd", "city": "Khazan Basti, Nangal Raya, Janakpuri", "phone": "09811170903", "website": "http://webzonal.com/", "rating": 5, "review_count": "", "latitude": 28.6122102, "longitude": 77.11159549999999, "maps_url": "https://www.google.com/maps/place/?q=place_id:0x2a72b8b69d7b6493:0x11251466d4d34cac"}, {"place_id": "0x390cfd36664c4e63:0xcce34350707b204e", "name": "DataSlexIndia | On-Demand Software Development Company", "category": "Software company", "street": "210,211,212 BMC House, N1", "city": "Middle Cir", "phone": "01124845172", "website": "https://dataslexindia.com/", "rating": 5, "review_count": "", "latitude": 28.630570499999997, "longitude": 77.2198088, "maps_url": "https://www.google.com/maps/place/?q=place_id:0x390cfd36664c4e63:0xcce34350707b204e"}, {"place_id": "0x390d029a60a72d25:0x45441d38cea092f1", "name": "Payroll Software Companies", "category": "Software company", "street": "4/28, Ground Floor", "city": "Saraswati Marg", "phone": "09711195490", "website": "", "rating": 4.3, "review_count": "", "latitude": 28.6484551, "longitude": 77.1875826, "maps_url": "https://www.google.com/maps/place/?q=place_id:0x390d029a60a72d25:0x45441d38cea092f1"}, {"place_id": "0x390ce1fb44618b65:0x8e06b2a6128352d1", "name": "Acropolis Infotech - Delhi Office", "category": "Software company", "street": "metro station gate", "city": "55, 2nd Floor, Lane 2", "phone": "09999876593", "website": "https://www.acropolisinfotech.com/", "rating": 4.6, "review_count": "", "latitude": 28.518907, "longitude": 77.2015435, "maps_url": "https://www.google.com/maps/place/?q=place_id:0x390ce1fb44618b65:0x8e06b2a6128352d1"}, {"place_id": "0x390d1daf5bbb6d71:0xd493e8d457a28388", "name": "DPM IT SOLUTIONS", "category": "Software company", "street": "2nd floor, madangiri", "city": "111, E-2", "phone": "09650413450", "website": "https://dpmitsolutions.com/", "rating": 5, "review_count": "", "latitude": 28.565620799999998, "longitude": 77.16005679999999, "maps_url": "https://www.google.com/maps/place/?q=place_id:0x390d1daf5bbb6d71:0xd493e8d457a28388"}, {"place_id": "0x390d1d9ce0eaada3:0xc5a1a0a2458099e3", "name": "CODENCREATIVE TECH PVT LTD", "category": "Software company", "street": "DDA Flat", "city": "RBI Officers Colony, Vasant Vihar", "phone": "09717047610", "website": "https://codencreative.com/", "rating": 4.9, "review_count": "", "latitude": 28.563302099999998, "longitude": 77.1519732, "maps_url": "https://www.google.com/maps/place/?q=place_id:0x390d1d9ce0eaada3:0xc5a1a0a2458099e3"}, {"place_id": "0x390ce3b48e27a563:0x4ec8ae3c524366b", "name": "iSOFT INDIA TECHNOLOGIES", "category": "Software company", "street": "E-168|169, Amar Colony, Lajpat Nagar", "city": "New Delhi, Delhi 110024", "phone": "09717978320", "website": "", "rating": 4.9, "review_count": "", "latitude": 28.5657368, "longitude": 77.23946029999999, "maps_url": "https://www.google.com/maps/place/?q=place_id:0x390ce3b48e27a563:0x4ec8ae3c524366b"}, {"place_id": "0x390ce44609d8fd9b:0x9c680f27679610f6", "name": "Crestech Software", "category": "Software company", "street": "Plot No. D, Vyapar Marg", "city": "D Block, Sector 2", "phone": "08826666755", "website": "https://www.crestechsoftware.com/", "rating": 3.6, "review_count": "", "latitude": 28.5836924, "longitude": 77.3166213, "maps_url": "https://www.google.com/maps/place/?q=place_id:0x390ce44609d8fd9b:0x9c680f27679610f6"}, {"place_id": "0x390d165555555555:0xf57c20f7d07d8fd1", "name": "Teckinfo Solutions Pvt Ltd", "category": "Software company", "street": "1/1 BA, 3rd Floor, Mohammadpur,", "city": "Bhikaji Cama Place", "phone": "01149605500", "website": "https://www.teckinfo.com/", "rating": 4.6, "review_count": "", "latitude": 28.566004099999997, "longitude": 77.187579, "maps_url": "https://www.google.com/maps/place/?q=place_id:0x390d165555555555:0xf57c20f7d07d8fd1"}, {"place_id": "0x390cfd35391deb71:0xdbdd1388c7dc51b6", "name": "Jak Software Pvt Ltd", "category": "Software company", "street": "52 Janpath", "city": "New Delhi, Delhi 110001", "phone": "07827249056", "website": "http://www.jaksoftware.co.in/", "rating": 4.4, "review_count": "", "latitude": 28.627537999999998, "longitude": 77.21878989999999, "maps_url": "https://www.google.com/maps/place/?q=place_id:0x390cfd35391deb71:0xdbdd1388c7dc51b6"}, {"place_id": "0x390d029cf3d42055:0x568de645f31e31dd", "name": "AI Micro Mind\u00aeTechnology", "category": "Software company", "street": "3rd Floor, 16/448", "city": "Block I, Building Number", "phone": "09818353030", "website": "http://micromind.in/", "rating": 4.8, "review_count": "", "latitude": 28.656936299999998, "longitude": 77.1817737, "maps_url": "https://www.google.com/maps/place/?q=place_id:0x390d029cf3d42055:0x568de645f31e31dd"}, {"place_id": "0x390cfcd5693382a9:0x7d163441e68be0fd", "name": "OCIO Technology", "category": "Software company", "street": "316, 3rd Floor", "city": "Pratap Bhawan", "phone": "09999220359", "website": "http://ociotechnology.com/", "rating": 4.9, "review_count": "", "latitude": 28.627443399999997, "longitude": 77.241478, "maps_url": "https://www.google.com/maps/place/?q=place_id:0x390cfcd5693382a9:0x7d163441e68be0fd"}]}