{"timestamp": 1773731265.9455183, "keyword": "IT company", "location": "delhi", "cell_idx": 366, "results": [{"place_id": "0x390d1d841fefffff:0x93fcc50cf324f171", "name": "Netsure IT Solution Private Limited (NSIT GLOBAL)", "category": "Software company", "street": "Ansal Chamber-2", "city": "NSIT GLOBAL, 428", "phone": "1800313818283", "website": "", "rating": 4.3, "review_count": "", "latitude": 28.5677649, "longitude": 77.187382, "maps_url": "https://www.google.com/maps/place/?q=place_id:0x390d1d841fefffff:0x93fcc50cf324f171"}, {"place_id": "0x390d1d84709c66e7:0xb821a251a16fae09", "name": "IT Works @ Siyaram", "category": "Software company", "street": "404", "city": "BHIKAJI CAMA PLACE", "phone": "01143178782", "website": "http://www.garruda.co.in/", "rating": 4.8, "review_count": "", "latitude": 28.567508399999998, "longitude": 77.18817349999999, "maps_url": "https://www.google.com/maps/place/?q=place_id:0x390d1d84709c66e7:0xb821a251a16fae09"}, {"place_id": "0x390d1d86a4f12173:0x3a6b42ea6f4b8260", "name": "Softvanz Technologies Private Limited", "category": "Software company", "street": "Somdutt Chamber 1", "city": "BT-22/9", "phone": "", "website": "https://softvanz.com/", "rating": 5, "review_count": "", "latitude": 28.567948899999998, "longitude": 77.1889269, "maps_url": "https://www.google.com/maps/place/?q=place_id:0x390d1d86a4f12173:0x3a6b42ea6f4b8260"}, {"place_id": "0x390ce458d0000001:0xf2123bd299ec4501", "name": "IT Company India", "category": "Software company", "street": "D56", "city": "D Block, Sector 10", "phone": "09999244854", "website": "https://www.itcompanyindia.in/", "rating": 4.7, "review_count": "", "latitude": 28.589917699999997, "longitude": 77.3351153, "maps_url": "https://www.google.com/maps/place/?q=place_id:0x390ce458d0000001:0xf2123bd299ec4501"}, {"place_id": "0x390d165555555555:0xf57c20f7d07d8fd1", "name": "Teckinfo Solutions Pvt Ltd", "category": "Software company", "street": "1/1 BA, 3rd Floor, Mohammadpur,", "city": "Bhikaji Cama Place", "phone": "01149605500", "website": "https://www.teckinfo.com/", "rating": 4.6, "review_count": "", "latitude": 28.566004099999997, "longitude": 77.187579, "maps_url": "https://www.google.com/maps/place/?q=place_id:0x390d165555555555:0xf57c20f7d07d8fd1"}, {"place_id": "0x390ce3c153b89811:0xe7a279685777e9ca", "name": "IT Company", "category": "Automation company", "street": "A-14", "city": "near iskcon temple", "phone": "", "website": "http://www.opuswiz.com/", "rating": 3, "review_count": "", "latitude": 28.557167, "longitude": 77.25424819999999, "maps_url": "https://www.google.com/maps/place/?q=place_id:0x390ce3c153b89811:0xe7a279685777e9ca"}, {"place_id": "0x390ce38f903de9fd:0x60b75e3dc7d3fb1b", "name": "iTech Mission Private Limited (iTM)", "category": "Software company", "street": "4th Floor, Saira Tower", "city": "Gulmohar Commercial Complex", "phone": "", "website": "http://www.itechmission.org/", "rating": 5, "review_count": "", "latitude": 28.557895499999997, "longitude": 77.20812099999999, "maps_url": "https://www.google.com/maps/place/?q=place_id:0x390ce38f903de9fd:0x60b75e3dc7d3fb1b"}, {"place_id": "0x390ce26dc4d4ba2d:0x9486a6d620e379f9", "name": "Akal Information Systems Ltd.", "category": "Software company", "street": "Tower J, World Trade Center", "city": "103", "phone": "01146503545", "website": "https://www.akalinfo.com/", "rating": 3.9, "review_count": "", "latitude": 28.567935499999997, "longitude": 77.1923202, "maps_url": "https://www.google.com/maps/place/?q=place_id:0x390ce26dc4d4ba2d:0x9486a6d620e379f9"}, {"place_id": "0x390d1d841aaaaaab:0x73b109a878a9bfe3", "name": "Aakash Systems Pvt Ltd", "category": "Computer Wholesaler", "street": "Ansal Chamber-2", "city": "Unit : A-501", "phone": "08383931110", "website": "http://akpl.com/", "rating": 4.8, "review_count": "", "latitude": 28.5692228, "longitude": 77.1877839, "maps_url": "https://www.google.com/maps/place/?q=place_id:0x390d1d841aaaaaab:0x73b109a878a9bfe3"}, {"place_id": "0x390d1d85daaaaaab:0x41ba390c2686dd89", "name": "Team Computers Pvt Ltd", "category": "Software company", "street": "1, Mohammadpur Main Rd", "city": "Bhikaji Cama Place, Rama Krishna Puram", "phone": "18001024200", "website": "https://www.teamcomputers.com/", "rating": 4.2, "review_count": "", "latitude": 28.5661684, "longitude": 77.1871848, "maps_url": "https://www.google.com/maps/place/?q=place_id:0x390d1d85daaaaaab:0x41ba390c2686dd89"}, {"place_id": "0x390d1daf5bbb6d71:0xd493e8d457a28388", "name": "DPM IT SOLUTIONS", "category": "Software company", "street": "2nd floor, madangiri", "city": "111, E-2", "phone": "09650413450", "website": "https://dpmitsolutions.com/", "rating": 5, "review_count": "", "latitude": 28.565620799999998, "longitude": 77.16005679999999, "maps_url": "https://www.google.com/maps/place/?q=place_id:0x390d1daf5bbb6d71:0xd493e8d457a28388"}, {"place_id": "0x390d1d9ce0eaada3:0xc5a1a0a2458099e3", "name": "CODENCREATIVE TECH PVT LTD", "category": "Software company", "street": "DDA Flat", "city": "RBI Officers Colony, Vasant Vihar", "phone": "09717047610", "website": "https://codencreative.com/", "rating": 4.9, "review_count": "", "latitude": 28.563302099999998, "longitude": 77.1519732, "maps_url": "https://www.google.com/maps/place/?q=place_id:0x390d1d9ce0eaada3:0xc5a1a0a2458099e3"}, {"place_id": "0x390ce21425118e25:0x70fb9d80e6685fad", "name": "Ananta Business Services", "category": "Software company", "street": "125, South", "city": "Shahpur Jat, Siri Fort", "phone": "09289371171", "website": "http://www.absite.in/", "rating": 4.7, "review_count": "", "latitude": 28.5490721, "longitude": 77.2159506, "maps_url": "https://www.google.com/maps/place/?q=place_id:0x390ce21425118e25:0x70fb9d80e6685fad"}, {"place_id": "0x390ce1fb44618b65:0x8e06b2a6128352d1", "name": "Acropolis Infotech - Delhi Office", "category": "Software company", "street": "metro station gate", "city": "55, 2nd Floor, Lane 2", "phone": "09999876593", "website": "https://www.acropolisinfotech.com/", "rating": 4.6, "review_count": "", "latitude": 28.518907, "longitude": 77.2015435, "maps_url": "https://www.google.com/maps/place/?q=place_id:0x390ce1fb44618b65:0x8e06b2a6128352d1"}, {"place_id": "0x390d1d841a0f4d5b:0x36604bdbf83612d3", "name": "Intek Micro Systems Pvt.Ltd", "category": "Software company", "street": "E-131, 3rd Floor, Ganpathi Bhawan, Mohammadpur", "city": "opp. Bhikaji Cama Place", "phone": "01146089696", "website": "", "rating": 3, "review_count": "", "latitude": 28.567966799999997, "longitude": 77.1881528, "maps_url": "https://www.google.com/maps/place/?q=place_id:0x390d1d841a0f4d5b:0x36604bdbf83612d3"}, {"place_id": "0x390ce5fdcc79e755:0x309ce99251b84ef6", "name": "Optyminds IT Solutions - Top AI and IT company I Best Digital agency in Noida | Delhi NCR | India", "category": "Software company", "street": "1st Floor", "city": "B-70", "phone": "08929075975", "website": "https://optyminds.com/", "rating": 4.9, "review_count": "", "latitude": 28.584679599999998, "longitude": 77.3135042, "maps_url": "https://www.google.com/maps/place/?q=place_id:0x390ce5fdcc79e755:0x309ce99251b84ef6"}, {"place_id": "0x390d02994de5e515:0xd908bc03409a0d37", "name": "Himalayan IT Solutions | Best Website Designing Company in Delhi | SEO/Digital Marketing Company in Delhi NCR, India", "category": "Website designer", "street": "61/4255, Padam Singh Rd", "city": "Block 29, Block 1, Regar Pura, Karol Bagh", "phone": "09899098509", "website": "http://www.himalayanitsolutions.com/", "rating": 3.9, "review_count": "", "latitude": 28.649673999999997, "longitude": 77.186599, "maps_url": "https://www.google.com/maps/place/?q=place_id:0x390d02994de5e515:0xd908bc03409a0d37"}, {"place_id": "0x390d04afaaaaaaab:0xa0a133d0075e6be5", "name": "Website Development company", "category": "Website designer", "street": "705/A/1", "city": "Bhikaji Cama Place", "phone": "01126100386", "website": "https://direct-i.com/", "rating": 4.8, "review_count": "", "latitude": 28.5681396, "longitude": 77.18618649999999, "maps_url": "https://www.google.com/maps/place/?q=place_id:0x390d04afaaaaaaab:0xa0a133d0075e6be5"}, {"place_id": "0x390ce2305c00002d:0x9f7efbacdc0d8271", "name": "ICO WebTech Pvt. Ltd. - Website Designing Company in Delhi", "category": "Website designer", "street": "J E 5, Ground Floor, Khirki Extension, Malviya Nagar", "city": "New Delhi, Delhi 110017", "phone": "08447380262", "website": "https://www.icowebsolutions.com/", "rating": 4.6, "review_count": "", "latitude": 28.535594, "longitude": 77.21577099999999, "maps_url": "https://www.google.com/maps/place/?q=place_id:0x390ce2305c00002d:0x9f7efbacdc0d8271"}, {"place_id": "0x2a72b8b69d7b6493:0x11251466d4d34cac", "name": "WebZonal IT Company", "category": "Website designer", "street": "Wz-258/2-3, D Block Rd", "city": "Khazan Basti, Nangal Raya, Janakpuri", "phone": "09811170903", "website": "http://webzonal.com/", "rating": 5, "review_count": "", "latitude": 28.6122102, "longitude": 77.11159549999999, "maps_url": "https://www.google.com/maps/place/?q=place_id:0x2a72b8b69d7b6493:0x11251466d4d34cac"}, {"place_id": "0x390d04afaaaaaaab:0xa0a133d0075e6be5", "name": "Website Development company", "category": "Website designer", "street": "705/A/1", "city": "Bhikaji Cama Place", "phone": "01126100386", "website": "https://direct-i.com/", "rating": 4.8, "review_count": "", "latitude": 28.5681396, "longitude": 77.18618649999999, "maps_url": "https://www.google.com/maps/place/?q=place_id:0x390d04afaaaaaaab:0xa0a133d0075e6be5"}, {"place_id": "0x390ce2305c00002d:0x9f7efbacdc0d8271", "name": "ICO WebTech Pvt. Ltd. - Website Designing Company in Delhi", "category": "Website designer", "street": "J E 5, Ground Floor, Khirki Extension, Malviya Nagar", "city": "New Delhi, Delhi 110017", "phone": "08447380262", "website": "https://www.icowebsolutions.com/", "rating": 4.6, "review_count": "", "latitude": 28.535594, "longitude": 77.21577099999999, "maps_url": "https://www.google.com/maps/place/?q=place_id:0x390ce2305c00002d:0x9f7efbacdc0d8271"}, {"place_id": "0x2a72b8b69d7b6493:0x11251466d4d34cac", "name": "WebZonal IT Company", "category": "Website designer", "street": "Wz-258/2-3, D Block Rd", "city": "Khazan Basti, Nangal Raya, Janakpuri", "phone": "09811170903", "website": "http://webzonal.com/", "rating": 5, "review_count": "", "latitude": 28.6122102, "longitude": 77.11159549999999, "maps_url": "https://www.google.com/maps/place/?q=place_id:0x2a72b8b69d7b6493:0x11251466d4d34cac"}, {"place_id": "0x390ce25e81555555:0xf93f773552127f47", "name": "SANEKT SOFTWARE SOLUTION", "category": "Software company", "street": "Top floor", "city": "H 11", "phone": "01141589565", "website": "http://sanekt.com/", "rating": 5, "review_count": "", "latitude": 28.571361, "longitude": 77.221733, "maps_url": "https://www.google.com/maps/place/?q=place_id:0x390ce25e81555555:0xf93f773552127f47"}, {"place_id": "0x390d1d86aa8e0f77:0x59d1a6f2084b6996", "name": "INTEGRATED ELECTRONICS", "category": "Electronics Company", "street": "618", "city": "Ansal Chamber-2", "phone": "09910495279", "website": "http://www.integratedelectronics.co.in/", "rating": 4.9, "review_count": "", "latitude": 28.5679189, "longitude": 77.1881483, "maps_url": "https://www.google.com/maps/place/?q=place_id:0x390d1d86aa8e0f77:0x59d1a6f2084b6996"}, {"place_id": "0x390ce3b48e27a563:0x4ec8ae3c524366b", "name": "iSOFT INDIA TECHNOLOGIES", "category": "Software company", "street": "E-168|169, Amar Colony, Lajpat Nagar", "city": "New Delhi, Delhi 110024", "phone": "09717978320", "website": "", "rating": 4.9, "review_count": "", "latitude": 28.5657368, "longitude": 77.23946029999999, "maps_url": "https://www.google.com/maps/place/?q=place_id:0x390ce3b48e27a563:0x4ec8ae3c524366b"}, {"place_id": "0x390d1df079759d1f:0x8bfa70033f6c672a", "name": "NR Technoserve Pvt. Ltd.", "category": "Software company", "street": "133, Katwaria Sarai", "city": "Phase-2, Qutab Institutional Area", "phone": "07289096762", "website": "http://www.nrtechnoserve.co.in/", "rating": 4.4, "review_count": "", "latitude": 28.5413306, "longitude": 77.18495519999999, "maps_url": "https://www.google.com/maps/place/?q=place_id:0x390d1df079759d1f:0x8bfa70033f6c672a"}, {"place_id": "0x390d1d85c3e17cfb:0x29c2af19ca477509", "name": "Panalink | Website, App, AI Design & Development Company", "category": "Website designer", "street": "K 128, Mohammadpur Main Rd", "city": "Bhikaji Cama Place, Rama Krishna Puram", "phone": "09899524524", "website": "https://panalinks.com/", "rating": 4.7, "review_count": "", "latitude": 28.564894199999998, "longitude": 77.1861411, "maps_url": "https://www.google.com/maps/place/?q=place_id:0x390d1d85c3e17cfb:0x29c2af19ca477509"}, {"place_id": "0x390d1d841aaaaaab:0xd674fbb57baadb77", "name": "Savitri Telecom Services", "category": "Corporate office", "street": "203", "city": "Ansal Chamber-2", "phone": "01126103358", "website": "http://savitritelecom.com/", "rating": 4.6, "review_count": "", "latitude": 28.5677649, "longitude": 77.187382, "maps_url": "https://www.google.com/maps/place/?q=place_id:0x390d1d841aaaaaab:0xd674fbb57baadb77"}, {"place_id": "0x390ce3860c81c723:0xc5f50e43c0a86a3e", "name": "Nextr Technology", "category": "E-commerce service", "street": "2nd Floor", "city": "1483/A-1", "phone": "09911751575", "website": "http://www.nextr.in/", "rating": 4.9, "review_count": "", "latitude": 28.574374, "longitude": 77.224284, "maps_url": "https://www.google.com/maps/place/?q=place_id:0x390ce3860c81c723:0xc5f50e43c0a86a3e"}, {"place_id": "0x390feda4c4f56aed:0x2277b287e38fc0ec", "name": "Dizivan IT Solutions Pvt Ltd- App Development & Digital Marketing Company", "category": "Software company", "street": "near Metro Station New Ashok Nagar", "city": "Block B, New Ashok Nagar", "phone": "09142092979", "website": "https://dizivan.com/", "rating": 5, "review_count": "", "latitude": 28.5891575, "longitude": 77.3020624, "maps_url": "https://www.google.com/maps/place/?q=place_id:0x390feda4c4f56aed:0x2277b287e38fc0ec"}, {"place_id": "0x390d1f5abfb25fe1:0x7d9c4d5e159f2955", "name": "Jaimru Technology Pvt Ltd", "category": "Website designer", "street": "WARD NO. 2", "city": "Plot No. 178 M 33 A/1", "phone": "07838153420", "website": "https://www.jaimru.com/", "rating": 4.9, "review_count": "", "latitude": 28.524347499999998, "longitude": 77.1731889, "maps_url": "https://www.google.com/maps/place/?q=place_id:0x390d1f5abfb25fe1:0x7d9c4d5e159f2955"}, {"place_id": "0x390d1ddf2a9d8e0d:0xa4ee4554abb703b9", "name": "Docsys Kalmin Solutions Pvt Ltd", "category": "Software company", "street": "Office Number 111-113, Ansal Chambers - 2 6", "city": "Bhikaji Cama Place", "phone": "09560108201", "website": "https://docsyskalmin.com/", "rating": 5, "review_count": "", "latitude": 28.5676629, "longitude": 77.18819069999999, "maps_url": "https://www.google.com/maps/place/?q=place_id:0x390d1ddf2a9d8e0d:0xa4ee4554abb703b9"}, {"place_id": "0x390d1d841fe55555:0x2445dbd59c01cb0", "name": "Pioneer E Solutions", "category": "Software company", "street": "B 23-25, Somdutt Chamber -1", "city": "Bhikaji Cama Place", "phone": "", "website": "https://www.pioneeresolutions.com/", "rating": 4.2, "review_count": "", "latitude": 28.5679196, "longitude": 77.1881392, "maps_url": "https://www.google.com/maps/place/?q=place_id:0x390d1d841fe55555:0x2445dbd59c01cb0"}, {"place_id": "0x390d1d847f3b84c1:0x9da23f0dc281b80a", "name": "PTC India Limited", "category": "Electric utility company", "street": "2nd Floor, NBCC Tower 15 Bhikaji Cama Place", "city": "New Delhi, Delhi 110066", "phone": "01141659500", "website": "http://www.ptcindia.com/", "rating": 4.3, "review_count": "", "latitude": 28.568101199999997, "longitude": 77.1860351, "maps_url": "https://www.google.com/maps/place/?q=place_id:0x390d1d847f3b84c1:0x9da23f0dc281b80a"}, {"place_id": "0x390ce3d606c913ef:0xd246bd5631eb2cad", "name": "Delvetech", "category": "Computer support and services", "street": "87A/1, 3rd Floor, Opp. Block N-115, G.K-1, Near Moolchand Merto", "city": "Block B, Zamrudpur, Greater Kailash", "phone": "09873895154", "website": "http://www.delvetech.co.in/", "rating": 4.1, "review_count": "", "latitude": 28.5570597, "longitude": 77.2356981, "maps_url": "https://www.google.com/maps/place/?q=place_id:0x390ce3d606c913ef:0xd246bd5631eb2cad"}, {"place_id": "0x390d1d841aaaaaab:0xa32856a97de4096b", "name": "BI Biotech India Pvt. Ltd. (Corporate Office)", "category": "Biotechnology company", "street": "328", "city": "Ansal Chamber-2", "phone": "01126101271", "website": "http://www.biotechindia.com/", "rating": 3.9, "review_count": "", "latitude": 28.5677649, "longitude": 77.187382, "maps_url": "https://www.google.com/maps/place/?q=place_id:0x390d1d841aaaaaab:0xa32856a97de4096b"}, {"place_id": "0x390ce3c50d455555:0x625e4cf2def0b6ac", "name": "Infonative Solutions Limited", "category": "Corporate office", "street": "107, 108", "city": "DLF South Court", "phone": "08448141818", "website": "https://infonative.net/", "rating": 4.7, "review_count": "", "latitude": 28.5274255, "longitude": 77.2209031, "maps_url": "https://www.google.com/maps/place/?q=place_id:0x390ce3c50d455555:0x625e4cf2def0b6ac"}, {"place_id": "0x399c387ea18150af:0x386cc1af8df053a", "name": "Esperance Technologies Pvt Ltd", "category": "Software company", "street": "B-22", "city": "Bhikaji Cama Place, Rama Krishna Puram", "phone": "09839072195", "website": "http://www.esperancetech.com/", "rating": 4.7, "review_count": "", "latitude": 28.5674408, "longitude": 77.1877414, "maps_url": "https://www.google.com/maps/place/?q=place_id:0x399c387ea18150af:0x386cc1af8df053a"}, {"place_id": "0x390ce3b7c0000001:0x46ddd80ee502d937", "name": "Amtrak Technologies Private Limited", "category": "Computer support and services", "street": "6, Community Centre", "city": "East of Kailash", "phone": "01126448000", "website": "https://amtrak.co.in/", "rating": 4.4, "review_count": "", "latitude": 28.558434899999998, "longitude": 77.2463302, "maps_url": "https://www.google.com/maps/place/?q=place_id:0x390ce3b7c0000001:0x46ddd80ee502d937"}, {"place_id": "0x390d1d78e3ffffff:0x47745aa866429dc2", "name": "Marshal Marketing & Management Pvt. Ltd", "category": "Security service", "street": "M-10, 2nd Floor , M-Block Market, Greater Kailash Part - I", "city": "New Delhi, 110023", "phone": "01129230484", "website": "http://marshal-m-m.com/", "rating": 4.8, "review_count": "", "latitude": 28.577092099999998, "longitude": 77.18700249999999, "maps_url": "https://www.google.com/maps/place/?q=place_id:0x390d1d78e3ffffff:0x47745aa866429dc2"}, {"place_id": "0x390d1be7f1a44f95:0x84524a5425f8930d", "name": "InfraDost Technologies Pvt Ltd.- Microsoft Adobe Corel Draw & Security Solution Provider", "category": "Computer support and services", "street": "Gurgaon - Delhi Expy", "city": "Block B, Mahipalpur Village, Mahipalpur", "phone": "08287792542", "website": "http://www.infradost.com/", "rating": 4.6, "review_count": "", "latitude": 28.5485743, "longitude": 77.1264697, "maps_url": "https://www.google.com/maps/place/?q=place_id:0x390d1be7f1a44f95:0x84524a5425f8930d"}, {"place_id": "0x390ce45bcd61048f:0x5f6a5602f4155df7", "name": "JK Technosoft Limited", "category": "Software company", "street": "F", "city": "3", "phone": "01204606300", "website": "https://jktech.com/", "rating": 4.2, "review_count": "", "latitude": 28.5802509, "longitude": 77.31793329999999, "maps_url": "https://www.google.com/maps/place/?q=place_id:0x390ce45bcd61048f:0x5f6a5602f4155df7"}, {"place_id": "0x390ce3cfe91504eb:0x55346c5c499223d7", "name": "CCS Computers Private Limited", "category": "Computer support and services", "street": "2nd-3rd Floor Skipper House", "city": "Nehru Place", "phone": "01126463959", "website": "http://www.ccscomputers.co.in/", "rating": 4, "review_count": "", "latitude": 28.550090599999997, "longitude": 77.2537834, "maps_url": "https://www.google.com/maps/place/?q=place_id:0x390ce3cfe91504eb:0x55346c5c499223d7"}, {"place_id": "0x390d1d844df861a7:0x92ef9a9c85d29019", "name": "Spiders of web", "category": "Website designer", "street": "Kranti Bhawan", "city": "C 124 Mohammadpur", "phone": "09555260560", "website": "http://spidersofweb.com/", "rating": 4.9, "review_count": "", "latitude": 28.5680953, "longitude": 77.18661829999999, "maps_url": "https://www.google.com/maps/place/?q=place_id:0x390d1d844df861a7:0x92ef9a9c85d29019"}, {"place_id": "0x390ce3db460cee5f:0x47a6e8d4aa56a40f", "name": "Injoria Technologies: Website, Custome Software, Mobile Apps Development company", "category": "Computer support and services", "street": "Second Floor", "city": "Pandav Nagar Complex", "phone": "09911177045", "website": "", "rating": 4.5, "review_count": "", "latitude": 28.6215884, "longitude": 77.2842872, "maps_url": "https://www.google.com/maps/place/?q=place_id:0x390ce3db460cee5f:0x47a6e8d4aa56a40f"}, {"place_id": "0x390cfd35391deb71:0xdbdd1388c7dc51b6", "name": "Jak Software Pvt Ltd", "category": "Software company", "street": "52 Janpath", "city": "New Delhi, Delhi 110001", "phone": "07827249056", "website": "http://www.jaksoftware.co.in/", "rating": 4.4, "review_count": "", "latitude": 28.627537999999998, "longitude": 77.21878989999999, "maps_url": "https://www.google.com/maps/place/?q=place_id:0x390cfd35391deb71:0xdbdd1388c7dc51b6"}, {"place_id": "0x390d1d844c17c9b1:0x67ae1a2d9024b08d", "name": "Lecan Solutions Private Limited", "category": "Human resource consulting", "street": "Mohammadpur", "city": "B-138", "phone": "09958732119", "website": "http://www.lecansolutions.com/", "rating": 3.7, "review_count": "", "latitude": 28.566264999999998, "longitude": 77.18698719999999, "maps_url": "https://www.google.com/maps/place/?q=place_id:0x390d1d844c17c9b1:0x67ae1a2d9024b08d"}, {"place_id": "0x390d1ed3c6e9f579:0x322eccdb00f350d2", "name": "Techjockey", "category": "Software company", "street": "Ground floor, Habitat India", "city": "C-3", "phone": "01142213003", "website": "https://www.techjockey.com/", "rating": 4, "review_count": "", "latitude": 28.536615299999998, "longitude": 77.1902978, "maps_url": "https://www.google.com/maps/place/?q=place_id:0x390d1ed3c6e9f579:0x322eccdb00f350d2"}, {"place_id": "0x390d1db0aef40171:0xb748a2e6079dd53d", "name": "YB INFORMATICS", "category": "Computer support and services", "street": "43, Poorvi Marg", "city": "Block A, Vasant Vihar", "phone": "09650920040", "website": "http://www.ybinformatics.com/", "rating": 5, "review_count": "", "latitude": 28.560817399999998, "longitude": 77.1666408, "maps_url": "https://www.google.com/maps/place/?q=place_id:0x390d1db0aef40171:0xb748a2e6079dd53d"}, {"place_id": "0x390d1dd687f35f6f:0xac3053b9c737a2da", "name": "Maxop Engineering - Head Office", "category": "Corporate office", "street": "Africa Ave", "city": "Block A 2, Nauroji Nagar, Safdarjung Enclave", "phone": "", "website": "https://www.maxop.com/", "rating": 3.6, "review_count": "", "latitude": 28.5682846, "longitude": 77.1898331, "maps_url": "https://www.google.com/maps/place/?q=place_id:0x390d1dd687f35f6f:0xac3053b9c737a2da"}, {"place_id": "0x390ce55ffe34c78d:0x5e0691a2f679aa6a", "name": "ANR Software Private Limited", "category": "Software company", "street": "B 103-104, Sector 63 Rd", "city": "B Block, Sector 63", "phone": "", "website": "https://www.anrsoftware.com/", "rating": 3.9, "review_count": "", "latitude": 28.615819, "longitude": 77.3785242, "maps_url": "https://www.google.com/maps/place/?q=place_id:0x390ce55ffe34c78d:0x5e0691a2f679aa6a"}, {"place_id": "0x390d1d838b9b70d5:0x4d2f40f4f0842c4d", "name": "Worldwide Achievers Pvt. Ltd.", "category": "Corporate office", "street": "3rd Floor, Ansal Chamber-2", "city": "324", "phone": "09990496789", "website": "https://www.worldwideachievers.in/", "rating": 4.7, "review_count": "", "latitude": 28.5677649, "longitude": 77.187382, "maps_url": "https://www.google.com/maps/place/?q=place_id:0x390d1d838b9b70d5:0x4d2f40f4f0842c4d"}, {"place_id": "0x390d046160cbfd05:0x61b16861a432d74c", "name": "Datar Security Service Group company", "category": "Security service", "street": "201, Second Floor", "city": "Bhikaji Cama Place, Bhawan II", "phone": "18001204131", "website": "http://www.dssg.in/", "rating": 3.9, "review_count": "", "latitude": 28.5690264, "longitude": 77.1872187, "maps_url": "https://www.google.com/maps/place/?q=place_id:0x390d046160cbfd05:0x61b16861a432d74c"}, {"place_id": "0x390ce23eeab015ab:0x92d6a7e8dbc46e1a", "name": "Odyssey Website Development Company", "category": "Website designer", "street": "B-59", "city": "Block B, Soami Nagar South, Soami Nagar", "phone": "09654486464", "website": "http://odysseyin.com/?utm_source=GMB&utm_medium=Organic&utm_term=Odyssey&utm_content=Listing&utm_campaign=GMB1", "rating": 3.6, "review_count": "", "latitude": 28.541823599999997, "longitude": 77.2262008, "maps_url": "https://www.google.com/maps/place/?q=place_id:0x390ce23eeab015ab:0x92d6a7e8dbc46e1a"}, {"place_id": "0x390ce25755122ea7:0x59e8215f1ba54e40", "name": "Ministry Of Marketing - Best Performance Marketing Agency", "category": "Advertising agency", "street": "7, Basrurkar Market Rd", "city": "Moti Bagh 1, Block D, Moti Bagh", "phone": "08700089990", "website": "http://www.ministryofmarketing.in/", "rating": 4.9, "review_count": "", "latitude": 28.581474099999998, "longitude": 77.1788444, "maps_url": "https://www.google.com/maps/place/?q=place_id:0x390ce25755122ea7:0x59e8215f1ba54e40"}, {"place_id": "0x390d1d2df7c04d33:0x5a53adb349694ded", "name": "NBCC Seva Sadan office", "category": "Corporate office", "street": "H5GP+4Q6", "city": "Grah Kalyan Kendra, Community Centre", "phone": "", "website": "", "rating": 4.5, "review_count": "", "latitude": 28.575135799999998, "longitude": 77.186948, "maps_url": "https://www.google.com/maps/place/?q=place_id:0x390d1d2df7c04d33:0x5a53adb349694ded"}, {"place_id": "0x390d0302af76c545:0x97d6a46d40086acd", "name": "Solarman Technology Project Pvt Ltd - Digital Marketing Company in Delhi, India |Software Development Company | IT Company", "category": "Internet marketing service", "street": "6/14", "city": "Block 5, Kirti Nagar Industrial Area, Kirti Nagar", "phone": "07428086779", "website": "https://solarmantech.in/", "rating": 5, "review_count": "", "latitude": 28.6517841, "longitude": 77.14799649999999, "maps_url": "https://www.google.com/maps/place/?q=place_id:0x390d0302af76c545:0x97d6a46d40086acd"}, {"place_id": "0xd1516b679f60d2f:0x9458c47d907b59a8", "name": "MarkTech Company", "category": "Marketing agency", "street": "INA, Laxmi Bai Nagar", "city": "New Delhi, Delhi 110023", "phone": "08527880385", "website": "https://markteches.com/", "rating": 3.9, "review_count": "", "latitude": 28.5754463, "longitude": 77.2077127, "maps_url": "https://www.google.com/maps/place/?q=place_id:0xd1516b679f60d2f:0x9458c47d907b59a8"}, {"place_id": "0x390d1d846268eabf:0xade939dea7de4bfa", "name": "NTPC-SAIL Power Company Limited", "category": "Electric utility company", "street": "15", "city": "Bhikaji Cama Place, Rama Krishna Puram", "phone": "01126717379", "website": "https://www.nspcl.co.in/", "rating": 4.5, "review_count": "", "latitude": 28.567905099999997, "longitude": 77.1860343, "maps_url": "https://www.google.com/maps/place/?q=place_id:0x390d1d846268eabf:0xade939dea7de4bfa"}, {"place_id": "0x390cfd355ca0fea9:0x1f2be0f1ef6dbdcf", "name": "Vayam Technologies Ltd.", "category": "Corporate office", "street": "Thapar House", "city": "124, Janpath Ln", "phone": "01147101200", "website": "https://www.vayamtech.com/", "rating": 3.8, "review_count": "", "latitude": 28.624508, "longitude": 77.21805499999999, "maps_url": "https://www.google.com/maps/place/?q=place_id:0x390cfd355ca0fea9:0x1f2be0f1ef6dbdcf"}, {"place_id": "0x390d1d841e293e2d:0x138def7f58f35c8c", "name": "Starc Energy", "category": "Solar Energy Company", "street": "C-139, Mohammadpur Near", "city": "Bhikaji Cama Place", "phone": "09999123038", "website": "http://starcenergy.com/", "rating": 4.6, "review_count": "", "latitude": 28.567453399999998, "longitude": 77.1873378, "maps_url": "https://www.google.com/maps/place/?q=place_id:0x390d1d841e293e2d:0x138def7f58f35c8c"}, {"place_id": "0x390d1d840d0b7db3:0x91639de588e71793", "name": "Website Promotion company in Delhi", "category": "Software company", "street": "705(b", "city": "Bhikaji Cama Place", "phone": "", "website": "https://direct-i.com/", "rating": "", "review_count": "", "latitude": 28.5674408, "longitude": 77.1877414, "maps_url": "https://www.google.com/maps/place/?q=place_id:0x390d1d840d0b7db3:0x91639de588e71793"}, {"place_id": "0xac577056c2b5ff3d:0xaf00253141553d04", "name": "Devnotam | IT Company", "category": "Internet marketing service", "street": "", "city": "", "phone": "", "website": "https://devnotam.com/", "rating": 5, "review_count": "", "latitude": 28.692404999999997, "longitude": 77.090042, "maps_url": "https://www.google.com/maps/place/?q=place_id:0xac577056c2b5ff3d:0xaf00253141553d04"}, {"place_id": "0x390d1ddb62613c1d:0x8397b83491c720fd", "name": "Optimus Enviropro Pvt. Ltd. (Delhi Office) Water & Wastewater Treatment | STP | ETP | ZLD | RO&UF | DM Plant Manufacturer", "category": "Sewage treatment plant", "street": "901", "city": "near EIL Pvt. Ltd", "phone": "01141551444", "website": "https://optimusenviro.pro/", "rating": 4, "review_count": "", "latitude": 28.5687656, "longitude": 77.18706759999999, "maps_url": "https://www.google.com/maps/place/?q=place_id:0x390d1ddb62613c1d:0x8397b83491c720fd"}, {"place_id": "0x390d1d8baaaaaaab:0x81e02841f207d0f0", "name": "S SONY & COMPANY PVT. LTD", "category": "Real Estate Builders & Construction Company", "street": "G-4, ANUPAMA BUILDING II FLOOR", "city": "Hauz Khas", "phone": "01135002651", "website": "http://ssony.in/", "rating": 4.9, "review_count": "", "latitude": 28.5510508, "longitude": 77.2048471, "maps_url": "https://www.google.com/maps/place/?q=place_id:0x390d1d8baaaaaaab:0x81e02841f207d0f0"}, {"place_id": "0x390d1d838b6adef3:0x9fe7d28408ca7ceb", "name": "Perfect Generator Technologies Pvt. Ltd.", "category": "Industrial consultant", "street": "5th Floor, Ansal Chamber-2", "city": "512", "phone": "08527500501", "website": "http://www.perfectgenerators.com/", "rating": 4.4, "review_count": "", "latitude": 28.5677649, "longitude": 77.187382, "maps_url": "https://www.google.com/maps/place/?q=place_id:0x390d1d838b6adef3:0x9fe7d28408ca7ceb"}, {"place_id": "0x390d1de913938c2b:0xe26bf499129edc7a", "name": "KOLATH & CO", "category": "Business management consultant", "street": "FFS 4, ANSAL CHAMBERS I", "city": "3", "phone": "09497836863", "website": "http://www.kolath.in/", "rating": 5, "review_count": "", "latitude": 28.568639599999997, "longitude": 77.1886024, "maps_url": "https://www.google.com/maps/place/?q=place_id:0x390d1de913938c2b:0xe26bf499129edc7a"}, {"place_id": "0x390d1d3fd8418b33:0x7ca883b95bb0889f", "name": "SAEV PRIVATE LIMITED", "category": "Solar Energy Company", "street": "10th Floor", "city": "1002", "phone": "", "website": "http://sa-ev.com/", "rating": 3.5, "review_count": "", "latitude": 28.5688949, "longitude": 77.1865096, "maps_url": "https://www.google.com/maps/place/?q=place_id:0x390d1d3fd8418b33:0x7ca883b95bb0889f"}, {"place_id": "0x390d1d841aaaaaab:0x8d3118e810b3bd50", "name": "Udaan India - The Original Visa Company (Head Office)", "category": "Visa Agent", "street": "309-312, Somdutt Chamber-II, Road No. 9", "city": "Bhikaji Cama Place", "phone": "09540017356", "website": "https://udaanindia.com/", "rating": 4, "review_count": "", "latitude": 28.5680014, "longitude": 77.1874028, "maps_url": "https://www.google.com/maps/place/?q=place_id:0x390d1d841aaaaaab:0x8d3118e810b3bd50"}, {"place_id": "0x390d1d841e2915ed:0xcfad4cb937f37055", "name": "Nexensus", "category": "Database Management Company", "street": "A223, Somdatt Chambers 1, Bhikaji Cama Place", "city": "New Delhi, Delhi 110066", "phone": "09205685050", "website": "http://www.nexensus.com/", "rating": 3.2, "review_count": "", "latitude": 28.567804, "longitude": 77.1886085, "maps_url": "https://www.google.com/maps/place/?q=place_id:0x390d1d841e2915ed:0xcfad4cb937f37055"}, {"place_id": "0x390ce21c24e85b2f:0xf80cd35fedbc3cea", "name": "Cyberspace Networking Systems (P) Ltd.", "category": "Web hosting company", "street": "NIL-36C, Shvalik, DDA Flats, Malviya Nagar", "city": "New Delhi, Delhi 110017", "phone": "01141892901", "website": "http://www.cyberspace.in/", "rating": 3.9, "review_count": "", "latitude": 28.534816, "longitude": 77.21120789999999, "maps_url": "https://www.google.com/maps/place/?q=place_id:0x390ce21c24e85b2f:0xf80cd35fedbc3cea"}, {"place_id": "0x390d1d8412b9ce25:0xd2c6483973c34aa9", "name": "Orion PR | PR Agency in Delhi, New Delhi, Delhi NCR | Strategic PR and Crisis Communications | Reputation Management", "category": "Public relations firm", "street": "Ansal Chamber-2", "city": "B-214, Second Floor", "phone": "09910509394", "website": "http://www.orionpr.in/", "rating": 4.8, "review_count": "", "latitude": 28.5692228, "longitude": 77.1877839, "maps_url": "https://www.google.com/maps/place/?q=place_id:0x390d1d8412b9ce25:0xd2c6483973c34aa9"}, {"place_id": "0x390d1d838b9b70d5:0x94f640a524d3cbb5", "name": "Miraz Facility Management Services Private Limited", "category": "Security service", "street": "38 Mohammadpur", "city": "Bhikaji Cama Place", "phone": "09810066817", "website": "http://www.mirazfacility.com/", "rating": 5, "review_count": "", "latitude": 28.5657154, "longitude": 77.1885203, "maps_url": "https://www.google.com/maps/place/?q=place_id:0x390d1d838b9b70d5:0x94f640a524d3cbb5"}, {"place_id": "0x390cfb4bf15a6733:0xaf50e6f3c5fb7641", "name": "Digitals Daddy: Web & App Development Company", "category": "Website designer", "street": "Metro Gate No. 2", "city": "Nearest Sikandarpur", "phone": "09818286609", "website": "https://www.digitalsdaddy.com/", "rating": 4.9, "review_count": "", "latitude": 28.4847884, "longitude": 77.0922192, "maps_url": "https://www.google.com/maps/place/?q=place_id:0x390cfb4bf15a6733:0xaf50e6f3c5fb7641"}, {"place_id": "0x390d1d350ded40f7:0x7cc070a41c693ebb", "name": "Learning Routes Private Limited", "category": "Educational consultant", "street": "Block B 2nd floor", "city": "Ansal Chamber -1", "phone": "01140074750", "website": "http://www.learningroutes.in/", "rating": 4.3, "review_count": "", "latitude": 28.569158299999998, "longitude": 77.18778429999999, "maps_url": "https://www.google.com/maps/place/?q=place_id:0x390d1d350ded40f7:0x7cc070a41c693ebb"}, {"place_id": "0x390d1d841aaaaaab:0xb1665135a92201f5", "name": "Mass Management Services Pvt. Ltd.", "category": "Business management consultant", "street": "320, Ansal Chamber-2", "city": "BHIKAJI CAMA PLACE", "phone": "01126106111", "website": "https://www.massmanagement.net/", "rating": 4.1, "review_count": "", "latitude": 28.567561899999998, "longitude": 77.1881973, "maps_url": "https://www.google.com/maps/place/?q=place_id:0x390d1d841aaaaaab:0xb1665135a92201f5"}, {"place_id": "0x390d1d77d41eaacb:0xc92734f8c80e3942", "name": "Capital Pest Control India", "category": "Pest control service", "street": "Atma Ram Dairy Complex", "city": "J-39B", "phone": "01125502174", "website": "", "rating": 3.6, "review_count": "", "latitude": 28.574253, "longitude": 77.180486, "maps_url": "https://www.google.com/maps/place/?q=place_id:0x390d1d77d41eaacb:0xc92734f8c80e3942"}, {"place_id": "0x390d1d841e293e2d:0xfb24420e313c2319", "name": "THE COORDINATORS", "category": "Event management company", "street": "529-530, 5th Floor, Somdutt Chamber-ll Bhikaji Cama Place", "city": "New Delhi, Delhi 110066", "phone": "08510001851", "website": "https://www.instagram.com/theco_ordinators/?hl=en", "rating": 4.4, "review_count": "", "latitude": 28.5678035, "longitude": 77.1886085, "maps_url": "https://www.google.com/maps/place/?q=place_id:0x390d1d841e293e2d:0xfb24420e313c2319"}, {"place_id": "0x390ce15795555555:0x9bb8a801d00d7573", "name": "DreamSoft Infotech - Website Development Company in India", "category": "Software company", "street": "A-75 Third Floor", "city": "A Block, Sector 5", "phone": "01204380622", "website": "https://dreamsoftinfotech.com/", "rating": 3.4, "review_count": "", "latitude": 28.591018899999998, "longitude": 77.32201529999999, "maps_url": "https://www.google.com/maps/place/?q=place_id:0x390ce15795555555:0x9bb8a801d00d7573"}, {"place_id": "0x3962fd7221978859:0xf7a3ac341920f06f", "name": "Parkhya Solutions Pvt. Ltd.", "category": "Software company", "street": "121, Devi Ahilya Marg", "city": "Sahakar Nagar, Snehlataganj", "phone": "", "website": "http://www.parkhya.com/", "rating": 4.4, "review_count": "", "latitude": 22.729563499999998, "longitude": 75.863581, "maps_url": "https://www.google.com/maps/place/?q=place_id:0x3962fd7221978859:0xf7a3ac341920f06f"}, {"place_id": "0x390d1b0010fc2321:0x12e9154c815cf007", "name": "Prashant Dwivedi IT company", "category": "Warehouse", "street": "G3P5+GVC", "city": "Nayak Pura, Bijwasan", "phone": "", "website": "", "rating": "", "review_count": "", "latitude": 28.536316, "longitude": 77.059649, "maps_url": "https://www.google.com/maps/place/?q=place_id:0x390d1b0010fc2321:0x12e9154c815cf007"}, {"place_id": "0x390d1d841fefffff:0x60445c4d74e8817a", "name": "SupremeWork | Co-working Space Bhikaji", "category": "Coworking space", "street": "LG-5", "city": "Somdutt Chamber 1", "phone": "08699308453", "website": "https://www.supremework.work/", "rating": 3.1, "review_count": "", "latitude": 28.5679241, "longitude": 77.1890038, "maps_url": "https://www.google.com/maps/place/?q=place_id:0x390d1d841fefffff:0x60445c4d74e8817a"}, {"place_id": "0x390d1d77d41c0001:0x36b011c4c8118403", "name": "India Discovery By Wheels", "category": "Travel agency", "street": "Atma Ram Dairy Complex", "city": "B-11", "phone": "08448449536", "website": "http://indiadiscoverybywheels.com/", "rating": 5, "review_count": "", "latitude": 28.5742534, "longitude": 77.180486, "maps_url": "https://www.google.com/maps/place/?q=place_id:0x390d1d77d41c0001:0x36b011c4c8118403"}, {"place_id": "0x390ce25f6e3d2b9d:0x57f3a0fc9725f59b", "name": "YATRA POINT TOURISM COMPANY INDIA", "category": "Travel agency", "street": "OFFICE NO-7", "city": "BULDING NO N-1, LGF", "phone": "08860016982", "website": "", "rating": 4.9, "review_count": "", "latitude": 28.574078, "longitude": 77.219089, "maps_url": "https://www.google.com/maps/place/?q=place_id:0x390ce25f6e3d2b9d:0x57f3a0fc9725f59b"}, {"place_id": "0x390d1e748ef61961:0x754ceb660996cfdb", "name": "ACS System Solutions", "category": "Software company", "street": "Kishangarh, Kishangarh Village, Vasant Kunj", "city": "New Delhi, Delhi 110070", "phone": "01149858620", "website": "http://acssystem.in/", "rating": 3.4, "review_count": "", "latitude": 28.522178699999998, "longitude": 77.1692609, "maps_url": "https://www.google.com/maps/place/?q=place_id:0x390d1e748ef61961:0x754ceb660996cfdb"}, {"place_id": "0x390d1d0043ce0b67:0xaafdaf07f98a75b2", "name": "AGGCON - New Delhi", "category": "Construction equipment supplier", "street": "Unit E 009", "city": "Block E", "phone": "01147050513", "website": "https://aggconequipments.com/%20company%20is%20the%20very%20good%20%ED%A0%BD%ED%B1%8D", "rating": 4.8, "review_count": "", "latitude": 28.568717799999998, "longitude": 77.19453399999999, "maps_url": "https://www.google.com/maps/place/?q=place_id:0x390d1d0043ce0b67:0xaafdaf07f98a75b2"}, {"place_id": "0x390d1d841a0f4d5b:0x1ea67bfcce9a7e24", "name": "SL Entertainment & Events - best event management company in Delhi | corporate event Planners | Celebrity booking", "category": "Event management company", "street": "Ansal Complex", "city": "B-516", "phone": "", "website": "https://slentertainment.in/", "rating": 4.6, "review_count": "", "latitude": 28.568580899999997, "longitude": 77.1882607, "maps_url": "https://www.google.com/maps/place/?q=place_id:0x390d1d841a0f4d5b:0x1ea67bfcce9a7e24"}, {"place_id": "0x390d1b1d006e1835:0x313c2b1b01db4e74", "name": "National High Speed Rail Corporation Limited", "category": "Corporate office", "street": "World Trade Center", "city": "Block D, Block F, Nauroji Nagar, Safdarjung Enclave", "phone": "01128070002", "website": "http://www.nhsrcl.in/", "rating": 4.4, "review_count": "", "latitude": 28.568427, "longitude": 77.1928171, "maps_url": "https://www.google.com/maps/place/?q=place_id:0x390d1b1d006e1835:0x313c2b1b01db4e74"}, {"place_id": "0x390ce3b5e9981665:0x6ed3916f90d5be3c", "name": "Netsoft Consulting Services", "category": "Information services", "street": "24, IInd Floor, Community Center, East Of Kailash", "city": "behind Sapna Cinema", "phone": "01145330000", "website": "https://netsoftit.com/contact-us/", "rating": 3.5, "review_count": "", "latitude": 28.5583678, "longitude": 77.24568579999999, "maps_url": "https://www.google.com/maps/place/?q=place_id:0x390ce3b5e9981665:0x6ed3916f90d5be3c"}, {"place_id": "0x390cdc6f70fb5be5:0xa34888feda73528d", "name": "Pepper Designs", "category": "Website designer", "street": "House No 1, Ground Floor", "city": "Hauz Khas Village", "phone": "09811767560", "website": "https://www.pepper-designs.com/", "rating": 4.6, "review_count": "", "latitude": 28.555021999999997, "longitude": 77.19471399999999, "maps_url": "https://www.google.com/maps/place/?q=place_id:0x390cdc6f70fb5be5:0xa34888feda73528d"}, {"place_id": "0x390d1d841a0f4d5b:0xe24aae611e6409d9", "name": "PaanSmith", "category": "Food Processing Company", "street": "610", "city": "Bikaji Complex", "phone": "09999447895", "website": "http://paansmith.com/", "rating": 4, "review_count": "", "latitude": 28.5679189, "longitude": 77.1881483, "maps_url": "https://www.google.com/maps/place/?q=place_id:0x390d1d841a0f4d5b:0xe24aae611e6409d9"}, {"place_id": "0x390d1d6abe97313b:0x2165b4678064ec68", "name": "Super Shine Drycleaners", "category": "Dry cleaner", "street": "No. 16v", "city": "Shop", "phone": "09999396336", "website": "", "rating": 4.9, "review_count": "", "latitude": 28.5758281, "longitude": 77.1879142, "maps_url": "https://www.google.com/maps/place/?q=place_id:0x390d1d6abe97313b:0x2165b4678064ec68"}, {"place_id": "0x390d1d7fd22c125d:0x68f5162b8cf0abad", "name": "SONY CENTER - Aarav Enterprises", "category": "Electronics store", "street": "Market", "city": "175", "phone": "09871781370", "website": "https://aaravelectronics.com/", "rating": 4.7, "review_count": "", "latitude": 28.5766447, "longitude": 77.19649, "maps_url": "https://www.google.com/maps/place/?q=place_id:0x390d1d7fd22c125d:0x68f5162b8cf0abad"}, {"place_id": "0x3be7c21b5901e181:0x7fe794585addc1f6", "name": "Smartinfologiks - Software Development Company in India | IT Solutions", "category": "Software company", "street": "Hilton Center", "city": "514", "phone": "07400064691", "website": "https://www.smartinfologiks.com/", "rating": 4.6, "review_count": "", "latitude": 19.0139592, "longitude": 73.0382705, "maps_url": "https://www.google.com/maps/place/?q=place_id:0x3be7c21b5901e181:0x7fe794585addc1f6"}, {"place_id": "0x390d1f0df92e353d:0x54e79553d987073c", "name": "Zombie Marketers | Performance Marketing | Digital Marketing | Website development company in Delhi | SEO company in Delhi", "category": "Marketing agency", "street": "89/9 Mamman House B Block 4th Floor", "city": "Kishangarh Village, Vasant Kunj", "phone": "08527273938", "website": "", "rating": 4.4, "review_count": "", "latitude": 28.5189249, "longitude": 77.1646754, "maps_url": "https://www.google.com/maps/place/?q=place_id:0x390d1f0df92e353d:0x54e79553d987073c"}, {"place_id": "0x3bc2becdc35b6937:0x515ac559c349eee3", "name": "Thinkitive Technologies Private Limited", "category": "Software company", "street": "4th Floor", "city": "ABIL IMPERIAL COMMERCIAL SPACES", "phone": "08956467327", "website": "https://www.thinkitive.com/", "rating": 3.9, "review_count": "", "latitude": 18.5563888, "longitude": 73.7729748, "maps_url": "https://www.google.com/maps/place/?q=place_id:0x3bc2becdc35b6937:0x515ac559c349eee3"}, {"place_id": "0x390d1dbca997176d:0x57e66bed722428a", "name": "Earthz Urban Spaces Pvt. Ltd.", "category": "Real Estate Builders & Construction Company", "street": "gate no 4", "city": "metro station", "phone": "09810313009", "website": "http://earthzurbanspaces.com/", "rating": 3.9, "review_count": "", "latitude": 28.5580338, "longitude": 77.1619972, "maps_url": "https://www.google.com/maps/place/?q=place_id:0x390d1dbca997176d:0x57e66bed722428a"}, {"place_id": "0x390ce3083df185df:0xcff0bc07ace98fca", "name": "Dwitty & Company", "category": "Internet marketing service", "street": "B-109", "city": "Block D, Jangpura B", "phone": "07011273521", "website": "", "rating": 5, "review_count": "", "latitude": 28.581945599999997, "longitude": 77.2534653, "maps_url": "https://www.google.com/maps/place/?q=place_id:0x390ce3083df185df:0xcff0bc07ace98fca"}, {"place_id": "0x390cfd35c8f89657:0xadbc7004661a9c74", "name": "Sterco Digitex Pvt Limited", "category": "Website designer", "street": "2nd Floor", "city": "72, Janpath Rd", "phone": "01204857333", "website": "https://www.stercodigitex.com/", "rating": 4.1, "review_count": "", "latitude": 28.628133, "longitude": 77.21985099999999, "maps_url": "https://www.google.com/maps/place/?q=place_id:0x390cfd35c8f89657:0xadbc7004661a9c74"}]}