[{"place_id": "ChIJp25y1MqvSk0Rlx6nFNHxAKw", "name": "Apliko Technologies (OPC) Private Limited", "street": "44, Backary Portion, 2nd Floor, Regal Building, Hanuman Road Area, Connaught Place, New Delhi, Delhi 110001, India", "phone": "+91 97171 40547", "rating": "5", "review_count": "", "website": "https://apliko.tech/", "latitude": 28.6306726, "longitude": 77.21648929999999, "maps_url": "https://www.google.com/maps/search/?api=1&query=Apliko%20Technologies%20%28OPC%29%20Private%20Limited&query_place_id=ChIJp25y1MqvSk0Rlx6nFNHxAKw"}, {"place_id": "ChIJExoZbgP9DDkRd2Q8vmEWFgc", "name": "Posistrength Software Solution Pvt.Ltd.", "street": "Workingdom,E-13/29, First Floor, Harsha Bhawan, Inner Circle, Block E, Connaught Place, New Delhi, Delhi 110001, India", "phone": "+91 89832 05821", "rating": "4.9", "review_count": "", "website": "https://www.posistrength.com/", "latitude": 28.6326204, "longitude": 77.22187869999999, "maps_url": "https://www.google.com/maps/search/?api=1&query=Posistrength%20Software%20Solution%20Pvt.Ltd.&query_place_id=ChIJExoZbgP9DDkRd2Q8vmEWFgc"}, {"place_id": "ChIJZbFt6FH9DDkROB8cWxYquJY", "name": "Tech Learnit", "street": "1st Floor, Hamilton House, Block A, Connaught Place, New Delhi, Delhi 110001, India", "phone": "+91 80870 53668", "rating": "5", "review_count": "", "website": "https://www.techlearnit.com/", "latitude": 28.632013099999998, "longitude": 77.2178718, "maps_url": "https://www.google.com/maps/search/?api=1&query=Tech%20Learnit&query_place_id=ChIJZbFt6FH9DDkROB8cWxYquJY"}, {"place_id": "ChIJITEUwdbiDDkRJOYUu7ijEEA", "name": "Atlanta Systems Private Limited", "street": "M-135, 2nd Floor, Connaught Place, New Delhi, Delhi 110001, India", "phone": "+91 80 4802 4386", "rating": "4.1", "review_count": "", "website": "", "latitude": 28.6335099, "longitude": 77.2225933, "maps_url": "https://www.google.com/maps/search/?api=1&query=Atlanta%20Systems%20Private%20Limited&query_place_id=ChIJITEUwdbiDDkRJOYUu7ijEEA"}, {"place_id": "ChIJlaY7HUv9DDkRXE7f2ZAgbLE", "name": "Infocera IT", "street": "First Floor, Block-L, L29 - L34, Block L, Connaught Place, New Delhi, Delhi 110001, India", "phone": "", "rating": "4.7", "review_count": "", "website": "https://infocera.in/", "latitude": 28.634275499999998, "longitude": 77.2217273, "maps_url": "https://www.google.com/maps/search/?api=1&query=Infocera%20IT&query_place_id=ChIJlaY7HUv9DDkRXE7f2ZAgbLE"}, {"place_id": "ChIJp2QZy6PhDDkRo4MA8enlBaI", "name": "Highlex Technologies", "street": "1st Floor, Krishna Park, D-300, Connaught Place, New Delhi, Delhi 110001, India", "phone": "+91 85868 53031", "rating": "5", "review_count": "", "website": "https://highlex.in/", "latitude": 28.632742999999998, "longitude": 77.219597, "maps_url": "https://www.google.com/maps/search/?api=1&query=Highlex%20Technologies&query_place_id=ChIJp2QZy6PhDDkRo4MA8enlBaI"}, {"place_id": "ChIJ9ZOwCKP9DDkRSrZFLkI00po", "name": "FeathrAI", "street": "P21/90, Panchkuian Road Railway Colony, Railway Colony, Connaught Place, New Delhi, Delhi 110001, India", "phone": "", "rating": "5", "review_count": "", "website": "https://feathrai.xyz/", "latitude": 28.635936599999997, "longitude": 77.21566229999999, "maps_url": "https://www.google.com/maps/search/?api=1&query=FeathrAI&query_place_id=ChIJ9ZOwCKP9DDkRSrZFLkI00po"}, {"place_id": "ChIJl4FEUC79DDkRcO6JhMtCTyw", "name": "Accelon Technologies Pvt Ltd. SAP Business One Gold Partner, New Delhi", "street": "L-29, 1st Floor, Awfis Business Center, Connaught Cir, Connaught Place, New Delhi, Delhi 110001, India", "phone": "+91 90210 68822", "rating": "5", "review_count": "", "website": "https://accelontech.com/", "latitude": 28.6341117, "longitude": 77.2220997, "maps_url": "https://www.google.com/maps/search/?api=1&query=Accelon%20Technologies%20Pvt%20Ltd.%20SAP%20Business%20One%20Gold%20Partner%2C%20New%20Delhi&query_place_id=ChIJl4FEUC79DDkRcO6JhMtCTyw"}, {"place_id": "ChIJY05MZjb9DDkRTiB7cFBD48w", "name": "DataSlexIndia | On-Demand Software Development Company", "street": "210,211,212 BMC House, N1, Middle Cir, Connaught Place, New Delhi, Delhi 110001, India", "phone": "+91 11 2484 5172", "rating": "5", "review_count": "", "website": "https://dataslexindia.com/", "latitude": 28.630570499999997, "longitude": 77.2198088, "maps_url": "https://www.google.com/maps/search/?api=1&query=DataSlexIndia%20%7C%20On-Demand%20Software%20Development%20Company&query_place_id=ChIJY05MZjb9DDkRTiB7cFBD48w"}, {"place_id": "ChIJLXrkS8z9DDkRIXIDU_ojar0", "name": "Web Players Technology- Website Designing Company in Central Delhi - Landing Page Designing Company in Delhi", "street": "CP N-12 UPPER GROUND FLOOR MUNSI LAL BUILDING, Connaught Cir, OPPOSITE KFC, Connaught Place, New Delhi, Delhi 110001, India", "phone": "+91 97172 92583", "rating": "5", "review_count": "", "website": "https://www.web-players.co.in/", "latitude": 28.6315566, "longitude": 77.22262119999999, "maps_url": "https://www.google.com/maps/search/?api=1&query=Web%20Players%20Technology-%20Website%20Designing%20Company%20in%20Central%20Delhi%20-%20Landing%20Page%20Designing%20Company%20in%20Delhi&query_place_id=ChIJLXrkS8z9DDkRIXIDU_ojar0"}, {"place_id": "ChIJGawlns_P6EsRNuNQrmA54cA", "name": "Delhi Legal Company", "street": "4th floor, E Block, Innov8 Workspaces India Limited, Harsha Bhawan, 13/29, Connaught Place, New Delhi, Delhi 110001, India", "phone": "", "rating": "5", "review_count": "", "website": "https://www.delhilegalcompany.com/", "latitude": 28.632317, "longitude": 77.2216952, "maps_url": "https://www.google.com/maps/search/?api=1&query=Delhi%20Legal%20Company&query_place_id=ChIJGawlns_P6EsRNuNQrmA54cA"}, {"place_id": "ChIJ4QYGyUj9DDkROXsrU8skcxw", "name": "GY SOLUTION INDIA", "street": "pachguiya road , basant lane, bansant lane, Paharganj, New Delhi, Delhi 110055, India", "phone": "+91 88003 18834", "rating": "5", "review_count": "", "website": "https://gysolutionindia.com/", "latitude": 28.6367588, "longitude": 77.21626119999999, "maps_url": "https://www.google.com/maps/search/?api=1&query=GY%20SOLUTION%20INDIA&query_place_id=ChIJ4QYGyUj9DDkROXsrU8skcxw"}, {"place_id": "ChIJvf5v2kn9DDkRRLj0BpQjUPs", "name": "Asian infotech", "street": "J6J8+XMH, Connaught Cir, P-25, Connaught Place, New Delhi, Delhi 110001, India", "phone": "+91 98100 57894", "rating": "3.6", "review_count": "", "website": "", "latitude": 28.6324489, "longitude": 77.2167425, "maps_url": "https://www.google.com/maps/search/?api=1&query=Asian%20infotech&query_place_id=ChIJvf5v2kn9DDkRRLj0BpQjUPs"}, {"place_id": "ChIJwQuVsDb9DDkRboW31hMj5nA", "name": "Avanta Business Centre", "street": "Statesman House, 402, Barakhamba Rd, Barakhamba, New Delhi, Delhi 110001, India", "phone": "+91 11 3044 6402", "rating": "4.8", "review_count": "", "website": "https://www.avanta.co.in/business-centre/connaught-place-delhi?utm_source=GMB-CP&utm_medium=gmb&utm_id=cpstatesman", "latitude": 28.630816099999997, "longitude": 77.2226072, "maps_url": "https://www.google.com/maps/search/?api=1&query=Avanta%20Business%20Centre&query_place_id=ChIJwQuVsDb9DDkRboW31hMj5nA"}, {"place_id": "ChIJC3MN3zb9DDkR-JxtEG9cQg0", "name": "I. T. Solutions", "street": "Gate No. 8, A-6, 1st Floor, Inner Circle, Above Post office, near ICICI Bank, Bon Ton and Metro, Connaught Place, New Delhi, Delhi 110001, India", "phone": "+91 11 4152 3242", "rating": "4.9", "review_count": "", "website": "http://www.itsolutioncp.com/", "latitude": 28.6324367, "longitude": 77.2183441, "maps_url": "https://www.google.com/maps/search/?api=1&query=I.%20T.%20Solutions&query_place_id=ChIJC3MN3zb9DDkR-JxtEG9cQg0"}, {"place_id": "ChIJqyCtCTX7DDkReg_-w3ngKUY", "name": "Logical Learning Company Pvt Ltd", "street": "Building 29 1st Floor, Block-L, Middle Cir, Block L, Connaught Place, New Delhi, Delhi 110001, India", "phone": "+91 95609 42419", "rating": "3.3", "review_count": "", "website": "https://www.nxiindia.com/", "latitude": 28.634275499999998, "longitude": 77.2217273, "maps_url": "https://www.google.com/maps/search/?api=1&query=Logical%20Learning%20Company%20Pvt%20Ltd&query_place_id=ChIJqyCtCTX7DDkReg_-w3ngKUY"}, {"place_id": "ChIJUTjmTlX9DDkRFs7kNi7bKuo", "name": "Globe Alley Tech. - Software Development Company", "street": "J6JG+6RW, 119, Fire Brigade Lane, Connaught Place, New Delhi, Delhi 110001, India", "phone": "+91 99107 10140", "rating": "4.9", "review_count": "", "website": "http://globealley.us/", "latitude": 28.6306084, "longitude": 77.22708829999999, "maps_url": "https://www.google.com/maps/search/?api=1&query=Globe%20Alley%20Tech.%20-%20Software%20Development%20Company&query_place_id=ChIJUTjmTlX9DDkRFs7kNi7bKuo"}, {"place_id": "ChIJGe3Rkcj9DDkRxJgIY58DEx8", "name": "ConnectHQ", "street": "M 130-131, Connaught Cir, Shankar Market, Block M, Connaught Place, New Delhi, Delhi, 110001, India", "phone": "", "rating": "4.9", "review_count": "", "website": "https://connecthq.co.in/office-space-cp.html", "latitude": 28.633471999999998, "longitude": 77.222512, "maps_url": "https://www.google.com/maps/search/?api=1&query=ConnectHQ&query_place_id=ChIJGe3Rkcj9DDkRxJgIY58DEx8"}, {"place_id": "ChIJV1h_kvr9DDkRCDArgKNi_2c", "name": "Innov8 | Coworking Space in Delhi - Connaught Place 2", "street": "2rd Floor, Property No. 44, Regal Building, above Madame Tussauds, Hanuman Road Area, Connaught Place, New Delhi, Delhi 110001, India", "phone": "+91 99994 66688", "rating": "4.5", "review_count": "", "website": "https://www.innov8.work/coworking-space/delhi/innov8-cp2-center-delhi-5d9f068099608f330ca662ea?utm_source=GMB&utm_medium=organic&utm_campaign=innov8-cp2", "latitude": 28.6306726, "longitude": 77.21648929999999, "maps_url": "https://www.google.com/maps/search/?api=1&query=Innov8%20%7C%20Coworking%20Space%20in%20Delhi%20-%20Connaught%20Place%202&query_place_id=ChIJV1h_kvr9DDkRCDArgKNi_2c"}, {"place_id": "ChIJgSY04jf9DDkRReg95uiL0Co", "name": "Grid IT Solutions", "street": "1st Floor B, 39, Middle Cir, Block B, Connaught Place, New Delhi, Delhi 110001, India", "phone": "+91 99966 39777", "rating": "4", "review_count": "", "website": "http://griditsolutions.net/", "latitude": 28.6340552, "longitude": 77.21794419999999, "maps_url": "https://www.google.com/maps/search/?api=1&query=Grid%20IT%20Solutions&query_place_id=ChIJgSY04jf9DDkRReg95uiL0Co"}, {"place_id": "ChIJv0cN2RH9DDkR3vv4eqRbmkc", "name": "Nukleus Coworking Space in Delhi - Connaught Place, Regal Building", "street": "Regal Building, 69, Connaught Cir, Hanuman Road Area, Connaught Place, New Delhi, Delhi 110001, India", "phone": "+91 163 255 0734", "rating": "4.8", "review_count": "", "website": "https://www.nukleus.work/", "latitude": 28.631135399999998, "longitude": 77.2166336, "maps_url": "https://www.google.com/maps/search/?api=1&query=Nukleus%20Coworking%20Space%20in%20Delhi%20-%20Connaught%20Place%2C%20Regal%20Building&query_place_id=ChIJv0cN2RH9DDkR3vv4eqRbmkc"}, {"place_id": "ChIJXztuxUn9DDkRkPzO2FdWpRo", "name": "Vixel Business Solutions LLP", "street": "44, Regal Building, Hanuman Road Area, Connaught Place, New Delhi, Delhi 110001, India", "phone": "+91 72481 71879", "rating": "3.9", "review_count": "", "website": "https://vixelbiz.com/", "latitude": 28.630747699999997, "longitude": 77.2165581, "maps_url": "https://www.google.com/maps/search/?api=1&query=Vixel%20Business%20Solutions%20LLP&query_place_id=ChIJXztuxUn9DDkRkPzO2FdWpRo"}, {"place_id": "ChIJ0wOvyCb9DDkR7kjgTmZ-q24", "name": "Qonaq Health and Wellness - Medical Tourism Company", "street": "2nd Floor, Property No. 44, QONAQ Health and Wellness Pvt Ltd, Regal Building, Hanuman Road Area, Connaught Place, New Delhi, Delhi 110001, India", "phone": "+91 70428 00891", "rating": "5", "review_count": "", "website": "https://www.qonaqhealth.com/", "latitude": 28.6306726, "longitude": 77.21648929999999, "maps_url": "https://www.google.com/maps/search/?api=1&query=Qonaq%20Health%20and%20Wellness%20-%20Medical%20Tourism%20Company&query_place_id=ChIJ0wOvyCb9DDkR7kjgTmZ-q24"}, {"place_id": "ChIJ_5T8uDP9DDkRL-Xh-_5WAk4", "name": "V K Verma & Company", "street": "C-37, Block C, Connaught Place, New Delhi, Delhi 110001, India", "phone": "+91 11 2341 5811", "rating": "2.5", "review_count": "", "website": "http://www.vkvermaco.com/", "latitude": 28.634268799999997, "longitude": 77.2205283, "maps_url": "https://www.google.com/maps/search/?api=1&query=V%20K%20Verma%20%26%20Company&query_place_id=ChIJ_5T8uDP9DDkRL-Xh-_5WAk4"}, {"place_id": "ChIJdzSzzHb9DDkRpPVQTmz_tTU", "name": "Business Magnets Workspaces", "street": "F-12& 13, Inner Cir, Block F, Connaught Place, New Delhi, Delhi 110001, India", "phone": "+91 93111 22340", "rating": "4.9", "review_count": "", "website": "http://www.businessmagnets.in/", "latitude": 28.6314247, "longitude": 77.22055329999999, "maps_url": "https://www.google.com/maps/search/?api=1&query=Business%20Magnets%20Workspaces&query_place_id=ChIJdzSzzHb9DDkRpPVQTmz_tTU"}, {"place_id": "ChIJt6MkQB_9DDkR2R74KHwN6Vc", "name": "Startupvisors", "street": "5th Floor, Wing-A, Statesman House, Startupvisors, AltF Statesman House, Barakhamba Rd, Connaught Place, New Delhi, Delhi 110001, India", "phone": "+91 82858 44875", "rating": "4.9", "review_count": "", "website": "http://www.startupvisors.com/", "latitude": 28.630803999999998, "longitude": 77.222625, "maps_url": "https://www.google.com/maps/search/?api=1&query=Startupvisors&query_place_id=ChIJt6MkQB_9DDkR2R74KHwN6Vc"}, {"place_id": "ChIJjcZpn6UGDTkRPRUJ1Y8OFng", "name": "UniSpark Innovation", "street": "1st Floor, Unispark innovation Pvt. ltd, B-39, Middle Cir, Block B, Connaught Place, New Delhi, Delhi 110001, India", "phone": "+91 88600 77276", "rating": "5", "review_count": "", "website": "https://www.unisparkinnovation.com/", "latitude": 28.633904299999998, "longitude": 77.21771, "maps_url": "https://www.google.com/maps/search/?api=1&query=UniSpark%20Innovation&query_place_id=ChIJjcZpn6UGDTkRPRUJ1Y8OFng"}, {"place_id": "ChIJodGVNDb7DDkRYmOHRl4AKAk", "name": "DASNAC Holdings", "street": "Dasnac Annexe I, ECE House, 28A, KG Marg, Connaught Place, New Delhi, Delhi 110001, India", "phone": "+91 99113 37711", "rating": "4.6", "review_count": "", "website": "http://www.dasnac.com/", "latitude": 28.630551999999998, "longitude": 77.22183009999999, "maps_url": "https://www.google.com/maps/search/?api=1&query=DASNAC%20Holdings&query_place_id=ChIJodGVNDb7DDkRYmOHRl4AKAk"}, {"place_id": "ChIJL1vpiaj9DDkRMpwTnnGfQNk", "name": "Cellbless Healthcare Private Limited", "street": "Yogeshwar Building, 301, Block M, Connaught Place, New Delhi, Delhi 110001, India", "phone": "", "rating": "4.8", "review_count": "", "website": "http://www.cellbless.com/", "latitude": 28.63328, "longitude": 77.2221836, "maps_url": "https://www.google.com/maps/search/?api=1&query=Cellbless%20Healthcare%20Private%20Limited&query_place_id=ChIJL1vpiaj9DDkRMpwTnnGfQNk"}, {"place_id": "ChIJAcBttzb9DDkRCoEeuTPCXmg", "name": "Telepie Technology", "street": "5TH FLOOR, Wing-A, Statesman House, Barakhamba Rd, Barakhamba, New Delhi, Delhi 110001, India", "phone": "+91 83686 15329", "rating": "5", "review_count": "", "website": "http://telepie.com/", "latitude": 28.630822199999997, "longitude": 77.2226395, "maps_url": "https://www.google.com/maps/search/?api=1&query=Telepie%20Technology&query_place_id=ChIJAcBttzb9DDkRCoEeuTPCXmg"}, {"place_id": "ChIJQQ8lEn79DDkRhusdZ7TnTkU", "name": "Techbook Technologies", "street": "Fifth Floor, Wing-A, 148, AltF-Statesman House, Barakhamba Rd, Connaught Place, New Delhi, Delhi 110001, India", "phone": "+91 98110 66025", "rating": "5", "review_count": "", "website": "https://techbook.co.in/", "latitude": 28.630822199999997, "longitude": 77.2226395, "maps_url": "https://www.google.com/maps/search/?api=1&query=Techbook%20Technologies&query_place_id=ChIJQQ8lEn79DDkRhusdZ7TnTkU"}, {"place_id": "ChIJ3_XyNzL9DDkRmLJVTX4Dd5g", "name": "Johnson & Co.", "street": "K-2, Block K, Connaught Place, New Delhi, Delhi 110001, India", "phone": "+91 11 4151 3121", "rating": "4.2", "review_count": "", "website": "http://www.johnsonandco.in/", "latitude": 28.635284199999997, "longitude": 77.22021699999999, "maps_url": "https://www.google.com/maps/search/?api=1&query=Johnson%20%26%20Co.&query_place_id=ChIJ3_XyNzL9DDkRmLJVTX4Dd5g"}, {"place_id": "ChIJSfL5eDf9DDkRfeISPQukda8", "name": "Goel Innovations", "street": "Goel Business Chambers, C-23/2, First Floor, Middle Circle, Radial Rd 5, Block C, Connaught Place, New Delhi, Delhi 110001, India", "phone": "+91 11 4151 3526", "rating": "3", "review_count": "", "website": "", "latitude": 28.634600799999998, "longitude": 77.2205273, "maps_url": "https://www.google.com/maps/search/?api=1&query=Goel%20Innovations&query_place_id=ChIJSfL5eDf9DDkRfeISPQukda8"}, {"place_id": "ChIJq6VoZqf9DDkRaSoH1WyYcMk", "name": "GV InfoTech", "street": "Block-2, Shankar Market, Connaught Lane, Connaught Place, New Delhi, Delhi 110001, India", "phone": "+91 97738 70841", "rating": "", "review_count": "", "website": "https://gvinfotech.org/", "latitude": 28.6335701, "longitude": 77.2229116, "maps_url": "https://www.google.com/maps/search/?api=1&query=GV%20InfoTech&query_place_id=ChIJq6VoZqf9DDkRaSoH1WyYcMk"}, {"place_id": "ChIJd7Y2rqb9DDkRVkfDhbl4_Z8", "name": "Goyal Tech India", "street": "C Block, C-1A, Block C, Connaught Place, New Delhi, Delhi 110001, India", "phone": "", "rating": "5", "review_count": "", "website": "http://goyaltechindia.com/", "latitude": 28.634249999999998, "longitude": 77.2203334, "maps_url": "https://www.google.com/maps/search/?api=1&query=Goyal%20Tech%20India&query_place_id=ChIJd7Y2rqb9DDkRVkfDhbl4_Z8"}, {"place_id": "ChIJ__-v1Tf9DDkRMqPVlyrFj6o", "name": "Kinheritance", "street": "1st Floor, A Block, Hamilton House, Block A, Connaught Place, New Delhi, Delhi 110001, India", "phone": "+91 81470 99290", "rating": "5", "review_count": "", "website": "http://kinheritance.com/", "latitude": 28.632217599999997, "longitude": 77.217657, "maps_url": "https://www.google.com/maps/search/?api=1&query=Kinheritance&query_place_id=ChIJ__-v1Tf9DDkRMqPVlyrFj6o"}, {"place_id": "ChIJ4YcGHzb9DDkR7wUt-LcNrY8", "name": "Wow Digital Pvt. Ltd.", "street": "L 29 First Floor, Connaught Place, New Delhi, Delhi 110001, India", "phone": "+91 97112 21588", "rating": "4.3", "review_count": "", "website": "http://datswoww.com/", "latitude": 28.634127799999998, "longitude": 77.2223181, "maps_url": "https://www.google.com/maps/search/?api=1&query=Wow%20Digital%20Pvt.%20Ltd.&query_place_id=ChIJ4YcGHzb9DDkR7wUt-LcNrY8"}, {"place_id": "ChIJ_wV9nnn9DDkRM-PlUl-ynUc", "name": "Staunch Eventz Pvt Ltd", "street": "Third Floor, Property Number 44, Regal Building, Hanuman Road Area, Connaught Place, New Delhi, Delhi 110001, India", "phone": "+91 98186 06462", "rating": "4.6", "review_count": "", "website": "http://www.stauncheventz.in/", "latitude": 28.630747699999997, "longitude": 77.2165581, "maps_url": "https://www.google.com/maps/search/?api=1&query=Staunch%20Eventz%20Pvt%20Ltd&query_place_id=ChIJ_wV9nnn9DDkRM-PlUl-ynUc"}, {"place_id": "ChIJ9ehusDb9DDkRWbYIM5B72GE", "name": "Exioms Theory Pvt Ltd", "street": "Statesman House, 4th, Barakhamba Rd, Connaught Place, New Delhi, Delhi 110001, India", "phone": "+91 4156 716 173", "rating": "5", "review_count": "", "website": "http://www.exioms.com/", "latitude": 28.6315641, "longitude": 77.2166778, "maps_url": "https://www.google.com/maps/search/?api=1&query=Exioms%20Theory%20Pvt%20Ltd&query_place_id=ChIJ9ehusDb9DDkRWbYIM5B72GE"}, {"place_id": "ChIJeRY9stf9DDkRYAKRJFhxaHY", "name": "Tally Experts", "street": "Statesman House, 4th, Barakhamba Rd, Connaught Lane, Barakhamba, New Delhi, Delhi 110001, India", "phone": "+91 92110 44269", "rating": "4.8", "review_count": "", "website": "https://tallyexperts.co.in/", "latitude": 28.6308044, "longitude": 77.22262529999999, "maps_url": "https://www.google.com/maps/search/?api=1&query=Tally%20Experts&query_place_id=ChIJeRY9stf9DDkRYAKRJFhxaHY"}, {"place_id": "ChIJLQT6z9z9DDkROwXM9VBT15s", "name": "The Bivouac", "street": "9 A, 3rd Floor, Phelps Building, Connaught Place, New Delhi, Delhi 110001, India", "phone": "+91 98184 51948", "rating": "4.9", "review_count": "", "website": "http://thebiv.co.in/", "latitude": 28.6325202, "longitude": 77.2174586, "maps_url": "https://www.google.com/maps/search/?api=1&query=The%20Bivouac&query_place_id=ChIJLQT6z9z9DDkROwXM9VBT15s"}, {"place_id": "ChIJ8Ys1siUCDTkRgUaQzYhM_KY", "name": "SETINDIABIZ", "street": "2nd Floor, Regal Building, Innov8 CP2, 44, Backary Portion, Connaught Place, New Delhi, Delhi 110001, India", "phone": "+91 98996 00605", "rating": "4.7", "review_count": "", "website": "https://www.setindiabiz.com/", "latitude": 28.6311227, "longitude": 77.216672, "maps_url": "https://www.google.com/maps/search/?api=1&query=SETINDIABIZ&query_place_id=ChIJ8Ys1siUCDTkRgUaQzYhM_KY"}, {"place_id": "ChIJg-5DNjf9DDkRR1aOxMNFumk", "name": "TRE Coworking Space In Cp", "street": "M-132, 2nd Floor, Connaught Place, Delhi 110001, India", "phone": "+91 98999 66622", "rating": "4.1", "review_count": "", "website": "http://www.trecoworks.com/", "latitude": 28.633463799999998, "longitude": 77.2226127, "maps_url": "https://www.google.com/maps/search/?api=1&query=TRE%20Coworking%20Space%20In%20Cp&query_place_id=ChIJg-5DNjf9DDkRR1aOxMNFumk"}, {"place_id": "ChIJV7Tarzf9DDkRNuotI7eyjrc", "name": "Apar Industries Limited", "street": "House N Block 306, BMC, 07, Middle Cir, Connaught Place, New Delhi, Delhi 110001, India", "phone": "+91 11 4152 3320", "rating": "4.8", "review_count": "", "website": "http://www.apar.com/", "latitude": 28.630993999999998, "longitude": 77.2213057, "maps_url": "https://www.google.com/maps/search/?api=1&query=Apar%20Industries%20Limited&query_place_id=ChIJV7Tarzf9DDkRNuotI7eyjrc"}, {"place_id": "ChIJdWY2sDf9DDkRLqwYxC0WSQ8", "name": "PRS International Group of Companies", "street": "Regus Level 5, Caddie Commercial Tower, Hospitality District Aerocity, IGI Airport, 110001, India", "phone": "+91 11 6654 4951", "rating": "4.8", "review_count": "", "website": "http://www.prsinternationalgroup.com/", "latitude": 28.632742999999998, "longitude": 77.219597, "maps_url": "https://www.google.com/maps/search/?api=1&query=PRS%20International%20Group%20of%20Companies&query_place_id=ChIJdWY2sDf9DDkRLqwYxC0WSQ8"}, {"place_id": "ChIJMetyODf9DDkRqBJhnLgYKq4", "name": "Citizen India", "street": "Shop Number- M-54 , Opposite Nirula Hotel , Outer Circle, Rd Number 6, Connaught Circus, Block M, Connaught Place, New Delhi, Delhi 110001, India", "phone": "+91 11 4151 7771", "rating": "3.8", "review_count": "", "website": "https://www.citizenwatches.co.in/", "latitude": 28.633830999999997, "longitude": 77.222391, "maps_url": "https://www.google.com/maps/search/?api=1&query=Citizen%20India&query_place_id=ChIJMetyODf9DDkRqBJhnLgYKq4"}, {"place_id": "ChIJT4RW10vhDDkRxPr2ozxZvJo", "name": "Gyanwave", "street": "2nd Floor, Regal Building, Innov8, 44, Connaught Place, New Delhi, Delhi 110001, India", "phone": "+91 92125 23252", "rating": "4.5", "review_count": "", "website": "https://gyanwave.com/", "latitude": 28.630569299999998, "longitude": 77.2172975, "maps_url": "https://www.google.com/maps/search/?api=1&query=Gyanwave&query_place_id=ChIJT4RW10vhDDkRxPr2ozxZvJo"}, {"place_id": "ChIJhdcxnhOzFiwRNHNAxGCdepo", "name": "Jeheranium", "street": "5TH FLOOR, Wing-A, Statesman House, Barakhamba Rd, Connaught Lane, Barakhamba, New Delhi, Delhi 110001, India", "phone": "+91 97116 63149", "rating": "4.8", "review_count": "", "website": "http://www.jeheranium.com/", "latitude": 28.630822199999997, "longitude": 77.2226395, "maps_url": "https://www.google.com/maps/search/?api=1&query=Jeheranium&query_place_id=ChIJhdcxnhOzFiwRNHNAxGCdepo"}, {"place_id": "ChIJaZ7erzf9DDkRIRnRZKSAOM4", "name": "National Insurance Co Ltd D.O-IV", "street": "1st Floor, BMC House, N-1, Connaught Place, Delhi, 110001, India", "phone": "", "rating": "3.4", "review_count": "", "website": "", "latitude": 28.631309599999998, "longitude": 77.2215348, "maps_url": "https://www.google.com/maps/search/?api=1&query=National%20Insurance%20Co%20Ltd%20D.O-IV&query_place_id=ChIJaZ7erzf9DDkRIRnRZKSAOM4"}, {"place_id": "ChIJN3Nruc7iDDkRhOkNraxxovo", "name": "iiiEM Delhi – Export Import Training Institute with Complete Export Business Set-Up & Practical Support", "street": "2nd floor, Regal Building, Property No. 44, Hanuman Road Area, Connaught Place, New Delhi, Delhi 110001, India", "phone": "+91 75730 36144", "rating": "4.4", "review_count": "", "website": "https://delhi.iiiem.in/", "latitude": 28.6306726, "longitude": 77.21648929999999, "maps_url": "https://www.google.com/maps/search/?api=1&query=iiiEM%20Delhi%20%E2%80%93%20Export%20Import%20Training%20Institute%20with%20Complete%20Export%20Business%20Set-Up%20%26%20Practical%20Support&query_place_id=ChIJN3Nruc7iDDkRhOkNraxxovo"}, {"place_id": "ChIJF-ok20n9DDkRj6FhZUiSfXI", "name": "Advance Services for Social & Administrative Reforms (ASSAR)", "street": "3rd Floor, 44, Regal Building, beside Ease of Doing Business, Hanuman Road Area, Connaught Place, New Delhi, Delhi 110001, India", "phone": "+91 11 4105 9899", "rating": "4.7", "review_count": "", "website": "http://assar.in/", "latitude": 28.6306726, "longitude": 77.21648929999999, "maps_url": "https://www.google.com/maps/search/?api=1&query=Advance%20Services%20for%20Social%20%26%20Administrative%20Reforms%20%28ASSAR%29&query_place_id=ChIJF-ok20n9DDkRj6FhZUiSfXI"}, {"place_id": "ChIJVVXFITf9DDkRiUoDCIGR2eE", "name": "Sharks Fund", "street": "Harsha Bhawan, E-13/29, 1st floor, Connaught Place, New Delhi, Delhi 110001, India", "phone": "", "rating": "4.8", "review_count": "", "website": "http://thesharksfund.com/", "latitude": 28.6326204, "longitude": 77.22187869999999, "maps_url": "https://www.google.com/maps/search/?api=1&query=Sharks%20Fund&query_place_id=ChIJVVXFITf9DDkRiUoDCIGR2eE"}, {"place_id": "ChIJ30RusDb9DDkR_HhV-3rfDV4", "name": "Neugene International Inc", "street": "4th floor, Statesman House, Barakhamba Rd, Connaught Place, New Delhi, Delhi 110001, India", "phone": "", "rating": "4.5", "review_count": "", "website": "https://www.neugeneinc.com/", "latitude": 28.6307992, "longitude": 77.22262549999999, "maps_url": "https://www.google.com/maps/search/?api=1&query=Neugene%20International%20Inc&query_place_id=ChIJ30RusDb9DDkR_HhV-3rfDV4"}, {"place_id": "ChIJoyOgWmr9DDkRe0ZlmGVlm68", "name": "Lift Digitally Best Internet Marketing Agency in Delhi", "street": "PVR Plaza, Block H, Connaught Place, New Delhi, Delhi 110001, India", "phone": "+91 97112 37678", "rating": "5", "review_count": "", "website": "https://liftdigitally.com/", "latitude": 28.634982299999997, "longitude": 77.2195529, "maps_url": "https://www.google.com/maps/search/?api=1&query=Lift%20Digitally%20Best%20Internet%20Marketing%20Agency%20in%20Delhi&query_place_id=ChIJoyOgWmr9DDkRe0ZlmGVlm68"}, {"place_id": "ChIJm0XZ6GfP5zsReesa5dnwsvU", "name": "LdotR", "street": "4th floor, Statesman House, Barakhamba Rd, Barakhamba, New Delhi, Delhi 110001, India", "phone": "+91 11 3044 6627", "rating": "", "review_count": "", "website": "http://www.ldotr.red/", "latitude": 28.6307992, "longitude": 77.22262549999999, "maps_url": "https://www.google.com/maps/search/?api=1&query=LdotR&query_place_id=ChIJm0XZ6GfP5zsReesa5dnwsvU"}, {"place_id": "ChIJcWLc70j9DDkR7QLsHVoSxTw", "name": "SMFG India Credit Co. Ltd. - Connaught Place (Branch)", "street": "Gate No 2, Metro Station, B - 45/47 Third Floor Connaught Place Near PVR Plaza and, Inner Cir, Delhi, 110001, India", "phone": "+91 1800 103 6001", "rating": "1.9", "review_count": "", "website": "https://branches.smfgindiacredit.com/Connaught-Place-New-Delhi-branch-435413/Home?utm_source=locator&utm_medium=googleplaces", "latitude": 28.635399699999997, "longitude": 77.2195967, "maps_url": "https://www.google.com/maps/search/?api=1&query=SMFG%20India%20Credit%20Co.%20Ltd.%20-%20Connaught%20Place%20%28Branch%29&query_place_id=ChIJcWLc70j9DDkR7QLsHVoSxTw"}, {"place_id": "ChIJBwpa_jf9DDkR6lexq4I-1hE", "name": "Bira 91 Global HQ", "street": "H-106, 2nd Floor, Outer Circle, Connaught Place, New Delhi, Delhi 110001, India", "phone": "+91 1800 3002 3010", "rating": "4.3", "review_count": "", "website": "http://bira91.com/", "latitude": 28.6345417, "longitude": 77.21762509999999, "maps_url": "https://www.google.com/maps/search/?api=1&query=Bira%2091%20Global%20HQ&query_place_id=ChIJBwpa_jf9DDkR6lexq4I-1hE"}, {"place_id": "ChIJb1pVesAnYqERaoqYTqc3bv0", "name": "Nukkad Natak & Event Company", "street": "Babar Rd, near shree ram centre, Connaught Place, New Delhi, Delhi 110001, India", "phone": "", "rating": "4.7", "review_count": "", "website": "https://all-india-nukkad-event.grexa.site/", "latitude": 28.632856, "longitude": 77.2194683, "maps_url": "https://www.google.com/maps/search/?api=1&query=Nukkad%20Natak%20%26%20Event%20Company&query_place_id=ChIJb1pVesAnYqERaoqYTqc3bv0"}, {"place_id": "ChIJXS2oHyP9DDkRNgKrkCiqcww", "name": "Altima Global", "street": "4th Floor, Statesman House Building, Barakhamba Road, Connaught Place, New Delhi, Delhi 110001, India", "phone": "+91 98104 46932", "rating": "4.9", "review_count": "", "website": "http://www.altimaglobal.com/", "latitude": 28.6308591, "longitude": 77.2217521, "maps_url": "https://www.google.com/maps/search/?api=1&query=Altima%20Global&query_place_id=ChIJXS2oHyP9DDkRNgKrkCiqcww"}, {"place_id": "ChIJ45Nu6Tb9DDkRWkw4YlQ4ApE", "name": "DLF Sales Office", "street": "206 BMC House, N1 Connaught Place, Middle Circle, New Delhi, Delhi 110001, India", "phone": "+91 11 2331 2223", "rating": "4.1", "review_count": "", "website": "https://www.itplinfra.com/", "latitude": 28.631356999999998, "longitude": 77.221594, "maps_url": "https://www.google.com/maps/search/?api=1&query=DLF%20Sales%20Office&query_place_id=ChIJ45Nu6Tb9DDkRWkw4YlQ4ApE"}, {"place_id": "ChIJ9aF3zD7BwjsRqtR_ycLqUCA", "name": "ICT Circle", "street": "G 36 Second Floor, Block G, Connaught Place, New Delhi, Delhi 110001, India", "phone": "+91 556687933", "rating": "5", "review_count": "", "website": "", "latitude": 28.6330812, "longitude": 77.216946, "maps_url": "https://www.google.com/maps/search/?api=1&query=ICT%20Circle&query_place_id=ChIJ9aF3zD7BwjsRqtR_ycLqUCA"}, {"place_id": "ChIJNbohDzb9DDkRxewGKL8-UFA", "name": "The New India Assurance Company Ltd", "street": "E -9, connaught Place, New Delhi, Delhi 110001, India", "phone": "+91 1800 209 1415", "rating": "3.4", "review_count": "", "website": "http://www.newindia.co.in/index.aspx", "latitude": 28.633089599999998, "longitude": 77.22199619999999, "maps_url": "https://www.google.com/maps/search/?api=1&query=The%20New%20India%20Assurance%20Company%20Ltd&query_place_id=ChIJNbohDzb9DDkRxewGKL8-UFA"}, {"place_id": "ChIJHTB61hADDTkRRXZR4gniL9A", "name": "Kamal & Co. - Leading Advocates & Legal Consultants in New Delhi", "street": "15th Floor, Statesman House, A 1505, Barakhamba Rd, Barakhamba, New Delhi, Delhi 110001, India", "phone": "+91 97315 81947", "rating": "5", "review_count": "", "website": "https://kamalandcoadvocates.com/", "latitude": 28.6307992, "longitude": 77.22262549999999, "maps_url": "https://www.google.com/maps/search/?api=1&query=Kamal%20%26%20Co.%20-%20Leading%20Advocates%20%26%20Legal%20Consultants%20in%20New%20Delhi&query_place_id=ChIJHTB61hADDTkRRXZR4gniL9A"}, {"place_id": "ChIJUUdyv0n9DDkRh0DyjINWOT4", "name": "Excellent Job Solutions Pvt. Ltd.", "street": "J6J8+6CR, new delhi, new, Delhi, 110001, India", "phone": "", "rating": "3.1", "review_count": "214", "website": "", "latitude": 28.63062, "longitude": 77.2160119, "maps_url": "https://www.google.com/maps/search/?api=1&query=Excellent%20Job%20Solutions%20Pvt.%20Ltd.&query_place_id=ChIJUUdyv0n9DDkRh0DyjINWOT4"}, {"place_id": "ChIJZafbBx79DDkRehTzooafM2o", "name": "D. Minsen & Co.", "street": "F-17, Block F, Connaught Place, New Delhi, Delhi 110001, India", "phone": "+91 98184 00501", "rating": "4.4", "review_count": "", "website": "http://www.poloboots.com/", "latitude": 28.631338399999997, "longitude": 77.2203627, "maps_url": "https://www.google.com/maps/search/?api=1&query=D.%20Minsen%20%26%20Co.&query_place_id=ChIJZafbBx79DDkRehTzooafM2o"}, {"place_id": "ChIJ1UJNMG_9DDkROPaKHbz9bqQ", "name": "Digital Mathur - Digital Marketing Consultant & Digital Marketing Trainer", "street": "First Floor, B-39, Middle Cir, Block B, Connaught Place, New Delhi, Delhi 110001, India", "phone": "+91 97167 51289", "rating": "4.9", "review_count": "", "website": "https://digitalmathur.com/", "latitude": 28.634797799999998, "longitude": 77.2194529, "maps_url": "https://www.google.com/maps/search/?api=1&query=Digital%20Mathur%20-%20Digital%20Marketing%20Consultant%20%26%20Digital%20Marketing%20Trainer&query_place_id=ChIJ1UJNMG_9DDkROPaKHbz9bqQ"}, {"place_id": "ChIJd1Ww6D8BDTkREnv58nuKQlM", "name": "Onevriksh", "street": "K, N, D, M.C Market, Metro Gate Shop No. 28, 2, Connaught Cir, Connaught Place, New Delhi, Delhi 110001, India", "phone": "+91 85270 26474", "rating": "5", "review_count": "", "website": "http://www.onevriksh.com/", "latitude": 28.635569099999998, "longitude": 77.2207225, "maps_url": "https://www.google.com/maps/search/?api=1&query=Onevriksh&query_place_id=ChIJd1Ww6D8BDTkREnv58nuKQlM"}, {"place_id": "ChIJm-6KXMiAj4ARIOUJIrNg2ys", "name": "Intelligent Technical Solutions", "street": "5427 Telegraph Ave unit p, Oakland, CA 94609", "phone": "(415) 213-2285", "rating": "5", "review_count": "", "website": "https://www.itsasap.com/its-oakland", "latitude": 37.839716599999996, "longitude": -122.2623776, "maps_url": "https://www.google.com/maps/search/?api=1&query=Intelligent%20Technical%20Solutions&query_place_id=ChIJm-6KXMiAj4ARIOUJIrNg2ys"}, {"place_id": "ChIJ6750cE0uXIgRPpj00kno5DA", "name": "The IT Company", "street": "16 Emory Pl STE 100, Knoxville, TN 37917", "phone": "(865) 392-9200", "rating": "4.8", "review_count": "", "website": "https://theitcompany.com/?utm_source=google&utm_medium=organic&utm_campaign=Google+Business+Profile", "latitude": 35.974151899999995, "longitude": -83.922608, "maps_url": "https://www.google.com/maps/search/?api=1&query=The%20IT%20Company&query_place_id=ChIJ6750cE0uXIgRPpj00kno5DA"}, {"place_id": "ChIJ30x9Jd_9DDkRv-0Cvc8h2wo", "name": "Urban Company (prev Urban Clap)", "street": "Palika Bazar, Connaught Place, New Delhi, Delhi 110001, India", "phone": "", "rating": "1", "review_count": "", "website": "https://www.urbancompany.com/delhi-ncr?utm_source=googlemaps&utm_campaign=gmb_pages&utm_medium=homepage", "latitude": 28.631249999999998, "longitude": 77.21875, "maps_url": "https://www.google.com/maps/search/?api=1&query=Urban%20Company%20%28prev%20Urban%20Clap%29&query_place_id=ChIJ30x9Jd_9DDkRv-0Cvc8h2wo"}, {"place_id": "ChIJg8Ngx3cDDTkRHHev96K8vd4", "name": "Sumitech India", "street": "D9, LALITA BLOCK, Shastri Nagar, New Delhi, Delhi 110001, India", "phone": "+91 82877 73617", "rating": "5", "review_count": "", "website": "https://sumitechengineers.com/", "latitude": 28.6304663, "longitude": 77.22284119999999, "maps_url": "https://www.google.com/maps/search/?api=1&query=Sumitech%20India&query_place_id=ChIJg8Ngx3cDDTkRHHev96K8vd4"}, {"place_id": "ChIJN4BLWwn9DDkR_NhOquc5-yA", "name": "Write For Us Technology", "street": "Connaught Place, New Delhi, Delhi 110001, India", "phone": "", "rating": "4.3", "review_count": "", "website": "https://www.writeforustechnology.com/", "latitude": 28.632755699999997, "longitude": 77.2196957, "maps_url": "https://www.google.com/maps/search/?api=1&query=Write%20For%20Us%20Technology&query_place_id=ChIJN4BLWwn9DDkR_NhOquc5-yA"}, {"place_id": "ChIJqzFCKWsdDTkReD0USPPoxqU", "name": "BDG Lifesciences", "street": "First Floor, Block-L, L29 - L34, Connaught Cir, Block L, Connaught Place, New Delhi, Delhi 110001, India", "phone": "+91 97601 48880", "rating": "4.5", "review_count": "", "website": "https://bdglifesciences.com/", "latitude": 28.6342903, "longitude": 77.2218413, "maps_url": "https://www.google.com/maps/search/?api=1&query=BDG%20Lifesciences&query_place_id=ChIJqzFCKWsdDTkReD0USPPoxqU"}]