{"timestamp": 1773730618.3965273, "keyword": "IT company", "location": "delhi", "cell_idx": 267, "results": [{"place_id": "0x390d1df4037892eb:0xebcf6ab4d323923f", "name": "Yoctel Solutions (P) Ltd.", "category": "Software company", "street": "Near", "city": "28 Jia Sarai", "phone": "09990389966", "website": "https://www.yoctel.com/", "rating": 4.3, "review_count": "", "latitude": 28.546577, "longitude": 77.1896477, "maps_url": "https://www.google.com/maps/place/?q=place_id:0x390d1df4037892eb:0xebcf6ab4d323923f"}, {"place_id": "0x390d1d25657c3fff:0x2479edc53b95bf35", "name": "RewardsPlus | Website & Digital Marketing Company", "category": "Software company", "street": "124A/1, LGF", "city": "Shaheed Jeet Singh Marg", "phone": "09560205262", "website": "https://rewardsplus.in/", "rating": 4.8, "review_count": "", "latitude": 28.5404378, "longitude": 77.18601559999999, "maps_url": "https://www.google.com/maps/place/?q=place_id:0x390d1d25657c3fff:0x2479edc53b95bf35"}, {"place_id": "0x390d1d95931171db:0xf4c24d49d831b27", "name": "Muniwar Technologies Private Limited", "category": "Software company", "street": "2nd Floor", "city": "Hanuman Mandir Market", "phone": "01143050611", "website": "https://www.muniwar.com/", "rating": 4.4, "review_count": "", "latitude": 28.557070699999997, "longitude": 77.1732794, "maps_url": "https://www.google.com/maps/place/?q=place_id:0x390d1d95931171db:0xf4c24d49d831b27"}, {"place_id": "0x390ce270ef400023:0x19f2cc0943c523c8", "name": "C.I. Infotech Pvt. Ltd.", "category": "Computer support and services", "street": "K-33A, LGF", "city": "Green Park Main", "phone": "01126962072", "website": "http://www.ciinfotech.net/", "rating": 3.6, "review_count": "", "latitude": 28.554532799999997, "longitude": 77.2013992, "maps_url": "https://www.google.com/maps/place/?q=place_id:0x390ce270ef400023:0x19f2cc0943c523c8"}, {"place_id": "0x390ce209862e9b9b:0x8a6b2a4334884f77", "name": "T9L", "category": "Software company", "street": "C-7, 2nd floor", "city": "SDA commercial complex", "phone": "", "website": "http://www.t9l.com/", "rating": 4.8, "review_count": "", "latitude": 28.546775999999998, "longitude": 77.1969742, "maps_url": "https://www.google.com/maps/place/?q=place_id:0x390ce209862e9b9b:0x8a6b2a4334884f77"}, {"place_id": "0x390ce458d0000001:0xf2123bd299ec4501", "name": "IT Company India", "category": "Software company", "street": "D56", "city": "D Block, Sector 10", "phone": "09999244854", "website": "https://www.itcompanyindia.in/", "rating": 4.7, "review_count": "", "latitude": 28.589917699999997, "longitude": 77.3351153, "maps_url": "https://www.google.com/maps/place/?q=place_id:0x390ce458d0000001:0xf2123bd299ec4501"}, {"place_id": "0x390d1df079759d1f:0x8bfa70033f6c672a", "name": "NR Technoserve Pvt. Ltd.", "category": "Software company", "street": "133, Katwaria Sarai", "city": "Phase-2, Qutab Institutional Area", "phone": "07289096762", "website": "http://www.nrtechnoserve.co.in/", "rating": 4.4, "review_count": "", "latitude": 28.5413306, "longitude": 77.18495519999999, "maps_url": "https://www.google.com/maps/place/?q=place_id:0x390d1df079759d1f:0x8bfa70033f6c672a"}, {"place_id": "0x390ce215cfde0db7:0x72d12f7279088995", "name": "Corporate Gifting Company in Hauz Khas | Corporate Gifting Company | Purple Palette", "category": "Corporate gift supplier", "street": "39, Daryacha Building", "city": "Hauz Khas Village, Hauz Khas", "phone": "09873333348", "website": "http://purplepalette.in/", "rating": 4.9, "review_count": "", "latitude": 28.5529987, "longitude": 77.1946361, "maps_url": "https://www.google.com/maps/place/?q=place_id:0x390ce215cfde0db7:0x72d12f7279088995"}, {"place_id": "0x8a77b9133d00e1d5:0xdc22385e31357395", "name": "Codologi IT Solutions Pvt Ltd", "category": "Software company", "street": "F-2/401", "city": "near Budh Vihar Street", "phone": "09999687725", "website": "https://codologi.in/", "rating": 5, "review_count": "", "latitude": 28.553921199999998, "longitude": 77.171915, "maps_url": "https://www.google.com/maps/place/?q=place_id:0x8a77b9133d00e1d5:0xdc22385e31357395"}, {"place_id": "0x390ce3c53f4cf309:0x964287885bdc5c67", "name": "Mangalam Automation - IT Infrastructure and Audio Video Company", "category": "Computer support and services", "street": "UG 8, Building No.39", "city": "Hauz Khas Village, Deer Park, Hauz Khas", "phone": "09810227333", "website": "https://www.mangalamautomation.com/", "rating": 5, "review_count": "", "latitude": 28.552976599999997, "longitude": 77.1947921, "maps_url": "https://www.google.com/maps/place/?q=place_id:0x390ce3c53f4cf309:0x964287885bdc5c67"}, {"place_id": "0x390d1d86a4f12173:0x3a6b42ea6f4b8260", "name": "Softvanz Technologies Private Limited", "category": "Software company", "street": "Somdutt Chamber 1", "city": "BT-22/9", "phone": "", "website": "https://softvanz.com/", "rating": 5, "review_count": "", "latitude": 28.567948899999998, "longitude": 77.1889269, "maps_url": "https://www.google.com/maps/place/?q=place_id:0x390d1d86a4f12173:0x3a6b42ea6f4b8260"}, {"place_id": "0x390ce3c153b89811:0xe7a279685777e9ca", "name": "IT Company", "category": "Automation company", "street": "A-14", "city": "near iskcon temple", "phone": "", "website": "http://www.opuswiz.com/", "rating": 3, "review_count": "", "latitude": 28.557167, "longitude": 77.25424819999999, "maps_url": "https://www.google.com/maps/place/?q=place_id:0x390ce3c153b89811:0xe7a279685777e9ca"}, {"place_id": "0x390d1dc4d497ac0d:0x733b6e97d0dc51a6", "name": "Advisou", "category": "Business management consultant", "street": "Flat no 14, First Floor", "city": "Hauz Khas Village, Road, Hauz Khas", "phone": "", "website": "https://advisou.com/", "rating": 4.8, "review_count": "", "latitude": 28.553364, "longitude": 77.1942516, "maps_url": "https://www.google.com/maps/place/?q=place_id:0x390d1dc4d497ac0d:0x733b6e97d0dc51a6"}, {"place_id": "0x390ce21425118e25:0x70fb9d80e6685fad", "name": "Ananta Business Services", "category": "Software company", "street": "125, South", "city": "Shahpur Jat, Siri Fort", "phone": "09289371171", "website": "http://www.absite.in/", "rating": 4.7, "review_count": "", "latitude": 28.5490721, "longitude": 77.2159506, "maps_url": "https://www.google.com/maps/place/?q=place_id:0x390ce21425118e25:0x70fb9d80e6685fad"}, {"place_id": "0x390ce1fb44618b65:0x8e06b2a6128352d1", "name": "Acropolis Infotech - Delhi Office", "category": "Software company", "street": "metro station gate", "city": "55, 2nd Floor, Lane 2", "phone": "09999876593", "website": "https://www.acropolisinfotech.com/", "rating": 4.6, "review_count": "", "latitude": 28.518907, "longitude": 77.2015435, "maps_url": "https://www.google.com/maps/place/?q=place_id:0x390ce1fb44618b65:0x8e06b2a6128352d1"}, {"place_id": "0x390ce2305c00002d:0x9f7efbacdc0d8271", "name": "ICO WebTech Pvt. Ltd. - Website Designing Company in Delhi", "category": "Website designer", "street": "J E 5, Ground Floor, Khirki Extension, Malviya Nagar", "city": "New Delhi, Delhi 110017", "phone": "08447380262", "website": "https://www.icowebsolutions.com/", "rating": 4.6, "review_count": "", "latitude": 28.535594, "longitude": 77.21577099999999, "maps_url": "https://www.google.com/maps/place/?q=place_id:0x390ce2305c00002d:0x9f7efbacdc0d8271"}, {"place_id": "0x390d1df06e55ff93:0x9e83eb0de847fb0c", "name": "Mavis IT Services Pvt. Ltd", "category": "Website designer", "street": "Shaheed Jeet Singh Marg", "city": "near Qutab Institutional Area", "phone": "09873073484", "website": "https://mavisitservices.com/", "rating": 4.8, "review_count": "", "latitude": 28.5403636, "longitude": 77.1866591, "maps_url": "https://www.google.com/maps/place/?q=place_id:0x390d1df06e55ff93:0x9e83eb0de847fb0c"}, {"place_id": "0x390d165555555555:0xf57c20f7d07d8fd1", "name": "Teckinfo Solutions Pvt Ltd", "category": "Software company", "street": "1/1 BA, 3rd Floor, Mohammadpur,", "city": "Bhikaji Cama Place", "phone": "01149605500", "website": "https://www.teckinfo.com/", "rating": 4.6, "review_count": "", "latitude": 28.566004099999997, "longitude": 77.187579, "maps_url": "https://www.google.com/maps/place/?q=place_id:0x390d165555555555:0xf57c20f7d07d8fd1"}, {"place_id": "0x390cfd9cbe2cfecf:0xe45e8d7c87f2ac21", "name": "eDigitify Pvt Ltd", "category": "Marketing agency", "street": "22A, Third Floor", "city": "Hauz Khas Village", "phone": "09911081234", "website": "http://www.edigitify.in/", "rating": 5, "review_count": "", "latitude": 28.5547853, "longitude": 77.19424409999999, "maps_url": "https://www.google.com/maps/place/?q=place_id:0x390cfd9cbe2cfecf:0xe45e8d7c87f2ac21"}, {"place_id": "0x390d1fb30dd00ee3:0x77cfd1f858a2b9ee", "name": "Ionic Software Services", "category": "Software company", "street": "B-2/63, Africa Ave", "city": "Block A, Block B 2, Safdarjung Enclave", "phone": "08744941668", "website": "http://www.ionicsoftwares.com/", "rating": 4.7, "review_count": "", "latitude": 28.515873499999998, "longitude": 77.2044335, "maps_url": "https://www.google.com/maps/place/?q=place_id:0x390d1fb30dd00ee3:0x77cfd1f858a2b9ee"}, {"place_id": "0x390d1d97321fe647:0xa6cee18fe7d42d2b", "name": "SISL Infotech Pvt Ltd", "category": "Corporate office", "street": "81/1, 2nd Floor, Aurobindo Tower, Sri Aurobindo Marg, Adchini", "city": "Malviya Nagar", "phone": "01126700800", "website": "https://www.sislinfotech.com/", "rating": 4, "review_count": "", "latitude": 28.5353031, "longitude": 77.1985926, "maps_url": "https://www.google.com/maps/place/?q=place_id:0x390d1d97321fe647:0xa6cee18fe7d42d2b"}, {"place_id": "0x390ce215cfde0db7:0x72d12f7279088995", "name": "Corporate Gifting Company in Hauz Khas | Corporate Gifting Company | Purple Palette", "category": "Corporate gift supplier", "street": "39, Daryacha Building", "city": "Hauz Khas Village, Hauz Khas", "phone": "09873333348", "website": "http://purplepalette.in/", "rating": 4.9, "review_count": "", "latitude": 28.5529987, "longitude": 77.1946361, "maps_url": "https://www.google.com/maps/place/?q=place_id:0x390ce215cfde0db7:0x72d12f7279088995"}, {"place_id": "0x390d1d94ffc05fbd:0x4f2b17f82687846f", "name": "Accore Technologies", "category": "Website designer", "street": "Bank St", "city": "near Canara Bank", "phone": "09560449918", "website": "https://accoretechnologies.com/", "rating": 4.9, "review_count": "", "latitude": 28.555705999999997, "longitude": 77.1748403, "maps_url": "https://www.google.com/maps/place/?q=place_id:0x390d1d94ffc05fbd:0x4f2b17f82687846f"}, {"place_id": "0x390cfd9cbe2cfecf:0xe45e8d7c87f2ac21", "name": "eDigitify Pvt Ltd", "category": "Marketing agency", "street": "22A, Third Floor", "city": "Hauz Khas Village", "phone": "09911081234", "website": "http://www.edigitify.in/", "rating": 5, "review_count": "", "latitude": 28.5547853, "longitude": 77.19424409999999, "maps_url": "https://www.google.com/maps/place/?q=place_id:0x390cfd9cbe2cfecf:0xe45e8d7c87f2ac21"}, {"place_id": "0x390ce3ad10000061:0xeff7e6017a22cce7", "name": "Alpinesoft IT Solutions Authorized Google Workspace Reseller", "category": "Software company", "street": "162/9 Ist Floor, KIshangarh - Gaushala Marg", "city": "Lakhi Nath Kuti, Mehrauli, Vasant Kunj", "phone": "09999011157", "website": "https://www.alpinesoftit.com/", "rating": 4.3, "review_count": "", "latitude": 28.515394399999998, "longitude": 77.16460359999999, "maps_url": "https://www.google.com/maps/place/?q=place_id:0x390ce3ad10000061:0xeff7e6017a22cce7"}, {"place_id": "0x390d1d9ce0eaada3:0xc5a1a0a2458099e3", "name": "CODENCREATIVE TECH PVT LTD", "category": "Software company", "street": "DDA Flat", "city": "RBI Officers Colony, Vasant Vihar", "phone": "09717047610", "website": "https://codencreative.com/", "rating": 4.9, "review_count": "", "latitude": 28.563302099999998, "longitude": 77.1519732, "maps_url": "https://www.google.com/maps/place/?q=place_id:0x390d1d9ce0eaada3:0xc5a1a0a2458099e3"}, {"place_id": "0x390ce5fdcc79e755:0x309ce99251b84ef6", "name": "Optyminds IT Solutions - Top AI and IT company I Best Digital agency in Noida | Delhi NCR | India", "category": "Software company", "street": "1st Floor", "city": "B-70", "phone": "08929075975", "website": "https://optyminds.com/", "rating": 4.9, "review_count": "", "latitude": 28.584679599999998, "longitude": 77.3135042, "maps_url": "https://www.google.com/maps/place/?q=place_id:0x390ce5fdcc79e755:0x309ce99251b84ef6"}, {"place_id": "0x390d1daf5bbb6d71:0xd493e8d457a28388", "name": "DPM IT SOLUTIONS", "category": "Software company", "street": "2nd floor, madangiri", "city": "111, E-2", "phone": "09650413450", "website": "https://dpmitsolutions.com/", "rating": 5, "review_count": "", "latitude": 28.565620799999998, "longitude": 77.16005679999999, "maps_url": "https://www.google.com/maps/place/?q=place_id:0x390d1daf5bbb6d71:0xd493e8d457a28388"}, {"place_id": "0x390d1df401555587:0xeb16e13797be735d", "name": "OMR GURU - OMR Scanner Software, OMR Reader", "category": "Software company", "street": "28-Ground Floor", "city": "Jia Sarai, Hauz Khas", "phone": "09990389966", "website": "http://www.omrguru.com/", "rating": 4.2, "review_count": "", "latitude": 28.5460626, "longitude": 77.1896909, "maps_url": "https://www.google.com/maps/place/?q=place_id:0x390d1df401555587:0xeb16e13797be735d"}, {"place_id": "0x390ce26dc4d4ba2d:0x9486a6d620e379f9", "name": "Akal Information Systems Ltd.", "category": "Software company", "street": "Tower J, World Trade Center", "city": "103", "phone": "01146503545", "website": "https://www.akalinfo.com/", "rating": 3.9, "review_count": "", "latitude": 28.567935499999997, "longitude": 77.1923202, "maps_url": "https://www.google.com/maps/place/?q=place_id:0x390ce26dc4d4ba2d:0x9486a6d620e379f9"}, {"place_id": "0x390ce3e02b5bccbd:0x8b9b77bfa478eebc", "name": "Hexalifts - Lift Manufacturers Company", "category": "Elevator Manufacturer", "street": "K-62", "city": "Block K, Green Park", "phone": "09990878787", "website": "https://hexalifts.in/", "rating": 4.7, "review_count": "", "latitude": 28.5539223, "longitude": 77.2001981, "maps_url": "https://www.google.com/maps/place/?q=place_id:0x390ce3e02b5bccbd:0x8b9b77bfa478eebc"}, {"place_id": "0x390d1f5abfb25fe1:0x7d9c4d5e159f2955", "name": "Jaimru Technology Pvt Ltd", "category": "Software company", "street": "WARD NO. 2", "city": "Plot No. 178 M 33 A/1", "phone": "07838153420", "website": "https://www.jaimru.com/", "rating": 4.9, "review_count": "", "latitude": 28.524347499999998, "longitude": 77.1731889, "maps_url": "https://www.google.com/maps/place/?q=place_id:0x390d1f5abfb25fe1:0x7d9c4d5e159f2955"}, {"place_id": "0x390d1d87f63434b5:0x847ae068329861a0", "name": "Ima Appweb", "category": "Software company", "street": "2nd floor", "city": "Main Market", "phone": "09871192979", "website": "https://www.ima-appweb.com/", "rating": 4.9, "review_count": "", "latitude": 28.5581392, "longitude": 77.2030008, "maps_url": "https://www.google.com/maps/place/?q=place_id:0x390d1d87f63434b5:0x847ae068329861a0"}, {"place_id": "0x390d1d966e971d83:0x1cbc96c1a5a2849", "name": "Global Web Technologies LLP", "category": "Website designer", "street": "C2/16", "city": "Block C 2, Safdarjung Development Area, Hauz Khas", "phone": "08076233525", "website": "https://globalwebtechnologies.com/", "rating": 3.3, "review_count": "", "latitude": 28.551269299999998, "longitude": 77.2029672, "maps_url": "https://www.google.com/maps/place/?q=place_id:0x390d1d966e971d83:0x1cbc96c1a5a2849"}, {"place_id": "0x390d02994de5e515:0xd908bc03409a0d37", "name": "Himalayan IT Solutions | Best Website Designing Company in Delhi | SEO/Digital Marketing Company in Delhi NCR, India", "category": "Software company", "street": "61/4255, Padam Singh Rd", "city": "Block 29, Block 1, Regar Pura, Karol Bagh", "phone": "09899098509", "website": "http://www.himalayanitsolutions.com/", "rating": 3.9, "review_count": "", "latitude": 28.649673999999997, "longitude": 77.186599, "maps_url": "https://www.google.com/maps/place/?q=place_id:0x390d02994de5e515:0xd908bc03409a0d37"}, {"place_id": "0x2a72b8b69d7b6493:0x11251466d4d34cac", "name": "WebZonal IT Company", "category": "Website designer", "street": "Wz-258/2-3, D Block Rd", "city": "Khazan Basti, Nangal Raya, Janakpuri", "phone": "09811170903", "website": "http://webzonal.com/", "rating": 5, "review_count": "", "latitude": 28.6122102, "longitude": 77.11159549999999, "maps_url": "https://www.google.com/maps/place/?q=place_id:0x2a72b8b69d7b6493:0x11251466d4d34cac"}, {"place_id": "0x390ce3c50d455555:0x625e4cf2def0b6ac", "name": "Infonative Solutions Limited", "category": "Computer support and services", "street": "107, 108", "city": "DLF South Court", "phone": "08448141818", "website": "https://infonative.net/", "rating": 4.7, "review_count": "", "latitude": 28.5274255, "longitude": 77.2209031, "maps_url": "https://www.google.com/maps/place/?q=place_id:0x390ce3c50d455555:0x625e4cf2def0b6ac"}, {"place_id": "0x390d1ed3c6e9f579:0x322eccdb00f350d2", "name": "Techjockey", "category": "Software company", "street": "Ground floor, Habitat India", "city": "C-3", "phone": "01142213003", "website": "https://www.techjockey.com/", "rating": 4, "review_count": "", "latitude": 28.536615299999998, "longitude": 77.1902978, "maps_url": "https://www.google.com/maps/place/?q=place_id:0x390d1ed3c6e9f579:0x322eccdb00f350d2"}, {"place_id": "0x390d1d9680764375:0xc892495413ac100c", "name": "Deft Infosystems Private Limited", "category": "Software company", "street": "METRO Gate Number 3", "city": "304, Pratap Complex, G-92", "phone": "09310116077", "website": "http://www.deftinfosystems.com/", "rating": 5, "review_count": "", "latitude": 28.5566155, "longitude": 77.17399619999999, "maps_url": "https://www.google.com/maps/place/?q=place_id:0x390d1d9680764375:0xc892495413ac100c"}, {"place_id": "0x390d1df403ffffff:0x19f433deb633f202", "name": "MANCER Consulting Services Pvt. Ltd.", "category": "Employment agency", "street": "27H/1, 2nd Floor, Jia Sarai, Near", "city": "Indian Institute of Technology Delhi, Hauz Khas", "phone": "", "website": "http://www.mancerconsulting.com/", "rating": 4, "review_count": "", "latitude": 28.546888499999998, "longitude": 77.18976669999999, "maps_url": "https://www.google.com/maps/place/?q=place_id:0x390d1df403ffffff:0x19f433deb633f202"}, {"place_id": "0x390ce3d606c913ef:0xd246bd5631eb2cad", "name": "Delvetech", "category": "Software company", "street": "87A/1, 3rd Floor, Opp. Block N-115, G.K-1, Near Moolchand Merto", "city": "Block B, Zamrudpur, Greater Kailash", "phone": "09873895154", "website": "http://www.delvetech.co.in/", "rating": 4.1, "review_count": "", "latitude": 28.5570597, "longitude": 77.2356981, "maps_url": "https://www.google.com/maps/place/?q=place_id:0x390ce3d606c913ef:0xd246bd5631eb2cad"}, {"place_id": "0x390ce3860c81c723:0xc5f50e43c0a86a3e", "name": "Nextr Technology", "category": "Software company", "street": "2nd Floor", "city": "1483/A-1", "phone": "09911751575", "website": "http://www.nextr.in/", "rating": 4.9, "review_count": "", "latitude": 28.574374, "longitude": 77.224284, "maps_url": "https://www.google.com/maps/place/?q=place_id:0x390ce3860c81c723:0xc5f50e43c0a86a3e"}, {"place_id": "0x390d1d037a38b6b1:0xf2971326b46c47e", "name": "Geet Mp3 Music Company", "category": "Corporate office", "street": "H53V+8MX", "city": "GEET MP3 Music Company", "phone": "", "website": "", "rating": 3.9, "review_count": "", "latitude": 28.5533745, "longitude": 77.1942471, "maps_url": "https://www.google.com/maps/place/?q=place_id:0x390d1d037a38b6b1:0xf2971326b46c47e"}, {"place_id": "0x390cfd9627f1ef6f:0x2ceaf9a99dfc7b29", "name": "QuaintX Innovations", "category": "Software company", "street": "3rd Floor, Building", "city": "125, Savitri Nagar Rd", "phone": "07015149213", "website": "https://quaintx.com/", "rating": 5, "review_count": "", "latitude": 28.5394647, "longitude": 77.21983519999999, "maps_url": "https://www.google.com/maps/place/?q=place_id:0x390cfd9627f1ef6f:0x2ceaf9a99dfc7b29"}, {"place_id": "0x390ce35feede4f4f:0xeb8045a969268b20", "name": "Innovatia", "category": "Advertising agency", "street": "T-74 4th Floor", "city": "Hauz Khas Village, Deer Park, Hauz Khas", "phone": "09560052422", "website": "http://innovatia.co.in/", "rating": 4.4, "review_count": "", "latitude": 28.555196799999997, "longitude": 77.1965826, "maps_url": "https://www.google.com/maps/place/?q=place_id:0x390ce35feede4f4f:0xeb8045a969268b20"}, {"place_id": "0x390d1df3f1194a51:0x7231f56aaf4c48ab", "name": "Web Made", "category": "Website designer", "street": "M-27, G.F., Jia Sarai, Near IIT Delhi, Hauz Khas, Jia Sarai, Hauz Khas,", "city": "New Delhi, Delhi 110016", "phone": "08860325143", "website": "http://www.webmade.in/", "rating": 5, "review_count": "", "latitude": 28.5469269, "longitude": 77.1882048, "maps_url": "https://www.google.com/maps/place/?q=place_id:0x390d1df3f1194a51:0x7231f56aaf4c48ab"}, {"place_id": "0x390cdc6f70fb5be5:0xa34888feda73528d", "name": "Pepper Designs", "category": "Website designer", "street": "House No 1, Ground Floor", "city": "Hauz Khas Village", "phone": "09811767560", "website": "https://www.pepper-designs.com/", "rating": 4.6, "review_count": "", "latitude": 28.555021999999997, "longitude": 77.19471399999999, "maps_url": "https://www.google.com/maps/place/?q=place_id:0x390cdc6f70fb5be5:0xa34888feda73528d"}, {"place_id": "0x390d1d7b44837947:0xcdde6a5323cc2ce4", "name": "TestRight Nanosystems Pvt. Ltd.", "category": "Biotechnology company", "street": "IIT Campus, Indian Institute of Technology Delhi, Hauz Khas", "city": "New Delhi, Delhi 110016", "phone": "08588006453", "website": "http://www.testright.in/", "rating": 4.2, "review_count": "", "latitude": 28.5435591, "longitude": 77.191147, "maps_url": "https://www.google.com/maps/place/?q=place_id:0x390d1d7b44837947:0xcdde6a5323cc2ce4"}, {"place_id": "0x390ce274cb3b4edb:0x5d678aeec0e8418e", "name": "Freelance Graphic Designer", "category": "Website designer", "street": "Naveen Niketan", "city": "175", "phone": "09990877756", "website": "https://www.designartgraphic.com/", "rating": 4.9, "review_count": "", "latitude": 28.5531208, "longitude": 77.1991619, "maps_url": "https://www.google.com/maps/place/?q=place_id:0x390ce274cb3b4edb:0x5d678aeec0e8418e"}, {"place_id": "0x390ce3b7c0000001:0x46ddd80ee502d937", "name": "Amtrak Technologies Private Limited", "category": "Computer support and services", "street": "6, Community Centre", "city": "East of Kailash", "phone": "01126448000", "website": "https://amtrak.co.in/", "rating": 4.4, "review_count": "", "latitude": 28.558434899999998, "longitude": 77.2463302, "maps_url": "https://www.google.com/maps/place/?q=place_id:0x390ce3b7c0000001:0x46ddd80ee502d937"}, {"place_id": "0x390ce20b6b93c379:0x78163cd10623afa3", "name": "Adatte E-Waste Management Private Limited", "category": "Waste management service", "street": "C 6/23", "city": "Block C 6, Safdarjung Development Area, Hauz Khas", "phone": "09789978420", "website": "http://www.adatte.in/", "rating": 5, "review_count": "", "latitude": 28.5459277, "longitude": 77.199844, "maps_url": "https://www.google.com/maps/place/?q=place_id:0x390ce20b6b93c379:0x78163cd10623afa3"}, {"place_id": "0x390ce3cfe91504eb:0x55346c5c499223d7", "name": "CCS Computers Private Limited", "category": "Computer support and services", "street": "2nd-3rd Floor Skipper House", "city": "Nehru Place", "phone": "01126463959", "website": "http://www.ccscomputers.co.in/", "rating": 4, "review_count": "", "latitude": 28.550090599999997, "longitude": 77.2537834, "maps_url": "https://www.google.com/maps/place/?q=place_id:0x390ce3cfe91504eb:0x55346c5c499223d7"}, {"place_id": "0x390ce200d4a8781b:0x4811b2590260a7fe", "name": "RPD Software", "category": "Website designer", "street": "3rd Floor", "city": "97/1, Sri Aurobindo Marg", "phone": "08090706048", "website": "https://rpdsoftware.com/", "rating": 5, "review_count": "", "latitude": 28.538255699999997, "longitude": 77.19827599999999, "maps_url": "https://www.google.com/maps/place/?q=place_id:0x390ce200d4a8781b:0x4811b2590260a7fe"}, {"place_id": "0x390ce22b24ca39c1:0x7ddd7fe633ccac3", "name": "IJCP Group - Medical and Healthcare Integrated Communications, Education and Publishing Company", "category": "Marketing agency", "street": "39 Daryacha Road", "city": "Hauz Khas Village, New Delhi", "phone": "08800474512", "website": "http://www.ijcpgroup.com/", "rating": 4, "review_count": "", "latitude": 28.553076599999997, "longitude": 77.1946746, "maps_url": "https://www.google.com/maps/place/?q=place_id:0x390ce22b24ca39c1:0x7ddd7fe633ccac3"}, {"place_id": "0x390d1d8baaaaaaab:0x81e02841f207d0f0", "name": "S SONY & COMPANY PVT. LTD", "category": "Real Estate Builders & Construction Company", "street": "G-4, ANUPAMA BUILDING II FLOOR", "city": "Hauz Khas", "phone": "01135002651", "website": "http://ssony.in/", "rating": 4.9, "review_count": "", "latitude": 28.5510508, "longitude": 77.2048471, "maps_url": "https://www.google.com/maps/place/?q=place_id:0x390d1d8baaaaaaab:0x81e02841f207d0f0"}, {"place_id": "0x390ce1b9de54d101:0xc5184256693b27dd", "name": "LCK Technologies - Website designing development company South Delhi", "category": "Website designer", "street": "439 1st floor", "city": "438", "phone": "09891337955", "website": "https://lckdigitalmedia.in/", "rating": 4.9, "review_count": "", "latitude": 28.5089698, "longitude": 77.20114769999999, "maps_url": "https://www.google.com/maps/place/?q=place_id:0x390ce1b9de54d101:0xc5184256693b27dd"}, {"place_id": "0x390ce33a2b250803:0x7142e204a821d1ee", "name": "AMITECH IT SOLUTIONS Authorized Dealer - Matrix Epabx System | IP-PBX | CCTV Camera In Delhi", "category": "Telecommunications service provider", "street": "B-4, Basement", "city": "Shivalik Colony", "phone": "09999663767", "website": "", "rating": 4.5, "review_count": "", "latitude": 28.561581699999998, "longitude": 77.19240769999999, "maps_url": "https://www.google.com/maps/place/?q=place_id:0x390ce33a2b250803:0x7142e204a821d1ee"}, {"place_id": "0x390ce3b31aba64ef:0xe7b284399b8f2b40", "name": "Urbanclap company", "category": "Corporate office", "street": "161 B/4, Second Floor, Gulmohar House, Near Green Park Metro Gate- 2", "city": "New Delhi, Delhi 110016", "phone": "", "website": "https://www.urbancompany.com/delhi-ncr", "rating": 3, "review_count": "", "latitude": 28.5568733, "longitude": 77.2059249, "maps_url": "https://www.google.com/maps/place/?q=place_id:0x390ce3b31aba64ef:0xe7b284399b8f2b40"}, {"place_id": "0x390ce23eeab015ab:0x92d6a7e8dbc46e1a", "name": "Odyssey Website Development Company", "category": "Website designer", "street": "B-59", "city": "Block B, Soami Nagar South, Soami Nagar", "phone": "09654486464", "website": "http://odysseyin.com/?utm_source=GMB&utm_medium=Organic&utm_term=Odyssey&utm_content=Listing&utm_campaign=GMB1", "rating": 3.6, "review_count": "", "latitude": 28.541823599999997, "longitude": 77.2262008, "maps_url": "https://www.google.com/maps/place/?q=place_id:0x390ce23eeab015ab:0x92d6a7e8dbc46e1a"}, {"place_id": "0x390ce391056094a1:0xb152d06381cd2367", "name": "Let's Build Brands Media", "category": "Marketing agency", "street": "Building No.1A, 1st Floor", "city": "Hauz Khas Village, Deer Park, Hauz Khas", "phone": "07289020201", "website": "http://www.letsbuildbrands.com/", "rating": 4.4, "review_count": "", "latitude": 28.554714999999998, "longitude": 77.1949545, "maps_url": "https://www.google.com/maps/place/?q=place_id:0x390ce391056094a1:0xb152d06381cd2367"}, {"place_id": "0x390ce2118c26aaab:0xcf5c76ce9aaa3806", "name": "Wembrace Biopharma Pvt Ltd", "category": "Pharmaceutical company", "street": "Commercial Complex", "city": "B6/9", "phone": "18002029010", "website": "http://wembrace.in/", "rating": 4.9, "review_count": "", "latitude": 28.5590175, "longitude": 77.1966321, "maps_url": "https://www.google.com/maps/place/?q=place_id:0x390ce2118c26aaab:0xcf5c76ce9aaa3806"}, {"place_id": "0x390ce21c24e85b2f:0xf80cd35fedbc3cea", "name": "Cyberspace Networking Systems (P) Ltd.", "category": "Website designer", "street": "NIL-36C, Shvalik, DDA Flats, Malviya Nagar", "city": "New Delhi, Delhi 110017", "phone": "01141892901", "website": "http://www.cyberspace.in/", "rating": 3.9, "review_count": "", "latitude": 28.534816, "longitude": 77.21120789999999, "maps_url": "https://www.google.com/maps/place/?q=place_id:0x390ce21c24e85b2f:0xf80cd35fedbc3cea"}, {"place_id": "0x390d1e186527b451:0x3d552630d3703e21", "name": "Inca Infotech Technologies Pvt Ltd", "category": "Computer support and services", "street": "D-23/405, UGF", "city": "100 Feet Rd", "phone": "18008891907", "website": "https://www.incainfotech.com/", "rating": 3.6, "review_count": "", "latitude": 28.506226899999998, "longitude": 77.1850521, "maps_url": "https://www.google.com/maps/place/?q=place_id:0x390d1e186527b451:0x3d552630d3703e21"}, {"place_id": "0x390d1d4259dfca13:0x84ec6b01b088fefe", "name": "BPO CONVERGENCE PVT LTD Corporate", "category": "BPO Company", "street": "FPAI Building, 2nd Floor, PLOT# 10", "city": "Sector 4 R K Puram", "phone": "", "website": "http://bpoconvergence.com/", "rating": 4.8, "review_count": "", "latitude": 28.5566377, "longitude": 77.1761219, "maps_url": "https://www.google.com/maps/place/?q=place_id:0x390d1d4259dfca13:0x84ec6b01b088fefe"}, {"place_id": "0x390d1df41a50233b:0xde562f8f81a791a", "name": "DTDC Express Ltd (IIT Gate)", "category": "Courier service", "street": "27-E, Lalitaksh Singh Lakra Marg", "city": "Jia Sarai, Hauz Khas", "phone": "09810002833", "website": "http://dtdc.com/", "rating": 4.3, "review_count": "", "latitude": 28.5466108, "longitude": 77.1896522, "maps_url": "https://www.google.com/maps/place/?q=place_id:0x390d1df41a50233b:0xde562f8f81a791a"}, {"place_id": "0x331745c76a06d77:0x3f5c561237cb7a3e", "name": "Webreachpro Technologies", "category": "Marketing agency", "street": "Phase-2", "city": "25B", "phone": "09643014632", "website": "https://webreachpro.in/", "rating": 5, "review_count": "", "latitude": 28.5415092, "longitude": 77.1842592, "maps_url": "https://www.google.com/maps/place/?q=place_id:0x331745c76a06d77:0x3f5c561237cb7a3e"}, {"place_id": "0x390d1da1c8ca3dbb:0x17929bb61a4c0735", "name": "Lets Cowork - South Delhi", "category": "Coworking space", "street": "12", "city": "Hauz Khas Village, Deer Park, Hauz Khas", "phone": "09958474440", "website": "https://www.letsco.work/", "rating": 4.6, "review_count": "", "latitude": 28.554479299999997, "longitude": 77.1941224, "maps_url": "https://www.google.com/maps/place/?q=place_id:0x390d1da1c8ca3dbb:0x17929bb61a4c0735"}, {"place_id": "0x390d1d841aaaaaab:0xa32856a97de4096b", "name": "BI Biotech India Pvt. Ltd. (Corporate Office)", "category": "Biotechnology company", "street": "328", "city": "Ansal Chamber-2", "phone": "01126101271", "website": "http://www.biotechindia.com/", "rating": 3.9, "review_count": "", "latitude": 28.5677649, "longitude": 77.187382, "maps_url": "https://www.google.com/maps/place/?q=place_id:0x390d1d841aaaaaab:0xa32856a97de4096b"}, {"place_id": "0x390d1daae64a2b0f:0x43fd6f06beb115b2", "name": "Viral Business - Website and App Development Services", "category": "Website designer", "street": "46A Building", "city": "Hauz Khas Village", "phone": "", "website": "", "rating": 2, "review_count": "", "latitude": 28.5530826, "longitude": 77.1943872, "maps_url": "https://www.google.com/maps/place/?q=place_id:0x390d1daae64a2b0f:0x43fd6f06beb115b2"}, {"place_id": "0x390d199c47b5e1dd:0x8acf43d6c9d912c9", "name": "Vinbox Martech Private Limited", "category": "Software company", "street": "Second Floor", "city": "1/17525 (PART 60/4", "phone": "", "website": "https://www.vinbox.in/", "rating": 5, "review_count": "", "latitude": 28.559325299999998, "longitude": 77.2075246, "maps_url": "https://www.google.com/maps/place/?q=place_id:0x390d199c47b5e1dd:0x8acf43d6c9d912c9"}, {"place_id": "0x390ce1bef0c8c071:0xb0a64e46c6405fc6", "name": "Tech rise dynamics", "category": "Website designer", "street": "293, Lane-2, Westend Marg", "city": "near Saket Metro Station", "phone": "08750557052", "website": "https://www.techrisedynamics.com/", "rating": 5, "review_count": "", "latitude": 28.5177321, "longitude": 77.1986237, "maps_url": "https://www.google.com/maps/place/?q=place_id:0x390ce1bef0c8c071:0xb0a64e46c6405fc6"}, {"place_id": "0x390ce3a482bb2f47:0x41d9c81b8e52e4b3", "name": "Website Sewa", "category": "Web hosting company", "street": "Block K, Hauz Khas Enclave, Hauz Khas", "city": "New Delhi, Delhi 110016", "phone": "", "website": "http://www.websitesewa.com/", "rating": 5, "review_count": "", "latitude": 28.547214999999998, "longitude": 77.2001995, "maps_url": "https://www.google.com/maps/place/?q=place_id:0x390ce3a482bb2f47:0x41d9c81b8e52e4b3"}, {"place_id": "0x390ce39307063999:0xb115a5e9663792f0", "name": "Eagle Hunter Solutions Limited", "category": "Security guard service", "street": "61, Kalu Sarai Rd, Sarvpriya vihar", "city": "61, Kalu Sarai Rd", "phone": "01140748000", "website": "https://eaglehuntersgroup.com/", "rating": 4, "review_count": "", "latitude": 28.542211499999997, "longitude": 77.2036753, "maps_url": "https://www.google.com/maps/place/?q=place_id:0x390ce39307063999:0xb115a5e9663792f0"}, {"place_id": "0x390ce20bffffffff:0x1a1e20b820c3c632", "name": "Helicon Constructions Pvt. Ltd", "category": "Corporate office", "street": "17 Ber Sarai IIT", "city": "Hauz Khas", "phone": "01142411978", "website": "", "rating": 5, "review_count": "", "latitude": 28.547217999999997, "longitude": 77.2002023, "maps_url": "https://www.google.com/maps/place/?q=place_id:0x390ce20bffffffff:0x1a1e20b820c3c632"}, {"place_id": "0x390d1d006f1682f9:0x7505996506004969", "name": "Conscious coffee cravings(Co-work-out)", "category": "Coworking space", "street": "Powerhouse building", "city": "30", "phone": "01149968643", "website": "http://consciouscoffeecravings.com/", "rating": 4.4, "review_count": "", "latitude": 28.5538749, "longitude": 77.1948116, "maps_url": "https://www.google.com/maps/place/?q=place_id:0x390d1d006f1682f9:0x7505996506004969"}, {"place_id": "0xa3f7b500ba6bee9b:0xbf6f44de92b28de", "name": "Yuvocreations Private Limited ( \u092f\u0941\u0935\u094b\u0915\u094d\u0930\u093f\u090f\u0936\u0928\u094d\u0938 \u092a\u094d\u0930\u093e\u0907\u0935\u0947\u091f \u0932\u093f\u092e\u093f\u091f\u0947\u0921 ) - Website Designing & Digital Marketing Agency", "category": "Software company", "street": "Lane no.4", "city": "Khasra no. 258, Westend Marg", "phone": "07042123166", "website": "https://yuvocreations.com/", "rating": 5, "review_count": "", "latitude": 28.5169774, "longitude": 77.19925789999999, "maps_url": "https://www.google.com/maps/place/?q=place_id:0xa3f7b500ba6bee9b:0xbf6f44de92b28de"}, {"place_id": "0x390ce276e5555555:0x8ecad25fd7650f95", "name": "Holistic Ecommerce - Website Design & Development Agency", "category": "Website designer", "street": "House No 26", "city": "Block B 7, Arjun Nagar, Green Park", "phone": "09319695241", "website": "http://holisticecommerce.com/", "rating": 4.7, "review_count": "", "latitude": 28.560747799999998, "longitude": 77.1983506, "maps_url": "https://www.google.com/maps/place/?q=place_id:0x390ce276e5555555:0x8ecad25fd7650f95"}, {"place_id": "0x390ce184813fbe77:0xc460feb0f5e16fa4", "name": "ART DESIGN GRAPHIC", "category": "Graphic designer", "street": "C-7/247, D.D.A, Flats", "city": "Safdarjung Development Area, Hauz Khas", "phone": "09990877766", "website": "https://artdesigngraphic.com/", "rating": 5, "review_count": "", "latitude": 28.5544546, "longitude": 77.19738819999999, "maps_url": "https://www.google.com/maps/place/?q=place_id:0x390ce184813fbe77:0xc460feb0f5e16fa4"}, {"place_id": "0x390d1dc92cb785df:0xdd580573c6b880b3", "name": "Markenoids", "category": "Website designer", "street": "201 Ashiyana Apartment", "city": "Hauz Khas Village", "phone": "", "website": "", "rating": 5, "review_count": "", "latitude": 28.553363899999997, "longitude": 77.1942516, "maps_url": "https://www.google.com/maps/place/?q=place_id:0x390d1dc92cb785df:0xdd580573c6b880b3"}, {"place_id": "0x390ce19d6aaaaaab:0x322f66cd91e8f6cd", "name": "Vikas Gupta Web Developer", "category": "Website designer", "street": "A-454 Dakshinpuri", "city": "New Delhi, Delhi 110062", "phone": "09643269244", "website": "https://itcrafterhub.com/website-developer-delhi/", "rating": 5, "review_count": "", "latitude": 28.522017599999998, "longitude": 77.2366923, "maps_url": "https://www.google.com/maps/place/?q=place_id:0x390ce19d6aaaaaab:0x322f66cd91e8f6cd"}, {"place_id": "0x390d1dc92cb785df:0xdd580573c6b880b3", "name": "Markenoids", "category": "Website designer", "street": "201 Ashiyana Apartment", "city": "Hauz Khas Village", "phone": "", "website": "", "rating": 5, "review_count": "", "latitude": 28.553363899999997, "longitude": 77.1942516, "maps_url": "https://www.google.com/maps/place/?q=place_id:0x390d1dc92cb785df:0xdd580573c6b880b3"}, {"place_id": "0x390ce19d6aaaaaab:0x322f66cd91e8f6cd", "name": "Vikas Gupta Web Developer", "category": "Website designer", "street": "A-454 Dakshinpuri", "city": "New Delhi, Delhi 110062", "phone": "09643269244", "website": "https://itcrafterhub.com/website-developer-delhi/", "rating": 5, "review_count": "", "latitude": 28.522017599999998, "longitude": 77.2366923, "maps_url": "https://www.google.com/maps/place/?q=place_id:0x390ce19d6aaaaaab:0x322f66cd91e8f6cd"}, {"place_id": "0x390ce26c713ad623:0x42466d70eeb94c86", "name": "Canco Fasteners", "category": "Manufacturer", "street": "B-6/2, Safderjung Enclave, DDA Commercial Complex", "city": "New Delhi, Delhi 110029", "phone": "01142525500", "website": "https://cancofasteners.com/", "rating": 4.7, "review_count": "", "latitude": 28.559196999999998, "longitude": 77.1958886, "maps_url": "https://www.google.com/maps/place/?q=place_id:0x390ce26c713ad623:0x42466d70eeb94c86"}, {"place_id": "0x390d1de11c860d81:0x583fe23e988ed845", "name": "VECROS", "category": "Software company", "street": "Synergy Building", "city": "VECROS HQ, TBIU", "phone": "", "website": "https://www.vecros.com/", "rating": 5, "review_count": "", "latitude": 28.543546, "longitude": 77.1911781, "maps_url": "https://www.google.com/maps/place/?q=place_id:0x390d1de11c860d81:0x583fe23e988ed845"}, {"place_id": "0x390d1d630e3d57d9:0x89bb626bc4d2ee71", "name": "Komm Kiosk - Enquiry Management System", "category": "Software company", "street": "28", "city": "near Indian Institute of Technology Delhi", "phone": "", "website": "https://www.kommkiosk.com/", "rating": 5, "review_count": "", "latitude": 28.5468923, "longitude": 77.1884702, "maps_url": "https://www.google.com/maps/place/?q=place_id:0x390d1d630e3d57d9:0x89bb626bc4d2ee71"}, {"place_id": "0x390ce26c7a9059d1:0x8db5c6aface80cf4", "name": "Xalta", "category": "Food & Beverage Exporter", "street": "Gulmohar Commercial Complex", "city": "161, B/4, 4th Floor", "phone": "", "website": "https://xalta.co.in/", "rating": 3.6, "review_count": "", "latitude": 28.558654699999998, "longitude": 77.20854159999999, "maps_url": "https://www.google.com/maps/place/?q=place_id:0x390ce26c7a9059d1:0x8db5c6aface80cf4"}, {"place_id": "0x390ce385912b456f:0xa36a265519c610ea", "name": "DU Digital Global Limited - Registered Office", "category": "Visa Agent", "street": "2nd Floor", "city": "C-4", "phone": "", "website": "https://dudigitalglobal.com/", "rating": 3.7, "review_count": "", "latitude": 28.5502012, "longitude": 77.1983431, "maps_url": "https://www.google.com/maps/place/?q=place_id:0x390ce385912b456f:0xa36a265519c610ea"}, {"place_id": "0x390d1e748ef61961:0x754ceb660996cfdb", "name": "ACS System Solutions", "category": "Software company", "street": "Kishangarh, Kishangarh Village, Vasant Kunj", "city": "New Delhi, Delhi 110070", "phone": "01149858620", "website": "http://acssystem.in/", "rating": 3.4, "review_count": "", "latitude": 28.522178699999998, "longitude": 77.1692609, "maps_url": "https://www.google.com/maps/place/?q=place_id:0x390d1e748ef61961:0x754ceb660996cfdb"}, {"place_id": "0x390d1df0b86aa735:0x4d6fa3ee0ce8329c", "name": "AStar Battery, Charger, Electric Vehicles & Spares", "category": "Corporate office", "street": "124a, FF, Main Road", "city": "Katwaria Sarai", "phone": "09758538200", "website": "http://astarbattery.com/", "rating": 3.9, "review_count": "", "latitude": 28.5404466, "longitude": 77.1857691, "maps_url": "https://www.google.com/maps/place/?q=place_id:0x390d1df0b86aa735:0x4d6fa3ee0ce8329c"}, {"place_id": "0x390ce1be2d2a7377:0x5020cce4790298e1", "name": "AJWA KAIF PVT LTD", "category": "Computer support and services", "street": "Ground Floor", "city": "Khirki Vill", "phone": "01142502100", "website": "https://www.ajwakaif.com/", "rating": 5, "review_count": "", "latitude": 28.5309287, "longitude": 77.2194186, "maps_url": "https://www.google.com/maps/place/?q=place_id:0x390ce1be2d2a7377:0x5020cce4790298e1"}, {"place_id": "0x390ce27a01f0b14d:0x8f34f03e8c4801de", "name": "Oakridge Energy - Leading Solar Developer for Commercial & Industrial Establishments", "category": "Solar Energy Company", "street": "B 6/13", "city": "B6, Block B6, Humayunpur, Safdarjung Enclave", "phone": "09971738111", "website": "https://www.oakridge.co.in/", "rating": 4.2, "review_count": "", "latitude": 28.559124699999998, "longitude": 77.19425389999999, "maps_url": "https://www.google.com/maps/place/?q=place_id:0x390ce27a01f0b14d:0x8f34f03e8c4801de"}, {"place_id": "0x390ce26dec06443d:0x8f5f320535d4a531", "name": "Arun Watch Company", "category": "Watch repair service", "street": "D.A, V. School Building", "city": "Metro Station", "phone": "07982802738", "website": "http://arunwatch.com/?utm_source=gmb&utm_medium=referral", "rating": 4.3, "review_count": "", "latitude": 28.5582906, "longitude": 77.20701799999999, "maps_url": "https://www.google.com/maps/place/?q=place_id:0x390ce26dec06443d:0x8f5f320535d4a531"}, {"place_id": "0x390ce26db7e55555:0x42cc8e4fbd50a4c5", "name": "SKR LAW FIRMS", "category": "Law firm", "street": "C - 3/19 LGF", "city": "Block C 3, Safdarjung Development Area, Hauz Khas", "phone": "09990432878", "website": "https://skrlawfirms.com/", "rating": 5, "review_count": "", "latitude": 28.5505899, "longitude": 77.20037049999999, "maps_url": "https://www.google.com/maps/place/?q=place_id:0x390ce26db7e55555:0x42cc8e4fbd50a4c5"}, {"place_id": "0x390ce20bffffffff:0x6f1cc47abdde4f79", "name": "SNR & Company - Chartered Accountant Firm", "category": "Chartered accountant", "street": "Second Floor", "city": "A-15", "phone": "01141655801", "website": "http://snr.company/", "rating": 4.7, "review_count": "", "latitude": 28.5531246, "longitude": 77.2077339, "maps_url": "https://www.google.com/maps/place/?q=place_id:0x390ce20bffffffff:0x6f1cc47abdde4f79"}, {"place_id": "0x390ce20f436a2895:0xb21ee017a00c669a", "name": "DSS Securitech Pvt. Ltd.", "category": "Security guard service", "street": "Behind Hauzkhas Bus Terminal, T 7 Anupam plaza", "city": "Kalu Sarai Road Near Brilliant Tutorials, Kalu Sarai", "phone": "09811117970", "website": "https://www.dsssecurity.in/", "rating": 3.5, "review_count": "", "latitude": 28.5423512, "longitude": 77.2014356, "maps_url": "https://www.google.com/maps/place/?q=place_id:0x390ce20f436a2895:0xb21ee017a00c669a"}, {"place_id": "0x390ce3fcddcee053:0xa348ba96a9e04c03", "name": "OVILITE PVT. LTD.", "category": "Manufacturer", "street": "Third Floor", "city": "B-6/1", "phone": "01126183701", "website": "http://www.ovilite.com/", "rating": 3.7, "review_count": "", "latitude": 28.5593059, "longitude": 77.1958456, "maps_url": "https://www.google.com/maps/place/?q=place_id:0x390ce3fcddcee053:0xa348ba96a9e04c03"}, {"place_id": "0xd1516b679f60d2f:0x9458c47d907b59a8", "name": "MarkTech Company", "category": "Marketing agency", "street": "INA, Laxmi Bai Nagar", "city": "New Delhi, Delhi 110023", "phone": "08527880385", "website": "https://markteches.com/", "rating": 3.9, "review_count": "", "latitude": 28.5754463, "longitude": 77.2077127, "maps_url": "https://www.google.com/maps/place/?q=place_id:0xd1516b679f60d2f:0x9458c47d907b59a8"}, {"place_id": "0x390d1d8a99a47c21:0x68ef0a48be155104", "name": "Best Job Solution", "category": "Employment agency", "street": "39, Top Floor, Hauz Khas Village", "city": "Daryacha Building", "phone": "07838809484", "website": "", "rating": 1, "review_count": "", "latitude": 28.5539812, "longitude": 77.19391829999999, "maps_url": "https://www.google.com/maps/place/?q=place_id:0x390d1d8a99a47c21:0x68ef0a48be155104"}, {"place_id": "0x390cfb4bf15a6733:0xaf50e6f3c5fb7641", "name": "Digitals Daddy: Web & App Development Company", "category": "Software company", "street": "Metro Gate No. 2", "city": "Nearest Sikandarpur", "phone": "09818286609", "website": "https://www.digitalsdaddy.com/", "rating": 4.9, "review_count": "", "latitude": 28.4847884, "longitude": 77.0922192, "maps_url": "https://www.google.com/maps/place/?q=place_id:0x390cfb4bf15a6733:0xaf50e6f3c5fb7641"}, {"place_id": "0x390d1df0620091e3:0x4d1c5da404c92073", "name": "Fika Coffee Co.", "category": "Cafe", "street": "T40", "city": "Hauz Khas Village, Deer Park, Hauz Khas", "phone": "", "website": "https://www.instagram.com/fikacoffeeco_?igsh=NTlrMWNscWJhOTZj&utm_source=qr", "rating": 4.4, "review_count": "", "latitude": 28.5527046, "longitude": 77.1944702, "maps_url": "https://www.google.com/maps/place/?q=place_id:0x390d1df0620091e3:0x4d1c5da404c92073"}]}