{"timestamp": 1773729458.7428439, "keyword": "IT company", "location": "delhi", "cell_idx": 91, "results": [{"place_id": "0x390d17652843f4f5:0x25fea8d06ab431a6", "name": "Tenwave Infotech Pvt. Ltd. - Hospital Management Software | Best EMR Software India", "category": "Software company", "street": "D112, 60 Feet Rd", "city": "Chhatarpur Hills, Pocket D, Chattarpur Enclave, Chhatarpur", "phone": "07011657478", "website": "https://www.tenwavehealthcare.com/", "rating": 5, "review_count": "", "latitude": 28.502610299999997, "longitude": 77.18392349999999, "maps_url": "https://www.google.com/maps/place/?q=place_id:0x390d17652843f4f5:0x25fea8d06ab431a6"}, {"place_id": "0x390d1f31857204fb:0xabc508016ea7b7c9", "name": "Ce Info Software Solutions Tally Services Provider & Partner In Delhi Ncr", "category": "Software company", "street": "285 street No. -27", "city": "100 Feet Rd", "phone": "09711602378", "website": "http://ceinfosoft.com/", "rating": 5, "review_count": "", "latitude": 28.505185599999997, "longitude": 77.184986, "maps_url": "https://www.google.com/maps/place/?q=place_id:0x390d1f31857204fb:0xabc508016ea7b7c9"}, {"place_id": "0x390d1fbbce82cc5f:0x8f093d6269ea787e", "name": "Canticle Technologies Pvt. Ltd. | ERP Software For Security | Software Development | HR And Payroll Software | HRMS Software", "category": "Software company", "street": "1st Floor", "city": "D-25, 100 Feet Rd", "phone": "09212763762", "website": "http://www.canticleindia.com/", "rating": 4.8, "review_count": "", "latitude": 28.505732499999997, "longitude": 77.1851427, "maps_url": "https://www.google.com/maps/place/?q=place_id:0x390d1fbbce82cc5f:0x8f093d6269ea787e"}, {"place_id": "0x390d1e26841f4029:0xbed40d3c611d8d6", "name": "SAY 2 GET iT", "category": "Software company", "street": "83 E", "city": "DR Ambedkar Colony, Chattarpur Enclave, Chhatarpur", "phone": "09319051305", "website": "http://www.say2getit.com/", "rating": 5, "review_count": "", "latitude": 28.5028699, "longitude": 77.1887764, "maps_url": "https://www.google.com/maps/place/?q=place_id:0x390d1e26841f4029:0xbed40d3c611d8d6"}, {"place_id": "0x390d1f9ef34b79bd:0x2dc0fdd0c33d2e15", "name": "VLS Technology Private Limited", "category": "Software company", "street": "D 27A, Second Floor", "city": "60 Feet Rd", "phone": "09711200318", "website": "https://vlstechnology.com/", "rating": 5, "review_count": "", "latitude": 28.5020255, "longitude": 77.1837389, "maps_url": "https://www.google.com/maps/place/?q=place_id:0x390d1f9ef34b79bd:0x2dc0fdd0c33d2e15"}, {"place_id": "0x390d1fcf6c34ab99:0x285f961d231b2c61", "name": "Aadiyar Infotech Private Limited", "category": "Software company", "street": "1st Floor", "city": "Pannal Building No. 2", "phone": "09810164525", "website": "https://www.aadiyar.in/", "rating": 4.9, "review_count": "", "latitude": 28.487146, "longitude": 77.185315, "maps_url": "https://www.google.com/maps/place/?q=place_id:0x390d1fcf6c34ab99:0x285f961d231b2c61"}, {"place_id": "0x390d1f9427354d85:0x108e275836631ea8", "name": "TrueHRIS", "category": "Software company", "street": "D", "city": "27A, 60 Feet Rd", "phone": "08360205050", "website": "https://truehris.com/", "rating": 4.9, "review_count": "", "latitude": 28.502019599999997, "longitude": 77.1837353, "maps_url": "https://www.google.com/maps/place/?q=place_id:0x390d1f9427354d85:0x108e275836631ea8"}, {"place_id": "0x390d1e186527b451:0x3d552630d3703e21", "name": "Inca Infotech Technologies Pvt Ltd", "category": "Computer support and services", "street": "D-23/405, UGF", "city": "100 Feet Rd", "phone": "18008891907", "website": "https://www.incainfotech.com/", "rating": 3.6, "review_count": "", "latitude": 28.506226899999998, "longitude": 77.1850521, "maps_url": "https://www.google.com/maps/place/?q=place_id:0x390d1e186527b451:0x3d552630d3703e21"}, {"place_id": "0x390d1e269455720d:0x8f7dc59d495510bb", "name": "OM IT SOLUTIONS", "category": "Computer repair service", "street": "Maidan Garhi Rd", "city": "near Lavanya Hospital", "phone": "08860626288", "website": "https://omitsolutions.co.in/", "rating": 4.8, "review_count": "", "latitude": 28.4984292, "longitude": 77.19177959999999, "maps_url": "https://www.google.com/maps/place/?q=place_id:0x390d1e269455720d:0x8f7dc59d495510bb"}, {"place_id": "0x390d1e22c54b039d:0xd5c0ccbe602708d", "name": "CEOITBOX | Mr. Sanjeev Jain - Best AI Business Automation Coach In India | AI & Tech Implementation Coach", "category": "Software company", "street": "293, Dhan Mill Rd", "city": "Chhatarpur Hills, Pocket D, Dr Ambedkar Colony, Chhatarpur", "phone": "08766362949", "website": "https://ceoitbox.com/", "rating": 4.7, "review_count": "", "latitude": 28.503270099999998, "longitude": 77.1838192, "maps_url": "https://www.google.com/maps/place/?q=place_id:0x390d1e22c54b039d:0xd5c0ccbe602708d"}, {"place_id": "0x390ce1597b5509e5:0x41371c9fd40ce199", "name": "TNS Networking Solutions Pvt. Ltd. - System Integrator for IT Infrastructure Projects", "category": "Computer support and services", "street": "293, Dhan Mill Rd", "city": "Chhatarpur Hills, Pocket D, Dr Ambedkar Colony, Chhatarpur", "phone": "01142375032", "website": "http://www.tnspl.com/", "rating": 4.7, "review_count": "", "latitude": 28.503260599999997, "longitude": 77.1838258, "maps_url": "https://www.google.com/maps/place/?q=place_id:0x390ce1597b5509e5:0x41371c9fd40ce199"}, {"place_id": "0x390d1e23d961c2e7:0x86e7e6bf1dcf0c4c", "name": "UNCOSTLY", "category": "Computer service", "street": "B", "city": "55, Street Number 18", "phone": "09999892528", "website": "", "rating": 4.9, "review_count": "", "latitude": 28.501599199999998, "longitude": 77.1901718, "maps_url": "https://www.google.com/maps/place/?q=place_id:0x390d1e23d961c2e7:0x86e7e6bf1dcf0c4c"}, {"place_id": "0x390ce458d0000001:0xf2123bd299ec4501", "name": "IT Company India", "category": "Software company", "street": "D56", "city": "D Block, Sector 10", "phone": "09999244854", "website": "https://www.itcompanyindia.in/", "rating": 4.7, "review_count": "", "latitude": 28.589917699999997, "longitude": 77.3351153, "maps_url": "https://www.google.com/maps/place/?q=place_id:0x390ce458d0000001:0xf2123bd299ec4501"}, {"place_id": "0x61679272b097afaf:0x2d8ff2b0d95a1e18", "name": "Busybots | RPA & Robotic Process Automation for Banking, Healthcare, AI Services & UiPath, Python Training in Delhi", "category": "Software company", "street": "1st Floor, D", "city": "25, 100 Feet Rd", "phone": "09315867465", "website": "https://www.busybots.in/", "rating": 5, "review_count": "", "latitude": 28.5055157, "longitude": 77.1852263, "maps_url": "https://www.google.com/maps/place/?q=place_id:0x61679272b097afaf:0x2d8ff2b0d95a1e18"}, {"place_id": "0x390d1e08d71a257f:0xea4e129d751fc99", "name": "Sukrit Infotech", "category": "Software company", "street": "1043 Ward No 8 1042/2D 2nd Floor Mehrauli Near Babar Building", "city": "Mehrauli", "phone": "01145607265", "website": "http://www.sukritinfotech.com/", "rating": 4.5, "review_count": "", "latitude": 28.517589599999997, "longitude": 77.1802435, "maps_url": "https://www.google.com/maps/place/?q=place_id:0x390d1e08d71a257f:0xea4e129d751fc99"}, {"place_id": "0x390d1e2fed1eed4b:0x101cd24533e257fa", "name": "SOFTLIFE Technologies Pvt. Ltd.", "category": "Software company", "street": "B-2, Block", "city": "Road", "phone": "09045199841", "website": "", "rating": 4.4, "review_count": "", "latitude": 28.4929925, "longitude": 77.18445489999999, "maps_url": "https://www.google.com/maps/place/?q=place_id:0x390d1e2fed1eed4b:0x101cd24533e257fa"}, {"place_id": "0x390ce3ad10000061:0xeff7e6017a22cce7", "name": "Alpinesoft IT Solutions Authorized Google Workspace Reseller", "category": "Software company", "street": "162/9 Ist Floor, KIshangarh - Gaushala Marg", "city": "Lakhi Nath Kuti, Mehrauli, Vasant Kunj", "phone": "09999011157", "website": "https://www.alpinesoftit.com/", "rating": 4.3, "review_count": "", "latitude": 28.515394399999998, "longitude": 77.16460359999999, "maps_url": "https://www.google.com/maps/place/?q=place_id:0x390ce3ad10000061:0xeff7e6017a22cce7"}, {"place_id": "0x390d1f682a47a95d:0x3333a64255f25841", "name": "Culturemeter", "category": "Human resource consulting", "street": "D", "city": "27A, 60 Feet Rd", "phone": "", "website": "https://culturemeter.in/", "rating": 5, "review_count": "", "latitude": 28.502600299999997, "longitude": 77.18382, "maps_url": "https://www.google.com/maps/place/?q=place_id:0x390d1f682a47a95d:0x3333a64255f25841"}, {"place_id": "0x390ce251e2ca529d:0xa6287908b91b6452", "name": "Citrus Ink Studios", "category": "Animation Studio", "street": "Khasra No", "city": "The Dhan Mill Compound", "phone": "08800002583", "website": "http://www.citrusinkstudios.com/", "rating": 4.5, "review_count": "", "latitude": 28.5039007, "longitude": 77.1839385, "maps_url": "https://www.google.com/maps/place/?q=place_id:0x390ce251e2ca529d:0xa6287908b91b6452"}, {"place_id": "0x4215c6da63b4b82f:0x794ba814a6ada964", "name": "Asha Tech | Website Design, App Development & IT Solutions Delhi", "category": "Software company", "street": "no 2", "city": "195, Lane No. 1", "phone": "07531080874", "website": "https://ashatech.co.in/", "rating": 4.7, "review_count": "", "latitude": 28.519994099999998, "longitude": 77.2008791, "maps_url": "https://www.google.com/maps/place/?q=place_id:0x4215c6da63b4b82f:0x794ba814a6ada964"}, {"place_id": "0x4215c6da63b4b82f:0x794ba814a6ada964", "name": "Asha Tech | Website Design, App Development & IT Solutions Delhi", "category": "Software company", "street": "no 2", "city": "195, Lane No. 1", "phone": "07531080874", "website": "https://ashatech.co.in/", "rating": 4.7, "review_count": "", "latitude": 28.519994099999998, "longitude": 77.2008791, "maps_url": "https://www.google.com/maps/place/?q=place_id:0x4215c6da63b4b82f:0x794ba814a6ada964"}, {"place_id": "0x390d1f43f6442193:0xa633a2795caaaf9a", "name": "iT EXPERT", "category": "Computer support and services", "street": "Plot No 165", "city": "near by C.R.C Building", "phone": "09643205555", "website": "https://it-expert.grexa.site/", "rating": 5, "review_count": "", "latitude": 28.496751, "longitude": 77.163401, "maps_url": "https://www.google.com/maps/place/?q=place_id:0x390d1f43f6442193:0xa633a2795caaaf9a"}, {"place_id": "0x390d1dd5a7b16df9:0x9c17bd63d2927054", "name": "Glaucus Supply Chain Solutions Pvt. Ltd.", "category": "Logistics service", "street": "D-112", "city": "G/F, 60 Feet Rd", "phone": "", "website": "", "rating": 4.2, "review_count": "", "latitude": 28.502637699999998, "longitude": 77.18396179999999, "maps_url": "https://www.google.com/maps/place/?q=place_id:0x390d1dd5a7b16df9:0x9c17bd63d2927054"}, {"place_id": "0x390d1f757b93f529:0xaf41da4cbccf9a71", "name": "Webdiya Software Private Limited", "category": "Software company", "street": "18 A, Ground Floor", "city": "beside Yes Bank", "phone": "09911307448", "website": "https://www.webdiya.com/", "rating": "", "review_count": "", "latitude": 28.500331, "longitude": 77.183352, "maps_url": "https://www.google.com/maps/place/?q=place_id:0x390d1f757b93f529:0xaf41da4cbccf9a71"}, {"place_id": "0x4c4f2ab74dacf91b:0x422ee5da7e75ec65", "name": "Panah Infosystem", "category": "Software company", "street": "C 520", "city": "JVTS Garden, Block C, Chhatarpur Extension, Chhatarpur", "phone": "09990799978", "website": "https://panahinfosystem.com/", "rating": 4.3, "review_count": "", "latitude": 28.4909283, "longitude": 77.17806829999999, "maps_url": "https://www.google.com/maps/place/?q=place_id:0x4c4f2ab74dacf91b:0x422ee5da7e75ec65"}, {"place_id": "0x390d1fb9b19cd7d7:0x2febfba590f33428", "name": "Corapana Technologies - Mobile App Development and Web Design Development Company Delhi", "category": "Software company", "street": "Ground floor", "city": "D-23", "phone": "08295242621", "website": "https://corapana.com/", "rating": 4.8, "review_count": "", "latitude": 28.496378999999997, "longitude": 77.17898, "maps_url": "https://www.google.com/maps/place/?q=place_id:0x390d1fb9b19cd7d7:0x2febfba590f33428"}, {"place_id": "0x390d1f01bf364b8b:0xd0893d99f5f7d112", "name": "App Developer", "category": "Software company", "street": "Dr Ambedkar Colony, Chhatarpur", "city": "New Delhi, Delhi 110074", "phone": "09582595097", "website": "", "rating": "", "review_count": "", "latitude": 28.502619799999998, "longitude": 77.1802617, "maps_url": "https://www.google.com/maps/place/?q=place_id:0x390d1f01bf364b8b:0xd0893d99f5f7d112"}, {"place_id": "0x390d1e1878491229:0xf8914ddf26c96409", "name": "Savvi Technologies", "category": "Marketing agency", "street": "100 Feet Rd", "city": "Pocket D, Dr Ambedkar Colony, Chhatarpur", "phone": "08800343674", "website": "https://www.savvitech.co.in/", "rating": 1, "review_count": "", "latitude": 28.503492599999998, "longitude": 77.185715, "maps_url": "https://www.google.com/maps/place/?q=place_id:0x390d1e1878491229:0xf8914ddf26c96409"}, {"place_id": "0x390d1f1e8346b7fd:0x873945efb7a3863", "name": "SAY IT SERVICES", "category": "Corporate office", "street": "83 E", "city": "Block G, Chhatarpur", "phone": "", "website": "http://www.say2getit.com/", "rating": "", "review_count": "", "latitude": 28.498192699999997, "longitude": 77.1807362, "maps_url": "https://www.google.com/maps/place/?q=place_id:0x390d1f1e8346b7fd:0x873945efb7a3863"}, {"place_id": "0x390d1feb101a52f7:0x1508064fb1ff6340", "name": "Aditri Info Solutions", "category": "Computer store", "street": "Shop No. 05, Ground Floor", "city": "Chaudhary Complex", "phone": "08076945151", "website": "https://sites.google.com/view/aditriinfosolutions/home", "rating": 5, "review_count": "", "latitude": 28.4939167, "longitude": 77.1805449, "maps_url": "https://www.google.com/maps/place/?q=place_id:0x390d1feb101a52f7:0x1508064fb1ff6340"}, {"place_id": "0x390ce1d4d405afe9:0xb74a24bc34ddaac4", "name": "Zaid IT & Engineering Services", "category": "Software company", "street": "Khasra 913", "city": "Kharak Riwara", "phone": "", "website": "https://digitalkarigar.in/", "rating": 5, "review_count": "", "latitude": 28.467602399999997, "longitude": 77.2063491, "maps_url": "https://www.google.com/maps/place/?q=place_id:0x390ce1d4d405afe9:0xb74a24bc34ddaac4"}, {"place_id": "0x390d1d96799f5b25:0x3a5cadcaad1b77c1", "name": "VLS Sourcing Private Limited", "category": "Human resource consulting", "street": "D", "city": "27A, 60 Feet Rd", "phone": "09711200318", "website": "http://www.vlssourcing.com/", "rating": 4.9, "review_count": "", "latitude": 28.501900199999998, "longitude": 77.1837243, "maps_url": "https://www.google.com/maps/place/?q=place_id:0x390d1d96799f5b25:0x3a5cadcaad1b77c1"}, {"place_id": "0x390d052251df8a1b:0xedc2e686bb5fd4ac", "name": "DIGIBOTANZI TECHNOLOGY PRIVATE LIMITED", "category": "Computer service", "street": "Khasra No. 401, 2nd Floor", "city": "opposite Aggarwal Sweets", "phone": "08595245009", "website": "", "rating": 4.6, "review_count": "", "latitude": 28.4934659, "longitude": 77.1456462, "maps_url": "https://www.google.com/maps/place/?q=place_id:0x390d052251df8a1b:0xedc2e686bb5fd4ac"}, {"place_id": "0x390d1ef0be7176f7:0xd7b6061ed89097f9", "name": "Infotyke", "category": "Software company", "street": "K426, Pillar 133, MG Road, Ghitorani", "city": "New Delhi, Delhi 110030", "phone": "09953585869", "website": "https://www.infotyke.com/", "rating": 4.9, "review_count": "", "latitude": 28.4909239, "longitude": 77.1411863, "maps_url": "https://www.google.com/maps/place/?q=place_id:0x390d1ef0be7176f7:0xd7b6061ed89097f9"}, {"place_id": "0x390ce1e9a7083cb7:0xe2a6861849a12032", "name": "Manish Gupta", "category": "Computer consultant", "street": "On", "city": "P1A 246 (D-14 Neb Valley", "phone": "09810207228", "website": "", "rating": 4.2, "review_count": "", "latitude": 28.5105653, "longitude": 77.2097086, "maps_url": "https://www.google.com/maps/place/?q=place_id:0x390ce1e9a7083cb7:0xe2a6861849a12032"}, {"place_id": "0x41ddcb5488aa4703:0x5290c64921de1a5b", "name": "Bloatware IT Software Development Company | Game Development | Software Company in delhi", "category": "Software company", "street": "SILVER OAK FARMS", "city": "660, Mehrauli-Gurgaon Rd", "phone": "", "website": "https://bloatwareitsolutions.com/", "rating": 5, "review_count": "", "latitude": 28.4911034, "longitude": 77.1432663, "maps_url": "https://www.google.com/maps/place/?q=place_id:0x41ddcb5488aa4703:0x5290c64921de1a5b"}, {"place_id": "0x213278d23258ed1:0xda7ca71736196291", "name": "Astha Technologies - Top Mobile App Development Company in Delhi | Android & iOS", "category": "Software company", "street": "2ND FLOOR", "city": "55, LANE-2, Westend Marg", "phone": "", "website": "https://asthatechnologies.org/mobile-app-development-company-delhi/", "rating": 5, "review_count": "", "latitude": 28.518466099999998, "longitude": 77.19880739999999, "maps_url": "https://www.google.com/maps/place/?q=place_id:0x213278d23258ed1:0xda7ca71736196291"}, {"place_id": "0x390d1f62365e9347:0x1bd3353446e1760f", "name": "Get Bit Technologies", "category": "Software company", "street": "D 5/2, Main Rd", "city": "Dr Ambedkar Colony, chhattapur", "phone": "", "website": "", "rating": 4.7, "review_count": "", "latitude": 28.5003742, "longitude": 77.1841183, "maps_url": "https://www.google.com/maps/place/?q=place_id:0x390d1f62365e9347:0x1bd3353446e1760f"}, {"place_id": "0x390d1f087d9873d5:0xe49fc52283bf307f", "name": "The Neat Trick | Branding & Creative Graphic Design Agency in Delhi", "category": "Website designer", "street": "Agenc Collab, 60 Feet Rd, Dhan Mill Compound, Chhatarpur, New Delhi", "city": "Delhi, 110074", "phone": "09199105555", "website": "", "rating": 4.8, "review_count": "", "latitude": 28.5035022, "longitude": 77.1845328, "maps_url": "https://www.google.com/maps/place/?q=place_id:0x390d1f087d9873d5:0xe49fc52283bf307f"}, {"place_id": "0x390d1e27a164760b:0x90c8dd9e2b4ef002", "name": "JS Infosoft", "category": "Software company", "street": "B-293, Maidan Garhi Rd", "city": "Maidan Gari Extension, Chhatarpur Extension, Chhatarpur", "phone": "08587891066", "website": "http://www.jsinfosoft.in/", "rating": 4.9, "review_count": "", "latitude": 28.4984474, "longitude": 77.1917429, "maps_url": "https://www.google.com/maps/place/?q=place_id:0x390d1e27a164760b:0x90c8dd9e2b4ef002"}, {"place_id": "0x390d1e229aaaaaab:0x1562f3d41abbdac2", "name": "Simran IT Consulting India LLP", "category": "Software company", "street": "D", "city": "6-235", "phone": "09205433162", "website": "", "rating": "", "review_count": "", "latitude": 28.4931071, "longitude": 77.1763864, "maps_url": "https://www.google.com/maps/place/?q=place_id:0x390d1e229aaaaaab:0x1562f3d41abbdac2"}, {"place_id": "0x390d1fa3012fc911:0x744bd65a8adfff31", "name": "Navya IT Solutions", "category": "Computer service", "street": "", "city": "", "phone": "08810694288", "website": "", "rating": 5, "review_count": "", "latitude": 28.520186, "longitude": 77.179158, "maps_url": "https://www.google.com/maps/place/?q=place_id:0x390d1fa3012fc911:0x744bd65a8adfff31"}, {"place_id": "0x390ce72f79c203c1:0xf02cc216db7999a1", "name": "Adorta Technologies", "category": "Software company", "street": "", "city": "", "phone": "09818453781", "website": "https://adortatechnologies.com/", "rating": 5, "review_count": "", "latitude": 21.0680074, "longitude": 82.7525294, "maps_url": "https://www.google.com/maps/place/?q=place_id:0x390ce72f79c203c1:0xf02cc216db7999a1"}, {"place_id": "0x390d1e180f3ec413:0x4d6a4d99152bfde5", "name": "Prefab building", "category": "Real Estate Builders & Construction Company", "street": "Street No D-36, Building No 605", "city": "Chhatarpur", "phone": "09012024269", "website": "http://jdmuntyaal.com/", "rating": 5, "review_count": "", "latitude": 28.505871, "longitude": 77.18384809999999, "maps_url": "https://www.google.com/maps/place/?q=place_id:0x390d1e180f3ec413:0x4d6a4d99152bfde5"}, {"place_id": "0x390d1e3d81bbd6ef:0x470e9a013b5f33eb", "name": "EL Farmaceutica India Pvt. Ltd.", "category": "Corporate office", "street": "D-66", "city": "60 Feet Rd", "phone": "01126303794", "website": "", "rating": 4.8, "review_count": "", "latitude": 28.5025397, "longitude": 77.18399169999999, "maps_url": "https://www.google.com/maps/place/?q=place_id:0x390d1e3d81bbd6ef:0x470e9a013b5f33eb"}, {"place_id": "0x390d1fcd4d591fdb:0x2224bc15ce2a541c", "name": "Digital Technology Solutions", "category": "Website designer", "street": "B, Ground Floor", "city": "B 302, South", "phone": "09540656789", "website": "https://www.digitechn.com/", "rating": 5, "review_count": "", "latitude": 28.493427999999998, "longitude": 77.1832369, "maps_url": "https://www.google.com/maps/place/?q=place_id:0x390d1fcd4d591fdb:0x2224bc15ce2a541c"}, {"place_id": "0x390d1f5e66047b1b:0x9b9f2666a043473f", "name": "Startup Support Group", "category": "Business networking company", "street": "D, 27A", "city": "60 Feet Rd", "phone": "09711200318", "website": "https://startupsupportgroup.com/", "rating": 4.8, "review_count": "", "latitude": 28.5026062, "longitude": 77.18382869999999, "maps_url": "https://www.google.com/maps/place/?q=place_id:0x390d1f5e66047b1b:0x9b9f2666a043473f"}, {"place_id": "0x390d1f124ea02ac7:0x8a2979a1e7233c57", "name": "Micromile Infotech | Best eCommerce Website Design and Development company | IT Consultant | Delhi, India", "category": "Website designer", "street": "JVTS Garden, Block C, Chhatarpur Extension, Chhatarpur", "city": "New Delhi, Delhi 110074", "phone": "", "website": "https://www.micromile.in/", "rating": "", "review_count": "", "latitude": 28.491668699999998, "longitude": 77.1789707, "maps_url": "https://www.google.com/maps/place/?q=place_id:0x390d1f124ea02ac7:0x8a2979a1e7233c57"}, {"place_id": "0x390ce13f785fa1a5:0x3753e26631880d76", "name": "Restolane Private Limited", "category": "Industrial equipment supplier", "street": "d-2/551, 60 Feet Rd", "city": "D-Block, Pocket C, Dr Ambedkar Colony, Chhatarpur", "phone": "09711301517", "website": "https://www.restolane.com/", "rating": 5, "review_count": "", "latitude": 28.504477299999998, "longitude": 77.1835352, "maps_url": "https://www.google.com/maps/place/?q=place_id:0x390ce13f785fa1a5:0x3753e26631880d76"}, {"place_id": "0x390d1e1809fadc8d:0xd3fd038c7bb0718", "name": "TrueCV- No. 1 Resume Writing and LinkedIn Makeover platform", "category": "Resume service", "street": "D/27A, 60 Feet Rd", "city": "Pocket D, Dr Ambedkar Colony, Chhatarpur", "phone": "07701990512", "website": "https://www.truecv.com/", "rating": 4.8, "review_count": "", "latitude": 28.5019523, "longitude": 77.1837657, "maps_url": "https://www.google.com/maps/place/?q=place_id:0x390d1e1809fadc8d:0xd3fd038c7bb0718"}, {"place_id": "0x390d1e23864301ed:0x570e3249a5966cb8", "name": "Digital Yoddhas", "category": "Website designer", "street": "B-16B", "city": "Chhatarpur Enclave Phase 2, Chattarpur Enclave, Chhatarpur", "phone": "08700191658", "website": "http://digitalyoddhas.com/", "rating": 5, "review_count": "", "latitude": 28.502417299999998, "longitude": 77.1899033, "maps_url": "https://www.google.com/maps/place/?q=place_id:0x390d1e23864301ed:0x570e3249a5966cb8"}, {"place_id": "0x390d1e236b821581:0x6f57adbc5a636f6e", "name": "SoftElixir InfoTech (P) Ltd", "category": "Software company", "street": "12 B, Block D, Chatter Pur Chattarpur", "city": "Phase 1, Chattarpur Enclave", "phone": "01165091333", "website": "http://softelixir.com/", "rating": 5, "review_count": "", "latitude": 28.5010507, "longitude": 77.18479529999999, "maps_url": "https://www.google.com/maps/place/?q=place_id:0x390d1e236b821581:0x6f57adbc5a636f6e"}, {"place_id": "0x390ce21e38905555:0xd3bfa8c43a046f86", "name": "The Pen Tool Design Inc.", "category": "Photography studio", "street": "C-211, Chattarpur Enclave Phase 2", "city": "DR Ambedkar Colony, Chattarpur Enclave, Chhatarpur", "phone": "09958592500", "website": "http://thepentooldesign.in/", "rating": 4.7, "review_count": "", "latitude": 28.504479999999997, "longitude": 77.1888029, "maps_url": "https://www.google.com/maps/place/?q=place_id:0x390ce21e38905555:0xd3bfa8c43a046f86"}, {"place_id": "0x390d1e30fdd42997:0xb49c8948466e58e6", "name": "Technexy Home Automation", "category": "Home automation company", "street": "Ground Floor, C-511", "city": "B-1", "phone": "09818256975", "website": "http://technexyhomeautomation.com/", "rating": 3.7, "review_count": "", "latitude": 28.490864499999997, "longitude": 77.17977669999999, "maps_url": "https://www.google.com/maps/place/?q=place_id:0x390d1e30fdd42997:0xb49c8948466e58e6"}, {"place_id": "0x390d1f69c13c71df:0x4130a9e587923c6a", "name": "Ajay internet wifi & network", "category": "Internet service provider", "street": "D 50, 7982968343", "city": "Chattarpur Enclave, Chhatarpur", "phone": "07982968343", "website": "", "rating": 4.7, "review_count": "", "latitude": 28.502415199999998, "longitude": 77.18337439999999, "maps_url": "https://www.google.com/maps/place/?q=place_id:0x390d1f69c13c71df:0x4130a9e587923c6a"}, {"place_id": "0x8335ecf853715cbf:0x10d99fb1fba2b0a8", "name": "Oceonic IT Solution Pvt Ltd", "category": "Software company", "street": "C14 C Block", "city": "JVTS Garden, Block A1, Chhatarpur", "phone": "08874000083", "website": "https://www.oceonic.co/", "rating": 3, "review_count": "", "latitude": 28.496824699999998, "longitude": 77.1828704, "maps_url": "https://www.google.com/maps/place/?q=place_id:0x8335ecf853715cbf:0x10d99fb1fba2b0a8"}, {"place_id": "0x390d1e2498f9f4c7:0x50ef93549933a0d1", "name": "Dramantram", "category": "Video production service", "street": "D108, 2nd Floor", "city": "100 Feet Rd", "phone": "", "website": "http://www.dramantram.com/", "rating": 4.8, "review_count": "", "latitude": 28.503124999999997, "longitude": 77.18596649999999, "maps_url": "https://www.google.com/maps/place/?q=place_id:0x390d1e2498f9f4c7:0x50ef93549933a0d1"}, {"place_id": "0x390d1bfa419242fb:0xb529c35544b77645", "name": "RJ Forsec Solution", "category": "Corporate office", "street": "124, 60 Feet Rd", "city": "Chhatarpur Hills, Pocket D, Dr Ambedkar Colony, Chhatarpur", "phone": "09870170440", "website": "http://rjforsec.com/", "rating": 5, "review_count": "", "latitude": 28.5034459, "longitude": 77.1838357, "maps_url": "https://www.google.com/maps/place/?q=place_id:0x390d1bfa419242fb:0xb529c35544b77645"}, {"place_id": "0x390d1f57330a7a3d:0xb912e2474a28ad6b", "name": "Big Celebrity Management", "category": "Event management company", "street": "3rd floor", "city": "C-29A, Street No. 10", "phone": "", "website": "http://www.bigcelebritymanagement.com/", "rating": 4.8, "review_count": "", "latitude": 28.5031112, "longitude": 77.1897936, "maps_url": "https://www.google.com/maps/place/?q=place_id:0x390d1f57330a7a3d:0xb912e2474a28ad6b"}, {"place_id": "0x390d1f8e993d39a1:0x3cb34a2c83ae6812", "name": "Dessault lift control services (DLCS)", "category": "Elevator Manufacturer", "street": "Surya Public school", "city": "D-75A 100 FUTA ROAD", "phone": "09718063062", "website": "http://www.dessaultlift.in/", "rating": 4.9, "review_count": "", "latitude": 28.5048244, "longitude": 77.1847137, "maps_url": "https://www.google.com/maps/place/?q=place_id:0x390d1f8e993d39a1:0x3cb34a2c83ae6812"}, {"place_id": "0x390ce5551aa31b1f:0xcb79c44bf78889ea", "name": "Growify Digital", "category": "Marketing agency", "street": "3rd Floor", "city": "D-112, 60 Feet Rd", "phone": "08800461295", "website": "http://www.growify.in/", "rating": 3.3, "review_count": "", "latitude": 28.5025633, "longitude": 77.1838652, "maps_url": "https://www.google.com/maps/place/?q=place_id:0x390ce5551aa31b1f:0xcb79c44bf78889ea"}, {"place_id": "0x390d1f7c90574dbf:0xda9c0293e4c6ce9e", "name": "Mango computer & IT solutions Pvt. Ltd.", "category": "Computer repair service", "street": "near bank of india", "city": "Chhatarpur Village, Block A1, Chhatarpur", "phone": "09997342702", "website": "", "rating": "", "review_count": "", "latitude": 28.4986967, "longitude": 77.1843006, "maps_url": "https://www.google.com/maps/place/?q=place_id:0x390d1f7c90574dbf:0xda9c0293e4c6ce9e"}, {"place_id": "0x390d1e3adaaaaaab:0xaac7ce1b49fea26d", "name": "Delta Exports", "category": "Corporate office", "street": "293, Dhan Mill Rd", "city": "Chhatarpur Hills, Pocket D, Dr Ambedkar Colony, Chhatarpur", "phone": "09910045517", "website": "http://deltaexports.co/", "rating": 4.1, "review_count": "", "latitude": 28.503247199999997, "longitude": 77.183824, "maps_url": "https://www.google.com/maps/place/?q=place_id:0x390d1e3adaaaaaab:0xaac7ce1b49fea26d"}, {"place_id": "0x390d1e18763265ff:0xf23512f5500cef5c", "name": "Rangriti Head Office", "category": "Corporate office", "street": "686, Street No D 25, 100 ft Road, Chattarpur Hills, 110 074", "city": "New Delhi, Delhi 110074", "phone": "", "website": "", "rating": 3, "review_count": "", "latitude": 28.505598799999998, "longitude": 77.18498699999999, "maps_url": "https://www.google.com/maps/place/?q=place_id:0x390d1e18763265ff:0xf23512f5500cef5c"}, {"place_id": "0x390d1e22c717d3e1:0xd819503ea616dad1", "name": "AGENC Colab", "category": "Coworking space", "street": "The Dhan Mill", "city": "60 Feet Rd", "phone": "09354041936", "website": "", "rating": 4.2, "review_count": "", "latitude": 28.503488299999997, "longitude": 77.1846657, "maps_url": "https://www.google.com/maps/place/?q=place_id:0x390d1e22c717d3e1:0xd819503ea616dad1"}, {"place_id": "0x390d1ff5f27270a1:0x2f7b2d3c31a57a17", "name": "One Hub Media - Digital Marketing Agency / SEO / Social Media/ Company in Delhi", "category": "Marketing agency", "street": "D-108, 100 Feet Rd", "city": "DR Ambedkar Colony, Pocket D, chattarpur, Chhatarpur", "phone": "08053945607", "website": "https://onehubmedia.in/", "rating": 5, "review_count": "", "latitude": 28.503116, "longitude": 77.1859649, "maps_url": "https://www.google.com/maps/place/?q=place_id:0x390d1ff5f27270a1:0x2f7b2d3c31a57a17"}, {"place_id": "0x390d1f34c8cc9335:0xea76839946405453", "name": "Thinkinghatzzz Studios", "category": "Corporate office", "street": "431, D22 Ln", "city": "D-Block, Pocket D, Dr Ambedkar Colony, Chhatarpur", "phone": "", "website": "https://www.thinkinghatzzz.com/", "rating": 5, "review_count": "", "latitude": 28.5065688, "longitude": 77.1847427, "maps_url": "https://www.google.com/maps/place/?q=place_id:0x390d1f34c8cc9335:0xea76839946405453"}, {"place_id": "0x390d1f1d787564b5:0xb47102d2c2535f56", "name": "eLearning Tech Academy", "category": "Educational institution", "street": "Phase 2, I, 11", "city": "Pocket D, Chattarpur Enclave, Chhatarpur", "phone": "06366666760", "website": "https://elearning.org.in/", "rating": 4.6, "review_count": "", "latitude": 28.5037409, "longitude": 77.1848213, "maps_url": "https://www.google.com/maps/place/?q=place_id:0x390d1f1d787564b5:0xb47102d2c2535f56"}, {"place_id": "0x390d190c759781b3:0x94e6fe1fe85279fe", "name": "AppTech Hub Pvt Ltd", "category": "Software company", "street": "JVTS Garden, Block C, Chhatarpur Extension, Chhatarpur", "city": "New Delhi, Delhi 110074", "phone": "", "website": "http://apptechhub.com/", "rating": 5, "review_count": "", "latitude": 28.4897811, "longitude": 77.1816003, "maps_url": "https://www.google.com/maps/place/?q=place_id:0x390d190c759781b3:0x94e6fe1fe85279fe"}, {"place_id": "0x390d1f9556122c83:0x15c8a93ef6cd4efe", "name": "High Security Surveillance", "category": "Computer security service", "street": "B", "city": "116/5, Chattarpur Enclave Phase 2", "phone": "09311434540", "website": "", "rating": 4, "review_count": "", "latitude": 28.502474799999998, "longitude": 77.19047499999999, "maps_url": "https://www.google.com/maps/place/?q=place_id:0x390d1f9556122c83:0x15c8a93ef6cd4efe"}, {"place_id": "0x390d1fbef540452d:0xc2dcd89bdc1936b", "name": "Sports India Construction", "category": "Flooring contractor", "street": "A-1", "city": "Chhatarpur Hills, Dr Ambedkar Colony, Chhatarpur", "phone": "09315232151", "website": "", "rating": 4.7, "review_count": "", "latitude": 28.504051999999998, "longitude": 77.1835948, "maps_url": "https://www.google.com/maps/place/?q=place_id:0x390d1fbef540452d:0xc2dcd89bdc1936b"}, {"place_id": "0x390ce276c0c627c5:0x4d9b02c089e4422d", "name": "Blueshield Secure", "category": "Corporate office", "street": "D-112, 60 Feet Rd", "city": "Pocket D, Chattarpur Enclave, Chhatarpur", "phone": "08882931405", "website": "https://www.blueshieldsecure.com/", "rating": 4.2, "review_count": "", "latitude": 28.5025633, "longitude": 77.1838652, "maps_url": "https://www.google.com/maps/place/?q=place_id:0x390ce276c0c627c5:0x4d9b02c089e4422d"}, {"place_id": "0x390d1f69722343df:0x10c702dd0e59d49a", "name": "Triiram Tax Consultants", "category": "Income tax help association", "street": "Primeview Apartment", "city": "C-112", "phone": "", "website": "", "rating": 4.9, "review_count": "", "latitude": 28.5021916, "longitude": 77.1859387, "maps_url": "https://www.google.com/maps/place/?q=place_id:0x390d1f69722343df:0x10c702dd0e59d49a"}, {"place_id": "0x390d1ff6a46af84b:0xabf388afd705a471", "name": "Dheeraj Pandey", "category": "Consultant", "street": "285 LGF GALI D27 SSN MARF", "city": "100 Feet Rd", "phone": "09839114433", "website": "https://dheerajpandey.com/", "rating": 4.8, "review_count": "", "latitude": 28.5052006, "longitude": 77.1847595, "maps_url": "https://www.google.com/maps/place/?q=place_id:0x390d1ff6a46af84b:0xabf388afd705a471"}, {"place_id": "0x390d1f2b05da854f:0xbd0bee5650160bab", "name": "Vertical Supports", "category": "Exporter", "street": "D 54, 100 Feet Rd", "city": "Pocket D, Dr Ambedkar Colony, Chhatarpur", "phone": "08810266529", "website": "http://www.verticalsupports.com/", "rating": 4.8, "review_count": "", "latitude": 28.502252199999997, "longitude": 77.1856001, "maps_url": "https://www.google.com/maps/place/?q=place_id:0x390d1f2b05da854f:0xbd0bee5650160bab"}, {"place_id": "0x390d1f5df7ca043b:0x1966cbd8cb2436cf", "name": "All Unique Creation", "category": "Digital printing service", "street": "D153", "city": "10, Street No. 10", "phone": "07678251875", "website": "", "rating": 4.3, "review_count": "", "latitude": 28.5064459, "longitude": 77.18375549999999, "maps_url": "https://www.google.com/maps/place/?q=place_id:0x390d1f5df7ca043b:0x1966cbd8cb2436cf"}, {"place_id": "0x390d1fa6683e20fd:0x1f440a9b984427ea", "name": "MONIN India Studio", "category": "Food & Beverage Exporter", "street": "97, Western Ave", "city": "D-Block, Pocket D, Dr Ambedkar Colony, Sainik Farm", "phone": "09154758100", "website": "https://monin.in/", "rating": 4.9, "review_count": "", "latitude": 28.5045619, "longitude": 77.1850419, "maps_url": "https://www.google.com/maps/place/?q=place_id:0x390d1fa6683e20fd:0x1f440a9b984427ea"}, {"place_id": "0x390d1f85c08bfc87:0xfde16f4ea2425bb9", "name": "MITTAL DEVELOPERS", "category": "Real Estate Builders & Construction Company", "street": "NO. D, G56M+4XR", "city": "708, 1st Floor STREET", "phone": "", "website": "", "rating": 5, "review_count": "", "latitude": 28.5066112, "longitude": 77.18551219999999, "maps_url": "https://www.google.com/maps/place/?q=place_id:0x390d1f85c08bfc87:0xfde16f4ea2425bb9"}, {"place_id": "0x390d1fff61a0b6bb:0x56d3393cfb87eca6", "name": "Green Sourcing and Quality Assurance(GSQA)", "category": "Import export company", "street": "293, 60 Feet Rd", "city": "Pocket D, Dr Ambedkar Colony, Chhatarpur", "phone": "", "website": "http://www.greensourcing.in/", "rating": 3.7, "review_count": "", "latitude": 28.5032212, "longitude": 77.18381939999999, "maps_url": "https://www.google.com/maps/place/?q=place_id:0x390d1fff61a0b6bb:0x56d3393cfb87eca6"}, {"place_id": "0x390d1f68aefab00d:0xe1e08e939a74a56a", "name": "Chetan Dream Sky Travel Destination Management Company", "category": "Tour operator", "street": "100 Feet Rd", "city": "near Delhi Jal Board", "phone": "09205869769", "website": "", "rating": 4.7, "review_count": "", "latitude": 28.5062273, "longitude": 77.1851022, "maps_url": "https://www.google.com/maps/place/?q=place_id:0x390d1f68aefab00d:0xe1e08e939a74a56a"}, {"place_id": "0x390d1f68aefab00d:0xe1e08e939a74a56a", "name": "Chetan Dream Sky Travel Destination Management Company", "category": "Tour operator", "street": "100 Feet Rd", "city": "near Delhi Jal Board", "phone": "09205869769", "website": "", "rating": 4.7, "review_count": "", "latitude": 28.5062273, "longitude": 77.1851022, "maps_url": "https://www.google.com/maps/place/?q=place_id:0x390d1f68aefab00d:0xe1e08e939a74a56a"}, {"place_id": "0x43fe39ae72aeba37:0x37c28228a113f1a8", "name": "Signage Delhi Techno", "category": "Advertising agency", "street": "D 29", "city": "Pocket D, Dr Ambedkar Colony, Chhatarpur", "phone": "09205770569", "website": "https://thesevencolours.com/", "rating": 4.8, "review_count": "", "latitude": 28.502107799999997, "longitude": 77.1852361, "maps_url": "https://www.google.com/maps/place/?q=place_id:0x43fe39ae72aeba37:0x37c28228a113f1a8"}, {"place_id": "0x6a925d4537af0ced:0x59405c4ca9a2cea3", "name": "Mobilize Horizons", "category": "Elevator service", "street": "D 27 / 585, Ground Floor", "city": "100 Feet Rd", "phone": "07042586744", "website": "https://mobilizehorizons.com/", "rating": 5, "review_count": "", "latitude": 28.505187499999998, "longitude": 77.1847622, "maps_url": "https://www.google.com/maps/place/?q=place_id:0x6a925d4537af0ced:0x59405c4ca9a2cea3"}, {"place_id": "0xa379d8e9fe911205:0xcd9ce67604d78724", "name": "IMPACT 365 Tourism & Experiences", "category": "Travel agency", "street": "Fourth Floor", "city": "D-110", "phone": "09717193755", "website": "https://impact-365.com/", "rating": 4.9, "review_count": "", "latitude": 28.502602, "longitude": 77.1838717, "maps_url": "https://www.google.com/maps/place/?q=place_id:0xa379d8e9fe911205:0xcd9ce67604d78724"}, {"place_id": "0x390d1e1864f098c5:0x2024fbe30dea62be", "name": "SNG SECURITY PVT. LTD.", "category": "Security guard service", "street": "HOUSE 605", "city": "SNG", "phone": "01126301403", "website": "https://www.sngsecurity.com/", "rating": 4.1, "review_count": "", "latitude": 28.5066056, "longitude": 77.18537859999999, "maps_url": "https://www.google.com/maps/place/?q=place_id:0x390d1e1864f098c5:0x2024fbe30dea62be"}, {"place_id": "0x390d1f74a0ba62af:0x6a32b510140b1eff", "name": "Dhan Mill Compound", "category": "Community center", "street": "Khasra No", "city": "The Dhan Mill Compound", "phone": "", "website": "", "rating": 4.4, "review_count": "", "latitude": 28.5039007, "longitude": 77.1839385, "maps_url": "https://www.google.com/maps/place/?q=place_id:0x390d1f74a0ba62af:0x6a32b510140b1eff"}, {"place_id": "0x390ce14fab5fc4c3:0x9aa0e27d6b9dca7e", "name": "Halomax lighting Solutions Pvt. Ltd.", "category": "Lighting store", "street": "Phase 2", "city": "D 104, 100 Feet Rd", "phone": "01143161094", "website": "", "rating": 4.2, "review_count": "", "latitude": 28.5027232, "longitude": 77.18597729999999, "maps_url": "https://www.google.com/maps/place/?q=place_id:0x390ce14fab5fc4c3:0x9aa0e27d6b9dca7e"}, {"place_id": "0x390d1e1878491229:0x4fc8abc4db040a72", "name": "HAIL WOMEN", "category": "E - Commerce Agency", "street": "D-22", "city": "Basement, 100 Feet Rd", "phone": "06262777333", "website": "", "rating": 3.7, "review_count": "", "latitude": 28.506650999999998, "longitude": 77.1845355, "maps_url": "https://www.google.com/maps/place/?q=place_id:0x390d1e1878491229:0x4fc8abc4db040a72"}, {"place_id": "0x390d1fc9413c83d7:0x884950c8a574a7a7", "name": "VR HOMES", "category": "Real Estate Builders & Construction Company", "street": "D-75/76A", "city": "Phase 1, Pocket D, Chattarpur Enclave, Chhatarpur", "phone": "09999829353", "website": "", "rating": 4.5, "review_count": "", "latitude": 28.5027893, "longitude": 77.1849589, "maps_url": "https://www.google.com/maps/place/?q=place_id:0x390d1fc9413c83d7:0x884950c8a574a7a7"}, {"place_id": "0x390d1fe7516b46d9:0x9421eab1cd598bac", "name": "Deluxe Cargo Packers And Movers", "category": "Moving and storage service", "street": "Plot No.537/2", "city": "Tyagi Mohla, Pocket D, Chattarpur Enclave, Chhatarpur", "phone": "08860006864", "website": "https://deluxecargopackers.com/", "rating": 4.8, "review_count": "", "latitude": 28.502487799999997, "longitude": 77.1848615, "maps_url": "https://www.google.com/maps/place/?q=place_id:0x390d1fe7516b46d9:0x9421eab1cd598bac"}, {"place_id": "0x390d1f212d5a6713:0xf07f8cea07f04dee", "name": "Glocal Journeys LLP", "category": "Travel agency", "street": "502, Bhagwati Apartment, Street", "city": "No. 1, 60 Feet Rd", "phone": "", "website": "", "rating": 4.8, "review_count": "", "latitude": 28.504102399999997, "longitude": 77.1828647, "maps_url": "https://www.google.com/maps/place/?q=place_id:0x390d1f212d5a6713:0xf07f8cea07f04dee"}, {"place_id": "0x390d1ffa67b7f3a3:0x79c883c506c1020d", "name": "Aggarwal Estate & Developers - Buy Farm in Chattarpur", "category": "Real estate consultant", "street": "B207, Street Number 6", "city": "Chhatarpur Enclave Phase 2, Chattarpur Enclave, Chhatarpur", "phone": "09810363545", "website": "https://sites.google.com/view/aggarwalestatedevelopers", "rating": 5, "review_count": "", "latitude": 28.502325199999998, "longitude": 77.1885401, "maps_url": "https://www.google.com/maps/place/?q=place_id:0x390d1ffa67b7f3a3:0x79c883c506c1020d"}, {"place_id": "0x390d1e21851847e9:0xedbf5c4fdde34ee8", "name": "AmigosIndia", "category": "Backpacker Hostel", "street": "C-16, Street No. 10", "city": "DR Ambedkar Colony, Chhatarpur Enclave Phase 2, Chattarpur Enclave, Chhatarpur", "phone": "08800462158", "website": "https://amigosindia.co.in/?utm_source=google&utm_medium=gmb", "rating": 4.5, "review_count": "", "latitude": 28.5036781, "longitude": 77.1893954, "maps_url": "https://www.google.com/maps/place/?q=place_id:0x390d1e21851847e9:0xedbf5c4fdde34ee8"}, {"place_id": "0x390d1f62bd99d6c5:0x6b347874c5692e6e", "name": "Techdigimind IT Solutions", "category": "Software company", "street": "374, Mehrauli-Gurgaon Rd", "city": "Westend DLF Chattarpur Farms, Sultanpur", "phone": "07762029981", "website": "https://www.techdigimind.com/", "rating": "", "review_count": "", "latitude": 28.496887299999997, "longitude": 77.1574073, "maps_url": "https://www.google.com/maps/place/?q=place_id:0x390d1f62bd99d6c5:0x6b347874c5692e6e"}, {"place_id": "0x390d1f3dd4e34dc5:0xbb135cea19bc1f13", "name": "HOLIDAY BLAZERS", "category": "Travel agency", "street": "432, Street No. 2", "city": "Chhatarpur Enclave Phase 2, Maidan Garhi, Chhatarpur", "phone": "", "website": "https://www.holidayblazers.com/", "rating": 5, "review_count": "", "latitude": 28.502071299999997, "longitude": 77.18704439999999, "maps_url": "https://www.google.com/maps/place/?q=place_id:0x390d1f3dd4e34dc5:0xbb135cea19bc1f13"}, {"place_id": "0x390d1f9b905ff7cd:0x625415b7acd4d4e7", "name": "ayaan entertainment", "category": "Artist", "street": "c block", "city": "C-14 chhattarpur enclave phase 2", "phone": "09268669030", "website": "http://www.ayaanentertainment.com/", "rating": 5, "review_count": "", "latitude": 28.504099099999998, "longitude": 77.1891345, "maps_url": "https://www.google.com/maps/place/?q=place_id:0x390d1f9b905ff7cd:0x625415b7acd4d4e7"}, {"place_id": "0x390ce1be613821eb:0x31a77fdaa00f1aca", "name": "Studio Medium HQ", "category": "Corporate office", "street": "D112 Second Floor", "city": "near Dhanmill Compound", "phone": "08287015998", "website": "http://studiomedium.in/", "rating": 5, "review_count": "", "latitude": 28.502602099999997, "longitude": 77.1838744, "maps_url": "https://www.google.com/maps/place/?q=place_id:0x390ce1be613821eb:0x31a77fdaa00f1aca"}, {"place_id": "0x390d1e22830bc5c1:0xbcfd0ae989305e50", "name": "AGENC", "category": "Design agency", "street": "The Dhan Mill", "city": "60 Feet Rd", "phone": "09831502500", "website": "http://agenc.in/", "rating": 4.7, "review_count": "", "latitude": 28.504041899999997, "longitude": 77.18538199999999, "maps_url": "https://www.google.com/maps/place/?q=place_id:0x390d1e22830bc5c1:0xbcfd0ae989305e50"}, {"place_id": "0x390d1fa355e1dcbf:0x96f1403bfae61e6d", "name": "rkivecity", "category": "Clothing store", "street": "Shed no.7", "city": "Dhan Mill Compound", "phone": "09625219884", "website": "http://www.rkive.city/", "rating": 4.8, "review_count": "", "latitude": 28.503899999999998, "longitude": 77.18393999999999, "maps_url": "https://www.google.com/maps/place/?q=place_id:0x390d1fa355e1dcbf:0x96f1403bfae61e6d"}, {"place_id": "0x390d1ff36834266d:0xcea4670ff3dbbaba", "name": "The Virtual Office", "category": "Virtual office rental", "street": "The Dhan Mill", "city": "D27, 100 Feet Rd", "phone": "01142412495", "website": "https://thevirtualoffice.in/", "rating": "", "review_count": "", "latitude": 28.505356, "longitude": 77.1851717, "maps_url": "https://www.google.com/maps/place/?q=place_id:0x390d1ff36834266d:0xcea4670ff3dbbaba"}]}