{"timestamp": 1773731456.8260746, "keyword": "IT company", "location": "delhi", "cell_idx": 417, "results": [{"place_id": "0x390d1d841fefffff:0x93fcc50cf324f171", "name": "Netsure IT Solution Private Limited (NSIT GLOBAL)", "category": "Software company", "street": "Ansal Chamber-2", "city": "NSIT GLOBAL, 428", "phone": "1800313818283", "website": "", "rating": 4.3, "review_count": "", "latitude": 28.5677649, "longitude": 77.187382, "maps_url": "https://www.google.com/maps/place/?q=place_id:0x390d1d841fefffff:0x93fcc50cf324f171"}, {"place_id": "0x390ce458d0000001:0xf2123bd299ec4501", "name": "IT Company India", "category": "Software company", "street": "D56", "city": "D Block, Sector 10", "phone": "09999244854", "website": "https://www.itcompanyindia.in/", "rating": 4.7, "review_count": "", "latitude": 28.589917699999997, "longitude": 77.3351153, "maps_url": "https://www.google.com/maps/place/?q=place_id:0x390ce458d0000001:0xf2123bd299ec4501"}, {"place_id": "0x390ce3c153b89811:0xe7a279685777e9ca", "name": "IT Company", "category": "Automation company", "street": "A-14", "city": "near iskcon temple", "phone": "", "website": "http://www.opuswiz.com/", "rating": 3, "review_count": "", "latitude": 28.557167, "longitude": 77.25424819999999, "maps_url": "https://www.google.com/maps/place/?q=place_id:0x390ce3c153b89811:0xe7a279685777e9ca"}, {"place_id": "0x390d1d84709c66e7:0xb821a251a16fae09", "name": "IT Works @ Siyaram", "category": "Software company", "street": "404", "city": "BHIKAJI CAMA PLACE", "phone": "01143178782", "website": "http://www.garruda.co.in/", "rating": 4.8, "review_count": "", "latitude": 28.567508399999998, "longitude": 77.18817349999999, "maps_url": "https://www.google.com/maps/place/?q=place_id:0x390d1d84709c66e7:0xb821a251a16fae09"}, {"place_id": "0x390d1d86a4f12173:0x3a6b42ea6f4b8260", "name": "Softvanz Technologies Private Limited", "category": "Software company", "street": "Somdutt Chamber 1", "city": "BT-22/9", "phone": "", "website": "https://softvanz.com/", "rating": 5, "review_count": "", "latitude": 28.567948899999998, "longitude": 77.1889269, "maps_url": "https://www.google.com/maps/place/?q=place_id:0x390d1d86a4f12173:0x3a6b42ea6f4b8260"}, {"place_id": "0x390ce1597b5509e5:0xfd8209b937b44d3c", "name": "IT Solutions India Private Limited", "category": "Software company", "street": "D-88/5", "city": "Pocket D, Okhla Phase I, Okhla Industrial Estate", "phone": "09810017429", "website": "https://www.itsipl.com/", "rating": 4.2, "review_count": "", "latitude": 28.520146, "longitude": 77.280431, "maps_url": "https://www.google.com/maps/place/?q=place_id:0x390ce1597b5509e5:0xfd8209b937b44d3c"}, {"place_id": "0x390d02994de5e515:0xd908bc03409a0d37", "name": "Himalayan IT Solutions | Best Website Designing Company in Delhi | SEO/Digital Marketing Company in Delhi NCR, India", "category": "Website designer", "street": "61/4255, Padam Singh Rd", "city": "Block 29, Block 1, Regar Pura, Karol Bagh", "phone": "09899098509", "website": "http://www.himalayanitsolutions.com/", "rating": 3.9, "review_count": "", "latitude": 28.649673999999997, "longitude": 77.186599, "maps_url": "https://www.google.com/maps/place/?q=place_id:0x390d02994de5e515:0xd908bc03409a0d37"}, {"place_id": "0x390d165555555555:0xf57c20f7d07d8fd1", "name": "Teckinfo Solutions Pvt Ltd", "category": "Software company", "street": "1/1 BA, 3rd Floor, Mohammadpur,", "city": "Bhikaji Cama Place", "phone": "01149605500", "website": "https://www.teckinfo.com/", "rating": 4.6, "review_count": "", "latitude": 28.566004099999997, "longitude": 77.187579, "maps_url": "https://www.google.com/maps/place/?q=place_id:0x390d165555555555:0xf57c20f7d07d8fd1"}, {"place_id": "0x390ce3094f4a9af1:0xdc21c66946b829ad", "name": "BAUDHYANTRAM IT Solutions | Website Designing | Web Development | Software Company in Delhi", "category": "Software company", "street": "H82 2nd Floor", "city": "opposite Bengali Sweet Center", "phone": "07900899996", "website": "http://www.baudhyantram.in/", "rating": 4.8, "review_count": "", "latitude": 28.5695803, "longitude": 77.221047, "maps_url": "https://www.google.com/maps/place/?q=place_id:0x390ce3094f4a9af1:0xdc21c66946b829ad"}, {"place_id": "0x390ce5fdcc79e755:0x309ce99251b84ef6", "name": "Optyminds IT Solutions - Top AI and IT company I Best Digital agency in Noida | Delhi NCR | India", "category": "Software company", "street": "1st Floor", "city": "B-70", "phone": "08929075975", "website": "https://optyminds.com/", "rating": 4.9, "review_count": "", "latitude": 28.584679599999998, "longitude": 77.3135042, "maps_url": "https://www.google.com/maps/place/?q=place_id:0x390ce5fdcc79e755:0x309ce99251b84ef6"}, {"place_id": "0x390d0306a5205339:0xc8417239bcfe9f11", "name": "RSS INFOTECH PVT.LTD", "category": "Software company", "street": "1st floor, Didar Complex", "city": "6 DLE Industrial Area office no -128,129", "phone": "09953134732", "website": "https://www.rssindia.com/", "rating": 4.5, "review_count": "", "latitude": 28.656828299999997, "longitude": 77.1425177, "maps_url": "https://www.google.com/maps/place/?q=place_id:0x390d0306a5205339:0xc8417239bcfe9f11"}, {"place_id": "0x390ce21425118e25:0x70fb9d80e6685fad", "name": "Ananta Business Services", "category": "Software company", "street": "125, South", "city": "Shahpur Jat, Siri Fort", "phone": "09289371171", "website": "http://www.absite.in/", "rating": 4.7, "review_count": "", "latitude": 28.5490721, "longitude": 77.2159506, "maps_url": "https://www.google.com/maps/place/?q=place_id:0x390ce21425118e25:0x70fb9d80e6685fad"}, {"place_id": "0x390ce1fb44618b65:0x8e06b2a6128352d1", "name": "Acropolis Infotech - Delhi Office", "category": "Software company", "street": "metro station gate", "city": "55, 2nd Floor, Lane 2", "phone": "09999876593", "website": "https://www.acropolisinfotech.com/", "rating": 4.6, "review_count": "", "latitude": 28.518907, "longitude": 77.2015435, "maps_url": "https://www.google.com/maps/place/?q=place_id:0x390ce1fb44618b65:0x8e06b2a6128352d1"}, {"place_id": "0x390d1ca8de94abb1:0xc070687f1d5f8558", "name": "Bita Infotech IT Solutions:: Website Designing & Development Company", "category": "Software company", "street": "Rz-31 B, Street No. 5", "city": "Block M, West Sagarpur, Sagar Pur", "phone": "08178256664", "website": "https://bitainfotech.com/", "rating": 4.7, "review_count": "", "latitude": 28.6056495, "longitude": 77.1012293, "maps_url": "https://www.google.com/maps/place/?q=place_id:0x390d1ca8de94abb1:0xc070687f1d5f8558"}, {"place_id": "0x390ce25e81555555:0xf93f773552127f47", "name": "SANEKT SOFTWARE SOLUTION", "category": "Software company", "street": "Top floor", "city": "H 11", "phone": "01141589565", "website": "http://sanekt.com/", "rating": 5, "review_count": "", "latitude": 28.571361, "longitude": 77.221733, "maps_url": "https://www.google.com/maps/place/?q=place_id:0x390ce25e81555555:0xf93f773552127f47"}, {"place_id": "0x2a72b8b69d7b6493:0x11251466d4d34cac", "name": "WebZonal IT Company", "category": "Website designer", "street": "Wz-258/2-3, D Block Rd", "city": "Khazan Basti, Nangal Raya, Janakpuri", "phone": "09811170903", "website": "http://webzonal.com/", "rating": 5, "review_count": "", "latitude": 28.6122102, "longitude": 77.11159549999999, "maps_url": "https://www.google.com/maps/place/?q=place_id:0x2a72b8b69d7b6493:0x11251466d4d34cac"}, {"place_id": "0x390d1d9ce0eaada3:0xc5a1a0a2458099e3", "name": "CODENCREATIVE TECH PVT LTD", "category": "Software company", "street": "DDA Flat", "city": "RBI Officers Colony, Vasant Vihar", "phone": "09717047610", "website": "https://codencreative.com/", "rating": 4.9, "review_count": "", "latitude": 28.563302099999998, "longitude": 77.1519732, "maps_url": "https://www.google.com/maps/place/?q=place_id:0x390d1d9ce0eaada3:0xc5a1a0a2458099e3"}, {"place_id": "0x390d1daf5bbb6d71:0xd493e8d457a28388", "name": "DPM IT SOLUTIONS", "category": "Software company", "street": "2nd floor, madangiri", "city": "111, E-2", "phone": "09650413450", "website": "https://dpmitsolutions.com/", "rating": 5, "review_count": "", "latitude": 28.565620799999998, "longitude": 77.16005679999999, "maps_url": "https://www.google.com/maps/place/?q=place_id:0x390d1daf5bbb6d71:0xd493e8d457a28388"}, {"place_id": "0x390cfd36df0d730b:0xd425c6f106d9cf8", "name": "I. T. Solutions", "category": "Computer repair service", "street": "Gate No. 8", "city": "A-6, 1st Floor, Inner Circle, Above Post office", "phone": "01141523242", "website": "http://www.itsolutioncp.com/", "rating": 4.9, "review_count": "", "latitude": 28.6324367, "longitude": 77.2183441, "maps_url": "https://www.google.com/maps/place/?q=place_id:0x390cfd36df0d730b:0xd425c6f106d9cf8"}, {"place_id": "0x390ce3b48e27a563:0x4ec8ae3c524366b", "name": "iSOFT INDIA TECHNOLOGIES", "category": "Software company", "street": "E-168|169, Amar Colony, Lajpat Nagar", "city": "New Delhi, Delhi 110024", "phone": "09717978320", "website": "", "rating": 4.9, "review_count": "", "latitude": 28.5657368, "longitude": 77.23946029999999, "maps_url": "https://www.google.com/maps/place/?q=place_id:0x390ce3b48e27a563:0x4ec8ae3c524366b"}, {"place_id": "0x390ce26dc4d4ba2d:0x9486a6d620e379f9", "name": "Akal Information Systems Ltd.", "category": "Software company", "street": "Tower J, World Trade Center", "city": "103", "phone": "01146503545", "website": "https://www.akalinfo.com/", "rating": 3.9, "review_count": "", "latitude": 28.567935499999997, "longitude": 77.1923202, "maps_url": "https://www.google.com/maps/place/?q=place_id:0x390ce26dc4d4ba2d:0x9486a6d620e379f9"}, {"place_id": "0x390ce2305c00002d:0x9f7efbacdc0d8271", "name": "ICO WebTech Pvt. Ltd. - Website Designing Company in Delhi", "category": "Website designer", "street": "J E 5, Ground Floor, Khirki Extension, Malviya Nagar", "city": "New Delhi, Delhi 110017", "phone": "08447380262", "website": "https://www.icowebsolutions.com/", "rating": 4.6, "review_count": "", "latitude": 28.535594, "longitude": 77.21577099999999, "maps_url": "https://www.google.com/maps/place/?q=place_id:0x390ce2305c00002d:0x9f7efbacdc0d8271"}, {"place_id": "0x390d1dc539fc39dd:0xa8d421a9d22cb256", "name": "India best website development company", "category": "Software company", "street": "RZ74, RZ Rd", "city": "Hans Park, Block RZ, Sagarpur East, Sagar Pur", "phone": "", "website": "https://techbuddy31.co.in/", "rating": 5, "review_count": "", "latitude": 28.6054396, "longitude": 77.1082699, "maps_url": "https://www.google.com/maps/place/?q=place_id:0x390d1dc539fc39dd:0xa8d421a9d22cb256"}, {"place_id": "0x390ce44609d8fd9b:0x9c680f27679610f6", "name": "Crestech Software", "category": "Software company", "street": "Plot No. D, Vyapar Marg", "city": "D Block, Sector 2", "phone": "08826666755", "website": "https://www.crestechsoftware.com/", "rating": 3.6, "review_count": "", "latitude": 28.5836924, "longitude": 77.3166213, "maps_url": "https://www.google.com/maps/place/?q=place_id:0x390ce44609d8fd9b:0x9c680f27679610f6"}, {"place_id": "0x390ce3860c81c723:0xc5f50e43c0a86a3e", "name": "Nextr Technology", "category": "E-commerce service", "street": "2nd Floor", "city": "1483/A-1", "phone": "09911751575", "website": "http://www.nextr.in/", "rating": 4.9, "review_count": "", "latitude": 28.574374, "longitude": 77.224284, "maps_url": "https://www.google.com/maps/place/?q=place_id:0x390ce3860c81c723:0xc5f50e43c0a86a3e"}, {"place_id": "0x390ce3ad10000061:0xeff7e6017a22cce7", "name": "Alpinesoft IT Solutions Authorized Google Workspace Reseller", "category": "Software company", "street": "162/9 Ist Floor, KIshangarh - Gaushala Marg", "city": "Lakhi Nath Kuti, Mehrauli, Vasant Kunj", "phone": "09999011157", "website": "https://www.alpinesoftit.com/", "rating": 4.3, "review_count": "", "latitude": 28.515394399999998, "longitude": 77.16460359999999, "maps_url": "https://www.google.com/maps/place/?q=place_id:0x390ce3ad10000061:0xeff7e6017a22cce7"}, {"place_id": "0x390ce3a2021e9897:0x28bf52d36a7d0c19", "name": "It Softtech - Website Designing and Development Company in Delhi, India", "category": "Internet marketing service", "street": "149, Ring Rd", "city": "opp. Maharani Bagh", "phone": "09810056177", "website": "", "rating": 5, "review_count": "", "latitude": 28.5763395, "longitude": 77.2640869, "maps_url": "https://www.google.com/maps/place/?q=place_id:0x390ce3a2021e9897:0x28bf52d36a7d0c19"}, {"place_id": "0x390d03adaef37299:0xd8b343093deaee7", "name": "Ruminate IT Solution | Best software company in Delhi NCR | IT Software company", "category": "Software company", "street": "C-64", "city": "Pocket B, Hari Nagar", "phone": "09625650376", "website": "https://www.ruminateitsolution.com/", "rating": 5, "review_count": "", "latitude": 28.628819, "longitude": 77.10428399999999, "maps_url": "https://www.google.com/maps/place/?q=place_id:0x390d03adaef37299:0xd8b343093deaee7"}, {"place_id": "0x390ce3003fffffe3:0x1dd892a28603e769", "name": "Corporate Infotech Pvt Ltd.", "category": "Corporate office", "street": "E-81", "city": "E Block, Sector 6", "phone": "1800116474", "website": "https://cipl.org.in/", "rating": 4.4, "review_count": "", "latitude": 28.5937284, "longitude": 77.3206974, "maps_url": "https://www.google.com/maps/place/?q=place_id:0x390ce3003fffffe3:0x1dd892a28603e769"}, {"place_id": "0x390d1df079759d1f:0x8bfa70033f6c672a", "name": "NR Technoserve Pvt. Ltd.", "category": "Software company", "street": "133, Katwaria Sarai", "city": "Phase-2, Qutab Institutional Area", "phone": "07289096762", "website": "http://www.nrtechnoserve.co.in/", "rating": 4.4, "review_count": "", "latitude": 28.5413306, "longitude": 77.18495519999999, "maps_url": "https://www.google.com/maps/place/?q=place_id:0x390d1df079759d1f:0x8bfa70033f6c672a"}, {"place_id": "0x390feda4c4f56aed:0x2277b287e38fc0ec", "name": "Dizivan IT Solutions Pvt Ltd- App Development & Digital Marketing Company", "category": "Software company", "street": "near Metro Station New Ashok Nagar", "city": "Block B, New Ashok Nagar", "phone": "09142092979", "website": "https://dizivan.com/", "rating": 5, "review_count": "", "latitude": 28.5891575, "longitude": 77.3020624, "maps_url": "https://www.google.com/maps/place/?q=place_id:0x390feda4c4f56aed:0x2277b287e38fc0ec"}, {"place_id": "0x390cfcd5693382a9:0x7d163441e68be0fd", "name": "OCIO Technology", "category": "Software company", "street": "316, 3rd Floor", "city": "Pratap Bhawan", "phone": "09999220359", "website": "http://ociotechnology.com/", "rating": 4.9, "review_count": "", "latitude": 28.627443399999997, "longitude": 77.241478, "maps_url": "https://www.google.com/maps/place/?q=place_id:0x390cfcd5693382a9:0x7d163441e68be0fd"}, {"place_id": "0x390ce226100110ef:0xe529d399458dbf03", "name": "First IT", "category": "Software company", "street": "S/F 776-A", "city": "Chirag Dilli", "phone": "", "website": "https://www.firstit.in/", "rating": 5, "review_count": "", "latitude": 28.5376318, "longitude": 77.2282863, "maps_url": "https://www.google.com/maps/place/?q=place_id:0x390ce226100110ef:0xe529d399458dbf03"}, {"place_id": "0x390cfcad2d191127:0x83c805201ec0a98e", "name": "IT Nucleus", "category": "Website designer", "street": "310, 3rd Floor, S-524, Aggarwal House Opp-Metro Pillar 27", "city": "School Block shakarpur, Laxmi Nagar", "phone": "01143001828", "website": "http://www.itnucleus.com/", "rating": 4.9, "review_count": "", "latitude": 28.629542599999997, "longitude": 77.2766257, "maps_url": "https://www.google.com/maps/place/?q=place_id:0x390cfcad2d191127:0x83c805201ec0a98e"}, {"place_id": "0x390d04afaaaaaaab:0xa0a133d0075e6be5", "name": "Website Development company", "category": "Website designer", "street": "705/A/1", "city": "Bhikaji Cama Place", "phone": "01126100386", "website": "https://direct-i.com/", "rating": 4.8, "review_count": "", "latitude": 28.5681396, "longitude": 77.18618649999999, "maps_url": "https://www.google.com/maps/place/?q=place_id:0x390d04afaaaaaaab:0xa0a133d0075e6be5"}, {"place_id": "0x390ce3d606c913ef:0xd246bd5631eb2cad", "name": "Delvetech", "category": "Computer support and services", "street": "87A/1, 3rd Floor, Opp. Block N-115, G.K-1, Near Moolchand Merto", "city": "Block B, Zamrudpur, Greater Kailash", "phone": "09873895154", "website": "http://www.delvetech.co.in/", "rating": 4.1, "review_count": "", "latitude": 28.5570597, "longitude": 77.2356981, "maps_url": "https://www.google.com/maps/place/?q=place_id:0x390ce3d606c913ef:0xd246bd5631eb2cad"}, {"place_id": "0x390d1f5abfb25fe1:0x7d9c4d5e159f2955", "name": "Jaimru Technology Pvt Ltd", "category": "Website designer", "street": "WARD NO. 2", "city": "Plot No. 178 M 33 A/1", "phone": "07838153420", "website": "https://www.jaimru.com/", "rating": 4.9, "review_count": "", "latitude": 28.524347499999998, "longitude": 77.1731889, "maps_url": "https://www.google.com/maps/place/?q=place_id:0x390d1f5abfb25fe1:0x7d9c4d5e159f2955"}, {"place_id": "0x390ce3932eaaaaab:0xb308d9aae0d93852", "name": "Al Hadaf Technologies\u2013 ERP, CRM, HRM, Hospital, School, Billing Software Development Company in Delhi NCR", "category": "Software company", "street": "96, Gate No-2", "city": "opp. Escort Hospital", "phone": "08586972994", "website": "https://www.alhadaftech.com/", "rating": 4.9, "review_count": "", "latitude": 28.5562397, "longitude": 77.2762099, "maps_url": "https://www.google.com/maps/place/?q=place_id:0x390ce3932eaaaaab:0xb308d9aae0d93852"}, {"place_id": "0x390ce3c8e5555555:0xc908f703f65324ea", "name": "Vinayak Compserve Pvt.Ltd", "category": "Computer Hardware Company", "street": "220", "city": "Sant Nagar, East of Kailash", "phone": "01126430397", "website": "https://vinayakit.com/", "rating": 3.7, "review_count": "", "latitude": 28.5536721, "longitude": 77.2494229, "maps_url": "https://www.google.com/maps/place/?q=place_id:0x390ce3c8e5555555:0xc908f703f65324ea"}, {"place_id": "0x390cfd35391deb71:0xdbdd1388c7dc51b6", "name": "Jak Software Pvt Ltd", "category": "Software company", "street": "52 Janpath", "city": "New Delhi, Delhi 110001", "phone": "07827249056", "website": "http://www.jaksoftware.co.in/", "rating": 4.4, "review_count": "", "latitude": 28.627537999999998, "longitude": 77.21878989999999, "maps_url": "https://www.google.com/maps/place/?q=place_id:0x390cfd35391deb71:0xdbdd1388c7dc51b6"}, {"place_id": "0x390d036a16f841d9:0x9b91311b1453f4c0", "name": "Zon Tec Solutions", "category": "Software company", "street": "3rd Floor", "city": "302 - 302 A, West", "phone": "09599902185", "website": "https://zontecsolutions.com/", "rating": 4.1, "review_count": "", "latitude": 28.6382303, "longitude": 77.1205162, "maps_url": "https://www.google.com/maps/place/?q=place_id:0x390d036a16f841d9:0x9b91311b1453f4c0"}, {"place_id": "0x390ce44efef427e7:0x4d0a10522519f65e", "name": "Omnie Solutions (I) Pvt Ltd", "category": "Software company", "street": "D-108", "city": "Sector 2, D Block, Sector 2", "phone": "09266754671", "website": "https://www.omniesolutions.com/", "rating": 3.4, "review_count": "", "latitude": 28.583485, "longitude": 77.316155, "maps_url": "https://www.google.com/maps/place/?q=place_id:0x390ce44efef427e7:0x4d0a10522519f65e"}, {"place_id": "0x390d0302af76c545:0x97d6a46d40086acd", "name": "Solarman Technology Project Pvt Ltd - Digital Marketing Company in Delhi, India |Software Development Company | IT Company", "category": "Internet marketing service", "street": "6/14", "city": "Block 5, Kirti Nagar Industrial Area, Kirti Nagar", "phone": "07428086779", "website": "https://solarmantech.in/", "rating": 5, "review_count": "", "latitude": 28.6517841, "longitude": 77.14799649999999, "maps_url": "https://www.google.com/maps/place/?q=place_id:0x390d0302af76c545:0x97d6a46d40086acd"}, {"place_id": "0x390d1ed3c6e9f579:0x322eccdb00f350d2", "name": "Techjockey", "category": "Software company", "street": "Ground floor, Habitat India", "city": "C-3", "phone": "01142213003", "website": "https://www.techjockey.com/", "rating": 4, "review_count": "", "latitude": 28.536615299999998, "longitude": 77.1902978, "maps_url": "https://www.google.com/maps/place/?q=place_id:0x390d1ed3c6e9f579:0x322eccdb00f350d2"}, {"place_id": "0x390ce23eeab015ab:0x92d6a7e8dbc46e1a", "name": "Odyssey Website Development Company", "category": "Website designer", "street": "B-59", "city": "Block B, Soami Nagar South, Soami Nagar", "phone": "09654486464", "website": "http://odysseyin.com/?utm_source=GMB&utm_medium=Organic&utm_term=Odyssey&utm_content=Listing&utm_campaign=GMB1", "rating": 3.6, "review_count": "", "latitude": 28.541823599999997, "longitude": 77.2262008, "maps_url": "https://www.google.com/maps/place/?q=place_id:0x390ce23eeab015ab:0x92d6a7e8dbc46e1a"}, {"place_id": "0xd1516b679f60d2f:0x9458c47d907b59a8", "name": "MarkTech Company", "category": "Marketing agency", "street": "INA, Laxmi Bai Nagar", "city": "New Delhi, Delhi 110023", "phone": "08527880385", "website": "https://markteches.com/", "rating": 3.9, "review_count": "", "latitude": 28.5754463, "longitude": 77.2077127, "maps_url": "https://www.google.com/maps/place/?q=place_id:0xd1516b679f60d2f:0x9458c47d907b59a8"}, {"place_id": "0x390ce459e2a3a42f:0xdda2e042090c2c72", "name": "InfiCare Technologies Pvt. Ltd", "category": "Software company", "street": "D-92 Second/Third floor", "city": "Sector 2", "phone": "09711265591", "website": "http://www.inficaretech.com/", "rating": 3.9, "review_count": "", "latitude": 28.582936099999998, "longitude": 77.3175146, "maps_url": "https://www.google.com/maps/place/?q=place_id:0x390ce459e2a3a42f:0xdda2e042090c2c72"}, {"place_id": "0x390d1d7ce3391da9:0xaa286e4389c43b26", "name": "PORTACABIN", "category": "Portable building manufacturer", "street": "Shop No 30", "city": "Yashwant place", "phone": "09910999457", "website": "https://www.portacabin-india.com/", "rating": 4.2, "review_count": "", "latitude": 28.584235099999997, "longitude": 77.19179799999999, "maps_url": "https://www.google.com/maps/place/?q=place_id:0x390d1d7ce3391da9:0xaa286e4389c43b26"}, {"place_id": "0x390ce293a1d8d7cf:0xceb3a334eb476e7", "name": "Combine Company", "category": "Educational consultant", "street": "35 A, Prithvi Raj Road", "city": "New Delhi, Delhi 110003", "phone": "09810111169", "website": "https://bestfituniversities.com/", "rating": 4.4, "review_count": "", "latitude": 28.592962699999998, "longitude": 77.21440319999999, "maps_url": "https://www.google.com/maps/place/?q=place_id:0x390ce293a1d8d7cf:0xceb3a334eb476e7"}, {"place_id": "0xac577056c2b5ff3d:0xaf00253141553d04", "name": "Devnotam | IT Company", "category": "Internet marketing service", "street": "", "city": "", "phone": "", "website": "https://devnotam.com/", "rating": 5, "review_count": "", "latitude": 28.692404999999997, "longitude": 77.090042, "maps_url": "https://www.google.com/maps/place/?q=place_id:0xac577056c2b5ff3d:0xaf00253141553d04"}, {"place_id": "0x390d03ff3a6ee899:0xf355d89c9f801013", "name": "Esafe Hi-Tech Solutions Pvt. Ltd.", "category": "Computer networking service", "street": "4/52 , 3rd Floor", "city": "Shankar Road, Old Rajinder Nagar", "phone": "08800015155", "website": "https://esafesolutions.org/", "rating": 5, "review_count": "", "latitude": 28.6378399, "longitude": 77.1810955, "maps_url": "https://www.google.com/maps/place/?q=place_id:0x390d03ff3a6ee899:0xf355d89c9f801013"}, {"place_id": "0x390d1d4e77aff9c1:0x5dcb2d916235e4e", "name": "Tiffany & Co., Delhi", "category": "Jewelry store", "street": "Commercial Complex, Yashwant place", "city": "The Chanakya Ground Floor", "phone": "08595405644", "website": "https://www.tiffany.co.in/", "rating": 4.4, "review_count": "", "latitude": 28.5848797, "longitude": 77.1908473, "maps_url": "https://www.google.com/maps/place/?q=place_id:0x390d1d4e77aff9c1:0x5dcb2d916235e4e"}, {"place_id": "0x390d1db0aef40171:0xb748a2e6079dd53d", "name": "YB INFORMATICS", "category": "Computer support and services", "street": "43, Poorvi Marg", "city": "Block A, Vasant Vihar", "phone": "09650920040", "website": "http://www.ybinformatics.com/", "rating": 5, "review_count": "", "latitude": 28.560817399999998, "longitude": 77.1666408, "maps_url": "https://www.google.com/maps/place/?q=place_id:0x390d1db0aef40171:0xb748a2e6079dd53d"}, {"place_id": "0x390d0331f8fa9037:0xbf316ec71fe5896d", "name": "Web Development Company in South West Delhi - MSN Technologies", "category": "Software company", "street": "Mahatma Gandhi Rd", "city": "Block WZ, Naraina", "phone": "08800388071", "website": "http://www.msntechnologies.org/", "rating": 5, "review_count": "", "latitude": 28.621692, "longitude": 77.1363598, "maps_url": "https://www.google.com/maps/place/?q=place_id:0x390d0331f8fa9037:0xbf316ec71fe5896d"}, {"place_id": "0x390ce39a24b89521:0x6e886c5e28fd05a9", "name": "Cloude Data Delhi | Best Cloud Service Provider company in India", "category": "Web hosting company", "street": "First Floor", "city": "A 212, Okhla Phase 3 Rd", "phone": "08882353612", "website": "https://cloudedata.com/", "rating": 4.4, "review_count": "", "latitude": 28.548515, "longitude": 77.2712834, "maps_url": "https://www.google.com/maps/place/?q=place_id:0x390ce39a24b89521:0x6e886c5e28fd05a9"}, {"place_id": "0x390cfb4bf15a6733:0xaf50e6f3c5fb7641", "name": "Digitals Daddy: Web & App Development Company", "category": "Website designer", "street": "Metro Gate No. 2", "city": "Nearest Sikandarpur", "phone": "09818286609", "website": "https://www.digitalsdaddy.com/", "rating": 4.9, "review_count": "", "latitude": 28.4847884, "longitude": 77.0922192, "maps_url": "https://www.google.com/maps/place/?q=place_id:0x390cfb4bf15a6733:0xaf50e6f3c5fb7641"}, {"place_id": "0x390ce39a3aaaaaef:0xca57821ce7ee09b0", "name": "Smart IT Technologies", "category": "Website designer", "street": "Saroj Sadan", "city": "100", "phone": "08840274824", "website": "https://smartittechnologies.com/", "rating": 5, "review_count": "", "latitude": 28.5697218, "longitude": 77.2680354, "maps_url": "https://www.google.com/maps/place/?q=place_id:0x390ce39a3aaaaaef:0xca57821ce7ee09b0"}, {"place_id": "0x390cfd3396f99f65:0xd97f147f067ace15", "name": "Shilpi Computers Private Limited", "category": "Corporate office", "street": "501-502", "city": "7, Tolstoy Rd", "phone": "01143500600", "website": "https://shilpisoft.com/", "rating": 3.9, "review_count": "", "latitude": 28.627693899999997, "longitude": 77.2244393, "maps_url": "https://www.google.com/maps/place/?q=place_id:0x390cfd3396f99f65:0xd97f147f067ace15"}, {"place_id": "0x390d03fd9307cd73:0x7a223a0902c6e0cd", "name": "Web Cloud Technology", "category": "Marketing agency", "street": "3A/74 W.E.A", "city": "Sat Nagar, Karol Bagh", "phone": "08882324811", "website": "https://webcloudtechnology.in/", "rating": 4.4, "review_count": "", "latitude": 28.6465632, "longitude": 77.1824149, "maps_url": "https://www.google.com/maps/place/?q=place_id:0x390d03fd9307cd73:0x7a223a0902c6e0cd"}, {"place_id": "0x390d1d8baaaaaaab:0x81e02841f207d0f0", "name": "S SONY & COMPANY PVT. LTD", "category": "Real Estate Builders & Construction Company", "street": "G-4, ANUPAMA BUILDING II FLOOR", "city": "Hauz Khas", "phone": "01135002651", "website": "http://ssony.in/", "rating": 4.9, "review_count": "", "latitude": 28.5510508, "longitude": 77.2048471, "maps_url": "https://www.google.com/maps/place/?q=place_id:0x390d1d8baaaaaaab:0x81e02841f207d0f0"}, {"place_id": "0xac577056c2b5ff3d:0xaf00253141553d04", "name": "Devnotam | IT Company", "category": "Internet marketing service", "street": "", "city": "", "phone": "", "website": "https://devnotam.com/", "rating": 5, "review_count": "", "latitude": 28.692404999999997, "longitude": 77.090042, "maps_url": "https://www.google.com/maps/place/?q=place_id:0xac577056c2b5ff3d:0xaf00253141553d04"}, {"place_id": "0x390d03ff3a6ee899:0xf355d89c9f801013", "name": "Esafe Hi-Tech Solutions Pvt. Ltd.", "category": "Computer networking service", "street": "4/52 , 3rd Floor", "city": "Shankar Road, Old Rajinder Nagar", "phone": "08800015155", "website": "https://esafesolutions.org/", "rating": 5, "review_count": "", "latitude": 28.6378399, "longitude": 77.1810955, "maps_url": "https://www.google.com/maps/place/?q=place_id:0x390d03ff3a6ee899:0xf355d89c9f801013"}, {"place_id": "0x390d1d4e77aff9c1:0x5dcb2d916235e4e", "name": "Tiffany & Co., Delhi", "category": "Jewelry store", "street": "Commercial Complex, Yashwant place", "city": "The Chanakya Ground Floor", "phone": "08595405644", "website": "https://www.tiffany.co.in/", "rating": 4.4, "review_count": "", "latitude": 28.5848797, "longitude": 77.1908473, "maps_url": "https://www.google.com/maps/place/?q=place_id:0x390d1d4e77aff9c1:0x5dcb2d916235e4e"}, {"place_id": "0x390d1db0aef40171:0xb748a2e6079dd53d", "name": "YB INFORMATICS", "category": "Computer support and services", "street": "43, Poorvi Marg", "city": "Block A, Vasant Vihar", "phone": "09650920040", "website": "http://www.ybinformatics.com/", "rating": 5, "review_count": "", "latitude": 28.560817399999998, "longitude": 77.1666408, "maps_url": "https://www.google.com/maps/place/?q=place_id:0x390d1db0aef40171:0xb748a2e6079dd53d"}, {"place_id": "0x390d0331f8fa9037:0xbf316ec71fe5896d", "name": "Web Development Company in South West Delhi - MSN Technologies", "category": "Software company", "street": "Mahatma Gandhi Rd", "city": "Block WZ, Naraina", "phone": "08800388071", "website": "http://www.msntechnologies.org/", "rating": 5, "review_count": "", "latitude": 28.621692, "longitude": 77.1363598, "maps_url": "https://www.google.com/maps/place/?q=place_id:0x390d0331f8fa9037:0xbf316ec71fe5896d"}, {"place_id": "0x390ce39a24b89521:0x6e886c5e28fd05a9", "name": "Cloude Data Delhi | Best Cloud Service Provider company in India", "category": "Web hosting company", "street": "First Floor", "city": "A 212, Okhla Phase 3 Rd", "phone": "08882353612", "website": "https://cloudedata.com/", "rating": 4.4, "review_count": "", "latitude": 28.548515, "longitude": 77.2712834, "maps_url": "https://www.google.com/maps/place/?q=place_id:0x390ce39a24b89521:0x6e886c5e28fd05a9"}, {"place_id": "0x390cfb4bf15a6733:0xaf50e6f3c5fb7641", "name": "Digitals Daddy: Web & App Development Company", "category": "Website designer", "street": "Metro Gate No. 2", "city": "Nearest Sikandarpur", "phone": "09818286609", "website": "https://www.digitalsdaddy.com/", "rating": 4.9, "review_count": "", "latitude": 28.4847884, "longitude": 77.0922192, "maps_url": "https://www.google.com/maps/place/?q=place_id:0x390cfb4bf15a6733:0xaf50e6f3c5fb7641"}, {"place_id": "0x390ce39a3aaaaaef:0xca57821ce7ee09b0", "name": "Smart IT Technologies", "category": "Website designer", "street": "Saroj Sadan", "city": "100", "phone": "08840274824", "website": "https://smartittechnologies.com/", "rating": 5, "review_count": "", "latitude": 28.5697218, "longitude": 77.2680354, "maps_url": "https://www.google.com/maps/place/?q=place_id:0x390ce39a3aaaaaef:0xca57821ce7ee09b0"}, {"place_id": "0x390cfd3396f99f65:0xd97f147f067ace15", "name": "Shilpi Computers Private Limited", "category": "Corporate office", "street": "501-502", "city": "7, Tolstoy Rd", "phone": "01143500600", "website": "https://shilpisoft.com/", "rating": 3.9, "review_count": "", "latitude": 28.627693899999997, "longitude": 77.2244393, "maps_url": "https://www.google.com/maps/place/?q=place_id:0x390cfd3396f99f65:0xd97f147f067ace15"}, {"place_id": "0x390d03fd9307cd73:0x7a223a0902c6e0cd", "name": "Web Cloud Technology", "category": "Marketing agency", "street": "3A/74 W.E.A", "city": "Sat Nagar, Karol Bagh", "phone": "08882324811", "website": "https://webcloudtechnology.in/", "rating": 4.4, "review_count": "", "latitude": 28.6465632, "longitude": 77.1824149, "maps_url": "https://www.google.com/maps/place/?q=place_id:0x390d03fd9307cd73:0x7a223a0902c6e0cd"}, {"place_id": "0x390d1d8baaaaaaab:0x81e02841f207d0f0", "name": "S SONY & COMPANY PVT. LTD", "category": "Real Estate Builders & Construction Company", "street": "G-4, ANUPAMA BUILDING II FLOOR", "city": "Hauz Khas", "phone": "01135002651", "website": "http://ssony.in/", "rating": 4.9, "review_count": "", "latitude": 28.5510508, "longitude": 77.2048471, "maps_url": "https://www.google.com/maps/place/?q=place_id:0x390d1d8baaaaaaab:0x81e02841f207d0f0"}, {"place_id": "0x390ce15795555555:0x9bb8a801d00d7573", "name": "DreamSoft Infotech - Website Development Company in India", "category": "Software company", "street": "A-75 Third Floor", "city": "A Block, Sector 5", "phone": "01204380622", "website": "https://dreamsoftinfotech.com/", "rating": 3.4, "review_count": "", "latitude": 28.591018899999998, "longitude": 77.32201529999999, "maps_url": "https://www.google.com/maps/place/?q=place_id:0x390ce15795555555:0x9bb8a801d00d7573"}, {"place_id": "0x390ce21c24e85b2f:0xf80cd35fedbc3cea", "name": "Cyberspace Networking Systems (P) Ltd.", "category": "Web hosting company", "street": "NIL-36C, Shvalik, DDA Flats, Malviya Nagar", "city": "New Delhi, Delhi 110017", "phone": "01141892901", "website": "http://www.cyberspace.in/", "rating": 3.9, "review_count": "", "latitude": 28.534816, "longitude": 77.21120789999999, "maps_url": "https://www.google.com/maps/place/?q=place_id:0x390ce21c24e85b2f:0xf80cd35fedbc3cea"}, {"place_id": "0x390ce25f6e3d2b9d:0x57f3a0fc9725f59b", "name": "YATRA POINT TOURISM COMPANY INDIA", "category": "Travel agency", "street": "OFFICE NO-7", "city": "BULDING NO N-1, LGF", "phone": "08860016982", "website": "", "rating": 4.9, "review_count": "", "latitude": 28.574078, "longitude": 77.219089, "maps_url": "https://www.google.com/maps/place/?q=place_id:0x390ce25f6e3d2b9d:0x57f3a0fc9725f59b"}, {"place_id": "0x390d1ddf376831d9:0x71cb6b8fdad501de", "name": "CIPELLA TRAVELS INDIA", "category": "Tour operator", "street": "shop 24", "city": "Yashwant place", "phone": "06006779374", "website": "https://cipella.com/", "rating": 4.9, "review_count": "", "latitude": 28.5852047, "longitude": 77.1916947, "maps_url": "https://www.google.com/maps/place/?q=place_id:0x390d1ddf376831d9:0x71cb6b8fdad501de"}, {"place_id": "0x390ce29e73732df9:0xcbdfe0645a677edc", "name": "Hindustan Petroleum Corporation Limited", "category": "Petrol Pump", "street": "Ground Floor, H5RW+9F3", "city": "Vinay Marg", "phone": "09953070434", "website": "https://petrolpump.hpretail.in/hindustan-petroleum-corporation-limited-angra-hp-centre-compressed-natural-gas-station-chanakyapuri-new-delhi-97365/Home?utm_source=locator&utm_medium=googleplaces", "rating": 4.2, "review_count": "", "latitude": 28.5909221, "longitude": 77.1959798, "maps_url": "https://www.google.com/maps/place/?q=place_id:0x390ce29e73732df9:0xcbdfe0645a677edc"}, {"place_id": "0x390d1b0010fc2321:0x12e9154c815cf007", "name": "Prashant Dwivedi IT company", "category": "Warehouse", "street": "G3P5+GVC", "city": "Nayak Pura, Bijwasan", "phone": "", "website": "", "rating": "", "review_count": "", "latitude": 28.536316, "longitude": 77.059649, "maps_url": "https://www.google.com/maps/place/?q=place_id:0x390d1b0010fc2321:0x12e9154c815cf007"}, {"place_id": "0x390cfd35c8f89657:0xadbc7004661a9c74", "name": "Sterco Digitex Pvt Limited", "category": "Website designer", "street": "2nd Floor", "city": "72, Janpath Rd", "phone": "01204857333", "website": "https://www.stercodigitex.com/", "rating": 4.1, "review_count": "", "latitude": 28.628133, "longitude": 77.21985099999999, "maps_url": "https://www.google.com/maps/place/?q=place_id:0x390cfd35c8f89657:0xadbc7004661a9c74"}, {"place_id": "0x390ce283442beaa3:0x15f6857d16d1d789", "name": "Civil Services Officers' Institute (Vinay Marg)", "category": "Club", "street": "Vinay Marg", "city": "Chanakyapuri", "phone": "01124195300", "website": "https://csoi.in/", "rating": 4.5, "review_count": "", "latitude": 28.5908911, "longitude": 77.1982499, "maps_url": "https://www.google.com/maps/place/?q=place_id:0x390ce283442beaa3:0x15f6857d16d1d789"}, {"place_id": "0x390ce370b849e701:0xf64d1240698480f2", "name": "Business Innovation Magazine | Best Global Business Magazine.", "category": "Media company", "street": "C-3/213", "city": "Lodi Colony", "phone": "", "website": "https://businessinnovationmagazine.com/", "rating": 4.8, "review_count": "", "latitude": 28.584767, "longitude": 77.218617, "maps_url": "https://www.google.com/maps/place/?q=place_id:0x390ce370b849e701:0xf64d1240698480f2"}, {"place_id": "0x390ce283442beaa3:0x15f6857d16d1d789", "name": "Civil Services Officers' Institute (Vinay Marg)", "category": "Club", "street": "Vinay Marg", "city": "Chanakyapuri", "phone": "01124195300", "website": "https://csoi.in/", "rating": 4.5, "review_count": "", "latitude": 28.5908911, "longitude": 77.1982499, "maps_url": "https://www.google.com/maps/place/?q=place_id:0x390ce283442beaa3:0x15f6857d16d1d789"}, {"place_id": "0x390ce370b849e701:0xf64d1240698480f2", "name": "Business Innovation Magazine | Best Global Business Magazine.", "category": "Media company", "street": "C-3/213", "city": "Lodi Colony", "phone": "", "website": "https://businessinnovationmagazine.com/", "rating": 4.8, "review_count": "", "latitude": 28.584767, "longitude": 77.218617, "maps_url": "https://www.google.com/maps/place/?q=place_id:0x390ce370b849e701:0xf64d1240698480f2"}, {"place_id": "0x390ce3b5e9981665:0x6ed3916f90d5be3c", "name": "Netsoft Consulting Services", "category": "Information services", "street": "24, IInd Floor, Community Center, East Of Kailash", "city": "behind Sapna Cinema", "phone": "01145330000", "website": "https://netsoftit.com/contact-us/", "rating": 3.5, "review_count": "", "latitude": 28.5583678, "longitude": 77.24568579999999, "maps_url": "https://www.google.com/maps/place/?q=place_id:0x390ce3b5e9981665:0x6ed3916f90d5be3c"}, {"place_id": "0x3be7c21b5901e181:0x7fe794585addc1f6", "name": "Smartinfologiks - Software Development Company in India | IT Solutions", "category": "Software company", "street": "Hilton Center", "city": "514", "phone": "07400064691", "website": "https://www.smartinfologiks.com/", "rating": 4.6, "review_count": "", "latitude": 19.0139592, "longitude": 73.0382705, "maps_url": "https://www.google.com/maps/place/?q=place_id:0x3be7c21b5901e181:0x7fe794585addc1f6"}, {"place_id": "0x390d1d64b175abd1:0x97b7f6f8e8e8a7e9", "name": "High Commission of Malaysia", "category": "Embassy", "street": "No. 50-M", "city": "Satya Marg", "phone": "01124159300", "website": "http://www.kln.gov.my/web/ind_new-delhi/home", "rating": 3.3, "review_count": "", "latitude": 28.586480599999998, "longitude": 77.1876965, "maps_url": "https://www.google.com/maps/place/?q=place_id:0x390d1d64b175abd1:0x97b7f6f8e8e8a7e9"}, {"place_id": "0x390ce550ac43f535:0x7efd3596bc8722ed", "name": "DataMetricks Consulting Private Limited- Best Digital Marketing & Web Development Company in Noida", "category": "Internet marketing service", "street": "12th Floor, TOWER-C", "city": "ITHUM TOWER", "phone": "07303946657", "website": "http://www.datametricks.com/", "rating": 5, "review_count": "", "latitude": 28.626568, "longitude": 77.37237549999999, "maps_url": "https://www.google.com/maps/place/?q=place_id:0x390ce550ac43f535:0x7efd3596bc8722ed"}, {"place_id": "0x390ce32f7f91b893:0xf7c2be7eb729f502", "name": "Digital marketing Company, website Designing Company ( Logo Designing Company ) ( Online Marketplace )", "category": "Website designer", "street": "120-G", "city": "Hari Nagar Ashram", "phone": "08920138925", "website": "https://royalcruiselimos.com/", "rating": 5, "review_count": "", "latitude": 28.5718902, "longitude": 77.2559809, "maps_url": "https://www.google.com/maps/place/?q=place_id:0x390ce32f7f91b893:0xf7c2be7eb729f502"}, {"place_id": "0x390d1d7c8e4e56a7:0x6e28d011f0fc345f", "name": "MTNL Office", "category": "Telephone company", "street": "H5MQ+JV8", "city": "Chanakyapuri", "phone": "18003451800", "website": "http://www.bsnl.co.in/", "rating": 3.3, "review_count": "", "latitude": 28.5840389, "longitude": 77.1897054, "maps_url": "https://www.google.com/maps/place/?q=place_id:0x390d1d7c8e4e56a7:0x6e28d011f0fc345f"}, {"place_id": "0x390ce3083df185df:0xcff0bc07ace98fca", "name": "Dwitty & Company", "category": "Internet marketing service", "street": "B-109", "city": "Block D, Jangpura B", "phone": "07011273521", "website": "", "rating": 5, "review_count": "", "latitude": 28.581945599999997, "longitude": 77.2534653, "maps_url": "https://www.google.com/maps/place/?q=place_id:0x390ce3083df185df:0xcff0bc07ace98fca"}, {"place_id": "0x390d1d638bf6ad65:0xd1a637bec2fb4144", "name": "Embassy of Japan", "category": "Embassy", "street": "Plot No.4&5", "city": "Shantipath", "phone": "01126876581", "website": "http://www.in.emb-japan.go.jp/", "rating": 3.1, "review_count": "", "latitude": 28.5901078, "longitude": 77.1883593, "maps_url": "https://www.google.com/maps/place/?q=place_id:0x390d1d638bf6ad65:0xd1a637bec2fb4144"}, {"place_id": "0x390d1d7f0765168d:0xe31ad8c89b6efd8b", "name": "United Tours India", "category": "Tour operator", "street": "Shop no. 131, Yashwant place", "city": "Chanakyapuri", "phone": "09717363778", "website": "http://www.unitedtoursindia.com/", "rating": 5, "review_count": "", "latitude": 28.584793899999998, "longitude": 77.1915588, "maps_url": "https://www.google.com/maps/place/?q=place_id:0x390d1d7f0765168d:0xe31ad8c89b6efd8b"}, {"place_id": "0x3bc2becdc35b6937:0x515ac559c349eee3", "name": "Thinkitive Technologies Private Limited", "category": "Software company", "street": "4th Floor", "city": "ABIL IMPERIAL COMMERCIAL SPACES", "phone": "08956467327", "website": "https://www.thinkitive.com/", "rating": 3.9, "review_count": "", "latitude": 18.5563888, "longitude": 73.7729748, "maps_url": "https://www.google.com/maps/place/?q=place_id:0x3bc2becdc35b6937:0x515ac559c349eee3"}, {"place_id": "0x390d1d841aaaaaab:0x8d3118e810b3bd50", "name": "Udaan India - The Original Visa Company (Head Office)", "category": "Visa Agent", "street": "309-312, Somdutt Chamber-II, Road No. 9", "city": "Bhikaji Cama Place", "phone": "09540017356", "website": "https://udaanindia.com/", "rating": 4, "review_count": "", "latitude": 28.5680014, "longitude": 77.1874028, "maps_url": "https://www.google.com/maps/place/?q=place_id:0x390d1d841aaaaaab:0x8d3118e810b3bd50"}, {"place_id": "0x390ce25755122ea7:0x59e8215f1ba54e40", "name": "Ministry Of Marketing - Best Performance Marketing Agency", "category": "Advertising agency", "street": "7, Basrurkar Market Rd", "city": "Moti Bagh 1, Block D, Moti Bagh", "phone": "08700089990", "website": "http://www.ministryofmarketing.in/", "rating": 4.9, "review_count": "", "latitude": 28.581474099999998, "longitude": 77.1788444, "maps_url": "https://www.google.com/maps/place/?q=place_id:0x390ce25755122ea7:0x59e8215f1ba54e40"}, {"place_id": "0x390ce30403b64187:0x8726709a519a194c", "name": "Digital Marketing Company", "category": "Advertising agency", "street": "Unit Number 109, 1St Floor, Mercantile House", "city": "KG Marg", "phone": "09599575057", "website": "https://www.linkedin.com/in/arvindnirala/", "rating": 4.9, "review_count": "", "latitude": 28.622821799999997, "longitude": 77.2253394, "maps_url": "https://www.google.com/maps/place/?q=place_id:0x390ce30403b64187:0x8726709a519a194c"}, {"place_id": "0x390d1f0df92e353d:0x54e79553d987073c", "name": "Zombie Marketers | Performance Marketing | Digital Marketing | Website development company in Delhi | SEO company in Delhi", "category": "Marketing agency", "street": "89/9 Mamman House B Block 4th Floor", "city": "Kishangarh Village, Vasant Kunj", "phone": "08527273938", "website": "", "rating": 4.4, "review_count": "", "latitude": 28.5189249, "longitude": 77.1646754, "maps_url": "https://www.google.com/maps/place/?q=place_id:0x390d1f0df92e353d:0x54e79553d987073c"}, {"place_id": "0x390d1d840d0b7db3:0x91639de588e71793", "name": "Website Promotion company in Delhi", "category": "Software company", "street": "705(b", "city": "Bhikaji Cama Place", "phone": "", "website": "https://direct-i.com/", "rating": "", "review_count": "", "latitude": 28.5674408, "longitude": 77.1877414, "maps_url": "https://www.google.com/maps/place/?q=place_id:0x390d1d840d0b7db3:0x91639de588e71793"}, {"place_id": "0x390ce3fa30cb5c19:0xc2b9c3fe8db1dd54", "name": "KIREN SMART SERVICES", "category": "Marketing agency", "street": "D-196, New", "city": "G/F, Lajpat Nagar I, Lajpat Nagar", "phone": "09873907360", "website": "https://kirensmartservices.com/", "rating": 4.1, "review_count": "", "latitude": 28.5785903, "longitude": 77.2423422, "maps_url": "https://www.google.com/maps/place/?q=place_id:0x390ce3fa30cb5c19:0xc2b9c3fe8db1dd54"}, {"place_id": "0x390ce39d936b3e73:0x7322566a7104ffd3", "name": "Utsao - Corporate & Business Gifts", "category": "Corporate gift supplier", "street": "S/F1", "city": "Bhaskar Bhavan", "phone": "09289738874", "website": "https://utsao.com/", "rating": 4.7, "review_count": "", "latitude": 28.570666, "longitude": 77.2222604, "maps_url": "https://www.google.com/maps/place/?q=place_id:0x390ce39d936b3e73:0x7322566a7104ffd3"}, {"place_id": "0x390ce393335b0317:0xd6f26887ac202ae7", "name": "DRM and COMPANY", "category": "Medical equipment supplier", "street": "O-30", "city": "ODS, Lajpat Nagar 4, Lajpat Nagar", "phone": "08851267277", "website": "http://www.drmcompany.co.in/", "rating": 4.6, "review_count": "", "latitude": 28.5644229, "longitude": 77.2485993, "maps_url": "https://www.google.com/maps/place/?q=place_id:0x390ce393335b0317:0xd6f26887ac202ae7"}, {"place_id": "0x390ce39635e612d5:0xb288fe6c9172f2af", "name": "Bombay Shirt Company", "category": "Formal Clothing Store", "street": "2A, Second Floor, Property No. G-26", "city": "South Extension I, Block G", "phone": "07382349837", "website": "https://www.bombayshirts.com/", "rating": 4.6, "review_count": "", "latitude": 28.5690386, "longitude": 77.2206563, "maps_url": "https://www.google.com/maps/place/?q=place_id:0x390ce39635e612d5:0xb288fe6c9172f2af"}, {"place_id": "0x390cfd3515adae13:0x1bb352627e7e90e6", "name": "The Shipping Corporation Of India Limited", "category": "Shipping company", "street": "1st floor, Chandralok Buillding, 36 Janpath", "city": "Janpath Rd", "phone": "01123322446", "website": "http://www.shipindia.com/", "rating": 3.9, "review_count": "", "latitude": 28.6243965, "longitude": 77.2196376, "maps_url": "https://www.google.com/maps/place/?q=place_id:0x390cfd3515adae13:0x1bb352627e7e90e6"}, {"place_id": "0x390cdc6f70fb5be5:0xa34888feda73528d", "name": "Pepper Designs", "category": "Website designer", "street": "House No 1, Ground Floor", "city": "Hauz Khas Village", "phone": "09811767560", "website": "https://www.pepper-designs.com/", "rating": 4.6, "review_count": "", "latitude": 28.555021999999997, "longitude": 77.19471399999999, "maps_url": "https://www.google.com/maps/place/?q=place_id:0x390cdc6f70fb5be5:0xa34888feda73528d"}, {"place_id": "0x390ce300bfffffff:0xe1356f6e89808ee9", "name": "Skylark Elevator Company", "category": "Elevator Manufacturer", "street": "208, Defence Colony Flyover", "city": "Block M, Jungpura Extension, Market", "phone": "09953667500", "website": "https://www.skylarkelevator.com/", "rating": 2.6, "review_count": "", "latitude": 28.5801894, "longitude": 77.238514, "maps_url": "https://www.google.com/maps/place/?q=place_id:0x390ce300bfffffff:0xe1356f6e89808ee9"}, {"place_id": "0x390ce2160c350ae7:0x769ee9e445eca4d6", "name": "The Sports Company", "category": "Corporate office", "street": "141-A, Fourth Floor", "city": "Shahpur Jat, Siri Fort", "phone": "09821384210", "website": "http://tscglobal.in/", "rating": 4.8, "review_count": "", "latitude": 28.548057999999997, "longitude": 77.216359, "maps_url": "https://www.google.com/maps/place/?q=place_id:0x390ce2160c350ae7:0x769ee9e445eca4d6"}, {"place_id": "0x390d1dc92fcc59c1:0x8c00d96ff929537f", "name": "Triumphant Finance Company LTD", "category": "Financial institution", "street": "Panchsheel Marg", "city": "Chanakyapuri", "phone": "09654586863", "website": "https://wa.link/5itrzt", "rating": "", "review_count": "", "latitude": 28.597783, "longitude": 77.1893484, "maps_url": "https://www.google.com/maps/place/?q=place_id:0x390d1dc92fcc59c1:0x8c00d96ff929537f"}, {"place_id": "0x390d1d841fefffff:0x60445c4d74e8817a", "name": "SupremeWork | Co-working Space Bhikaji", "category": "Coworking space", "street": "LG-5", "city": "Somdutt Chamber 1", "phone": "08699308453", "website": "https://www.supremework.work/", "rating": 3.1, "review_count": "", "latitude": 28.5679241, "longitude": 77.1890038, "maps_url": "https://www.google.com/maps/place/?q=place_id:0x390d1d841fefffff:0x60445c4d74e8817a"}, {"place_id": "0x390ce35071aa88f7:0x6b1c5c0fde4cac28", "name": "CAAQ Consultancy - Company Registration & Compliance Consultant Delhi", "category": "Accounting firm", "street": "S/F", "city": "Bhaskar Bhavan", "phone": "", "website": "https://caaq.in/", "rating": 4.1, "review_count": "", "latitude": 28.570666, "longitude": 77.2222604, "maps_url": "https://www.google.com/maps/place/?q=place_id:0x390ce35071aa88f7:0x6b1c5c0fde4cac28"}, {"place_id": "0x390ce3ca02c212bf:0x831590e44471eedc", "name": "SANKET GARG & COMPANY", "category": "Accounting firm", "street": "No. 10", "city": "216-B/1 Basement Gautam Nagar", "phone": "09810577298", "website": "http://casanketgargindia.co.in/", "rating": 5, "review_count": "", "latitude": 28.5607808, "longitude": 77.21212799999999, "maps_url": "https://www.google.com/maps/place/?q=place_id:0x390ce3ca02c212bf:0x831590e44471eedc"}, {"place_id": "0x390ce3753931a805:0x1b5ba8466adb8547", "name": "LAKSHIKA SALON | DE SALOON , Unisex Beauty Salon", "category": "Beauty Parlour", "street": "CSOI", "city": "CIVIL SERVICES OFFICERS INSTITUTE", "phone": "09289503685", "website": "https://lakshikasalon.com/", "rating": 4.7, "review_count": "", "latitude": 28.5909652, "longitude": 77.1982262, "maps_url": "https://www.google.com/maps/place/?q=place_id:0x390ce3753931a805:0x1b5ba8466adb8547"}, {"place_id": "0x390ce2c0116aafa3:0xf2990bfe6de6b286", "name": "Netherlands Embassy", "category": "Embassy", "street": "6/50 F, Shantipath", "city": "Chanakyapuri", "phone": "01124197600", "website": "https://www.netherlandsandyou.nl/web/india", "rating": 4.4, "review_count": "", "latitude": 28.590985999999997, "longitude": 77.18606799999999, "maps_url": "https://www.google.com/maps/place/?q=place_id:0x390ce2c0116aafa3:0xf2990bfe6de6b286"}, {"place_id": "0x390ce3c87abeddd9:0xa68500e49b658474", "name": "IT Magnum Opus", "category": "Computer support and services", "street": "P-31", "city": "Sriniwaspuri Extn, Block Q, Private Colony, Sri Niwaspuri", "phone": "", "website": "https://www.itmo.in/", "rating": 4.8, "review_count": "", "latitude": 28.5626805, "longitude": 77.2597913, "maps_url": "https://www.google.com/maps/place/?q=place_id:0x390ce3c87abeddd9:0xa68500e49b658474"}, {"place_id": "0x390d1b1d006e1835:0x313c2b1b01db4e74", "name": "National High Speed Rail Corporation Limited", "category": "Corporate office", "street": "World Trade Center", "city": "Block D, Block F, Nauroji Nagar, Safdarjung Enclave", "phone": "01128070002", "website": "http://www.nhsrcl.in/", "rating": 4.4, "review_count": "", "latitude": 28.568427, "longitude": 77.1928171, "maps_url": "https://www.google.com/maps/place/?q=place_id:0x390d1b1d006e1835:0x313c2b1b01db4e74"}, {"place_id": "0x390ce20c05555555:0x15fe85e8b5322da8", "name": "DCC SUPPLY CHAIN & DISTRIBUTION LLP formerly known as Dairy Chem Corporation", "category": "Cold storage facility", "street": "Community Center", "city": "AB -17", "phone": "09899972766", "website": "", "rating": 5, "review_count": "", "latitude": 28.5661591, "longitude": 77.19903819999999, "maps_url": "https://www.google.com/maps/place/?q=place_id:0x390ce20c05555555:0x15fe85e8b5322da8"}, {"place_id": "0x44410b48618716b:0x7d0c5e38d0253ca9", "name": "WENGS SOLUTIONS LLP", "category": "Website designer", "street": "", "city": "", "phone": "09999537998", "website": "https://www.wengs.co.in/", "rating": 4.9, "review_count": "", "latitude": 13.4222866, "longitude": 142.1078416, "maps_url": "https://www.google.com/maps/place/?q=place_id:0x44410b48618716b:0x7d0c5e38d0253ca9"}, {"place_id": "0x390d1d5f5f869ad7:0x2d0b325fdb8918f7", "name": "Canada Embassy India", "category": "Visa Agent", "street": "6", "city": "50G, Shantipath", "phone": "", "website": "https://www.international.gc.ca/country-pays/india-inde/new_delhi.aspx?lang=eng", "rating": 4.7, "review_count": "", "latitude": 28.589824099999998, "longitude": 77.1853916, "maps_url": "https://www.google.com/maps/place/?q=place_id:0x390d1d5f5f869ad7:0x2d0b325fdb8918f7"}, {"place_id": "0x390ce31f8414d201:0xd94fa7c34d7873a2", "name": "Bhardwaj And Company (Steel Shuttering and Scaffolding Material Supplier)", "category": "Construction equipment supplier", "street": "85-A , Ground Floor", "city": "Bhardwaj Plaza", "phone": "09811109106", "website": "http://bhardwajandcompany.com/", "rating": 4.9, "review_count": "", "latitude": 28.557116399999998, "longitude": 77.23596979999999, "maps_url": "https://www.google.com/maps/place/?q=place_id:0x390ce31f8414d201:0xd94fa7c34d7873a2"}, {"place_id": "0x390ce383cbe684f9:0x6df322cd06395a6c", "name": "Level Up The Photo Video Company | Corporate & Healthcare Video Production | Photography & Live Streaming Services", "category": "Video production service", "street": "C - 546", "city": "Block C, Defence Colony", "phone": "09718979770", "website": "http://www.leveluppvc.com/", "rating": 5, "review_count": "", "latitude": 28.5670589, "longitude": 77.23005069999999, "maps_url": "https://www.google.com/maps/place/?q=place_id:0x390ce383cbe684f9:0x6df322cd06395a6c"}, {"place_id": "0x390d1d667df5707d:0x41d608d5cb9a4a9", "name": "Embassy of Afghanistan", "category": "Embassy", "street": "5/50F, Shantipath", "city": "Chanakyapuri", "phone": "01124100412", "website": "", "rating": 4.3, "review_count": "", "latitude": 28.5917511, "longitude": 77.1871273, "maps_url": "https://www.google.com/maps/place/?q=place_id:0x390d1d667df5707d:0x41d608d5cb9a4a9"}, {"place_id": "0x390ce21efd4c8921:0xe5e8dcd288b2c303", "name": "anovIP", "category": "Law firm", "street": "Community Center", "city": "Wing B: 161-B/4, 6th Floor Gulmohar House, Yusuf Sarai", "phone": "01141835550", "website": "http://www.anovip.com/", "rating": 3.9, "review_count": "", "latitude": 28.557895499999997, "longitude": 77.20812099999999, "maps_url": "https://www.google.com/maps/place/?q=place_id:0x390ce21efd4c8921:0xe5e8dcd288b2c303"}, {"place_id": "0x390d1d667df5707d:0x41d608d5cb9a4a9", "name": "Embassy of Afghanistan", "category": "Embassy", "street": "5/50F, Shantipath", "city": "Chanakyapuri", "phone": "01124100412", "website": "", "rating": 4.3, "review_count": "", "latitude": 28.5917511, "longitude": 77.1871273, "maps_url": "https://www.google.com/maps/place/?q=place_id:0x390d1d667df5707d:0x41d608d5cb9a4a9"}, {"place_id": "0x390ce21efd4c8921:0xe5e8dcd288b2c303", "name": "anovIP", "category": "Law firm", "street": "Community Center", "city": "Wing B: 161-B/4, 6th Floor Gulmohar House, Yusuf Sarai", "phone": "01141835550", "website": "http://www.anovip.com/", "rating": 3.9, "review_count": "", "latitude": 28.557895499999997, "longitude": 77.20812099999999, "maps_url": "https://www.google.com/maps/place/?q=place_id:0x390ce21efd4c8921:0xe5e8dcd288b2c303"}, {"place_id": "0x390ce25cbfa79397:0x46a2dca7ef01e52c", "name": "VAPS & CO.", "category": "Accounting firm", "street": "C-42", "city": "South Extension II, Block C", "phone": "01141645051", "website": "http://vaps.co.in/", "rating": 5, "review_count": "", "latitude": 28.567705999999998, "longitude": 77.22196199999999, "maps_url": "https://www.google.com/maps/place/?q=place_id:0x390ce25cbfa79397:0x46a2dca7ef01e52c"}, {"place_id": "0x390ce340b27bc093:0xc927e8fe50cf47f5", "name": "Ghar point (A house renting company)", "category": "Real estate consultant", "street": "B 272", "city": "Block B, Greater Kailash I, Greater Kailash", "phone": "09599685158", "website": "", "rating": 4.8, "review_count": "", "latitude": 28.556379699999997, "longitude": 77.2326027, "maps_url": "https://www.google.com/maps/place/?q=place_id:0x390ce340b27bc093:0xc927e8fe50cf47f5"}, {"place_id": "0x390cfd35955ace07:0x16eb271180292aa6", "name": "CHANEL", "category": "Clothing store", "street": "Chanakya Mall", "city": "G-14 & F-114", "phone": "0008000504612", "website": "https://www.chanel.com/in/fashion/services/boutique-chanakya/?y_source=1_MTQ5MzA5NDQtNzE1LWxvY2F0aW9uLndlYnNpdGU%3D", "rating": 3.8, "review_count": "", "latitude": 28.5846996, "longitude": 77.1907469, "maps_url": "https://www.google.com/maps/place/?q=place_id:0x390cfd35955ace07:0x16eb271180292aa6"}, {"place_id": "0x390ce3c851487b1f:0xb893e768ca355a6c", "name": "Aditya V Agarwal & Company", "category": "Certified public accountant", "street": "First Floor 29", "city": "Community Center", "phone": "09873131781", "website": "", "rating": 5, "review_count": "", "latitude": 28.5586234, "longitude": 77.2455276, "maps_url": "https://www.google.com/maps/place/?q=place_id:0x390ce3c851487b1f:0xb893e768ca355a6c"}, {"place_id": "0x4fc95eccf76efcff:0x3f3d1546ff87f5d0", "name": "Embassy Of Germany india", "category": "Visa Agent", "street": "No. 6", "city": "50G, Shantipath", "phone": "01144199199", "website": "http://www.germanindia.com/", "rating": 5, "review_count": "", "latitude": 28.5892098, "longitude": 77.1875955, "maps_url": "https://www.google.com/maps/place/?q=place_id:0x4fc95eccf76efcff:0x3f3d1546ff87f5d0"}, {"place_id": "0x390cfcf3d766c6e3:0xae584b7e82859b14", "name": "Shri Tapodhani Aluminium Trading Company", "category": "Aluminium Supplier", "street": "Xv 2758, Street No. 6", "city": "near banke bihari mandir", "phone": "09911087778", "website": "https://tapodhani.com/", "rating": 4.8, "review_count": "", "latitude": 28.6435481, "longitude": 77.21105469999999, "maps_url": "https://www.google.com/maps/place/?q=place_id:0x390cfcf3d766c6e3:0xae584b7e82859b14"}, {"place_id": "0x390d1d648f7f744b:0x54889c38ef9f0b31", "name": "Embassy Of The Federal Republic Of Germany", "category": "Embassy", "street": "No. 6", "city": "50G, Shantipath", "phone": "", "website": "http://www.india.diplo.de/", "rating": 3.5, "review_count": "", "latitude": 28.589358299999997, "longitude": 77.1875063, "maps_url": "https://www.google.com/maps/place/?q=place_id:0x390d1d648f7f744b:0x54889c38ef9f0b31"}, {"place_id": "0x390ce34e49b627ab:0xf91f8f0ac3105233", "name": "Sunder Watch Company", "category": "Watch store", "street": "Shop No. J-35B, Pushpa", "city": "Central Market, Lajpat Nagar II", "phone": "", "website": "", "rating": 4.9, "review_count": "", "latitude": 28.5690226, "longitude": 77.2436111, "maps_url": "https://www.google.com/maps/place/?q=place_id:0x390ce34e49b627ab:0xf91f8f0ac3105233"}, {"place_id": "0x390d03b6ecb23137:0x58a2d768eaf97735", "name": "The Creation", "category": "Corporate office", "street": "4th Floor", "city": "17, Pusa Rd", "phone": "09818405894", "website": "http://www.thecreation.in/", "rating": 4.5, "review_count": "", "latitude": 28.64474, "longitude": 77.191228, "maps_url": "https://www.google.com/maps/place/?q=place_id:0x390d03b6ecb23137:0x58a2d768eaf97735"}, {"place_id": "0x390d1d0b0bc6c5c7:0xf07b58176e8334be", "name": "Royale Realtors India", "category": "Real estate agency", "street": "19 DDA Market", "city": "Shanti Niketan", "phone": "09818312077", "website": "http://www.royalerealtorsindia.com/", "rating": 4.3, "review_count": "", "latitude": 28.576855899999998, "longitude": 77.16863649999999, "maps_url": "https://www.google.com/maps/place/?q=place_id:0x390d1d0b0bc6c5c7:0xf07b58176e8334be"}, {"place_id": "0x390d1d841a0f4d5b:0x9ae44ba352980bd3", "name": "Requisite Development Services Private Limited", "category": "Research institute", "street": "Plot No.122, IIIrd Floor, Takshak Cyber Cafe Building", "city": "Mohammadpur", "phone": "01165577622", "website": "http://rdsindiaresearch.com/", "rating": 4.6, "review_count": "", "latitude": 28.5679196, "longitude": 77.1881392, "maps_url": "https://www.google.com/maps/place/?q=place_id:0x390d1d841a0f4d5b:0x9ae44ba352980bd3"}, {"place_id": "0x390ce32a4935cfb3:0x215c580033758e7b", "name": "Techsunware Private Limited", "category": "Software company", "street": "Sriniwaspuri Extn, Block L, Private Colony, Sri Niwaspuri", "city": "New Delhi, Delhi 110065", "phone": "", "website": "https://www.techsunware.com/", "rating": "", "review_count": "", "latitude": 28.563623999999997, "longitude": 77.25999379999999, "maps_url": "https://www.google.com/maps/place/?q=place_id:0x390ce32a4935cfb3:0x215c580033758e7b"}]}