{"timestamp": 1773729631.8001964, "keyword": "IT company", "location": "delhi", "cell_idx": 116, "results": [{"place_id": "0x390d1e08d71a257f:0xea4e129d751fc99", "name": "Sukrit Infotech", "category": "Software company", "street": "1043 Ward No 8 1042/2D 2nd Floor Mehrauli Near Babar Building", "city": "Mehrauli", "phone": "01145607265", "website": "http://www.sukritinfotech.com/", "rating": 4.5, "review_count": "", "latitude": 28.517589599999997, "longitude": 77.1802435, "maps_url": "https://www.google.com/maps/place/?q=place_id:0x390d1e08d71a257f:0xea4e129d751fc99"}, {"place_id": "0x390ce1224e2234dd:0x7790e7d5f1699ce4", "name": "Razor Infotech Pvt. Ltd. ( IT solutions)", "category": "Software company", "street": "627", "city": "F/F, Westend Marg", "phone": "01145034631", "website": "http://www.razorinfotech.com/", "rating": 4.9, "review_count": "", "latitude": 28.517411, "longitude": 77.198138, "maps_url": "https://www.google.com/maps/place/?q=place_id:0x390ce1224e2234dd:0x7790e7d5f1699ce4"}, {"place_id": "0x390d1fbbce82cc5f:0x8f093d6269ea787e", "name": "Canticle Technologies Pvt. Ltd. | ERP Software For Security | Software Development | HR And Payroll Software | HRMS Software", "category": "Software company", "street": "1st Floor", "city": "D-25, 100 Feet Rd", "phone": "09212763762", "website": "http://www.canticleindia.com/", "rating": 4.8, "review_count": "", "latitude": 28.505732499999997, "longitude": 77.1851427, "maps_url": "https://www.google.com/maps/place/?q=place_id:0x390d1fbbce82cc5f:0x8f093d6269ea787e"}, {"place_id": "0x390ce1e9785ba44f:0x316381b5ad0299ad", "name": "GD TECH SOLUTION", "category": "Software company", "street": "Flat 502", "city": "Plot No 269", "phone": "09997095695", "website": "http://gdtechsolution.com/", "rating": 4.9, "review_count": "", "latitude": 28.506824899999998, "longitude": 77.1850303, "maps_url": "https://www.google.com/maps/place/?q=place_id:0x390ce1e9785ba44f:0x316381b5ad0299ad"}, {"place_id": "0x390d1fcf6c34ab99:0x285f961d231b2c61", "name": "Aadiyar Infotech Private Limited", "category": "Software company", "street": "1st Floor", "city": "Pannal Building No. 2", "phone": "09810164525", "website": "https://www.aadiyar.in/", "rating": 4.9, "review_count": "", "latitude": 28.487146, "longitude": 77.185315, "maps_url": "https://www.google.com/maps/place/?q=place_id:0x390d1fcf6c34ab99:0x285f961d231b2c61"}, {"place_id": "0x390ce1fb44618b65:0x8e06b2a6128352d1", "name": "Acropolis Infotech - Delhi Office", "category": "Software company", "street": "metro station gate", "city": "55, 2nd Floor, Lane 2", "phone": "09999876593", "website": "https://www.acropolisinfotech.com/", "rating": 4.6, "review_count": "", "latitude": 28.518907, "longitude": 77.2015435, "maps_url": "https://www.google.com/maps/place/?q=place_id:0x390ce1fb44618b65:0x8e06b2a6128352d1"}, {"place_id": "0x390d1f31857204fb:0xabc508016ea7b7c9", "name": "Ce Info Software Solutions Tally Services Provider & Partner In Delhi Ncr", "category": "Software company", "street": "285 street No. -27", "city": "100 Feet Rd", "phone": "09711602378", "website": "http://ceinfosoft.com/", "rating": 5, "review_count": "", "latitude": 28.505185599999997, "longitude": 77.184986, "maps_url": "https://www.google.com/maps/place/?q=place_id:0x390d1f31857204fb:0xabc508016ea7b7c9"}, {"place_id": "0x390d1e186527b451:0x3d552630d3703e21", "name": "Inca Infotech Technologies Pvt Ltd", "category": "Computer support and services", "street": "D-23/405, UGF", "city": "100 Feet Rd", "phone": "18008891907", "website": "https://www.incainfotech.com/", "rating": 3.6, "review_count": "", "latitude": 28.506226899999998, "longitude": 77.1850521, "maps_url": "https://www.google.com/maps/place/?q=place_id:0x390d1e186527b451:0x3d552630d3703e21"}, {"place_id": "0x390d1fb30dd00ee3:0x77cfd1f858a2b9ee", "name": "Ionic Software Services", "category": "Software company", "street": "B-2/63, Africa Ave", "city": "Block A, Block B 2, Safdarjung Enclave", "phone": "08744941668", "website": "http://www.ionicsoftwares.com/", "rating": 4.7, "review_count": "", "latitude": 28.515873499999998, "longitude": 77.2044335, "maps_url": "https://www.google.com/maps/place/?q=place_id:0x390d1fb30dd00ee3:0x77cfd1f858a2b9ee"}, {"place_id": "0x390d1f5abfb25fe1:0x7d9c4d5e159f2955", "name": "Jaimru Technology Pvt Ltd", "category": "Software company", "street": "WARD NO. 2", "city": "Plot No. 178 M 33 A/1", "phone": "07838153420", "website": "https://www.jaimru.com/", "rating": 4.9, "review_count": "", "latitude": 28.524347499999998, "longitude": 77.1731889, "maps_url": "https://www.google.com/maps/place/?q=place_id:0x390d1f5abfb25fe1:0x7d9c4d5e159f2955"}, {"place_id": "0x390ce458d0000001:0xf2123bd299ec4501", "name": "IT Company India", "category": "Software company", "street": "D56", "city": "D Block, Sector 10", "phone": "09999244854", "website": "https://www.itcompanyindia.in/", "rating": 4.7, "review_count": "", "latitude": 28.589917699999997, "longitude": 77.3351153, "maps_url": "https://www.google.com/maps/place/?q=place_id:0x390ce458d0000001:0xf2123bd299ec4501"}, {"place_id": "0x390ce3ad65de113f:0x86ef029d79b16992", "name": "Spark Eighteen", "category": "Software company", "street": "Khasra No. 316", "city": "Tehsil Hauz Khas", "phone": "09429690818", "website": "https://www.sparkeighteen.com/", "rating": 4.7, "review_count": "", "latitude": 28.517915799999997, "longitude": 77.19866429999999, "maps_url": "https://www.google.com/maps/place/?q=place_id:0x390ce3ad65de113f:0x86ef029d79b16992"}, {"place_id": "0x390d1d85c77e8729:0x978e35db34d526b7", "name": "Aziels Technologies Pvt Ltd", "category": "Software company", "street": "F350, Old M B Road", "city": "near Reliance fresh", "phone": "08447968167", "website": "https://www.aziels.com/", "rating": 5, "review_count": "", "latitude": 28.5245136, "longitude": 77.1917606, "maps_url": "https://www.google.com/maps/place/?q=place_id:0x390d1d85c77e8729:0x978e35db34d526b7"}, {"place_id": "0x390ce3ad10000061:0xeff7e6017a22cce7", "name": "Alpinesoft IT Solutions Authorized Google Workspace Reseller", "category": "Software company", "street": "162/9 Ist Floor, KIshangarh - Gaushala Marg", "city": "Lakhi Nath Kuti, Mehrauli, Vasant Kunj", "phone": "09999011157", "website": "https://www.alpinesoftit.com/", "rating": 4.3, "review_count": "", "latitude": 28.515394399999998, "longitude": 77.16460359999999, "maps_url": "https://www.google.com/maps/place/?q=place_id:0x390ce3ad10000061:0xeff7e6017a22cce7"}, {"place_id": "0x390d1e26841f4029:0xbed40d3c611d8d6", "name": "SAY 2 GET iT", "category": "Software company", "street": "83 E", "city": "DR Ambedkar Colony, Chattarpur Enclave, Chhatarpur", "phone": "09319051305", "website": "http://www.say2getit.com/", "rating": 5, "review_count": "", "latitude": 28.5028699, "longitude": 77.1887764, "maps_url": "https://www.google.com/maps/place/?q=place_id:0x390d1e26841f4029:0xbed40d3c611d8d6"}, {"place_id": "0x4215c6da63b4b82f:0x794ba814a6ada964", "name": "Asha Tech | Website Design, App Development & IT Solutions Delhi", "category": "Software company", "street": "no 2", "city": "195, Lane No. 1", "phone": "07531080874", "website": "https://ashatech.co.in/", "rating": 4.7, "review_count": "", "latitude": 28.519994099999998, "longitude": 77.2008791, "maps_url": "https://www.google.com/maps/place/?q=place_id:0x4215c6da63b4b82f:0x794ba814a6ada964"}, {"place_id": "0x390d1f9ef34b79bd:0x2dc0fdd0c33d2e15", "name": "VLS Technology Private Limited", "category": "Software company", "street": "D 27A, Second Floor", "city": "60 Feet Rd", "phone": "09711200318", "website": "https://vlstechnology.com/", "rating": 5, "review_count": "", "latitude": 28.5020255, "longitude": 77.1837389, "maps_url": "https://www.google.com/maps/place/?q=place_id:0x390d1f9ef34b79bd:0x2dc0fdd0c33d2e15"}, {"place_id": "0x390ce3c153b89811:0xe7a279685777e9ca", "name": "IT Company", "category": "Automation company", "street": "A-14", "city": "near iskcon temple", "phone": "", "website": "http://www.opuswiz.com/", "rating": 3, "review_count": "", "latitude": 28.557167, "longitude": 77.25424819999999, "maps_url": "https://www.google.com/maps/place/?q=place_id:0x390ce3c153b89811:0xe7a279685777e9ca"}, {"place_id": "0x390d11040c5dbe09:0xe5cc630877c648b0", "name": "UDESHA TECHNOLOGY", "category": "Software company", "street": "H.in.kh.no 293", "city": "S/f", "phone": "08709918723", "website": "https://udeshatechnology.com/", "rating": 5, "review_count": "", "latitude": 28.5193449, "longitude": 77.2010346, "maps_url": "https://www.google.com/maps/place/?q=place_id:0x390d11040c5dbe09:0xe5cc630877c648b0"}, {"place_id": "0x213278d23258ed1:0xda7ca71736196291", "name": "Astha Technologies - Top Mobile App Development Company in Delhi | Android & iOS", "category": "Software company", "street": "2ND FLOOR", "city": "55, LANE-2, Westend Marg", "phone": "", "website": "https://asthatechnologies.org/mobile-app-development-company-delhi/", "rating": 5, "review_count": "", "latitude": 28.518466099999998, "longitude": 77.19880739999999, "maps_url": "https://www.google.com/maps/place/?q=place_id:0x213278d23258ed1:0xda7ca71736196291"}, {"place_id": "0x390ce1e331a6dbab:0xb7a8e8264028b8c0", "name": "All In One IT Solutions", "category": "Corporate office", "street": "2, Westend Marg", "city": "Butterfly Park, Saiyad Ul Ajaib Village, Saket", "phone": "07042981226", "website": "", "rating": 4.8, "review_count": "", "latitude": 28.5178196, "longitude": 77.1982848, "maps_url": "https://www.google.com/maps/place/?q=place_id:0x390ce1e331a6dbab:0xb7a8e8264028b8c0"}, {"place_id": "0x390d1fac5464bc13:0xc1ceeefce9605c16", "name": "Raotto Infotech", "category": "Software company", "street": "191/37", "city": "Ward no- 2, Nai Basti, Mehrauli", "phone": "09608979897", "website": "https://raotto.in/", "rating": 4.7, "review_count": "", "latitude": 28.5211236, "longitude": 77.1790012, "maps_url": "https://www.google.com/maps/place/?q=place_id:0x390d1fac5464bc13:0xc1ceeefce9605c16"}, {"place_id": "0x390ce1597b5509e5:0x41371c9fd40ce199", "name": "TNS Networking Solutions Pvt. Ltd. - System Integrator for IT Infrastructure Projects", "category": "Computer support and services", "street": "293, Dhan Mill Rd", "city": "Chhatarpur Hills, Pocket D, Dr Ambedkar Colony, Chhatarpur", "phone": "01142375032", "website": "http://www.tnspl.com/", "rating": 4.7, "review_count": "", "latitude": 28.503260599999997, "longitude": 77.1838258, "maps_url": "https://www.google.com/maps/place/?q=place_id:0x390ce1597b5509e5:0x41371c9fd40ce199"}, {"place_id": "0x390d1e22c54b039d:0xd5c0ccbe602708d", "name": "CEOITBOX | Mr. Sanjeev Jain - Best AI Business Automation Coach In India | AI & Tech Implementation Coach", "category": "Software company", "street": "293, Dhan Mill Rd", "city": "Chhatarpur Hills, Pocket D, Dr Ambedkar Colony, Chhatarpur", "phone": "08766362949", "website": "https://ceoitbox.com/", "rating": 4.7, "review_count": "", "latitude": 28.503270099999998, "longitude": 77.1838192, "maps_url": "https://www.google.com/maps/place/?q=place_id:0x390d1e22c54b039d:0xd5c0ccbe602708d"}, {"place_id": "0x390d1e2fed1eed4b:0x101cd24533e257fa", "name": "SOFTLIFE Technologies Pvt. Ltd.", "category": "Software company", "street": "B-2, Block", "city": "Road", "phone": "09045199841", "website": "", "rating": 4.4, "review_count": "", "latitude": 28.4929925, "longitude": 77.18445489999999, "maps_url": "https://www.google.com/maps/place/?q=place_id:0x390d1e2fed1eed4b:0x101cd24533e257fa"}, {"place_id": "0x390ce12a669e824d:0xb0190490e7489d83", "name": "Minfotech India", "category": "Computer support and services", "street": "F-463/1", "city": "near PNB", "phone": "08010104747", "website": "https://www.minfotechindia.com/", "rating": 4.9, "review_count": "", "latitude": 28.523636399999997, "longitude": 77.1933018, "maps_url": "https://www.google.com/maps/place/?q=place_id:0x390ce12a669e824d:0xb0190490e7489d83"}, {"place_id": "0x390cfd2058cd528d:0x2a0fddd3283baba", "name": "Waabz - IT solution", "category": "Software company", "street": "623A", "city": "near purana CNG pump", "phone": "07289955848", "website": "https://waabz.com/", "rating": 4.9, "review_count": "", "latitude": 28.523557999999998, "longitude": 77.19159259999999, "maps_url": "https://www.google.com/maps/place/?q=place_id:0x390cfd2058cd528d:0x2a0fddd3283baba"}, {"place_id": "0x390ce2305c00002d:0x9f7efbacdc0d8271", "name": "ICO WebTech Pvt. Ltd. - Website Designing Company in Delhi", "category": "Website designer", "street": "J E 5, Ground Floor, Khirki Extension, Malviya Nagar", "city": "New Delhi, Delhi 110017", "phone": "08447380262", "website": "https://www.icowebsolutions.com/", "rating": 4.6, "review_count": "", "latitude": 28.535594, "longitude": 77.21577099999999, "maps_url": "https://www.google.com/maps/place/?q=place_id:0x390ce2305c00002d:0x9f7efbacdc0d8271"}, {"place_id": "0x3a02760b74583ea5:0x320b95325a555c6", "name": "Techmapperz", "category": "Software company", "street": "2nd floor", "city": "55, Lane-2, Westend Marg", "phone": "09643002065", "website": "https://www.techmapperz.com/", "rating": 4.9, "review_count": "", "latitude": 28.5177321, "longitude": 77.1986237, "maps_url": "https://www.google.com/maps/place/?q=place_id:0x3a02760b74583ea5:0x320b95325a555c6"}, {"place_id": "0x61679272b097afaf:0x2d8ff2b0d95a1e18", "name": "Busybots | RPA & Robotic Process Automation for Banking, Healthcare, AI Services & UiPath, Python Training in Delhi", "category": "Software company", "street": "1st Floor, D", "city": "25, 100 Feet Rd", "phone": "09315867465", "website": "https://www.busybots.in/", "rating": 5, "review_count": "", "latitude": 28.5055157, "longitude": 77.1852263, "maps_url": "https://www.google.com/maps/place/?q=place_id:0x61679272b097afaf:0x2d8ff2b0d95a1e18"}, {"place_id": "0x390ce227b000003f:0x68c684a3cbf810b", "name": "IT Solution INDIA", "category": "Computer support and services", "street": "Triveni Commercial Complex", "city": "Sheikh Sarai Phase 1, Sheikh Sarai", "phone": "09312209167", "website": "https://itsolutionindia.in/", "rating": 4.8, "review_count": "", "latitude": 28.5364054, "longitude": 77.22372, "maps_url": "https://www.google.com/maps/place/?q=place_id:0x390ce227b000003f:0x68c684a3cbf810b"}, {"place_id": "0x390ce1b9de54d101:0xc5184256693b27dd", "name": "LCK Technologies - Website designing development company South Delhi", "category": "Website designer", "street": "439 1st floor", "city": "438", "phone": "09891337955", "website": "https://lckdigitalmedia.in/", "rating": 4.9, "review_count": "", "latitude": 28.5089698, "longitude": 77.20114769999999, "maps_url": "https://www.google.com/maps/place/?q=place_id:0x390ce1b9de54d101:0xc5184256693b27dd"}, {"place_id": "0x390d1f43f6442193:0xa633a2795caaaf9a", "name": "iT EXPERT", "category": "Computer support and services", "street": "Plot No 165", "city": "near by C.R.C Building", "phone": "09643205555", "website": "https://it-expert.grexa.site/", "rating": 5, "review_count": "", "latitude": 28.496751, "longitude": 77.163401, "maps_url": "https://www.google.com/maps/place/?q=place_id:0x390d1f43f6442193:0xa633a2795caaaf9a"}, {"place_id": "0x390d1e11b952fe8d:0x8cfa9e8d325349c1", "name": "Auptimo Technologies", "category": "Software company", "street": "892B/8, Near Jahaz Mahal, Mehrauli", "city": "New Delhi, Delhi 110030", "phone": "08920839862", "website": "https://auptimo.com/", "rating": 5, "review_count": "", "latitude": 28.514703899999997, "longitude": 77.1790919, "maps_url": "https://www.google.com/maps/place/?q=place_id:0x390d1e11b952fe8d:0x8cfa9e8d325349c1"}, {"place_id": "0x390d1df079759d1f:0x8bfa70033f6c672a", "name": "NR Technoserve Pvt. Ltd.", "category": "Software company", "street": "133, Katwaria Sarai", "city": "Phase-2, Qutab Institutional Area", "phone": "07289096762", "website": "http://www.nrtechnoserve.co.in/", "rating": 4.4, "review_count": "", "latitude": 28.5413306, "longitude": 77.18495519999999, "maps_url": "https://www.google.com/maps/place/?q=place_id:0x390d1df079759d1f:0x8bfa70033f6c672a"}, {"place_id": "0x390d1d86a4f12173:0x3a6b42ea6f4b8260", "name": "Softvanz Technologies Private Limited", "category": "Software company", "street": "Somdutt Chamber 1", "city": "BT-22/9", "phone": "", "website": "https://softvanz.com/", "rating": 5, "review_count": "", "latitude": 28.567948899999998, "longitude": 77.1889269, "maps_url": "https://www.google.com/maps/place/?q=place_id:0x390d1d86a4f12173:0x3a6b42ea6f4b8260"}, {"place_id": "0x390ce1e1f6560893:0xa150ee9c12bc6fee", "name": "Jarwiz Technologies", "category": "Home automation company", "street": "D-184", "city": "Freedom Fighters Enclave, Bees Sutri Harijan Basti, Sainik Farm", "phone": "09996785555", "website": "http://jarwiz.co/", "rating": 5, "review_count": "", "latitude": 28.507895299999998, "longitude": 77.1957152, "maps_url": "https://www.google.com/maps/place/?q=place_id:0x390ce1e1f6560893:0xa150ee9c12bc6fee"}, {"place_id": "0x390ce1bef0c8c071:0xb0a64e46c6405fc6", "name": "Tech rise dynamics", "category": "Website designer", "street": "293, Lane-2, Westend Marg", "city": "near Saket Metro Station", "phone": "08750557052", "website": "https://www.techrisedynamics.com/", "rating": 5, "review_count": "", "latitude": 28.5177321, "longitude": 77.1986237, "maps_url": "https://www.google.com/maps/place/?q=place_id:0x390ce1bef0c8c071:0xb0a64e46c6405fc6"}, {"place_id": "0x390d1ef642a213bb:0x4d9f2181a6a37306", "name": "iPistis Technologies Pvt. Ltd.", "category": "Software company", "street": "House No. 40, Gali No. 1, 100 feet Road", "city": "Mehrauli-Gurgaon Rd", "phone": "09953300349", "website": "https://www.ipistis.com/", "rating": 4.6, "review_count": "", "latitude": 28.494671, "longitude": 77.146427, "maps_url": "https://www.google.com/maps/place/?q=place_id:0x390d1ef642a213bb:0x4d9f2181a6a37306"}, {"place_id": "0x390ce5fdcc79e755:0x309ce99251b84ef6", "name": "Optyminds IT Solutions - Top AI and IT company I Best Digital agency in Noida | Delhi NCR | India", "category": "Software company", "street": "1st Floor", "city": "B-70", "phone": "08929075975", "website": "https://optyminds.com/", "rating": 4.9, "review_count": "", "latitude": 28.584679599999998, "longitude": 77.3135042, "maps_url": "https://www.google.com/maps/place/?q=place_id:0x390ce5fdcc79e755:0x309ce99251b84ef6"}, {"place_id": "0x390d1fa3012fc911:0x744bd65a8adfff31", "name": "Navya IT Solutions", "category": "Computer service", "street": "", "city": "", "phone": "08810694288", "website": "", "rating": 5, "review_count": "", "latitude": 28.520186, "longitude": 77.179158, "maps_url": "https://www.google.com/maps/place/?q=place_id:0x390d1fa3012fc911:0x744bd65a8adfff31"}, {"place_id": "0x390d1ef0be7176f7:0xd7b6061ed89097f9", "name": "Infotyke", "category": "Software company", "street": "K426, Pillar 133, MG Road, Ghitorani", "city": "New Delhi, Delhi 110030", "phone": "09953585869", "website": "https://www.infotyke.com/", "rating": 4.9, "review_count": "", "latitude": 28.4909239, "longitude": 77.1411863, "maps_url": "https://www.google.com/maps/place/?q=place_id:0x390d1ef0be7176f7:0xd7b6061ed89097f9"}, {"place_id": "0x390ce1e9a7083cb7:0xe2a6861849a12032", "name": "Manish Gupta", "category": "Computer consultant", "street": "On", "city": "P1A 246 (D-14 Neb Valley", "phone": "09810207228", "website": "", "rating": 4.2, "review_count": "", "latitude": 28.5105653, "longitude": 77.2097086, "maps_url": "https://www.google.com/maps/place/?q=place_id:0x390ce1e9a7083cb7:0xe2a6861849a12032"}, {"place_id": "0x390d1e74625c1571:0xf8d544a13aa69544", "name": "Site Sign", "category": "Software company", "street": "303,145A/9, G587+FJG", "city": "Kishangarh Village, Sector-A, Vasant Kunj", "phone": "07065702907", "website": "http://sitesign.in/", "rating": 5, "review_count": "", "latitude": 28.516187499999997, "longitude": 77.1640625, "maps_url": "https://www.google.com/maps/place/?q=place_id:0x390d1e74625c1571:0xf8d544a13aa69544"}, {"place_id": "0x41ddcb5488aa4703:0x5290c64921de1a5b", "name": "Bloatware IT Software Development Company | Game Development | Software Company in delhi", "category": "Software company", "street": "SILVER OAK FARMS", "city": "660, Mehrauli-Gurgaon Rd", "phone": "", "website": "https://bloatwareitsolutions.com/", "rating": 5, "review_count": "", "latitude": 28.4911034, "longitude": 77.1432663, "maps_url": "https://www.google.com/maps/place/?q=place_id:0x41ddcb5488aa4703:0x5290c64921de1a5b"}, {"place_id": "0x390ce3c50d455555:0x625e4cf2def0b6ac", "name": "Infonative Solutions Limited", "category": "Computer support and services", "street": "107, 108", "city": "DLF South Court", "phone": "08448141818", "website": "https://infonative.net/", "rating": 4.7, "review_count": "", "latitude": 28.5274255, "longitude": 77.2209031, "maps_url": "https://www.google.com/maps/place/?q=place_id:0x390ce3c50d455555:0x625e4cf2def0b6ac"}, {"place_id": "0x390d1fb9b19cd7d7:0x2febfba590f33428", "name": "Corapana Technologies - Mobile App Development and Web Design Development Company Delhi", "category": "Software company", "street": "Ground floor", "city": "D-23", "phone": "08295242621", "website": "https://corapana.com/", "rating": 4.8, "review_count": "", "latitude": 28.496378999999997, "longitude": 77.17898, "maps_url": "https://www.google.com/maps/place/?q=place_id:0x390d1fb9b19cd7d7:0x2febfba590f33428"}, {"place_id": "0x2a72b8b69d7b6493:0x11251466d4d34cac", "name": "WebZonal IT Company", "category": "Website designer", "street": "Wz-258/2-3, D Block Rd", "city": "Khazan Basti, Nangal Raya, Janakpuri", "phone": "09811170903", "website": "http://webzonal.com/", "rating": 5, "review_count": "", "latitude": 28.6122102, "longitude": 77.11159549999999, "maps_url": "https://www.google.com/maps/place/?q=place_id:0x2a72b8b69d7b6493:0x11251466d4d34cac"}, {"place_id": "0xa3f7b500ba6bee9b:0xbf6f44de92b28de", "name": "Yuvocreations Private Limited ( \u092f\u0941\u0935\u094b\u0915\u094d\u0930\u093f\u090f\u0936\u0928\u094d\u0938 \u092a\u094d\u0930\u093e\u0907\u0935\u0947\u091f \u0932\u093f\u092e\u093f\u091f\u0947\u0921 ) - Website Designing & Digital Marketing Agency", "category": "Software company", "street": "Lane no.4", "city": "Khasra no. 258, Westend Marg", "phone": "07042123166", "website": "https://yuvocreations.com/", "rating": 5, "review_count": "", "latitude": 28.5169774, "longitude": 77.19925789999999, "maps_url": "https://www.google.com/maps/place/?q=place_id:0xa3f7b500ba6bee9b:0xbf6f44de92b28de"}, {"place_id": "0x390cfcb0fa00a53f:0x2c4569671b7ebbf7", "name": "Cloudespacio | Salesforce & Cloud Consulting Company in India", "category": "Software company", "street": "2nd floor", "city": "55", "phone": "09958584825", "website": "http://www.cloudespacio.com/", "rating": 4.3, "review_count": "", "latitude": 28.5177321, "longitude": 77.1986237, "maps_url": "https://www.google.com/maps/place/?q=place_id:0x390cfcb0fa00a53f:0x2c4569671b7ebbf7"}, {"place_id": "0x390ce10bc03ef455:0x83ef81c8ac017208", "name": "Exclserv Solutions LLP", "category": "Computer support and services", "street": "2nd Floor", "city": "F-210, Old M B Road", "phone": "07011095516", "website": "http://www.exclserv.in/", "rating": 5, "review_count": "", "latitude": 28.5238187, "longitude": 77.1942159, "maps_url": "https://www.google.com/maps/place/?q=place_id:0x390ce10bc03ef455:0x83ef81c8ac017208"}, {"place_id": "0x390ce1b674452737:0x522e9a99e2f3f649", "name": "SettleMint India Services Pvt Ltd", "category": "Corporate office", "street": "241, Westend Marg", "city": "Saidulajab, Mittal Garden, Sainik Farm", "phone": "", "website": "http://www.settlemint.com/", "rating": 5, "review_count": "", "latitude": 28.5158302, "longitude": 77.1959911, "maps_url": "https://www.google.com/maps/place/?q=place_id:0x390ce1b674452737:0x522e9a99e2f3f649"}, {"place_id": "0x390ce1e4317e5aab:0x5d1c04d23170494d", "name": "RoboSlog", "category": "Automation company", "street": "75/9, kishangarh", "city": "Aruna Asaf Ali Marg", "phone": "06306854780", "website": "https://roboslog.in/", "rating": 4.1, "review_count": "", "latitude": 28.5201557, "longitude": 77.163664, "maps_url": "https://www.google.com/maps/place/?q=place_id:0x390ce1e4317e5aab:0x5d1c04d23170494d"}, {"place_id": "0x390d1f61836cd921:0x776e9717979fe108", "name": "Saiway Tech", "category": "Web hosting company", "street": "702", "city": "Near, Maruti Chowk", "phone": "07982506339", "website": "http://saiwaytech.com/", "rating": 4.8, "review_count": "", "latitude": 28.4924629, "longitude": 77.1411129, "maps_url": "https://www.google.com/maps/place/?q=place_id:0x390d1f61836cd921:0x776e9717979fe108"}, {"place_id": "0x390d1ea45043ff73:0xd1f17b802c3c4871", "name": "Spire Infotech", "category": "Computer consultant", "street": "plot#37/747", "city": "100 Feet Rd", "phone": "", "website": "", "rating": 5, "review_count": "", "latitude": 28.5069751, "longitude": 77.1853591, "maps_url": "https://www.google.com/maps/place/?q=place_id:0x390d1ea45043ff73:0xd1f17b802c3c4871"}, {"place_id": "0x390ce251e2ca529d:0xa6287908b91b6452", "name": "Citrus Ink Studios", "category": "Animation Studio", "street": "Khasra No", "city": "The Dhan Mill Compound", "phone": "08800002583", "website": "http://www.citrusinkstudios.com/", "rating": 4.5, "review_count": "", "latitude": 28.5039007, "longitude": 77.1839385, "maps_url": "https://www.google.com/maps/place/?q=place_id:0x390ce251e2ca529d:0xa6287908b91b6452"}, {"place_id": "0x390d1f1958b2b979:0xb70bdc4d0319e82c", "name": "Market Shark IT", "category": "Website designer", "street": "H.NO 400", "city": "VILLAGE & POST OFFICE", "phone": "09319095077", "website": "http://www.marketsharkit.com/", "rating": 5, "review_count": "", "latitude": 28.4942474, "longitude": 77.1444345, "maps_url": "https://www.google.com/maps/place/?q=place_id:0x390d1f1958b2b979:0xb70bdc4d0319e82c"}, {"place_id": "0x390ce19b69a89b0f:0x5b5c42aea7ad4171", "name": "Dotflick", "category": "Consultant", "street": "62-A, Lane 2 Kehar Singh Estate", "city": "Westend Marg", "phone": "09871383058", "website": "http://www.dotflick.com/", "rating": 4.8, "review_count": "", "latitude": 28.517891199999998, "longitude": 77.19944869999999, "maps_url": "https://www.google.com/maps/place/?q=place_id:0x390ce19b69a89b0f:0x5b5c42aea7ad4171"}, {"place_id": "0x390d1ed3c6e9f579:0x322eccdb00f350d2", "name": "Techjockey", "category": "Software company", "street": "Ground floor, Habitat India", "city": "C-3", "phone": "01142213003", "website": "https://www.techjockey.com/", "rating": 4, "review_count": "", "latitude": 28.536615299999998, "longitude": 77.1902978, "maps_url": "https://www.google.com/maps/place/?q=place_id:0x390d1ed3c6e9f579:0x322eccdb00f350d2"}, {"place_id": "0x390ce76d462a5367:0xcef42880726bddb0", "name": "Egniol Group Of Companies - Delhi", "category": "Legal services", "street": "1st Floor, 274 Saidulajab Extn", "city": "ZO Space", "phone": "08585098585", "website": "https://egniol.co.in/", "rating": 3.7, "review_count": "", "latitude": 28.5176454, "longitude": 77.1985399, "maps_url": "https://www.google.com/maps/place/?q=place_id:0x390ce76d462a5367:0xcef42880726bddb0"}, {"place_id": "0x390ce17848fee8b3:0x2b94e887e2527706", "name": "FirstStartup.in - Pvt Ltd Company Registration in Delhi, Gurgaon & Noida", "category": "Legal services", "street": "3rd Floor", "city": "K - 318", "phone": "06395622281", "website": "https://www.firststartup.in/", "rating": 5, "review_count": "", "latitude": 28.5230774, "longitude": 77.1925818, "maps_url": "https://www.google.com/maps/place/?q=place_id:0x390ce17848fee8b3:0x2b94e887e2527706"}, {"place_id": "0x65afd373fe4cb277:0xb57ca7e757c2def3", "name": "Eimager -Employees Background Verification SaaS", "category": "Software company", "street": "GF 5", "city": "672, Mehrauli-Gurgaon Rd", "phone": "", "website": "https://eimager.com/", "rating": 5, "review_count": "", "latitude": 28.4911376, "longitude": 77.1398955, "maps_url": "https://www.google.com/maps/place/?q=place_id:0x65afd373fe4cb277:0xb57ca7e757c2def3"}, {"place_id": "0x390d1ef231229f05:0x920c211472263e46", "name": "Mike Hospitality LLP", "category": "Professional organizer", "street": "134, D Block Rd", "city": "Dr Ambedkar Colony, Chhatarpur", "phone": "", "website": "http://www.mikevents.in/", "rating": 4.1, "review_count": "", "latitude": 28.507863, "longitude": 77.1821858, "maps_url": "https://www.google.com/maps/place/?q=place_id:0x390d1ef231229f05:0x920c211472263e46"}, {"place_id": "0x390d1e468f7d999f:0x51b6337f3c5de23e", "name": "Smartechedu", "category": "Educational institution", "street": "135, IGNOU Rd", "city": "near HDFC bank", "phone": "", "website": "https://shareandaware.com/", "rating": 4.8, "review_count": "", "latitude": 28.506852799999997, "longitude": 77.19993579999999, "maps_url": "https://www.google.com/maps/place/?q=place_id:0x390d1e468f7d999f:0x51b6337f3c5de23e"}, {"place_id": "0x390ce1e507220a51:0xfe74ede7645b1fd1", "name": "Yash Infinite Solutions Private Limited", "category": "Software company", "street": "South of Saket", "city": "B-39, IGNOU Rd", "phone": "09810464978", "website": "", "rating": 4, "review_count": "", "latitude": 28.5157003, "longitude": 77.2033136, "maps_url": "https://www.google.com/maps/place/?q=place_id:0x390ce1e507220a51:0xfe74ede7645b1fd1"}, {"place_id": "0x390d1f01bf364b8b:0xd0893d99f5f7d112", "name": "App Developer", "category": "Software company", "street": "Dr Ambedkar Colony, Chhatarpur", "city": "New Delhi, Delhi 110074", "phone": "09582595097", "website": "", "rating": "", "review_count": "", "latitude": 28.502619799999998, "longitude": 77.1802617, "maps_url": "https://www.google.com/maps/place/?q=place_id:0x390d1f01bf364b8b:0xd0893d99f5f7d112"}, {"place_id": "0x390d041a8b7ac789:0x6e74dc88c6d4de01", "name": "Kamal Web Solution", "category": "Computer support and services", "street": "901/10A And 10B", "city": "Ward No 8, Aam Bagh, Mehrauli Village, Mehrauli", "phone": "", "website": "https://www.solutionwala.com/", "rating": 4.4, "review_count": "", "latitude": 28.5154784, "longitude": 77.1792809, "maps_url": "https://www.google.com/maps/place/?q=place_id:0x390d041a8b7ac789:0x6e74dc88c6d4de01"}, {"place_id": "0x390d1f9ad25c35f9:0xc385ac93bc1d1d83", "name": "BuildWick Realty", "category": "Real Estate Builders & Construction Company", "street": "1st floor, street no. - D-40/795", "city": "100 Feet Rd", "phone": "09818504035", "website": "http://www.buildwickrealty.com/", "rating": 3.8, "review_count": "", "latitude": 28.5075561, "longitude": 77.1853971, "maps_url": "https://www.google.com/maps/place/?q=place_id:0x390d1f9ad25c35f9:0xc385ac93bc1d1d83"}, {"place_id": "0x390d1e180f3ec413:0x4d6a4d99152bfde5", "name": "Prefab building", "category": "Real Estate Builders & Construction Company", "street": "Street No D-36, Building No 605", "city": "Chhatarpur", "phone": "09012024269", "website": "http://jdmuntyaal.com/", "rating": 5, "review_count": "", "latitude": 28.505871, "longitude": 77.18384809999999, "maps_url": "https://www.google.com/maps/place/?q=place_id:0x390d1e180f3ec413:0x4d6a4d99152bfde5"}, {"place_id": "0x390ce17b21078715:0xf0dbf88df61f8955", "name": "Startup Club India | Company Registration & Accounting firm in Delhi", "category": "Consultant", "street": "Second Floor, Building. 641, Lane No. 5", "city": "Westend Marg", "phone": "09468065626", "website": "https://www.startupclubindia.com/", "rating": 4.9, "review_count": "", "latitude": 28.5168462, "longitude": 77.1981155, "maps_url": "https://www.google.com/maps/place/?q=place_id:0x390ce17b21078715:0xf0dbf88df61f8955"}, {"place_id": "0x390d195c26bfa369:0x69bd8efd2e3a31fe", "name": "Radical Minds Technologies Pvt. Ltd.", "category": "BPO Company", "street": "368", "city": "Phase II, Udyog Vihar, Sector 20", "phone": "01244338366", "website": "http://www.radicalminds.in/", "rating": 4.2, "review_count": "", "latitude": 28.506335099999998, "longitude": 77.0877546, "maps_url": "https://www.google.com/maps/place/?q=place_id:0x390d195c26bfa369:0x69bd8efd2e3a31fe"}, {"place_id": "0x8335ecf853715cbf:0x10d99fb1fba2b0a8", "name": "Oceonic IT Solution Pvt Ltd", "category": "Software company", "street": "C14 C Block", "city": "JVTS Garden, Block A1, Chhatarpur", "phone": "08874000083", "website": "https://www.oceonic.co/", "rating": 3, "review_count": "", "latitude": 28.496824699999998, "longitude": 77.1828704, "maps_url": "https://www.google.com/maps/place/?q=place_id:0x8335ecf853715cbf:0x10d99fb1fba2b0a8"}, {"place_id": "0x390d1e748ef61961:0x754ceb660996cfdb", "name": "ACS System Solutions", "category": "Software company", "street": "Kishangarh, Kishangarh Village, Vasant Kunj", "city": "New Delhi, Delhi 110070", "phone": "01149858620", "website": "http://acssystem.in/", "rating": 3.4, "review_count": "", "latitude": 28.522178699999998, "longitude": 77.1692609, "maps_url": "https://www.google.com/maps/place/?q=place_id:0x390d1e748ef61961:0x754ceb660996cfdb"}, {"place_id": "0x390d1e2172e68979:0x67c062dc63e700e7", "name": "WebTwix", "category": "Internet marketing service", "street": "C40B, Street No. 10", "city": "DR Ambedkar Colony, Chhatarpur Enclave Phase 2, Chattarpur Enclave, Chhatarpur", "phone": "09815104017", "website": "https://webtwix.com/", "rating": 4.6, "review_count": "", "latitude": 28.503647299999997, "longitude": 77.19085, "maps_url": "https://www.google.com/maps/place/?q=place_id:0x390d1e2172e68979:0x67c062dc63e700e7"}, {"place_id": "0x390d1fe168142b7d:0x4d4a8e16dae8d42", "name": "Savvytree - Digital Marketing Company", "category": "Marketing agency", "street": "Savvytree 280, Mandi Rd", "city": "opposite Tata Sky", "phone": "08700354352", "website": "https://savvytree.in/", "rating": 4.7, "review_count": "", "latitude": 28.5026725, "longitude": 77.1722109, "maps_url": "https://www.google.com/maps/place/?q=place_id:0x390d1fe168142b7d:0x4d4a8e16dae8d42"}, {"place_id": "0x390ce1fb51000005:0x7a6e84a45ea4ca68", "name": "SAWERI URJA Pvt. Ltd.", "category": "Solar Energy Company", "street": "Saiyad ul Ajaib, Sainik Farm", "city": "New Delhi, Delhi 110030", "phone": "09549889644", "website": "http://www.saweriurja.com/", "rating": 4.9, "review_count": "", "latitude": 28.5192205, "longitude": 77.2009205, "maps_url": "https://www.google.com/maps/place/?q=place_id:0x390ce1fb51000005:0x7a6e84a45ea4ca68"}, {"place_id": "0x390ce26e078c1099:0xc1cee1eeba514c6c", "name": "Tatras Data", "category": "Database Management Company", "street": "Spacetime, Khasra 275", "city": "Buzz by", "phone": "09899892691", "website": "http://tatrasdata.com/", "rating": 4.6, "review_count": "", "latitude": 28.518542399999998, "longitude": 77.1993492, "maps_url": "https://www.google.com/maps/place/?q=place_id:0x390ce26e078c1099:0xc1cee1eeba514c6c"}, {"place_id": "0x390ce24b3fffffff:0x9f587d89ba46604", "name": "Microchip Infotech Systems Private Limited", "category": "Software company", "street": "A 102", "city": "Amar Colony A Block, Block A, Lajpat Nagar 4, Lajpat Nagar", "phone": "01141324610", "website": "http://www.microchipindia.com/", "rating": 3.4, "review_count": "", "latitude": 28.561472499999997, "longitude": 77.2418012, "maps_url": "https://www.google.com/maps/place/?q=place_id:0x390ce24b3fffffff:0x9f587d89ba46604"}, {"place_id": "0x390d1f087d9873d5:0xe49fc52283bf307f", "name": "The Neat Trick | Branding & Creative Graphic Design Agency in Delhi", "category": "Website designer", "street": "Agenc Collab, 60 Feet Rd, Dhan Mill Compound, Chhatarpur, New Delhi", "city": "Delhi, 110074", "phone": "09199105555", "website": "", "rating": 4.8, "review_count": "", "latitude": 28.5035022, "longitude": 77.1845328, "maps_url": "https://www.google.com/maps/place/?q=place_id:0x390d1f087d9873d5:0xe49fc52283bf307f"}, {"place_id": "0x390d1f0df92e353d:0x54e79553d987073c", "name": "Zombie Marketers | Performance Marketing | Digital Marketing | Website development company in Delhi | SEO company in Delhi", "category": "Marketing agency", "street": "89/9 Mamman House B Block 4th Floor", "city": "Kishangarh Village, Vasant Kunj", "phone": "08527273938", "website": "", "rating": 4.4, "review_count": "", "latitude": 28.5189249, "longitude": 77.1646754, "maps_url": "https://www.google.com/maps/place/?q=place_id:0x390d1f0df92e353d:0x54e79553d987073c"}, {"place_id": "0x390ce1db87a55681:0x3ed43e2a189abcb9", "name": "Wisdom Techseal Private Limited", "category": "Civil engineering company", "street": "Freedom Fighter Cultural Center", "city": "B-1 (GF, IGNOU Rd", "phone": "07011673568", "website": "http://wisdomtechseal.com/", "rating": 3.7, "review_count": "", "latitude": 28.5103755, "longitude": 77.2011216, "maps_url": "https://www.google.com/maps/place/?q=place_id:0x390ce1db87a55681:0x3ed43e2a189abcb9"}, {"place_id": "0x390ce19d6aaaaaab:0x322f66cd91e8f6cd", "name": "Vikas Gupta Web Developer", "category": "Website designer", "street": "A-454 Dakshinpuri", "city": "New Delhi, Delhi 110062", "phone": "09643269244", "website": "https://itcrafterhub.com/website-developer-delhi/", "rating": 5, "review_count": "", "latitude": 28.522017599999998, "longitude": 77.2366923, "maps_url": "https://www.google.com/maps/place/?q=place_id:0x390ce19d6aaaaaab:0x322f66cd91e8f6cd"}, {"place_id": "0x390ce21c24e85b2f:0xf80cd35fedbc3cea", "name": "Cyberspace Networking Systems (P) Ltd.", "category": "Website designer", "street": "NIL-36C, Shvalik, DDA Flats, Malviya Nagar", "city": "New Delhi, Delhi 110017", "phone": "01141892901", "website": "http://www.cyberspace.in/", "rating": 3.9, "review_count": "", "latitude": 28.534816, "longitude": 77.21120789999999, "maps_url": "https://www.google.com/maps/place/?q=place_id:0x390ce21c24e85b2f:0xf80cd35fedbc3cea"}, {"place_id": "0x390d1e0ec875f935:0xef80a5b902df460f", "name": "CHIPS IT SOLUTIONS", "category": "Computer repair service", "street": "Office No.2, Ground floor", "city": "41 A", "phone": "08920040917", "website": "http://chipsitsolutions.com/", "rating": 4.5, "review_count": "", "latitude": 28.522298499999998, "longitude": 77.1786144, "maps_url": "https://www.google.com/maps/place/?q=place_id:0x390d1e0ec875f935:0xef80a5b902df460f"}, {"place_id": "0x390ce23eeab015ab:0x92d6a7e8dbc46e1a", "name": "Odyssey Website Development Company", "category": "Website designer", "street": "B-59", "city": "Block B, Soami Nagar South, Soami Nagar", "phone": "09654486464", "website": "http://odysseyin.com/?utm_source=GMB&utm_medium=Organic&utm_term=Odyssey&utm_content=Listing&utm_campaign=GMB1", "rating": 3.6, "review_count": "", "latitude": 28.541823599999997, "longitude": 77.2262008, "maps_url": "https://www.google.com/maps/place/?q=place_id:0x390ce23eeab015ab:0x92d6a7e8dbc46e1a"}, {"place_id": "0x390d1f7c90574dbf:0xda9c0293e4c6ce9e", "name": "Mango computer & IT solutions Pvt. Ltd.", "category": "Computer repair service", "street": "near bank of india", "city": "Chhatarpur Village, Block A1, Chhatarpur", "phone": "09997342702", "website": "", "rating": "", "review_count": "", "latitude": 28.4986967, "longitude": 77.1843006, "maps_url": "https://www.google.com/maps/place/?q=place_id:0x390d1f7c90574dbf:0xda9c0293e4c6ce9e"}, {"place_id": "0x390cfd309eebed77:0xaceeaaa8aa371679", "name": "Allied Infoline Pvt. Ltd", "category": "Business to business service", "street": "Metro Pillar Number 51", "city": "Building 90, Near", "phone": "09999511882", "website": "https://www.alliedinfoline.com/", "rating": 4, "review_count": "", "latitude": 28.5015412, "longitude": 77.1673411, "maps_url": "https://www.google.com/maps/place/?q=place_id:0x390cfd309eebed77:0xaceeaaa8aa371679"}, {"place_id": "0x390d1e2312208b29:0x53a52f1f241471d2", "name": "Logic That Works", "category": "Corporate office", "street": "D-49", "city": "Phase 1, Block A, Chattarpur Enclave, Chhatarpur", "phone": "", "website": "", "rating": 4, "review_count": "", "latitude": 28.4977216, "longitude": 77.1892189, "maps_url": "https://www.google.com/maps/place/?q=place_id:0x390d1e2312208b29:0x53a52f1f241471d2"}, {"place_id": "0x390d1dcc98a0092f:0xab3a0fca3e26d087", "name": "Retake Studios - Video Production and Corporate Film Company in Delhi NCR", "category": "Video production service", "street": "UG-3", "city": "D112/A", "phone": "07053738831", "website": "", "rating": 5, "review_count": "", "latitude": 28.5071905, "longitude": 77.1967669, "maps_url": "https://www.google.com/maps/place/?q=place_id:0x390d1dcc98a0092f:0xab3a0fca3e26d087"}, {"place_id": "0x390d1f18f7b28d41:0x9accd4eda4ce1669", "name": "Cuberoot Technologies Pvt. Ltd", "category": "Corporate office", "street": "House, 2nd floor", "city": "Acme", "phone": "09069142350", "website": "http://www.cuberoot.co/", "rating": 5, "review_count": "", "latitude": 28.5263055, "longitude": 77.1904443, "maps_url": "https://www.google.com/maps/place/?q=place_id:0x390d1f18f7b28d41:0x9accd4eda4ce1669"}, {"place_id": "0x390d1f85c08bfc87:0xfde16f4ea2425bb9", "name": "MITTAL DEVELOPERS", "category": "Real Estate Builders & Construction Company", "street": "NO. D, G56M+4XR", "city": "708, 1st Floor STREET", "phone": "", "website": "", "rating": 5, "review_count": "", "latitude": 28.5066112, "longitude": 77.18551219999999, "maps_url": "https://www.google.com/maps/place/?q=place_id:0x390d1f85c08bfc87:0xfde16f4ea2425bb9"}, {"place_id": "0x390d1e11afc66825:0xd7b255d93c09dcb9", "name": "M S Company", "category": "Clothing store", "street": "READYMADE GALI", "city": "near BARAHMKUMARI MEDITATION CENTER", "phone": "09810323174", "website": "https://mscompanynetin.wordpress.com/", "rating": 4.5, "review_count": "", "latitude": 28.521039499999997, "longitude": 77.17818869999999, "maps_url": "https://www.google.com/maps/place/?q=place_id:0x390d1e11afc66825:0xd7b255d93c09dcb9"}, {"place_id": "0x390d1f9ee6b36a29:0x58bf62e0961d7c4a", "name": "Starts360 : Matterport Service, 360 Virtual Tour, 3D Virtual Tour Services In Delhi, India", "category": "Photography service", "street": "Plot No. 550 D-18, Third Floor", "city": "100 Feet Rd", "phone": "09899072838", "website": "https://www.starts360.com/", "rating": 5, "review_count": "", "latitude": 28.5076842, "longitude": 77.185002, "maps_url": "https://www.google.com/maps/place/?q=place_id:0x390d1f9ee6b36a29:0x58bf62e0961d7c4a"}, {"place_id": "0x390d1e11afc66825:0x5988941b4d18aeeb", "name": "CE Comfort Engineers Pvt Ltd", "category": "General contractor", "street": "F 574, 2nd Floor", "city": "Lado Sarai", "phone": "01141486000", "website": "http://www.comfortgroup.in/", "rating": 4.4, "review_count": "", "latitude": 28.526097999999998, "longitude": 77.190798, "maps_url": "https://www.google.com/maps/place/?q=place_id:0x390d1e11afc66825:0x5988941b4d18aeeb"}, {"place_id": "0x390d02337530318f:0xe8adda0df0312a6b", "name": "RocketTech", "category": "Website designer", "street": "3rd Floor", "city": "Plot 7, Lane Number 2", "phone": "09911113222", "website": "", "rating": 4, "review_count": "", "latitude": 28.519697299999997, "longitude": 77.2010404, "maps_url": "https://www.google.com/maps/place/?q=place_id:0x390d02337530318f:0xe8adda0df0312a6b"}, {"place_id": "0x390ce14c8ef0539d:0xcde78f68bd4b851b", "name": "KNAP ADVISORY Company Registration and Compliance Service", "category": "Consultant", "street": "Metro Station", "city": "LGF, Building No. 2, Lane", "phone": "09311972982", "website": "https://knapadvisory.com/", "rating": 5, "review_count": "", "latitude": 28.519864799999997, "longitude": 77.201016, "maps_url": "https://www.google.com/maps/place/?q=place_id:0x390ce14c8ef0539d:0xcde78f68bd4b851b"}, {"place_id": "0x390ce17b01e1a187:0x586fa6002747476d", "name": "OneTap AI Solutions", "category": "Software company", "street": "FIRST FLOOR", "city": "HOLI CHOWK", "phone": "07859935902", "website": "https://onetapaisolutions.com/", "rating": 5, "review_count": "", "latitude": 28.5011396, "longitude": 77.2343595, "maps_url": "https://www.google.com/maps/place/?q=place_id:0x390ce17b01e1a187:0x586fa6002747476d"}, {"place_id": "0x390cc1c430303251:0xa6f918f5af4a200d", "name": "Traffic Tail", "category": "Website designer", "street": "floor, B - 15, KH", "city": "1st", "phone": "08770247277", "website": "https://traffictail.com/", "rating": 4.8, "review_count": "", "latitude": 28.5174269, "longitude": 77.1983134, "maps_url": "https://www.google.com/maps/place/?q=place_id:0x390cc1c430303251:0xa6f918f5af4a200d"}, {"place_id": "0x390d1e236b821581:0x6f57adbc5a636f6e", "name": "SoftElixir InfoTech (P) Ltd", "category": "Software company", "street": "12 B, Block D, Chatter Pur Chattarpur", "city": "Phase 1, Chattarpur Enclave", "phone": "01165091333", "website": "http://softelixir.com/", "rating": 5, "review_count": "", "latitude": 28.5010507, "longitude": 77.18479529999999, "maps_url": "https://www.google.com/maps/place/?q=place_id:0x390d1e236b821581:0x6f57adbc5a636f6e"}, {"place_id": "0x390d1f57330a7a3d:0xb912e2474a28ad6b", "name": "Big Celebrity Management", "category": "Event management company", "street": "3rd floor", "city": "C-29A, Street No. 10", "phone": "", "website": "http://www.bigcelebritymanagement.com/", "rating": 4.8, "review_count": "", "latitude": 28.5031112, "longitude": 77.1897936, "maps_url": "https://www.google.com/maps/place/?q=place_id:0x390d1f57330a7a3d:0xb912e2474a28ad6b"}]}