{"timestamp": 1773730968.084518, "keyword": "IT company", "location": "delhi", "cell_idx": 323, "results": [{"place_id": "0x390ce3b48e27a563:0x4ec8ae3c524366b", "name": "iSOFT INDIA TECHNOLOGIES", "category": "Software company", "street": "E-168|169, Amar Colony, Lajpat Nagar", "city": "New Delhi, Delhi 110024", "phone": "09717978320", "website": "", "rating": 4.9, "review_count": "", "latitude": 28.5657368, "longitude": 77.23946029999999, "maps_url": "https://www.google.com/maps/place/?q=place_id:0x390ce3b48e27a563:0x4ec8ae3c524366b"}, {"place_id": "0x390ce3b473aba6b5:0xaa5dc9cc534fd17c", "name": "Jingle Infotech Limited", "category": "Software company", "street": "C-15,3rd Floor,", "city": "Amar Colony Main Market,Lajpat Nagar IV", "phone": "09810143160", "website": "http://www.jingleinfotech.com/", "rating": 4.2, "review_count": "", "latitude": 28.5622647, "longitude": 77.2447653, "maps_url": "https://www.google.com/maps/place/?q=place_id:0x390ce3b473aba6b5:0xaa5dc9cc534fd17c"}, {"place_id": "0x4ebf586dbe4d7c09:0x968455c83bf5226c", "name": "Anchor IT Solutions- App Development | Website Development | Digital Marketing", "category": "Software company", "street": "4", "city": "Vinoba Puri, Lajpat Nagar II, Lajpat Nagar", "phone": "07678658584", "website": "", "rating": 4.8, "review_count": "", "latitude": 28.566371399999998, "longitude": 77.2486924, "maps_url": "https://www.google.com/maps/place/?q=place_id:0x4ebf586dbe4d7c09:0x968455c83bf5226c"}, {"place_id": "0x390ce24b3fffffff:0x9f587d89ba46604", "name": "Microchip Infotech Systems Private Limited", "category": "Software company", "street": "A 102", "city": "Amar Colony A Block, Block A, Lajpat Nagar 4, Lajpat Nagar", "phone": "01141324610", "website": "http://www.microchipindia.com/", "rating": 3.4, "review_count": "", "latitude": 28.561472499999997, "longitude": 77.2418012, "maps_url": "https://www.google.com/maps/place/?q=place_id:0x390ce24b3fffffff:0x9f587d89ba46604"}, {"place_id": "0x390ce458d0000001:0xf2123bd299ec4501", "name": "IT Company India", "category": "Software company", "street": "D56", "city": "D Block, Sector 10", "phone": "09999244854", "website": "https://www.itcompanyindia.in/", "rating": 4.7, "review_count": "", "latitude": 28.589917699999997, "longitude": 77.3351153, "maps_url": "https://www.google.com/maps/place/?q=place_id:0x390ce458d0000001:0xf2123bd299ec4501"}, {"place_id": "0x390ce3bdee4bce8d:0xb9ec7d412d781d4", "name": "IT Pixel Infotech", "category": "Computer service", "street": "3rd Floor", "city": "Amar Colony Market", "phone": "09992696196", "website": "https://itpixels.com/", "rating": 4.9, "review_count": "", "latitude": 28.5627259, "longitude": 77.2447269, "maps_url": "https://www.google.com/maps/place/?q=place_id:0x390ce3bdee4bce8d:0xb9ec7d412d781d4"}, {"place_id": "0x390ce151a8ab9b8b:0x7674c42ea5047d37", "name": "Alliance Infotech Private Limited", "category": "Software company", "street": "Floor, A", "city": "First", "phone": "", "website": "https://alliance-infotech.com/", "rating": 3.6, "review_count": "", "latitude": 28.5740895, "longitude": 77.2382775, "maps_url": "https://www.google.com/maps/place/?q=place_id:0x390ce151a8ab9b8b:0x7674c42ea5047d37"}, {"place_id": "0x390ce3b72c58ec45:0x9211d7d3790a1ee3", "name": "New Millennium Business Solutions Pvt Ltd", "category": "Software company", "street": "A 118", "city": "Block A, Dayanand Colony, Lajpat Nagar", "phone": "09910362220", "website": "https://www.nmbsgroup.com/", "rating": 4.2, "review_count": "", "latitude": 28.5631907, "longitude": 77.249568, "maps_url": "https://www.google.com/maps/place/?q=place_id:0x390ce3b72c58ec45:0x9211d7d3790a1ee3"}, {"place_id": "0x390ce3b4092b79dd:0xf9b20ff483ea7c49", "name": "Infocus Software Systems", "category": "Web hosting company", "street": "A-89, GF, Back side Dayanand Colony", "city": "Lajpat Nagar IV", "phone": "09910075387", "website": "", "rating": 3.5, "review_count": "", "latitude": 28.5640395, "longitude": 77.23807819999999, "maps_url": "https://www.google.com/maps/place/?q=place_id:0x390ce3b4092b79dd:0xf9b20ff483ea7c49"}, {"place_id": "0x390ce3b6a042c2cb:0x6dffa6cb35b82aec", "name": "A1 IT Solution", "category": "Computer repair service", "street": "LGF", "city": "C-162", "phone": "", "website": "", "rating": 5, "review_count": "", "latitude": 28.5621443, "longitude": 77.246214, "maps_url": "https://www.google.com/maps/place/?q=place_id:0x390ce3b6a042c2cb:0x6dffa6cb35b82aec"}, {"place_id": "0x390ce330e369db57:0xd3bd22038bb02bbb", "name": "Pay10", "category": "Corporate office", "street": "Building Number 4", "city": "Block 4", "phone": "", "website": "https://www.pay10.com/", "rating": 4.6, "review_count": "", "latitude": 28.5646171, "longitude": 77.2413436, "maps_url": "https://www.google.com/maps/place/?q=place_id:0x390ce330e369db57:0xd3bd22038bb02bbb"}, {"place_id": "0x390ce3b6c5555555:0xac99460ebefd0b61", "name": "PDSK AGRO PRIVATE LIMITED", "category": "Corporate office", "street": "B-5 DAYANAND COLONY LAJPAT NAGAR 4", "city": "near DAYANAND COLONY", "phone": "07065606885", "website": "https://www.pdskagro.com/", "rating": 4.8, "review_count": "", "latitude": 28.563299999999998, "longitude": 77.2457159, "maps_url": "https://www.google.com/maps/place/?q=place_id:0x390ce3b6c5555555:0xac99460ebefd0b61"}, {"place_id": "0x390ce3d397e0bf7b:0x9810d5c260666b74", "name": "Laptop on Rent in Delhi-India Rentalz by Sunsoft-PAN India IT Rentals", "category": "Computer service", "street": "Level 2", "city": "C-30-Market", "phone": "07087084449", "website": "https://www.indiarentalz.com/", "rating": 4.8, "review_count": "", "latitude": 28.5628265, "longitude": 77.2443637, "maps_url": "https://www.google.com/maps/place/?q=place_id:0x390ce3d397e0bf7b:0x9810d5c260666b74"}, {"place_id": "0x390ce3b48e27a563:0xee8ea050db478512", "name": "Techno World & Company", "category": "Software company", "street": "SECOND FLOOR", "city": "E-1, AMAR COLONY South", "phone": "", "website": "http://www.technoworldtele.com/", "rating": 5, "review_count": "", "latitude": 28.5617318, "longitude": 77.242679, "maps_url": "https://www.google.com/maps/place/?q=place_id:0x390ce3b48e27a563:0xee8ea050db478512"}, {"place_id": "0x390ce3924e8bf2b9:0x1cb73b799b485bd7", "name": "ShowTag Solutions Pvt Ltd", "category": "Event management company", "street": "3rd Floor Landmark", "city": "Anytime Fitness Gym", "phone": "", "website": "", "rating": 5, "review_count": "", "latitude": 28.564534199999997, "longitude": 77.24065279999999, "maps_url": "https://www.google.com/maps/place/?q=place_id:0x390ce3924e8bf2b9:0x1cb73b799b485bd7"}, {"place_id": "0x390ce3ad5f45a56b:0x406ab7e0507e665f", "name": "C.C.T. COMPUTER TRAINING CENTER", "category": "Computer consultant", "street": "GUPTA MARKET", "city": "7/39", "phone": "09871323838", "website": "", "rating": 4.6, "review_count": "", "latitude": 28.5634777, "longitude": 77.24111909999999, "maps_url": "https://www.google.com/maps/place/?q=place_id:0x390ce3ad5f45a56b:0x406ab7e0507e665f"}, {"place_id": "0x390ce24c5eaaaaab:0x850a007ef02c812f", "name": "Maxtel India", "category": "Telecommunications equipment supplier", "street": "11", "city": "Vikram Vihar, Lajpat Nagar IV, Extension", "phone": "01146553737", "website": "http://www.maxtelindia.com/", "rating": 4.3, "review_count": "", "latitude": 28.563527099999998, "longitude": 77.2397155, "maps_url": "https://www.google.com/maps/place/?q=place_id:0x390ce24c5eaaaaab:0x850a007ef02c812f"}, {"place_id": "0x399ce3b8f2ce89c7:0xa0d2476920349eb9", "name": "Dakshit Dolphin Designers Pvt Ltd (D.dolphin) MNC Company", "category": "Fashion designer", "street": "Ward No.13 House No.186", "city": "Gurguj Lajpatnagar", "phone": "07275394960", "website": "http://ddolphins.com/", "rating": 4.8, "review_count": "", "latitude": 28.5653138, "longitude": 77.2417904, "maps_url": "https://www.google.com/maps/place/?q=place_id:0x399ce3b8f2ce89c7:0xa0d2476920349eb9"}, {"place_id": "0x390ce3564e62a411:0x230dbf7c823cea62", "name": "Network Orbiter Private Limited", "category": "Corporate office", "street": "2/15, Ground Floor", "city": "Old Double Storey, Nirmal Colony, Block 2, Lajpat Nagar IV, Lajpat Nagar", "phone": "01141057021", "website": "https://networkorbiter.com/", "rating": 5, "review_count": "", "latitude": 28.563997399999998, "longitude": 77.24212519999999, "maps_url": "https://www.google.com/maps/place/?q=place_id:0x390ce3564e62a411:0x230dbf7c823cea62"}, {"place_id": "0x390ce32cb0560f23:0xb7d48be650235726", "name": "D S Consultants", "category": "Industrial real estate agency", "street": "Block O, Lajpat Nagar 4, Lajpat Nagar", "city": "New Delhi, Delhi 110024", "phone": "", "website": "https://www.dsconsultants.co.in/", "rating": 5, "review_count": "", "latitude": 28.5649034, "longitude": 77.2403317, "maps_url": "https://www.google.com/maps/place/?q=place_id:0x390ce32cb0560f23:0xb7d48be650235726"}, {"place_id": "0x390ce32cb0560f23:0xb7d48be650235726", "name": "D S Consultants", "category": "Industrial real estate agency", "street": "Block O, Lajpat Nagar 4, Lajpat Nagar", "city": "New Delhi, Delhi 110024", "phone": "", "website": "https://www.dsconsultants.co.in/", "rating": 5, "review_count": "", "latitude": 28.5649034, "longitude": 77.2403317, "maps_url": "https://www.google.com/maps/place/?q=place_id:0x390ce32cb0560f23:0xb7d48be650235726"}, {"place_id": "0x390ce3e0f4daf19d:0x8701a6bab2673b50", "name": "Studio ArchIN", "category": "Architecture firm", "street": "", "city": "", "phone": "09935755465", "website": "", "rating": 5, "review_count": "", "latitude": 21.0680074, "longitude": 82.7525294, "maps_url": "https://www.google.com/maps/place/?q=place_id:0x390ce3e0f4daf19d:0x8701a6bab2673b50"}, {"place_id": "0x8f0bbc84322c16d7:0x5e6077450dfdf4bc", "name": "Garun Digital Marketing Agency", "category": "Marketing agency", "street": "", "city": "", "phone": "09560956581", "website": "https://garundigital.com/", "rating": 5, "review_count": "", "latitude": 21.0680074, "longitude": 82.7525294, "maps_url": "https://www.google.com/maps/place/?q=place_id:0x8f0bbc84322c16d7:0x5e6077450dfdf4bc"}, {"place_id": "0x390ce458d0000001:0xf2123bd299ec4501", "name": "IT Company India", "category": "Software company", "street": "D56", "city": "D Block, Sector 10", "phone": "09999244854", "website": "https://www.itcompanyindia.in/", "rating": 4.7, "review_count": "", "latitude": 28.589917699999997, "longitude": 77.3351153, "maps_url": "https://www.google.com/maps/place/?q=place_id:0x390ce458d0000001:0xf2123bd299ec4501"}, {"place_id": "0x390ce3924e8bf2b9:0x1cb73b799b485bd7", "name": "ShowTag Solutions Pvt Ltd", "category": "Event management company", "street": "3rd Floor Landmark", "city": "Anytime Fitness Gym", "phone": "", "website": "", "rating": 5, "review_count": "", "latitude": 28.564534199999997, "longitude": 77.24065279999999, "maps_url": "https://www.google.com/maps/place/?q=place_id:0x390ce3924e8bf2b9:0x1cb73b799b485bd7"}, {"place_id": "0x390ce24c5eaaaaab:0x850a007ef02c812f", "name": "Maxtel India", "category": "Telecommunications equipment supplier", "street": "11", "city": "Vikram Vihar, Lajpat Nagar IV, Extension", "phone": "01146553737", "website": "http://www.maxtelindia.com/", "rating": 4.3, "review_count": "", "latitude": 28.563527099999998, "longitude": 77.2397155, "maps_url": "https://www.google.com/maps/place/?q=place_id:0x390ce24c5eaaaaab:0x850a007ef02c812f"}, {"place_id": "0x205f09879c1086bb:0x211fe097e7521373", "name": "House of Social Media", "category": "Media company", "street": "", "city": "", "phone": "09131057910", "website": "https://houseofsocialmedia.in/", "rating": "", "review_count": "", "latitude": 8.8875999, "longitude": 97.9664772, "maps_url": "https://www.google.com/maps/place/?q=place_id:0x205f09879c1086bb:0x211fe097e7521373"}, {"place_id": "0x390ce3b0524def39:0xfcf78d5c7bd8472a", "name": "Hiretek Solutions | Recruitment Consultancy firm", "category": "Human resource consulting", "street": "H-7, Lower Ground Floor", "city": "Block H, Lajpat Nagar III, Lajpat Nagar", "phone": "09810584055", "website": "http://www.hiretek.in/", "rating": 5, "review_count": "", "latitude": 28.565807099999997, "longitude": 77.23854539999999, "maps_url": "https://www.google.com/maps/place/?q=place_id:0x390ce3b0524def39:0xfcf78d5c7bd8472a"}, {"place_id": "0x390ce330e369db57:0xd3bd22038bb02bbb", "name": "Pay10", "category": "Corporate office", "street": "Building Number 4", "city": "Block 4", "phone": "", "website": "https://www.pay10.com/", "rating": 4.6, "review_count": "", "latitude": 28.5646171, "longitude": 77.2413436, "maps_url": "https://www.google.com/maps/place/?q=place_id:0x390ce330e369db57:0xd3bd22038bb02bbb"}, {"place_id": "0x390ce3b476919f6d:0x738dd9d8e390d1f2", "name": "USA Telecom", "category": "Cell phone store", "street": "c6, market", "city": "Main Market, Block C, Amar Colony, Lajpat Nagar", "phone": "09811253111", "website": "", "rating": 4.2, "review_count": "", "latitude": 28.562435599999997, "longitude": 77.2447553, "maps_url": "https://www.google.com/maps/place/?q=place_id:0x390ce3b476919f6d:0x738dd9d8e390d1f2"}, {"place_id": "0x390ce3ad5f45a56b:0x406ab7e0507e665f", "name": "C.C.T. COMPUTER TRAINING CENTER", "category": "Computer consultant", "street": "GUPTA MARKET", "city": "7/39", "phone": "09871323838", "website": "", "rating": 4.6, "review_count": "", "latitude": 28.5634777, "longitude": 77.24111909999999, "maps_url": "https://www.google.com/maps/place/?q=place_id:0x390ce3ad5f45a56b:0x406ab7e0507e665f"}, {"place_id": "0x60fc3e386ada2573:0xfebb363c6528c5d6", "name": "Sharma Solicitors", "category": "Legal services", "street": "6 LGF", "city": "Vikram Vihar, Lajpat Nagar IV, Lajpat Nagar", "phone": "09810230498", "website": "https://www.sharmasolicitors.in/", "rating": 5, "review_count": "", "latitude": 28.5632284, "longitude": 77.2400347, "maps_url": "https://www.google.com/maps/place/?q=place_id:0x60fc3e386ada2573:0xfebb363c6528c5d6"}, {"place_id": "0x390ce3315b9d7325:0xd2751cef241948b2", "name": "The Chambers of SSJ", "category": "Law firm", "street": "2nd Floor", "city": "Amar Colony", "phone": "", "website": "https://shashankjha.in/", "rating": 5, "review_count": "", "latitude": 28.561380699999997, "longitude": 77.2407479, "maps_url": "https://www.google.com/maps/place/?q=place_id:0x390ce3315b9d7325:0xd2751cef241948b2"}, {"place_id": "0x390ce3f61dca9607:0xdfbcbfb18d32d1e8", "name": "SR Advisors (Advocates & Consultants)", "category": "Lawyer", "street": "7, National Park", "city": "Lajpat Nagar IV, Lajpat Nagar", "phone": "", "website": "", "rating": 5, "review_count": "", "latitude": 28.563297199999997, "longitude": 77.238005, "maps_url": "https://www.google.com/maps/place/?q=place_id:0x390ce3f61dca9607:0xdfbcbfb18d32d1e8"}, {"place_id": "0x390ce337696a5f27:0x4dded397d178ea9b", "name": "\u267e\ufe0fINFINITY LAW AND LEGAL CONSULTANTS", "category": "Law firm", "street": "7/36, 1st floor", "city": "opposite MADURAI STREETS", "phone": "09205006328", "website": "https://sites.google.com/view/infinitylaw", "rating": 4.8, "review_count": "", "latitude": 28.563822199999997, "longitude": 77.2409995, "maps_url": "https://www.google.com/maps/place/?q=place_id:0x390ce337696a5f27:0x4dded397d178ea9b"}, {"place_id": "0x390ce2809d44690f:0x90a55367cde1b13e", "name": "Jovial 21st", "category": "Software company", "street": "C 57", "city": "Block C, Dayanand Colony, Lajpat Nagar", "phone": "01141323223", "website": "http://www.jovial21st.com/", "rating": "", "review_count": "", "latitude": 28.561329299999997, "longitude": 77.2471047, "maps_url": "https://www.google.com/maps/place/?q=place_id:0x390ce2809d44690f:0x90a55367cde1b13e"}, {"place_id": "0x390ce3b15864602b:0x7e06127e64fd8684", "name": "IT Brains Technologies Pvt Ltd", "category": "Software company", "street": "Block I, Lajpat Nagar 4, Lajpat Nagar", "city": "New Delhi, Delhi 110024", "phone": "", "website": "", "rating": "", "review_count": "", "latitude": 28.563895, "longitude": 77.24636389999999, "maps_url": "https://www.google.com/maps/place/?q=place_id:0x390ce3b15864602b:0x7e06127e64fd8684"}, {"place_id": "0x390ce3b48e27a563:0xee8ea050db478512", "name": "Techno World & Company", "category": "Software company", "street": "SECOND FLOOR", "city": "E-1, AMAR COLONY South", "phone": "", "website": "http://www.technoworldtele.com/", "rating": 5, "review_count": "", "latitude": 28.5617318, "longitude": 77.242679, "maps_url": "https://www.google.com/maps/place/?q=place_id:0x390ce3b48e27a563:0xee8ea050db478512"}, {"place_id": "0x390ce26dc5a22e0f:0x749de5cb8ef52135", "name": "Infia Global IT Services Pvt. Ltd.", "category": "Website designer", "street": "", "city": "", "phone": "01149428425", "website": "https://infiaglobal.com/", "rating": 5, "review_count": "", "latitude": 45.050399899999995, "longitude": -171.43345, "maps_url": "https://www.google.com/maps/place/?q=place_id:0x390ce26dc5a22e0f:0x749de5cb8ef52135"}, {"place_id": "0x390ce3c0eede804f:0x49b2ea8ddff07cf0", "name": "Thought Engine", "category": "Marketing agency", "street": "First Floor", "city": "Amar Colony Market", "phone": "09910313499", "website": "https://www.thoughtengine.com/", "rating": 4.8, "review_count": "", "latitude": 28.5628073, "longitude": 77.2446154, "maps_url": "https://www.google.com/maps/place/?q=place_id:0x390ce3c0eede804f:0x49b2ea8ddff07cf0"}, {"place_id": "0x390ce3b69a3b7b2d:0x1bf81c46fdd40e5b", "name": "Distant India Journeys", "category": "Tour operator", "street": "Third Floor", "city": "B-72", "phone": "09810218424", "website": "http://www.distantindiajourneys.com/", "rating": 4.8, "review_count": "", "latitude": 28.561811199999998, "longitude": 77.2467935, "maps_url": "https://www.google.com/maps/place/?q=place_id:0x390ce3b69a3b7b2d:0x1bf81c46fdd40e5b"}, {"place_id": "0x390fed89024a2dff:0x9ccb0270d2445632", "name": "SoFly Innovations Pvt. Ltd. Drone Services", "category": "Electronics Company", "street": "Second Floor", "city": "D-6", "phone": "09316666999", "website": "https://www.sofly.in/", "rating": 5, "review_count": "", "latitude": 28.561554899999997, "longitude": 77.2454066, "maps_url": "https://www.google.com/maps/place/?q=place_id:0x390fed89024a2dff:0x9ccb0270d2445632"}, {"place_id": "0x390ce300342ba98d:0xcce6623c79589b6f", "name": "Rezoni", "category": "Wholesaler", "street": "H67R+X48", "city": "Block O, Lajpat Nagar 4, Lajpat Nagar", "phone": "", "website": "", "rating": 1.1, "review_count": "", "latitude": 28.5649034, "longitude": 77.2403317, "maps_url": "https://www.google.com/maps/place/?q=place_id:0x390ce300342ba98d:0xcce6623c79589b6f"}, {"place_id": "0x390ce3ca7aece817:0x704349223ac159c9", "name": "Krishna Kurtis wholesale kurtis manufacturer in delhi india", "category": "Manufacturer", "street": "shop no-4", "city": "j-41", "phone": "09999622394", "website": "https://krishnakurtis.in/wholesale", "rating": 4.7, "review_count": "", "latitude": 28.564472499999997, "longitude": 77.2466505, "maps_url": "https://www.google.com/maps/place/?q=place_id:0x390ce3ca7aece817:0x704349223ac159c9"}, {"place_id": "0x390ce3842e1c1775:0xc0a2ceb5c0cf75d1", "name": "Raas the creation", "category": "Clothing supplier", "street": "G9", "city": "Old Double Storey, Block G, Amar Colony, Lajpat Nagar", "phone": "09711620050", "website": "https://raascreation.com/", "rating": 4.2, "review_count": "", "latitude": 28.5640474, "longitude": 77.2454293, "maps_url": "https://www.google.com/maps/place/?q=place_id:0x390ce3842e1c1775:0xc0a2ceb5c0cf75d1"}, {"place_id": "0x390ce3c0eede804f:0x49b2ea8ddff07cf0", "name": "Thought Engine", "category": "Marketing agency", "street": "First Floor", "city": "Amar Colony Market", "phone": "09910313499", "website": "https://www.thoughtengine.com/", "rating": 4.8, "review_count": "", "latitude": 28.5628073, "longitude": 77.2446154, "maps_url": "https://www.google.com/maps/place/?q=place_id:0x390ce3c0eede804f:0x49b2ea8ddff07cf0"}, {"place_id": "0x390ce3d9ee221db7:0xd65e8e2b72b3e98a", "name": "UrbanShift Packers & Movers Lajpat Nagar Delhi - Best Movers and Packers Lajpat Nagar, New Delhi", "category": "Moving and storage service", "street": "1st floor", "city": "Plot No.1", "phone": "18005723936", "website": "http://www.urbanshift.in/packers-and-movers-delhi", "rating": 4.8, "review_count": "", "latitude": 28.5645451, "longitude": 77.2399689, "maps_url": "https://www.google.com/maps/place/?q=place_id:0x390ce3d9ee221db7:0xd65e8e2b72b3e98a"}, {"place_id": "0x390ce32c7ae49f0f:0x4636d7318fca71ac", "name": "The White Teak Company - Premium Lighting Store", "category": "Lighting store", "street": "The White Teak Company", "city": "13, Ring Rd", "phone": "18001212931", "website": "https://www.whiteteak.com/", "rating": 4.3, "review_count": "", "latitude": 28.564743699999998, "longitude": 77.243539, "maps_url": "https://www.google.com/maps/place/?q=place_id:0x390ce32c7ae49f0f:0x4636d7318fca71ac"}, {"place_id": "0x390ce3b0b52aa981:0x9bd188cd1edadc89", "name": "Dtc Express Packers And Movers", "category": "Storage facility", "street": "Plot No-176", "city": "Grahi, Lajpat Nagar IV, Lajpat Nagar", "phone": "07303221078", "website": "https://dtcexpress.in/", "rating": 5, "review_count": "", "latitude": 28.563819799999997, "longitude": 77.2397493, "maps_url": "https://www.google.com/maps/place/?q=place_id:0x390ce3b0b52aa981:0x9bd188cd1edadc89"}, {"place_id": "0x390ce317862d5bd9:0x3521b5de1774647", "name": "Norbu Graphics", "category": "Digital printing service", "street": "1/6", "city": "Old Double Storey, Vikram Vihar, Lajpat Nagar IV, Lajpat Nagar", "phone": "", "website": "", "rating": 5, "review_count": "", "latitude": 28.563937499999998, "longitude": 77.2400469, "maps_url": "https://www.google.com/maps/place/?q=place_id:0x390ce317862d5bd9:0x3521b5de1774647"}, {"place_id": "0x390ce33e0b49d481:0xc309b23f1f587465", "name": "SC AURA KURTIS", "category": "Clothing wholesaler", "street": "4/25 B", "city": "Nirmal Puri, Nirmal Colony, Block 4, Amar Colony, Lajpat Nagar", "phone": "09873977078", "website": "https://www.instagram.com/scaurakurtiz/?hl=en", "rating": 4.4, "review_count": "", "latitude": 28.5638586, "longitude": 77.2415267, "maps_url": "https://www.google.com/maps/place/?q=place_id:0x390ce33e0b49d481:0xc309b23f1f587465"}, {"place_id": "0x390ce334682d843d:0xdd9021b3baf4b53d", "name": "WS Office", "category": "Building society", "street": "Amar Colony B Block, Block B, Amar Colony, Lajpat Nagar", "city": "New Delhi, Delhi 110024", "phone": "", "website": "", "rating": 4.5, "review_count": "", "latitude": 28.562994999999997, "longitude": 77.2434773, "maps_url": "https://www.google.com/maps/place/?q=place_id:0x390ce334682d843d:0xdd9021b3baf4b53d"}, {"place_id": "0x390ce34d41b5bba7:0x11fd56d8b61ef1be", "name": "Medipflege Pvt. Ltd. | Resmed Authorized Service Center in Delhi", "category": "Medical equipment supplier", "street": "Basement", "city": "1/5", "phone": "08826493089", "website": "https://www.medipflege.in/", "rating": 4.9, "review_count": "", "latitude": 28.5640197, "longitude": 77.24000389999999, "maps_url": "https://www.google.com/maps/place/?q=place_id:0x390ce34d41b5bba7:0x11fd56d8b61ef1be"}, {"place_id": "0x390ce33bd1181ba1:0xe6d75b6588e4c1ab", "name": "Inturo decor", "category": "Interior designer", "street": "Building no 14", "city": "Lajpat Nagar 4, Lajpat Nagar", "phone": "09990450415", "website": "http://inturo.in/", "rating": 4.8, "review_count": "", "latitude": 28.562548, "longitude": 77.2378823, "maps_url": "https://www.google.com/maps/place/?q=place_id:0x390ce33bd1181ba1:0xe6d75b6588e4c1ab"}, {"place_id": "0x390ce3b3142fb183:0xb2893108648e4bc3", "name": "BHATIA TRADERS", "category": "Stationery store", "street": "Gupta Market", "city": "2/6, Ring Rd", "phone": "09582442446", "website": "", "rating": 4.2, "review_count": "", "latitude": 28.5643966, "longitude": 77.242277, "maps_url": "https://www.google.com/maps/place/?q=place_id:0x390ce3b3142fb183:0xb2893108648e4bc3"}, {"place_id": "0x390ce3966f8fed73:0xdb5fe8453e14a960", "name": "The Work In Progress", "category": "Advertising agency", "street": "B-142/143, Block B Amar Colony", "city": "Lajpat Nagar IV", "phone": "", "website": "http://www.thewip.in/", "rating": 5, "review_count": "", "latitude": 28.5621497, "longitude": 77.2423081, "maps_url": "https://www.google.com/maps/place/?q=place_id:0x390ce3966f8fed73:0xdb5fe8453e14a960"}, {"place_id": "0x68ebf07535e6d009:0x1aadfa96cb99c1ec", "name": "ARA Vikram Shukla", "category": "Law firm", "street": "L-11, Basement", "city": "Vikram Vihar, Lajpat Nagar III, Lajpat Nagar", "phone": "", "website": "https://www.advocatevikram.in/", "rating": 4.8, "review_count": "", "latitude": 28.5646369, "longitude": 77.2395964, "maps_url": "https://www.google.com/maps/place/?q=place_id:0x68ebf07535e6d009:0x1aadfa96cb99c1ec"}, {"place_id": "0x390ce3607f11bbaf:0xc6789ff191b0470d", "name": "Selfie kurtiz manufacturer", "category": "Wholesale market", "street": "Block D D", "city": "63", "phone": "08750222220", "website": "http://selfiekurtiz.in/", "rating": 4.1, "review_count": "", "latitude": 28.5645685, "longitude": 77.24449229999999, "maps_url": "https://www.google.com/maps/place/?q=place_id:0x390ce3607f11bbaf:0xc6789ff191b0470d"}, {"place_id": "0x390ce3a518b55ff1:0x80295dc1f9af393", "name": "TVS CREDIT SERVICES LIMITED", "category": "Car finance and loan company", "street": "Ground floor", "city": "BP-24, Ring Rd", "phone": "04466123456", "website": "https://www.tvscredit.com/", "rating": 3.4, "review_count": "", "latitude": 28.564902, "longitude": 77.246214, "maps_url": "https://www.google.com/maps/place/?q=place_id:0x390ce3a518b55ff1:0x80295dc1f9af393"}, {"place_id": "0x45618c638d5bfa6b:0x9de15c14a605a64", "name": "Loci Interiors", "category": "Interior designer", "street": "", "city": "", "phone": "09810038454", "website": "http://www.loci-interiors.com/", "rating": 4.8, "review_count": "", "latitude": 28.5870636, "longitude": 77.1721882, "maps_url": "https://www.google.com/maps/place/?q=place_id:0x45618c638d5bfa6b:0x9de15c14a605a64"}, {"place_id": "0x390ce344498aaaaf:0x7739f67797fa5d7d", "name": "Abhi Traders", "category": "Electronics store", "street": "A-18", "city": "Old Double Storey, Block A, Amar Colony, Lajpat Nagar", "phone": "08988888216", "website": "", "rating": 5, "review_count": "", "latitude": 28.5631536, "longitude": 77.2413657, "maps_url": "https://www.google.com/maps/place/?q=place_id:0x390ce344498aaaaf:0x7739f67797fa5d7d"}, {"place_id": "0x390ce3f6dce3d497:0x3f60ab65ff686627", "name": "Clora Creation", "category": "Manufacturer", "street": "C-170, Basement", "city": "C- Block, Dayanand Colony, Lajpat Nagar", "phone": "01141652241", "website": "https://www.cloracreation.com/", "rating": 3.4, "review_count": "", "latitude": 28.5621045, "longitude": 77.24644909999999, "maps_url": "https://www.google.com/maps/place/?q=place_id:0x390ce3f6dce3d497:0x3f60ab65ff686627"}, {"place_id": "0x390ce37d068dac7f:0xd31067fa74b5bfc6", "name": "Insurance All companies (Policy Bazaar Agency)", "category": "Auto insurance agency", "street": "2/56, Gupta Market", "city": "Lajpat Nagar 4", "phone": "09899323966", "website": "http://www.linkedin.com/in/insurance-all-companies-policy-bazaar-agency-39ab7332a", "rating": 4.9, "review_count": "", "latitude": 28.5645533, "longitude": 77.2427944, "maps_url": "https://www.google.com/maps/place/?q=place_id:0x390ce37d068dac7f:0xd31067fa74b5bfc6"}, {"place_id": "0x390ce3cde78b1e89:0x86853d1a6ac9e5a", "name": "DMY ASSOCIATES LLP", "category": "Law firm", "street": "1st Floor", "city": "62, Ring Rd", "phone": "09654870506", "website": "http://www.dmyassociates.com/", "rating": 5, "review_count": "", "latitude": 28.565329499999997, "longitude": 77.241863, "maps_url": "https://www.google.com/maps/place/?q=place_id:0x390ce3cde78b1e89:0x86853d1a6ac9e5a"}, {"place_id": "0x390ce3b3beaaaaab:0x2776620742e8d96c", "name": "Nayyar & Nayyar", "category": "Chartered accountant", "street": "A-44, Basement, Amar Colony", "city": "Lajpat Nagar IV", "phone": "01141026688", "website": "", "rating": 4.7, "review_count": "", "latitude": 28.5620311, "longitude": 77.2414194, "maps_url": "https://www.google.com/maps/place/?q=place_id:0x390ce3b3beaaaaab:0x2776620742e8d96c"}, {"place_id": "0x390ce327087dc419:0x78a5f6477b0d2a5a", "name": "Nawazish Kurtis", "category": "Clothing wholesaler", "street": "B-35", "city": "Old Double Storey, Block B, Lajpat Nagar 4, Lajpat Nagar", "phone": "09899426959", "website": "https://nawazishkurtis.com/", "rating": 4.7, "review_count": "", "latitude": 28.5640562, "longitude": 77.2439991, "maps_url": "https://www.google.com/maps/place/?q=place_id:0x390ce327087dc419:0x78a5f6477b0d2a5a"}, {"place_id": "0x390ce3b398d22975:0xf8a67657c3bfe46c", "name": "Kalra Electricals", "category": "Electrical products wholesaler", "street": "Block B, Dayanand Colony, Lajpat Nagar", "city": "New Delhi, Delhi 110024", "phone": "08851524422", "website": "", "rating": 4.2, "review_count": "", "latitude": 28.5635953, "longitude": 77.24715929999999, "maps_url": "https://www.google.com/maps/place/?q=place_id:0x390ce3b398d22975:0xf8a67657c3bfe46c"}, {"place_id": "0x390ce3b3beaaaaab:0xc0a731c7ade045", "name": "Venus Electronics", "category": "Electronics store", "street": "J-15", "city": "Dayananda Colony Rd", "phone": "09811118446", "website": "", "rating": 4.1, "review_count": "", "latitude": 28.564727299999998, "longitude": 77.2470821, "maps_url": "https://www.google.com/maps/place/?q=place_id:0x390ce3b3beaaaaab:0xc0a731c7ade045"}, {"place_id": "0x390ce300476e44ed:0xea478f617cc68e4a", "name": "Lemon Tree", "category": "Clothing wholesaler", "street": "F-43", "city": "Block F, old double, Lajpat Nagar", "phone": "08882151374", "website": "http://lemontreeclothing.in/", "rating": 5, "review_count": "", "latitude": 28.5642107, "longitude": 77.24509189999999, "maps_url": "https://www.google.com/maps/place/?q=place_id:0x390ce300476e44ed:0xea478f617cc68e4a"}, {"place_id": "0x390ce3ad859496ab:0xc2ebfd69f6467488", "name": "Premier Slotted Angle Racks", "category": "Furniture store", "street": "", "city": "", "phone": "09212547480", "website": "http://premiersteelpoint.com/", "rating": 4.7, "review_count": "", "latitude": 29.290406899999997, "longitude": 76.0389251, "maps_url": "https://www.google.com/maps/place/?q=place_id:0x390ce3ad859496ab:0xc2ebfd69f6467488"}, {"place_id": "0xa5e1bce79e950549:0x51bc9bee0744664d", "name": "Makespace Design", "category": "Interior designer", "street": "G-8", "city": "Block G, Lajpat Nagar III, Lajpat Nagar", "phone": "", "website": "https://makespacedesign.in/", "rating": 4.5, "review_count": "", "latitude": 28.5659055, "longitude": 77.2395102, "maps_url": "https://www.google.com/maps/place/?q=place_id:0xa5e1bce79e950549:0x51bc9bee0744664d"}, {"place_id": "0x390ce30765b445c3:0x8bedd22209d9434f", "name": "USL Architect/ Interior designer in South delhi", "category": "Architect", "street": "D", "city": "56", "phone": "08178979096", "website": "https://usldesignhouse.in/", "rating": 4.6, "review_count": "", "latitude": 28.5610778, "longitude": 77.2450891, "maps_url": "https://www.google.com/maps/place/?q=place_id:0x390ce30765b445c3:0x8bedd22209d9434f"}, {"place_id": "0x390ce3f44f6ddc9b:0x87b8025cffe36201", "name": "Acanthus Architecture & Interior Consultants", "category": "Architecture firm", "street": "Building No.13, Basement Floor", "city": "Ring Rd", "phone": "01141054040", "website": "https://www.acanthus.in/", "rating": 4.3, "review_count": "", "latitude": 28.5647868, "longitude": 77.2435433, "maps_url": "https://www.google.com/maps/place/?q=place_id:0x390ce3f44f6ddc9b:0x87b8025cffe36201"}, {"place_id": "0x390d1d093f31b985:0xdd62c2c8eca42722", "name": "Rxpertize Global Travels", "category": "Travel agency", "street": "Guru Nanak Market", "city": "13 B", "phone": "09958244848", "website": "http://www.rxpertize.com/", "rating": 4.9, "review_count": "", "latitude": 28.5627292, "longitude": 77.23854589999999, "maps_url": "https://www.google.com/maps/place/?q=place_id:0x390d1d093f31b985:0xdd62c2c8eca42722"}, {"place_id": "0x390cfb26a381ae0f:0xe4d27c588c7151be", "name": "Dogtail Films", "category": "Video production service", "street": "B-142/143 Amar Colony", "city": "Lajpat Nagar 4", "phone": "08527066839", "website": "", "rating": 4.9, "review_count": "", "latitude": 28.5621814, "longitude": 77.2424874, "maps_url": "https://www.google.com/maps/place/?q=place_id:0x390cfb26a381ae0f:0xe4d27c588c7151be"}, {"place_id": "0x390ce25131f692a3:0x7d2cef8ba2a4eed5", "name": "Travel Magic", "category": "Travel agency", "street": "", "city": "", "phone": "09871708709", "website": "http://www.travelmagic.in/", "rating": 4.9, "review_count": "", "latitude": 21.0680074, "longitude": 82.7525294, "maps_url": "https://www.google.com/maps/place/?q=place_id:0x390ce25131f692a3:0x7d2cef8ba2a4eed5"}, {"place_id": "0x390ce3b3beaaaaab:0x1df8d4cfc41d6be0", "name": "Godrej Interio - Kitchen Modular Store in Amar Colony, New Delhi", "category": "Kitchen furniture store", "street": "D-4 Basement", "city": "Amar Colony", "phone": "09769826639", "website": "https://stores.interio.com/Modular-kitchen-near-me/godrej-interio-kitchen-modular-store-in-amar-colony-new-delhi-loci-interiors-kitchen-appliances-amar-colony-new-delhi-528351/Home?utm_source=locator&utm_medium=googleplaces", "rating": 3.9, "review_count": "", "latitude": 28.561450299999997, "longitude": 77.2454158, "maps_url": "https://www.google.com/maps/place/?q=place_id:0x390ce3b3beaaaaab:0x1df8d4cfc41d6be0"}, {"place_id": "0x390ce337696a5f27:0x4dded397d178ea9b", "name": "\u267e\ufe0fINFINITY LAW AND LEGAL CONSULTANTS", "category": "Law firm", "street": "7/36, 1st floor", "city": "opposite MADURAI STREETS", "phone": "09205006328", "website": "https://sites.google.com/view/infinitylaw", "rating": 4.8, "review_count": "", "latitude": 28.563822199999997, "longitude": 77.2409995, "maps_url": "https://www.google.com/maps/place/?q=place_id:0x390ce337696a5f27:0x4dded397d178ea9b"}, {"place_id": "0x390ce37b4aea7fdb:0x3bd28dd16e5a94ac", "name": "The Little Feet Co.", "category": "Toy manufacturer", "street": "Ring Rd", "city": "Vikram Vihar, Lajpat Nagar 4, Lajpat Nagar", "phone": "09136255344", "website": "http://www.thelittlefeetco.in/", "rating": 5, "review_count": "", "latitude": 28.564539399999997, "longitude": 77.2388773, "maps_url": "https://www.google.com/maps/place/?q=place_id:0x390ce37b4aea7fdb:0x3bd28dd16e5a94ac"}, {"place_id": "0x390ce24d6c763269:0xb5a7ffd472e5f697", "name": "Deluxe Cargo Packers & Movers", "category": "Moving and storage service", "street": "Shop No. 24", "city": "Nirmal Puri, F Block, Lajpat Nagar 4, Lajpat Nagar", "phone": "08860747464", "website": "http://www.deluxecargopackers.com/", "rating": 4.7, "review_count": "", "latitude": 28.564372799999997, "longitude": 77.2447657, "maps_url": "https://www.google.com/maps/place/?q=place_id:0x390ce24d6c763269:0xb5a7ffd472e5f697"}, {"place_id": "0x390ce37b4aea7fdb:0x3bd28dd16e5a94ac", "name": "The Little Feet Co.", "category": "Toy manufacturer", "street": "Ring Rd", "city": "Vikram Vihar, Lajpat Nagar 4, Lajpat Nagar", "phone": "09136255344", "website": "http://www.thelittlefeetco.in/", "rating": 5, "review_count": "", "latitude": 28.564539399999997, "longitude": 77.2388773, "maps_url": "https://www.google.com/maps/place/?q=place_id:0x390ce37b4aea7fdb:0x3bd28dd16e5a94ac"}, {"place_id": "0x390ce24d6c763269:0xb5a7ffd472e5f697", "name": "Deluxe Cargo Packers & Movers", "category": "Moving and storage service", "street": "Shop No. 24", "city": "Nirmal Puri, F Block, Lajpat Nagar 4, Lajpat Nagar", "phone": "08860747464", "website": "http://www.deluxecargopackers.com/", "rating": 4.7, "review_count": "", "latitude": 28.564372799999997, "longitude": 77.2447657, "maps_url": "https://www.google.com/maps/place/?q=place_id:0x390ce24d6c763269:0xb5a7ffd472e5f697"}, {"place_id": "0x390ce3005c3f5ee5:0xc908dc883381a150", "name": "Chalo Kashmir", "category": "Travel agency", "street": "H67W+GR5", "city": "Block K, Lajpat Nagar 4, Lajpat Nagar", "phone": "08287334565", "website": "https://chalokashmir.co.in/", "rating": 4.2, "review_count": "", "latitude": 28.5637579, "longitude": 77.24709589999999, "maps_url": "https://www.google.com/maps/place/?q=place_id:0x390ce3005c3f5ee5:0xc908dc883381a150"}, {"place_id": "0x390ce3b15ffc6487:0x36c4f82dca49f747", "name": "Bhalla Properties - Renting, Sale Purchase & Consultant", "category": "Real estate consultant", "street": "H-19,old double storey,lajpat nagar", "city": "New Delhi, Delhi 110024", "phone": "09999601885", "website": "", "rating": 4.3, "review_count": "", "latitude": 28.564434799999997, "longitude": 77.24635409999999, "maps_url": "https://www.google.com/maps/place/?q=place_id:0x390ce3b15ffc6487:0x36c4f82dca49f747"}, {"place_id": "0x390ce376f2762567:0x20722f32eaefe46d", "name": "Moonjock Studios & Music Production School", "category": "Music producer", "street": "Basement", "city": "10/57", "phone": "09643666322", "website": "https://moonjock.carrd.co/", "rating": 5, "review_count": "", "latitude": 28.563841, "longitude": 77.2386069, "maps_url": "https://www.google.com/maps/place/?q=place_id:0x390ce376f2762567:0x20722f32eaefe46d"}, {"place_id": "0x390ce303de49fcff:0x14688a31ce615c05", "name": "Neon Litt", "category": "Neon sign shop", "street": "B-34", "city": "Nirmal Colony, Block 1, Amar Colony, Lajpat Nagar", "phone": "08112266210", "website": "http://www.neonlitt.in/", "rating": 4.4, "review_count": "", "latitude": 28.5633339, "longitude": 77.2430736, "maps_url": "https://www.google.com/maps/place/?q=place_id:0x390ce303de49fcff:0x14688a31ce615c05"}, {"place_id": "0x60fc3e386ada2573:0xfebb363c6528c5d6", "name": "Sharma Solicitors", "category": "Legal services", "street": "6 LGF", "city": "Vikram Vihar, Lajpat Nagar IV, Lajpat Nagar", "phone": "09810230498", "website": "https://www.sharmasolicitors.in/", "rating": 5, "review_count": "", "latitude": 28.5632284, "longitude": 77.2400347, "maps_url": "https://www.google.com/maps/place/?q=place_id:0x60fc3e386ada2573:0xfebb363c6528c5d6"}, {"place_id": "0x390ce3b0da7a1109:0xe924d69fc8b91795", "name": "VASUKI LEGAL", "category": "Legal services", "street": "B-158, Ground Floor, Dayanand Colony", "city": "Lajpat Nagar 4", "phone": "09817498175", "website": "https://www.vasukilegal.com/", "rating": 5, "review_count": "", "latitude": 28.5630705, "longitude": 77.2460213, "maps_url": "https://www.google.com/maps/place/?q=place_id:0x390ce3b0da7a1109:0xe924d69fc8b91795"}, {"place_id": "0x390ce24c4fbeff0b:0x81bada962e7dd008", "name": "SMS & Associates", "category": "Accountant", "street": "13/82, Lala Lajpat Rai Marg", "city": "Vikram Vihar, Lajpat Nagar IV, Lajpat Nagar", "phone": "", "website": "", "rating": 4.9, "review_count": "", "latitude": 28.564363699999998, "longitude": 77.238226, "maps_url": "https://www.google.com/maps/place/?q=place_id:0x390ce24c4fbeff0b:0x81bada962e7dd008"}, {"place_id": "0x390ce3b6f490ba8f:0x6e4032ddcaa85719", "name": "Royal Travel", "category": "Travel agency", "street": "C-125, Ground Floor", "city": "C- Block, Dayanand Colony, Lajpat Nagar", "phone": "09811216599", "website": "http://www.royaltravel.co.in/", "rating": 4.8, "review_count": "", "latitude": 28.561284299999997, "longitude": 77.2459439, "maps_url": "https://www.google.com/maps/place/?q=place_id:0x390ce3b6f490ba8f:0x6e4032ddcaa85719"}, {"place_id": "0x390ce3b3aaaaaaab:0x1e81369ee5f5b18f", "name": "Chaykala Caterers & Party Planners", "category": "Caterer", "street": "Shop No. 5, Rear Side Block 4", "city": "Nirmal Puri, Lajpat Nagar 4", "phone": "09891292788", "website": "https://chaykala.com/catering-service-in-delhi/", "rating": 5, "review_count": "", "latitude": 28.5644295, "longitude": 77.2430372, "maps_url": "https://www.google.com/maps/place/?q=place_id:0x390ce3b3aaaaaaab:0x1e81369ee5f5b18f"}, {"place_id": "0x390ce38550b9997b:0x2781472ae62418a2", "name": "Dushyant Yadav Advocate", "category": "Lawyer", "street": "1st Floor", "city": "62, Ring Rd", "phone": "09654870506", "website": "http://www.dmyassociates.com/", "rating": 5, "review_count": "", "latitude": 28.565384299999998, "longitude": 77.24185779999999, "maps_url": "https://www.google.com/maps/place/?q=place_id:0x390ce38550b9997b:0x2781472ae62418a2"}, {"place_id": "0x390ce3315b9d7325:0xd2751cef241948b2", "name": "The Chambers of SSJ", "category": "Law firm", "street": "2nd Floor", "city": "Amar Colony", "phone": "", "website": "https://shashankjha.in/", "rating": 5, "review_count": "", "latitude": 28.561380699999997, "longitude": 77.2407479, "maps_url": "https://www.google.com/maps/place/?q=place_id:0x390ce3315b9d7325:0xd2751cef241948b2"}, {"place_id": "0x390ce3eb5330dcf5:0x185c920e1dc9d528", "name": "Not Just Chaai", "category": "Fast food restaurant", "street": "Upper Groud Floor", "city": "Block A", "phone": "09220506226", "website": "http://www.notjustchaai.in/", "rating": 4.8, "review_count": "", "latitude": 28.563126999999998, "longitude": 77.2409395, "maps_url": "https://www.google.com/maps/place/?q=place_id:0x390ce3eb5330dcf5:0x185c920e1dc9d528"}, {"place_id": "0x390ce24c6a96fa2d:0x16f05b445cc744a", "name": "Pacific Institute of Engineering and Management", "category": "Private College", "street": "Building No-29, Block", "city": "No-5", "phone": "", "website": "http://piem.ae/", "rating": 4.4, "review_count": "", "latitude": 28.5634779, "longitude": 77.2393421, "maps_url": "https://www.google.com/maps/place/?q=place_id:0x390ce24c6a96fa2d:0x16f05b445cc744a"}, {"place_id": "0x390ce3df12b4f42f:0xb4883093a15c61b0", "name": "House Of Vedika", "category": "Boutique", "street": "2nd Floor", "city": "Amar Colony", "phone": "08804012131", "website": "", "rating": 4.9, "review_count": "", "latitude": 28.561753099999997, "longitude": 77.245333, "maps_url": "https://www.google.com/maps/place/?q=place_id:0x390ce3df12b4f42f:0xb4883093a15c61b0"}, {"place_id": "0x390ce3b15c74e109:0x752cf846fbd0089", "name": "Guglani's PG", "category": "Condominium complex", "street": "K-26, Old Double Storey Block K, Lajpat Nagar IV", "city": "Lajpat Nagar 4", "phone": "09971700063", "website": "", "rating": 4.1, "review_count": "", "latitude": 28.564153599999997, "longitude": 77.24671839999999, "maps_url": "https://www.google.com/maps/place/?q=place_id:0x390ce3b15c74e109:0x752cf846fbd0089"}, {"place_id": "0x390ce3b4796af3ed:0xdf97a9a1cb7cb72", "name": "Brewtoast", "category": "Cafe", "street": "C 4, Market", "city": "opposite Cake Palace", "phone": "09811530183", "website": "http://www.instagram.com/brewtoast", "rating": 4.7, "review_count": "", "latitude": 28.5629115, "longitude": 77.24450639999999, "maps_url": "https://www.google.com/maps/place/?q=place_id:0x390ce3b4796af3ed:0xdf97a9a1cb7cb72"}, {"place_id": "0x390ce3ac8595761f:0xfc7d12d4121225a4", "name": "Selfie Kurtiz", "category": "Clothing wholesaler", "street": "D-17", "city": "Old Double Storey, Block E, Lajpat Nagar 4, Lajpat Nagar", "phone": "07835888808", "website": "https://selfiekurtiz.co/", "rating": 4.9, "review_count": "", "latitude": 28.5637121, "longitude": 77.2406992, "maps_url": "https://www.google.com/maps/place/?q=place_id:0x390ce3ac8595761f:0xfc7d12d4121225a4"}, {"place_id": "0x390ce30fd580f97b:0xf6b0910b2bbb2d54", "name": "SSA LAWGISTICS", "category": "Lawyer", "street": "LGF", "city": "10/58", "phone": "", "website": "http://www.ssalawgistics.com/", "rating": 4.7, "review_count": "", "latitude": 28.563629199999998, "longitude": 77.2386248, "maps_url": "https://www.google.com/maps/place/?q=place_id:0x390ce30fd580f97b:0xf6b0910b2bbb2d54"}]}