{"timestamp": 1773730674.1102598, "keyword": "IT company", "location": "delhi", "cell_idx": 276, "results": [{"place_id": "0x390d1b86b6b5582d:0x36c722e124b57be8", "name": "kdrsoft Technologies - website designing company in delhi", "category": "Website designer", "street": "2nd Floor", "city": "Manish Global Mall", "phone": "09910258463", "website": "https://www.kdrsoft.com/", "rating": 4.9, "review_count": "", "latitude": 28.559937299999998, "longitude": 77.0596687, "maps_url": "https://www.google.com/maps/place/?q=place_id:0x390d1b86b6b5582d:0x36c722e124b57be8"}, {"place_id": "0x390d1b07258b26f1:0x8226854068152e3e", "name": "Softcom Technologies - Web Designing Company in Delhi", "category": "Website designer", "street": "S-89, Manish Global Mall", "city": "Sector 22 Dwarka, Dwarka", "phone": "09910258463", "website": "https://www.softcomtechnologies.com/", "rating": 5, "review_count": "", "latitude": 28.559992299999998, "longitude": 77.0596212, "maps_url": "https://www.google.com/maps/place/?q=place_id:0x390d1b07258b26f1:0x8226854068152e3e"}, {"place_id": "0x390d1a5532eb800f:0xf2e1540348673db7", "name": "bitGain Technology Private Limited", "category": "Software company", "street": "Plot No 497", "city": "Bharthal, Sector 26 Dwarka, Bharthal", "phone": "09560002243", "website": "https://www.bitgaintech.com/", "rating": 4.7, "review_count": "", "latitude": 28.5467209, "longitude": 77.0473114, "maps_url": "https://www.google.com/maps/place/?q=place_id:0x390d1a5532eb800f:0xf2e1540348673db7"}, {"place_id": "0x390d05f1c70d0d6b:0x80d816e36f28618f", "name": "Katchin Tech Private Limited | Software Development Company in Delhi NCR", "category": "Software company", "street": "A-4", "city": "near skin decor", "phone": "07669005215", "website": "https://www.katchintech.com/", "rating": 5, "review_count": "", "latitude": 28.575834099999998, "longitude": 77.05139609999999, "maps_url": "https://www.google.com/maps/place/?q=place_id:0x390d05f1c70d0d6b:0x80d816e36f28618f"}, {"place_id": "0x390d02e520aee25b:0x322870f3355c7f4b", "name": "Delphi Infotech (Cybersecurity & Cloud Solutions)", "category": "Software company", "street": "225A, D-21", "city": "Corporate Park", "phone": "01145075151", "website": "https://www.delphiinfo.com/", "rating": 4.2, "review_count": "", "latitude": 28.5618181, "longitude": 77.0670596, "maps_url": "https://www.google.com/maps/place/?q=place_id:0x390d02e520aee25b:0x322870f3355c7f4b"}, {"place_id": "0x390d04c0827451cd:0xdd5c02a5efb3fcb8", "name": "DKG Labs Pvt. Ltd.", "category": "Software company", "street": "Corporate Park", "city": "D 21", "phone": "09810805605", "website": "https://www.dkgrouplabs.com/", "rating": 4.2, "review_count": "", "latitude": 28.5618579, "longitude": 77.0674429, "maps_url": "https://www.google.com/maps/place/?q=place_id:0x390d04c0827451cd:0xdd5c02a5efb3fcb8"}, {"place_id": "0x390d1b3afecfedbf:0xc70cd49f6315cda2", "name": "RHA Technologies Pvt Ltd", "category": "Software company", "street": "3rd Floor, D21", "city": "Corporate Park", "phone": "09625773094", "website": "https://rhatechnologies.com/", "rating": 5, "review_count": "", "latitude": 28.5618181, "longitude": 77.0670596, "maps_url": "https://www.google.com/maps/place/?q=place_id:0x390d1b3afecfedbf:0xc70cd49f6315cda2"}, {"place_id": "0x390d013ca8ac1387:0x8a0db85b518267d5", "name": "NexGen Innovators", "category": "Software company", "street": "114B, 3rd floor, Dwarka Mor", "city": "New Delhi, Delhi 110059", "phone": "", "website": "https://www.nexgi.com/", "rating": 4.9, "review_count": "", "latitude": 28.618961, "longitude": 77.0322202, "maps_url": "https://www.google.com/maps/place/?q=place_id:0x390d013ca8ac1387:0x8a0db85b518267d5"}, {"place_id": "0x390d1af7d41f210f:0xbc225ea8e4598ee5", "name": "Coderack IT Labs", "category": "Software company", "street": "Khasra No. 16/14", "city": "4th Floor", "phone": "07217832324", "website": "http://coderack.net/", "rating": 5, "review_count": "", "latitude": 28.562789499999997, "longitude": 77.050367, "maps_url": "https://www.google.com/maps/place/?q=place_id:0x390d1af7d41f210f:0xbc225ea8e4598ee5"}, {"place_id": "0x390d1b0ad6565c37:0x9ee772d45ffed70d", "name": "IOTtech Softwares", "category": "Software company", "street": "First & Second Floor", "city": "Lucky Plaza", "phone": "08034798583", "website": "", "rating": 4.9, "review_count": "", "latitude": 28.5847981, "longitude": 77.07323199999999, "maps_url": "https://www.google.com/maps/place/?q=place_id:0x390d1b0ad6565c37:0x9ee772d45ffed70d"}, {"place_id": "0x390d1ac4f284e761:0x9464ca79c229a74d", "name": "Times IT Services Pvt. Ltd", "category": "Software company", "street": "Vardhman Bahnhof Plaza", "city": "204", "phone": "09650012304", "website": "https://www.timesitservices.com/", "rating": 4.9, "review_count": "", "latitude": 28.5906919, "longitude": 77.043549, "maps_url": "https://www.google.com/maps/place/?q=place_id:0x390d1ac4f284e761:0x9464ca79c229a74d"}, {"place_id": "0x390ce458d0000001:0xf2123bd299ec4501", "name": "IT Company India", "category": "Software company", "street": "D56", "city": "D Block, Sector 10", "phone": "09999244854", "website": "https://www.itcompanyindia.in/", "rating": 4.7, "review_count": "", "latitude": 28.589917699999997, "longitude": 77.3351153, "maps_url": "https://www.google.com/maps/place/?q=place_id:0x390ce458d0000001:0xf2123bd299ec4501"}, {"place_id": "0x390d1baa5c2ef655:0xb85d227ef6cb317e", "name": "Intellisys Consulting", "category": "Software company", "street": "A-203, Plot number \u2013 8, HIM HIT Society", "city": "Sector 22 Dwarka", "phone": "09717178138", "website": "http://intellisysc.com/", "rating": 5, "review_count": "", "latitude": 28.560703999999998, "longitude": 77.05975699999999, "maps_url": "https://www.google.com/maps/place/?q=place_id:0x390d1baa5c2ef655:0xb85d227ef6cb317e"}, {"place_id": "0x390d1bb72bd328b1:0xd9425539dc10edb3", "name": "SOFT INDIA WEB SOFTWARE DEVELOPMENT PVT LTD", "category": "Software company", "street": "Ground Floor", "city": "A- 107", "phone": "09625503688", "website": "http://www.softindia.in/", "rating": 3.2, "review_count": "", "latitude": 28.587611, "longitude": 77.0704514, "maps_url": "https://www.google.com/maps/place/?q=place_id:0x390d1bb72bd328b1:0xd9425539dc10edb3"}, {"place_id": "0x390d1b3d620205b1:0xe21a1fe217f40c4", "name": "InFutive Technology Pvt Ltd.", "category": "Software company", "street": "C-Block", "city": "B - 282 Palam Extension", "phone": "08882283917", "website": "http://www.infutive.com/", "rating": 5, "review_count": "", "latitude": 28.5862752, "longitude": 77.0697868, "maps_url": "https://www.google.com/maps/place/?q=place_id:0x390d1b3d620205b1:0xe21a1fe217f40c4"}, {"place_id": "0x390d1b9ddfccb265:0xb589ee8b4aaaa57c", "name": "50 Hertz Limited", "category": "Software company", "street": "Corporate Park", "city": "303, 3rd Floor, D21", "phone": "01140110747", "website": "https://www.50hertz.in/", "rating": 4.6, "review_count": "", "latitude": 28.5618181, "longitude": 77.0670596, "maps_url": "https://www.google.com/maps/place/?q=place_id:0x390d1b9ddfccb265:0xb589ee8b4aaaa57c"}, {"place_id": "0x390d053af4b9fae1:0xa955718786ea4c90", "name": "Efficient IT & Electronic Services Private Limited", "category": "Software company", "street": "1st floor", "city": "VV Plaza building", "phone": "08750042191", "website": "http://www.efficientindia.com/", "rating": 4.4, "review_count": "", "latitude": 28.6100702, "longitude": 77.03385709999999, "maps_url": "https://www.google.com/maps/place/?q=place_id:0x390d053af4b9fae1:0xa955718786ea4c90"}, {"place_id": "0x390d1b1fb85c71ed:0x1aa4ba2a08b02c1d", "name": "Tecmicra Solutions - Software, Website Development & Digital Marketing Company", "category": "Software company", "street": "Floor, D410", "city": "3rd", "phone": "07042387253", "website": "https://tecmicra.co.in/", "rating": 5, "review_count": "", "latitude": 28.5849324, "longitude": 77.071085, "maps_url": "https://www.google.com/maps/place/?q=place_id:0x390d1b1fb85c71ed:0x1aa4ba2a08b02c1d"}, {"place_id": "0x390d1bb8239e80db:0x991d3b4a01276a01", "name": "Topd Alliance Private Limited", "category": "Business management consultant", "street": "Corporate Park", "city": "D-21", "phone": "09311221939", "website": "https://topdalliance.com/", "rating": 4.2, "review_count": "", "latitude": 28.5618181, "longitude": 77.0670596, "maps_url": "https://www.google.com/maps/place/?q=place_id:0x390d1bb8239e80db:0x991d3b4a01276a01"}, {"place_id": "0x390d1ac339555557:0x9e72f1346ffa17f8", "name": "DIGIWIZ TECHNOLOGIES PVT LTD", "category": "Software company", "street": "112,MANISH MARKET", "city": "Sector 11 Dwarka, Dwarka", "phone": "08800643456", "website": "https://seoservicessk.com/seo-services-in-dwarka-seo-course-in-dwarka/", "rating": 4.9, "review_count": "", "latitude": 28.586458, "longitude": 77.0457241, "maps_url": "https://www.google.com/maps/place/?q=place_id:0x390d1ac339555557:0x9e72f1346ffa17f8"}, {"place_id": "0x390d058eebd4e349:0xe3540cff21ac1db4", "name": "Matrix Infotech Solution | Software Development Company in Delhi", "category": "Software company", "street": "3rd floor, Besmate Indian Bank, housing complex", "city": "Main Market", "phone": "08920817059", "website": "https://www.matrixinfotechsolution.com/", "rating": 5, "review_count": "", "latitude": 28.6165375, "longitude": 77.0282521, "maps_url": "https://www.google.com/maps/place/?q=place_id:0x390d058eebd4e349:0xe3540cff21ac1db4"}, {"place_id": "0x390d1bedde2c99bd:0x162fa54778df6fe", "name": "Omneelab Software Solutions Pvt Ltd", "category": "Software company", "street": "3rd Floor", "city": "LSC -2", "phone": "09958123820", "website": "https://www.omneelab.com/", "rating": 4.7, "review_count": "", "latitude": 28.5897889, "longitude": 77.06333149999999, "maps_url": "https://www.google.com/maps/place/?q=place_id:0x390d1bedde2c99bd:0x162fa54778df6fe"}, {"place_id": "0x390d1b6895a57a1b:0x2198d9fa72954ea3", "name": "Laptop Service Center Dwarka (Apna Computer)", "category": "Computer service", "street": "Metro Station-Dwarka Sector 21", "city": "S - 84, Manish Global Mall", "phone": "08929461525", "website": "https://www.laptopservicecenterdwarka.com/", "rating": 5, "review_count": "", "latitude": 28.559877999999998, "longitude": 77.0596233, "maps_url": "https://www.google.com/maps/place/?q=place_id:0x390d1b6895a57a1b:0x2198d9fa72954ea3"}, {"place_id": "0x390d1b8e5b6999a1:0x522ffbc2c7c23362", "name": "Techthastu Private Limited (Techthaastu)", "category": "Software company", "street": "Techthaastu Office, Pt. Mehru Marg, Outer Bharthal Firni road Bharthal Village", "city": "near Govt. Girls senior secondary School", "phone": "08383889042", "website": "https://www.techthaastu.com/", "rating": 5, "review_count": "", "latitude": 28.5403192, "longitude": 77.0524594, "maps_url": "https://www.google.com/maps/place/?q=place_id:0x390d1b8e5b6999a1:0x522ffbc2c7c23362"}, {"place_id": "0x390d1bdfea93d299:0x718bea865076889b", "name": "Hazzale Blue Trading Pvt Ltd", "category": "Shopping mall", "street": "FLAT NO- 281", "city": "S.F.S", "phone": "08800776882", "website": "http://www.hazzaleblue.com/", "rating": 4.8, "review_count": "", "latitude": 28.561846499999998, "longitude": 77.0621563, "maps_url": "https://www.google.com/maps/place/?q=place_id:0x390d1bdfea93d299:0x718bea865076889b"}, {"place_id": "0x390d191100000001:0x424476192b3b5b5b", "name": "Binary Semantics Limited", "category": "Software company", "street": "PLot no", "city": "38", "phone": "08929156505", "website": "https://www.binarysemantics.com/", "rating": 3.7, "review_count": "", "latitude": 28.5018823, "longitude": 77.0701466, "maps_url": "https://www.google.com/maps/place/?q=place_id:0x390d191100000001:0x424476192b3b5b5b"}, {"place_id": "0x390d059150d8d8d3:0xa88f8d2856eab58e", "name": "Codemez It Solutions", "category": "Software company", "street": "Ground Floor", "city": "H No 271", "phone": "08800598521", "website": "https://codemez.com/", "rating": 5, "review_count": "", "latitude": 28.6140609, "longitude": 77.0312409, "maps_url": "https://www.google.com/maps/place/?q=place_id:0x390d059150d8d8d3:0xa88f8d2856eab58e"}, {"place_id": "0x390d1da73a24973f:0xfcbd561b3e6e5b0b", "name": "Adsource IT Solutions", "category": "Software company", "street": "Metro Pilllar, metro station", "city": "Dwarka More", "phone": "", "website": "https://www.adsourceitsolutions.com/", "rating": 5, "review_count": "", "latitude": 28.619874, "longitude": 77.0310854, "maps_url": "https://www.google.com/maps/place/?q=place_id:0x390d1da73a24973f:0xfcbd561b3e6e5b0b"}, {"place_id": "0x390d1bbd14a92329:0x69ccddf6d89ff", "name": "PMPA SOFTTECH PVT. LTD.", "category": "Software company", "street": "6/A6", "city": "Pocket-8, Sector 23b, Dwarka", "phone": "07073003833", "website": "", "rating": 4.5, "review_count": "", "latitude": 28.563591799999998, "longitude": 77.0417138, "maps_url": "https://www.google.com/maps/place/?q=place_id:0x390d1bbd14a92329:0x69ccddf6d89ff"}, {"place_id": "0x2a72b8b69d7b6493:0x11251466d4d34cac", "name": "WebZonal IT Company", "category": "Website designer", "street": "Wz-258/2-3, D Block Rd", "city": "Khazan Basti, Nangal Raya, Janakpuri", "phone": "09811170903", "website": "http://webzonal.com/", "rating": 5, "review_count": "", "latitude": 28.6122102, "longitude": 77.11159549999999, "maps_url": "https://www.google.com/maps/place/?q=place_id:0x2a72b8b69d7b6493:0x11251466d4d34cac"}, {"place_id": "0x390d05681896eb21:0xcfed89ab43cdd65", "name": "Mrmmbs Vision", "category": "Software company", "street": "", "city": "", "phone": "", "website": "https://www.mrmmbsvision.com/", "rating": 4.8, "review_count": "", "latitude": 14.157641199999999, "longitude": 0, "maps_url": "https://www.google.com/maps/place/?q=place_id:0x390d05681896eb21:0xcfed89ab43cdd65"}, {"place_id": "0x390d1b3d95555591:0x43c9fe791aed7a0e", "name": "Acetech Information Systems Pvt. Ltd", "category": "Software company", "street": "Unit No. 469-470, Vegas Mall", "city": "Commercial Towers", "phone": "09650972345", "website": "http://www.acetechindia.com/", "rating": 4.4, "review_count": "", "latitude": 28.601454, "longitude": 77.0294002, "maps_url": "https://www.google.com/maps/place/?q=place_id:0x390d1b3d95555591:0x43c9fe791aed7a0e"}, {"place_id": "0x390ce3c153b89811:0xe7a279685777e9ca", "name": "IT Company", "category": "Automation company", "street": "A-14", "city": "near iskcon temple", "phone": "", "website": "http://www.opuswiz.com/", "rating": 3, "review_count": "", "latitude": 28.557167, "longitude": 77.25424819999999, "maps_url": "https://www.google.com/maps/place/?q=place_id:0x390ce3c153b89811:0xe7a279685777e9ca"}, {"place_id": "0x390d195e4483ae05:0xec67b2579bb38803", "name": "eXtendCode - Software Development Company", "category": "Software company", "street": "Plot 63, Second Floor, Udyog Vihar Phase -1,", "city": "Gurugram, Haryana 122016", "phone": "01244261219", "website": "http://www.extendcode.com/", "rating": 4.1, "review_count": "", "latitude": 28.514535199999997, "longitude": 77.0815075, "maps_url": "https://www.google.com/maps/place/?q=place_id:0x390d195e4483ae05:0xec67b2579bb38803"}, {"place_id": "0x390d1b8d94bfebb9:0xdbd74207ae3d35e7", "name": "SysTools Software Pvt Ltd", "category": "Software company", "street": "City Centre", "city": "528", "phone": "06230830862", "website": "https://www.systoolsgroup.com/", "rating": 4.5, "review_count": "", "latitude": 28.5921344, "longitude": 77.0417265, "maps_url": "https://www.google.com/maps/place/?q=place_id:0x390d1b8d94bfebb9:0xdbd74207ae3d35e7"}, {"place_id": "0x390d1c153a0323ff:0x48e3aad9be77d23c", "name": "Msinterface Technologies Pvt Ltd - Website Designer in Dwarka", "category": "Software company", "street": "Mahavir Enclave", "city": "Mahavir Enclave I, Sector 1 Dwarka, Dwarka", "phone": "09971787219", "website": "https://www.msinterface.in/", "rating": 5, "review_count": "", "latitude": 28.5961926, "longitude": 77.0823114, "maps_url": "https://www.google.com/maps/place/?q=place_id:0x390d1c153a0323ff:0x48e3aad9be77d23c"}, {"place_id": "0x390d05cd2ace8d53:0xf82774e10e1ff47c", "name": "Quicky Technologies", "category": "Software company", "street": "3rd Floor", "city": "C-85, Rama Park Rd", "phone": "09899550472", "website": "https://www.quickytechnologies.com/", "rating": 5, "review_count": "", "latitude": 28.622149999999998, "longitude": 77.03673069999999, "maps_url": "https://www.google.com/maps/place/?q=place_id:0x390d05cd2ace8d53:0xf82774e10e1ff47c"}, {"place_id": "0x390d1baa56300001:0x8fdc5fd163cf1d42", "name": "Anusandhan Technology Solutions", "category": "Contractor", "street": "S - 63", "city": "Manish Global Mall", "phone": "", "website": "https://anusandhan-india.com/", "rating": 4.9, "review_count": "", "latitude": 28.5617187, "longitude": 77.05990589999999, "maps_url": "https://www.google.com/maps/place/?q=place_id:0x390d1baa56300001:0x8fdc5fd163cf1d42"}, {"place_id": "0x390d04bf231d4979:0xa2cd2b7e8bfd68ff", "name": "TN Infotech Pvt. Ltd.", "category": "Computer support and services", "street": "E-594, FIRST FLOOR", "city": "Ramphal Chowk Rd", "phone": "09810782194", "website": "http://tninfotech.net/", "rating": 5, "review_count": "", "latitude": 28.585736699999998, "longitude": 77.0719481, "maps_url": "https://www.google.com/maps/place/?q=place_id:0x390d04bf231d4979:0xa2cd2b7e8bfd68ff"}, {"place_id": "0x390d1baa5989e66b:0x6e0f3fa43b24b658", "name": "Mac Host India", "category": "Website designer", "street": "", "city": "", "phone": "09810052636", "website": "https://machostindia.com/", "rating": 5, "review_count": "", "latitude": 21.0680074, "longitude": 82.7525294, "maps_url": "https://www.google.com/maps/place/?q=place_id:0x390d1baa5989e66b:0x6e0f3fa43b24b658"}, {"place_id": "0x390d1b7f62671cb1:0x9d53d75be3f61652", "name": "Manikaran Power Limited", "category": "Electric utility company", "street": "3rd Floor, Corporate Park", "city": "301", "phone": "01140408000", "website": "https://manikaranpowerltd.in/", "rating": 4, "review_count": "", "latitude": 28.5618181, "longitude": 77.0670596, "maps_url": "https://www.google.com/maps/place/?q=place_id:0x390d1b7f62671cb1:0x9d53d75be3f61652"}, {"place_id": "0x390d1b5b3a65aaaf:0x6808da13816ca185", "name": "D21 Corporate Park", "category": "Corporate office", "street": "Corporate Park", "city": "Sector 21, Mohammadpur", "phone": "09038010999", "website": "https://d21corporatepark.in/", "rating": 4.4, "review_count": "", "latitude": 28.561619999999998, "longitude": 77.0669752, "maps_url": "https://www.google.com/maps/place/?q=place_id:0x390d1b5b3a65aaaf:0x6808da13816ca185"}, {"place_id": "0x390d047b429014f3:0x4f6c0e50deba17a", "name": "GTM Builders & Promoters Pvt. Ltd.", "category": "Corporate office", "street": "Office No. 217, 2nd Floor, Corporate Park, DMRC Building", "city": "D-21", "phone": "01145314531", "website": "http://www.gtm.co.in/", "rating": 4.5, "review_count": "", "latitude": 28.5618181, "longitude": 77.0670596, "maps_url": "https://www.google.com/maps/place/?q=place_id:0x390d047b429014f3:0x4f6c0e50deba17a"}, {"place_id": "0x390d05c8987801e5:0x128e04dce6c4cbc4", "name": "Matrix Infotech Solution | Software Development Company", "category": "Software company", "street": "j j", "city": "Dwarka Mor, Block WE, Mohan Garden, Razapur Khurd", "phone": "08920817059", "website": "http://www.matrixinfotechsolution.com/", "rating": 3.9, "review_count": "", "latitude": 28.637037, "longitude": 77.0291258, "maps_url": "https://www.google.com/maps/place/?q=place_id:0x390d05c8987801e5:0x128e04dce6c4cbc4"}, {"place_id": "0x390d19437cb628b3:0x12e71803eb09ac16", "name": "Clavax Technologies", "category": "Software company", "street": "727", "city": "Udyog Vihar, Phase 5", "phone": "+18444252829", "website": "http://www.clavax.com/", "rating": 4.1, "review_count": "", "latitude": 28.5052123, "longitude": 77.0850025, "maps_url": "https://www.google.com/maps/place/?q=place_id:0x390d19437cb628b3:0x12e71803eb09ac16"}, {"place_id": "0x20616dbf813c03ef:0xc8fd1ca47f902e9e", "name": "Bloatware IT Software Company | website Designing Company | Software Company | MLM |CRM | Android Apps", "category": "Software company", "street": "C1", "city": "Rama Park", "phone": "08920750797", "website": "https://bloatwareitsolutions.com/", "rating": 4.5, "review_count": "", "latitude": 28.621265599999997, "longitude": 77.0324943, "maps_url": "https://www.google.com/maps/place/?q=place_id:0x20616dbf813c03ef:0xc8fd1ca47f902e9e"}, {"place_id": "0x390d191598f48ef3:0x70991b4ff870f05d", "name": "Shree Partners LLC", "category": "Software company", "street": "1, Tower A, Building, Cyber City", "city": "Corporate Edge Level", "phone": "01246728815", "website": "https://www.shreepartners.com/", "rating": 4.3, "review_count": "", "latitude": 28.4936018, "longitude": 77.088325, "maps_url": "https://www.google.com/maps/place/?q=place_id:0x390d191598f48ef3:0x70991b4ff870f05d"}, {"place_id": "0x390d18514c273de5:0x19d001bc0b4260", "name": "Q3 Technologies - Software Development Company", "category": "Software company", "street": "JMD Megapolis,", "city": "Sohna Road", "phone": "01246656000", "website": "https://www.q3tech.com/", "rating": 4.2, "review_count": "", "latitude": 28.419445, "longitude": 77.038155, "maps_url": "https://www.google.com/maps/place/?q=place_id:0x390d18514c273de5:0x19d001bc0b4260"}, {"place_id": "0x2f57245dcbe5cdc5:0xe07413eae661292f", "name": "Hyper Cloud Digital Solutions", "category": "Software company", "street": "", "city": "", "phone": "09152552222", "website": "https://www.hyperclouddigital.com/", "rating": 5, "review_count": "", "latitude": 21.0680074, "longitude": 82.7525294, "maps_url": "https://www.google.com/maps/place/?q=place_id:0x2f57245dcbe5cdc5:0xe07413eae661292f"}, {"place_id": "0x390d1bfd61687473:0x878fa1ec1c9a9d7f", "name": "T&N Business Services Pvt Ltd Delhi", "category": "Business management consultant", "street": "3rd", "city": "E-517", "phone": "09455579997", "website": "http://www.tnservices.in/", "rating": 4.7, "review_count": "", "latitude": 28.584938899999997, "longitude": 77.072231, "maps_url": "https://www.google.com/maps/place/?q=place_id:0x390d1bfd61687473:0x878fa1ec1c9a9d7f"}, {"place_id": "0x390d0591ec7a1d09:0x20d4d888e929fe7b", "name": "MARKIVIS", "category": "Marketing agency", "street": "Corporate Park", "city": "201/ C2 D 21", "phone": "01145600389", "website": "http://www.markivis.com/", "rating": 4.4, "review_count": "", "latitude": 28.5618181, "longitude": 77.0670596, "maps_url": "https://www.google.com/maps/place/?q=place_id:0x390d0591ec7a1d09:0x20d4d888e929fe7b"}, {"place_id": "0x390d195c26bfa369:0x69bd8efd2e3a31fe", "name": "Radical Minds Technologies Pvt. Ltd.", "category": "BPO Company", "street": "368", "city": "Phase II, Udyog Vihar, Sector 20", "phone": "01244338366", "website": "http://www.radicalminds.in/", "rating": 4.2, "review_count": "", "latitude": 28.506335099999998, "longitude": 77.0877546, "maps_url": "https://www.google.com/maps/place/?q=place_id:0x390d195c26bfa369:0x69bd8efd2e3a31fe"}, {"place_id": "0x390d1be7f1a44f95:0x84524a5425f8930d", "name": "InfraDost Technologies Pvt Ltd.- Microsoft Adobe Corel Draw & Security Solution Provider", "category": "Software company", "street": "Gurgaon - Delhi Expy", "city": "Block B, Mahipalpur Village, Mahipalpur", "phone": "08287792542", "website": "http://www.infradost.com/", "rating": 4.6, "review_count": "", "latitude": 28.5485743, "longitude": 77.1264697, "maps_url": "https://www.google.com/maps/place/?q=place_id:0x390d1be7f1a44f95:0x84524a5425f8930d"}, {"place_id": "0x390d1b2440000001:0x7b52a88f21fc0d82", "name": "DesignDot Technologies | #1 Best Website & App Development | Top Software & AIML Solutions Company in Delhi", "category": "Software company", "street": "RZ 1/13, 3RD FLOOR, Main Road Above HDFC Bank, Dwarka, Near Palam Metro Gate 2", "city": "New Delhi, Delhi 110077", "phone": "09999652812", "website": "https://www.designdot.co.in/", "rating": 5, "review_count": "", "latitude": 28.587238199999998, "longitude": 77.0850727, "maps_url": "https://www.google.com/maps/place/?q=place_id:0x390d1b2440000001:0x7b52a88f21fc0d82"}, {"place_id": "0x390d1960c2b8367f:0xd2d30e45ac71acea", "name": "Vorombetech Solutions - Top IT & Digitalization Service Company in Gurugram", "category": "Software company", "street": "249", "city": "Phase IV, Udyog Vihar, Sector 19", "phone": "", "website": "https://vorombetech.com/", "rating": 4.8, "review_count": "", "latitude": 28.4941475, "longitude": 77.0808448, "maps_url": "https://www.google.com/maps/place/?q=place_id:0x390d1960c2b8367f:0xd2d30e45ac71acea"}, {"place_id": "0x390d1b0010fc2321:0x12e9154c815cf007", "name": "Prashant Dwivedi IT company", "category": "Warehouse", "street": "G3P5+GVC", "city": "Nayak Pura, Bijwasan", "phone": "", "website": "", "rating": "", "review_count": "", "latitude": 28.536316, "longitude": 77.059649, "maps_url": "https://www.google.com/maps/place/?q=place_id:0x390d1b0010fc2321:0x12e9154c815cf007"}, {"place_id": "0x390d193fbcefc3e9:0x3e596d04b4191436", "name": "Nuvoretail Enlytical Technologies Pvt Ltd", "category": "E - Commerce Agency", "street": "1st Floor", "city": "Plot 34", "phone": "09911516516", "website": "http://nuvoretail.com/", "rating": 4.7, "review_count": "", "latitude": 28.565179699999998, "longitude": 77.0514841, "maps_url": "https://www.google.com/maps/place/?q=place_id:0x390d193fbcefc3e9:0x3e596d04b4191436"}, {"place_id": "0x390d050d9e7ce6a3:0xa72607a5a8be6510", "name": "Shri Sai Tech Solutions", "category": "Software company", "street": "Pillar number 783", "city": "Metro Station Dwarka Mor A-109, Street No. 4", "phone": "07210868167", "website": "https://shrisaitechsolutions.com/", "rating": 4.3, "review_count": "", "latitude": 28.6189075, "longitude": 77.0333678, "maps_url": "https://www.google.com/maps/place/?q=place_id:0x390d050d9e7ce6a3:0xa72607a5a8be6510"}, {"place_id": "0x390d1b3c7aaaaaab:0xcc0116b944b8452c", "name": "ESIGN WEB SERVICES PVT LTD", "category": "Website designer", "street": "3rd Floor", "city": "Plot No 24", "phone": "09718099999", "website": "https://www.esignwebservices.com/", "rating": 4.7, "review_count": "", "latitude": 28.5857121, "longitude": 77.0494913, "maps_url": "https://www.google.com/maps/place/?q=place_id:0x390d1b3c7aaaaaab:0xcc0116b944b8452c"}, {"place_id": "0x390d1bcd76384d39:0xdb32f9430e255f8e", "name": "WINISHTECH IT SOLUTIONS PRIVATE LIMITED", "category": "Software company", "street": "B1/639 A", "city": "Janakpuri West, Block B1, Janakpuri", "phone": "", "website": "https://winishtechitsolutions.com/", "rating": 5, "review_count": "", "latitude": 28.6324707, "longitude": 77.0857044, "maps_url": "https://www.google.com/maps/place/?q=place_id:0x390d1bcd76384d39:0xdb32f9430e255f8e"}, {"place_id": "0x390d191598f48ef3:0x70991b4ff870f05d", "name": "Shree Partners LLC", "category": "Software company", "street": "1, Tower A, Building, Cyber City", "city": "Corporate Edge Level", "phone": "01246728815", "website": "https://www.shreepartners.com/", "rating": 4.3, "review_count": "", "latitude": 28.4936018, "longitude": 77.088325, "maps_url": "https://www.google.com/maps/place/?q=place_id:0x390d191598f48ef3:0x70991b4ff870f05d"}, {"place_id": "0x390d1bdec1ced481:0x832b048bd9008df3", "name": "Kloud Datasoft Pvt. Ltd. - Best Software Development Company in New Delhi", "category": "Software company", "street": "T 7", "city": "Pankaj Central Plaza", "phone": "", "website": "https://klouddatasoft.com/", "rating": 5, "review_count": "", "latitude": 28.5927787, "longitude": 77.0460346, "maps_url": "https://www.google.com/maps/place/?q=place_id:0x390d1bdec1ced481:0x832b048bd9008df3"}, {"place_id": "0x390d18514c273de5:0x19d001bc0b4260", "name": "Q3 Technologies - Software Development Company", "category": "Software company", "street": "JMD Megapolis,", "city": "Sohna Road", "phone": "01246656000", "website": "https://www.q3tech.com/", "rating": 4.2, "review_count": "", "latitude": 28.419445, "longitude": 77.038155, "maps_url": "https://www.google.com/maps/place/?q=place_id:0x390d18514c273de5:0x19d001bc0b4260"}, {"place_id": "0x2f57245dcbe5cdc5:0xe07413eae661292f", "name": "Hyper Cloud Digital Solutions", "category": "Software company", "street": "", "city": "", "phone": "09152552222", "website": "https://www.hyperclouddigital.com/", "rating": 5, "review_count": "", "latitude": 21.0680074, "longitude": 82.7525294, "maps_url": "https://www.google.com/maps/place/?q=place_id:0x2f57245dcbe5cdc5:0xe07413eae661292f"}, {"place_id": "0x390d1bfd61687473:0x878fa1ec1c9a9d7f", "name": "T&N Business Services Pvt Ltd Delhi", "category": "Business management consultant", "street": "3rd", "city": "E-517", "phone": "09455579997", "website": "http://www.tnservices.in/", "rating": 4.7, "review_count": "", "latitude": 28.584938899999997, "longitude": 77.072231, "maps_url": "https://www.google.com/maps/place/?q=place_id:0x390d1bfd61687473:0x878fa1ec1c9a9d7f"}, {"place_id": "0x390d0591ec7a1d09:0x20d4d888e929fe7b", "name": "MARKIVIS", "category": "Marketing agency", "street": "Corporate Park", "city": "201/ C2 D 21", "phone": "01145600389", "website": "http://www.markivis.com/", "rating": 4.4, "review_count": "", "latitude": 28.5618181, "longitude": 77.0670596, "maps_url": "https://www.google.com/maps/place/?q=place_id:0x390d0591ec7a1d09:0x20d4d888e929fe7b"}, {"place_id": "0x390d195c26bfa369:0x69bd8efd2e3a31fe", "name": "Radical Minds Technologies Pvt. Ltd.", "category": "BPO Company", "street": "368", "city": "Phase II, Udyog Vihar, Sector 20", "phone": "01244338366", "website": "http://www.radicalminds.in/", "rating": 4.2, "review_count": "", "latitude": 28.506335099999998, "longitude": 77.0877546, "maps_url": "https://www.google.com/maps/place/?q=place_id:0x390d195c26bfa369:0x69bd8efd2e3a31fe"}, {"place_id": "0x390d1be7f1a44f95:0x84524a5425f8930d", "name": "InfraDost Technologies Pvt Ltd.- Microsoft Adobe Corel Draw & Security Solution Provider", "category": "Software company", "street": "Gurgaon - Delhi Expy", "city": "Block B, Mahipalpur Village, Mahipalpur", "phone": "08287792542", "website": "http://www.infradost.com/", "rating": 4.6, "review_count": "", "latitude": 28.5485743, "longitude": 77.1264697, "maps_url": "https://www.google.com/maps/place/?q=place_id:0x390d1be7f1a44f95:0x84524a5425f8930d"}, {"place_id": "0x390d1b2440000001:0x7b52a88f21fc0d82", "name": "DesignDot Technologies | #1 Best Website & App Development | Top Software & AIML Solutions Company in Delhi", "category": "Software company", "street": "RZ 1/13, 3RD FLOOR, Main Road Above HDFC Bank, Dwarka, Near Palam Metro Gate 2", "city": "New Delhi, Delhi 110077", "phone": "09999652812", "website": "https://www.designdot.co.in/", "rating": 5, "review_count": "", "latitude": 28.587238199999998, "longitude": 77.0850727, "maps_url": "https://www.google.com/maps/place/?q=place_id:0x390d1b2440000001:0x7b52a88f21fc0d82"}, {"place_id": "0x390d1960c2b8367f:0xd2d30e45ac71acea", "name": "Vorombetech Solutions - Top IT & Digitalization Service Company in Gurugram", "category": "Software company", "street": "249", "city": "Phase IV, Udyog Vihar, Sector 19", "phone": "", "website": "https://vorombetech.com/", "rating": 4.8, "review_count": "", "latitude": 28.4941475, "longitude": 77.0808448, "maps_url": "https://www.google.com/maps/place/?q=place_id:0x390d1960c2b8367f:0xd2d30e45ac71acea"}, {"place_id": "0x390d1b0010fc2321:0x12e9154c815cf007", "name": "Prashant Dwivedi IT company", "category": "Warehouse", "street": "G3P5+GVC", "city": "Nayak Pura, Bijwasan", "phone": "", "website": "", "rating": "", "review_count": "", "latitude": 28.536316, "longitude": 77.059649, "maps_url": "https://www.google.com/maps/place/?q=place_id:0x390d1b0010fc2321:0x12e9154c815cf007"}, {"place_id": "0x390d05e30eed4415:0x52bb703e06164e54", "name": "SpriteEra IT Solutions Pvt. Ltd.", "category": "Software company", "street": "N-52", "city": "Nand Vihar, Sector 16A, Dwarka", "phone": "09569550856", "website": "https://spriteera.com/", "rating": 5, "review_count": "", "latitude": 28.614293099999998, "longitude": 77.01946319999999, "maps_url": "https://www.google.com/maps/place/?q=place_id:0x390d05e30eed4415:0x52bb703e06164e54"}, {"place_id": "0x390d193fbcefc3e9:0x3e596d04b4191436", "name": "Nuvoretail Enlytical Technologies Pvt Ltd", "category": "E - Commerce Agency", "street": "1st Floor", "city": "Plot 34", "phone": "09911516516", "website": "http://nuvoretail.com/", "rating": 4.7, "review_count": "", "latitude": 28.565179699999998, "longitude": 77.0514841, "maps_url": "https://www.google.com/maps/place/?q=place_id:0x390d193fbcefc3e9:0x3e596d04b4191436"}, {"place_id": "0x390d050d9e7ce6a3:0xa72607a5a8be6510", "name": "Shri Sai Tech Solutions", "category": "Software company", "street": "Pillar number 783", "city": "Metro Station Dwarka Mor A-109, Street No. 4", "phone": "07210868167", "website": "https://shrisaitechsolutions.com/", "rating": 4.3, "review_count": "", "latitude": 28.6189075, "longitude": 77.0333678, "maps_url": "https://www.google.com/maps/place/?q=place_id:0x390d050d9e7ce6a3:0xa72607a5a8be6510"}, {"place_id": "0x390d055ab880b807:0xcb5c025daa2b2795", "name": "Tech Web Mantra", "category": "Software company", "street": "B-77", "city": "near Dwarka Mor Metro Station", "phone": "09871521039", "website": "https://www.techwebmantra.com/", "rating": 5, "review_count": "", "latitude": 28.614187899999997, "longitude": 77.0362179, "maps_url": "https://www.google.com/maps/place/?q=place_id:0x390d055ab880b807:0xcb5c025daa2b2795"}, {"place_id": "0x390d1b3c7aaaaaab:0xcc0116b944b8452c", "name": "ESIGN WEB SERVICES PVT LTD", "category": "Website designer", "street": "3rd Floor", "city": "Plot No 24", "phone": "09718099999", "website": "https://www.esignwebservices.com/", "rating": 4.7, "review_count": "", "latitude": 28.5857121, "longitude": 77.0494913, "maps_url": "https://www.google.com/maps/place/?q=place_id:0x390d1b3c7aaaaaab:0xcc0116b944b8452c"}, {"place_id": "0x390d1bcd76384d39:0xdb32f9430e255f8e", "name": "WINISHTECH IT SOLUTIONS PRIVATE LIMITED", "category": "Software company", "street": "B1/639 A", "city": "Janakpuri West, Block B1, Janakpuri", "phone": "", "website": "https://winishtechitsolutions.com/", "rating": 5, "review_count": "", "latitude": 28.6324707, "longitude": 77.0857044, "maps_url": "https://www.google.com/maps/place/?q=place_id:0x390d1bcd76384d39:0xdb32f9430e255f8e"}, {"place_id": "0x390d1df0721e08c5:0x49d5fd4648a33c2d", "name": "Nibble Software | Website Design & Development | Travel Web API & CRM | SEO, SMO, Paid Ads, Amazon & Flipkart Marketing", "category": "Website designer", "street": "4th Floor", "city": "Moolchand Tower", "phone": "09971066697", "website": "https://www.nibblesoftware.com/", "rating": 4.8, "review_count": "", "latitude": 28.6000862, "longitude": 77.0818018, "maps_url": "https://www.google.com/maps/place/?q=place_id:0x390d1df0721e08c5:0x49d5fd4648a33c2d"}, {"place_id": "0x390d1ba812ffffff:0xdae1c2f5f359f879", "name": "Bee Logistics SCM Private Limited", "category": "Logistics service", "street": "421, 4th Floor", "city": "Corporate Park", "phone": "", "website": "https://www.beelogistics.com/", "rating": 4.8, "review_count": "", "latitude": 28.5618181, "longitude": 77.0670596, "maps_url": "https://www.google.com/maps/place/?q=place_id:0x390d1ba812ffffff:0xdae1c2f5f359f879"}, {"place_id": "0x390d1b03afd847d1:0x3f8589776214e47b", "name": "Techbizz - IT Solutions", "category": "Software company", "street": "1st floor", "city": "Najafgarh Kapashera Rd", "phone": "08130622472", "website": "", "rating": 5, "review_count": "", "latitude": 28.5325596, "longitude": 77.0540195, "maps_url": "https://www.google.com/maps/place/?q=place_id:0x390d1b03afd847d1:0x3f8589776214e47b"}, {"place_id": "0x390d1b07258b26f1:0xdb069b2f46a6e90e", "name": "Vivanta New Delhi, Dwarka", "category": "Hotel", "street": "Service Rd", "city": "Sector 21, Dwarka", "phone": "01166003000", "website": "https://www.vivantahotels.com/en-in/hotels/vivanta-new-delhi", "rating": 4.4, "review_count": "", "latitude": 28.5583918, "longitude": 77.06301789999999, "maps_url": "https://www.google.com/maps/place/?q=place_id:0x390d1b07258b26f1:0xdb069b2f46a6e90e"}, {"place_id": "0x390d1b4ac4a9d1f5:0x84b29d41835c9e9", "name": "Anytime Logistic Pvt Ltd", "category": "Logistics service", "street": "Plot No. 25", "city": "MBR Enclave, Block A, Sector 23, Dwarka", "phone": "09212000260", "website": "", "rating": 4.8, "review_count": "", "latitude": 28.562712899999998, "longitude": 77.0504127, "maps_url": "https://www.google.com/maps/place/?q=place_id:0x390d1b4ac4a9d1f5:0x84b29d41835c9e9"}, {"place_id": "0xac577056c2b5ff3d:0xaf00253141553d04", "name": "Devnotam | IT Company", "category": "Internet marketing service", "street": "", "city": "", "phone": "", "website": "https://devnotam.com/", "rating": 5, "review_count": "", "latitude": 28.692404999999997, "longitude": 77.090042, "maps_url": "https://www.google.com/maps/place/?q=place_id:0xac577056c2b5ff3d:0xaf00253141553d04"}, {"place_id": "0x390d1ba4b50ab3a1:0x4202088df86f7f0", "name": "Lozy Warehousing Company", "category": "Warehouse", "street": "Vardhman Crown Mall", "city": "G-41", "phone": "", "website": "http://lozy.in/", "rating": 5, "review_count": "", "latitude": 28.5751028, "longitude": 77.0510513, "maps_url": "https://www.google.com/maps/place/?q=place_id:0x390d1ba4b50ab3a1:0x4202088df86f7f0"}, {"place_id": "0x390d1b70c5bde25b:0xded68a5ff4dc6ea5", "name": "AY Technologies", "category": "Software company", "street": "Plot - 6", "city": "F-305", "phone": "", "website": "https://aytech.in/", "rating": "", "review_count": "", "latitude": 28.589448299999997, "longitude": 77.0566382, "maps_url": "https://www.google.com/maps/place/?q=place_id:0x390d1b70c5bde25b:0xded68a5ff4dc6ea5"}, {"place_id": "0x390d1b13c7f13c3d:0x8084015ee577ed6d", "name": "MUSCO | Furnished Office Space for Rent or Lease in Dwarka West Delhi", "category": "Corporate office", "street": "Corporate Park", "city": "301/E 3rd Floor D 21", "phone": "07428677100", "website": "http://d21corporatepark.in/", "rating": 5, "review_count": "", "latitude": 28.561850999999997, "longitude": 77.0669894, "maps_url": "https://www.google.com/maps/place/?q=place_id:0x390d1b13c7f13c3d:0x8084015ee577ed6d"}, {"place_id": "0x390d1ba3411bef1d:0xa19e43663480df1a", "name": "Millennium Aero Dynamics P Ltd New Delhi", "category": "Aerospace company", "street": "Milennium Aero Dynamics Private Limited. Khasra No.349/350, 506/507, Khatoni No.84/76 Near Ramana House, Shahbad Mohammadpur", "city": "New Delhi, 110061", "phone": "01125653203", "website": "http://www.millennium.in/", "rating": 4.6, "review_count": "", "latitude": 28.5537578, "longitude": 77.0748941, "maps_url": "https://www.google.com/maps/place/?q=place_id:0x390d1ba3411bef1d:0xa19e43663480df1a"}, {"place_id": "0x390d1bab9e9faff7:0x7035eadc1f93e5cc", "name": "Naval Technical Officers CGHS", "category": "Apartment complex", "street": "Plot No, The Naval Technical Officers Cooperative Group Housing Society Block-1", "city": "THE NAVAL TECHNICAL OFFICERS CO-OPERATIVE GROUP HOUSING SOCIETY", "phone": "", "website": "", "rating": 4.3, "review_count": "", "latitude": 28.5578133, "longitude": 77.0603316, "maps_url": "https://www.google.com/maps/place/?q=place_id:0x390d1bab9e9faff7:0x7035eadc1f93e5cc"}, {"place_id": "0x41d0a87c8f4afaf:0x24b53b7f7ad5bf06", "name": "Fox Beryl - Digital Marketing Company", "category": "Website designer", "street": "G-16/2 Street NO. 2 Raj nagar", "city": "Part-2, Palam", "phone": "08595869757", "website": "https://foxberyl.in/", "rating": 5, "review_count": "", "latitude": 28.585067199999997, "longitude": 77.0815736, "maps_url": "https://www.google.com/maps/place/?q=place_id:0x41d0a87c8f4afaf:0x24b53b7f7ad5bf06"}, {"place_id": "0x69d6df76b43fe77f:0x93f44fed6f9a39c", "name": "Suman Anand & Associates, Chartered Accountants", "category": "Chartered accountant", "street": "Manish Global Mall", "city": "F-89", "phone": "09205831039", "website": "https://casumananand.com/", "rating": 4.8, "review_count": "", "latitude": 28.5603892, "longitude": 77.05937209999999, "maps_url": "https://www.google.com/maps/place/?q=place_id:0x69d6df76b43fe77f:0x93f44fed6f9a39c"}, {"place_id": "0x390d1acf7916f8e5:0x274db7eb7d70a6a5", "name": "The Case Company", "category": "E-commerce service", "street": "T-1 Manish Chamber-3 New", "city": "Sector 12 Dwarka, Dwarka", "phone": "", "website": "http://www.thecasecompany.in/", "rating": 4.2, "review_count": "", "latitude": 28.5954953, "longitude": 77.041816, "maps_url": "https://www.google.com/maps/place/?q=place_id:0x390d1acf7916f8e5:0x274db7eb7d70a6a5"}, {"place_id": "0x390d1b5c83984955:0xab519a2222070475", "name": "Vision Web India | Best Web Development & Digital Marketing Company In Delhi", "category": "Website designer", "street": "B 252, Palam Extension", "city": "Ramphal Chowk Rd", "phone": "09667719394", "website": "https://visionwebindia.com/", "rating": 5, "review_count": "", "latitude": 28.586551699999998, "longitude": 77.0690965, "maps_url": "https://www.google.com/maps/place/?q=place_id:0x390d1b5c83984955:0xab519a2222070475"}, {"place_id": "0x390d1b80fb9da03d:0xd77ea97dd9a2aa4a", "name": "Nextwebi IT Solutions Pvt Ltd", "category": "Website designer", "street": "45, Street Number 2", "city": "Palam Extension, Sector 7 Dwarka, Dwarka", "phone": "08904240871", "website": "", "rating": 5, "review_count": "", "latitude": 28.5945388, "longitude": 77.0857647, "maps_url": "https://www.google.com/maps/place/?q=place_id:0x390d1b80fb9da03d:0xd77ea97dd9a2aa4a"}, {"place_id": "0x390cfb4bf15a6733:0xaf50e6f3c5fb7641", "name": "Digitals Daddy: Web & App Development Company", "category": "Software company", "street": "Metro Gate No. 2", "city": "Nearest Sikandarpur", "phone": "09818286609", "website": "https://www.digitalsdaddy.com/", "rating": 4.9, "review_count": "", "latitude": 28.4847884, "longitude": 77.0922192, "maps_url": "https://www.google.com/maps/place/?q=place_id:0x390cfb4bf15a6733:0xaf50e6f3c5fb7641"}, {"place_id": "0x390d1c6bcfd37a51:0xe65828997af7f8dd", "name": "Ernst and Young Global Limited", "category": "Business management consultant", "street": "3rd & 6th Floor, Wing A & B Worldmark-1 Indira Gandhi International Airport Hospitality", "city": "Opp Holiday Inn", "phone": "", "website": "http://ey.com/", "rating": 4.6, "review_count": "", "latitude": 28.5504197, "longitude": 77.1220802, "maps_url": "https://www.google.com/maps/place/?q=place_id:0x390d1c6bcfd37a51:0xe65828997af7f8dd"}, {"place_id": "0x390d1b1636772253:0x90fb52e5011143a6", "name": "Janus Global LLP", "category": "Computer support and services", "street": "D 459A, Ramphal Chowk Rd", "city": "Block D, Sector 7 Dwarka, Dwarka", "phone": "09999216234", "website": "https://janusglobal.in/", "rating": 5, "review_count": "", "latitude": 28.585091, "longitude": 77.06935159999999, "maps_url": "https://www.google.com/maps/place/?q=place_id:0x390d1b1636772253:0x90fb52e5011143a6"}, {"place_id": "0xa631d82b19e63007:0x8c2868cc83503bf6", "name": "Aj Web Technologies", "category": "Software company", "street": "", "city": "", "phone": "09266094455", "website": "https://www.ajwebtechnologies.com/", "rating": 5, "review_count": "", "latitude": 40.266869, "longitude": -39.2735501, "maps_url": "https://www.google.com/maps/place/?q=place_id:0xa631d82b19e63007:0x8c2868cc83503bf6"}, {"place_id": "0x390d05cb67f9d089:0xeb99e0b2ca44d1b6", "name": "Website Design | SEO | Wonyx IT Solutions", "category": "Software company", "street": "D36 F/F Mohit Nagar", "city": "Sector 15 Dwarka, Kakrola", "phone": "07011134755", "website": "https://mywonyx.com/", "rating": 5, "review_count": "", "latitude": 28.6076153, "longitude": 77.0345814, "maps_url": "https://www.google.com/maps/place/?q=place_id:0x390d05cb67f9d089:0xeb99e0b2ca44d1b6"}, {"place_id": "0x390d19345bcdc4f3:0x61d5221ed2c17f35", "name": "Cognizant", "category": "Software company", "street": "Tower C, SEZ Building, Building No 6, 5th & 6th Floor DLF C yber City Rd W Block", "city": "Near Shankar Chowk", "phone": "", "website": "http://www.cognizant.com/india", "rating": 4.1, "review_count": "", "latitude": 28.4964521, "longitude": 77.096576, "maps_url": "https://www.google.com/maps/place/?q=place_id:0x390d19345bcdc4f3:0x61d5221ed2c17f35"}, {"place_id": "0xabdb05972fc62267:0x2f4e2875e0621bcc", "name": "VRL Express Packers and Movers", "category": "Packaging company", "street": "Ground Floor, Mustatil, No.- 92", "city": "Plot No. 2", "phone": "09821893004", "website": "http://vrlexpresspackersandmovers.co.in/", "rating": 4.7, "review_count": "", "latitude": 28.5582659, "longitude": 77.0714553, "maps_url": "https://www.google.com/maps/place/?q=place_id:0xabdb05972fc62267:0x2f4e2875e0621bcc"}]}