[{"place_id": "ChIJbQelJrX9YjkR0lBtVbXL4UE", "name": "indvibe infotech pvt ltd", "street": "Rajat Complex, 302-B, near Madhumilan Square Road, Opp. Dawa Bazar, Kibe Compound, Indore, Madhya Pradesh 452015, India", "phone": "+91 90988 84202", "rating": "4.5", "review_count": "", "website": "http://www.indvibeinfotech.in/", "latitude": 22.713374599999998, "longitude": 75.87468179999999, "maps_url": "https://www.google.com/maps/search/?api=1&query=indvibe%20infotech%20pvt%20ltd&query_place_id=ChIJbQelJrX9YjkR0lBtVbXL4UE"}, {"place_id": "ChIJEb8gnhf9YjkRGRW89iG6eCY", "name": "SunilOS InfoTech Pvt Ltd", "street": "211, 6/2, President Tower, National Highway 59, Chhoti Gwaltoli, Indore, Madhya Pradesh 452001, India", "phone": "+91 731 424 9244", "rating": "5", "review_count": "", "website": "http://www.sunilos.com/", "latitude": 22.714446, "longitude": 75.873734, "maps_url": "https://www.google.com/maps/search/?api=1&query=SunilOS%20InfoTech%20Pvt%20Ltd&query_place_id=ChIJEb8gnhf9YjkRGRW89iG6eCY"}, {"place_id": "ChIJFziVioEDYzkRcb89171WfPY", "name": "InfiminTus Technologies - Website Design, Application and Software Development IT Company", "street": "2nd Floor, Chetak Chamber, 220, RNT Marg, Madhumilan, M.Y.Hospital, Jaora Compound, Indore, Madhya Pradesh 452001, India", "phone": "+91 97543 16154", "rating": "4.4", "review_count": "", "website": "https://infimintustech.com/", "latitude": 22.7128428, "longitude": 75.8758618, "maps_url": "https://www.google.com/maps/search/?api=1&query=InfiminTus%20Technologies%20-%20Website%20Design%2C%20Application%20and%20Software%20Development%20IT%20Company&query_place_id=ChIJFziVioEDYzkRcb89171WfPY"}, {"place_id": "ChIJAQAAAAQCYzkRukX4_IU_-JI", "name": "CitrusLeaf Software", "street": "The ONE, 307-08, RNT Marg, opposite DAVV, South Tukoganj, Indore, Madhya Pradesh 452001, India", "phone": "+91 731 491 1604", "rating": "4.9", "review_count": "", "website": "https://citrusleaf.in/", "latitude": 22.715198599999997, "longitude": 75.8742322, "maps_url": "https://www.google.com/maps/search/?api=1&query=CitrusLeaf%20Software&query_place_id=ChIJAQAAAAQCYzkRukX4_IU_-JI"}, {"place_id": "ChIJU0GDdRf9YjkR74sqopzSjCI", "name": "NCS^", "street": "NCS^ House, 80, Jaora Compound, Indore, Madhya Pradesh 452001, India", "phone": "+91 731 350 5885", "rating": "4.7", "review_count": "", "website": "http://www.nenosystems.com/", "latitude": 22.711851199999998, "longitude": 75.877246, "maps_url": "https://www.google.com/maps/search/?api=1&query=NCS%5E&query_place_id=ChIJU0GDdRf9YjkR74sqopzSjCI"}, {"place_id": "ChIJIz4zKOElumgRt7c9mo_IRXU", "name": "Bheema Infotech Pvt Ltd", "street": "Rajat Complex, 302 A, near Madhumilan Square, Opp. Dawa Bazar, Kibe Compound, Indore, Madhya Pradesh 452001, India", "phone": "+91 97703 62377", "rating": "4.8", "review_count": "", "website": "https://bheemainfotech.in/", "latitude": 22.7133024, "longitude": 75.8746274, "maps_url": "https://www.google.com/maps/search/?api=1&query=Bheema%20Infotech%20Pvt%20Ltd&query_place_id=ChIJIz4zKOElumgRt7c9mo_IRXU"}, {"place_id": "ChIJy-aykBf9YjkRlJu5kZlAeDE", "name": "ByteME Technologies LLP", "street": "RNT Marg, Chhoti Gwaltoli, Indore, Madhya Pradesh 452001, India", "phone": "+91 70001 01217", "rating": "5", "review_count": "", "website": "http://www.byteme.co.in/", "latitude": 22.7143998, "longitude": 75.8745102, "maps_url": "https://www.google.com/maps/search/?api=1&query=ByteME%20Technologies%20LLP&query_place_id=ChIJy-aykBf9YjkRlJu5kZlAeDE"}, {"place_id": "ChIJy-aykBf9YjkRv0cJ438KJ0c", "name": "TECHFROLIC", "street": "Office No. 509, 165, Fortune Business Center, RNT Marg, Chhoti Gwaltoli, Indore, Madhya Pradesh 452001, India", "phone": "+91 64799 22645", "rating": "5", "review_count": "", "website": "http://techfrolic.com/", "latitude": 22.7143998, "longitude": 75.8745102, "maps_url": "https://www.google.com/maps/search/?api=1&query=TECHFROLIC&query_place_id=ChIJy-aykBf9YjkRv0cJ438KJ0c"}, {"place_id": "ChIJGTCYLdH9YjkRhCyg0-KzpHo", "name": "SRN Infotech Pvt Ltd - Web Development Company", "street": "307, RNT Marg, South Tukoganj, Indore, Madhya Pradesh 452001, India", "phone": "+91 84629 09009", "rating": "5", "review_count": "", "website": "https://srninfotech.com/", "latitude": 22.715361899999998, "longitude": 75.8745003, "maps_url": "https://www.google.com/maps/search/?api=1&query=SRN%20Infotech%20Pvt%20Ltd%20-%20Web%20Development%20Company&query_place_id=ChIJGTCYLdH9YjkRhCyg0-KzpHo"}, {"place_id": "ChIJHxElN4D9YjkRzZKbWTx_498", "name": "VeVa Technology", "street": "President Tower, 401-A, RNT Marg, Madhumilan Square, Indore, Madhya Pradesh 452001, India", "phone": "+91 98270 37932", "rating": "4.9", "review_count": "", "website": "https://vevatechnology.com/", "latitude": 22.714437699999998, "longitude": 75.8737381, "maps_url": "https://www.google.com/maps/search/?api=1&query=VeVa%20Technology&query_place_id=ChIJHxElN4D9YjkRzZKbWTx_498"}, {"place_id": "ChIJrarauhf9YjkRWHNziCIIxbA", "name": "Devshreem Solutions Private Limited", "street": "101, RNT Marg, 12/2, South Tukoganj, Indore, Madhya Pradesh 452001, India", "phone": "+91 98266 61122", "rating": "4.7", "review_count": "", "website": "http://devshreem.com/", "latitude": 22.715304699999997, "longitude": 75.87437779999999, "maps_url": "https://www.google.com/maps/search/?api=1&query=Devshreem%20Solutions%20Private%20Limited&query_place_id=ChIJrarauhf9YjkRWHNziCIIxbA"}, {"place_id": "ChIJNcJNZ5L9YjkRxUsp54eT1I4", "name": "MMC Convert", "street": "163, RNT Marg, opp. Nehru Statue, Thanewala Terrace, South Tukoganj, Indore, Madhya Pradesh 452001, India", "phone": "+91 99264 77000", "rating": "4.6", "review_count": "", "website": "https://www.mmcconvert.com/", "latitude": 22.714643199999998, "longitude": 75.87417119999999, "maps_url": "https://www.google.com/maps/search/?api=1&query=MMC%20Convert&query_place_id=ChIJNcJNZ5L9YjkRxUsp54eT1I4"}, {"place_id": "ChIJsQOUlsb9YjkRUMKZIshGBt4", "name": "IT Spark Technology Pvt. Ltd.", "street": "4th Floor 418 Shekhar Central Manoramaganj, New Palasia, Indore, Madhya Pradesh 452001, India", "phone": "+91 91098 45654", "rating": "4.8", "review_count": "", "website": "http://www.itsparktechnology.com/", "latitude": 22.722727, "longitude": 75.88707099999999, "maps_url": "https://www.google.com/maps/search/?api=1&query=IT%20Spark%20Technology%20Pvt.%20Ltd.&query_place_id=ChIJsQOUlsb9YjkRUMKZIshGBt4"}, {"place_id": "ChIJU0hE6n39YjkRfs4ooW5ZBOo", "name": "Winrit Softwares", "street": "205, Fortune Business Center, near DAVV Indore, near, Madhumilan Square, Indore, Madhya Pradesh 452001, India", "phone": "+91 89598 81192", "rating": "5", "review_count": "", "website": "https://winrit.com/", "latitude": 22.715281299999997, "longitude": 75.8735633, "maps_url": "https://www.google.com/maps/search/?api=1&query=Winrit%20Softwares&query_place_id=ChIJU0hE6n39YjkRfs4ooW5ZBOo"}, {"place_id": "ChIJ_3_axhb9YjkRSfQ2vH3aaqE", "name": "Hvantage Tech Solutions Pvt. Ltd.", "street": "509 block B corporate house 5th floor, RNT Marg, Indore, Madhya Pradesh 452001, India", "phone": "+91 731 407 4459", "rating": "3.2", "review_count": "", "website": "https://hvantagetechnologies.com/", "latitude": 22.7172125, "longitude": 75.87177729999999, "maps_url": "https://www.google.com/maps/search/?api=1&query=Hvantage%20Tech%20Solutions%20Pvt.%20Ltd.&query_place_id=ChIJ_3_axhb9YjkRSfQ2vH3aaqE"}, {"place_id": "ChIJ-5bv9xf9YjkRte6QR_hQ56M", "name": "MARG SOLUTION INDORE", "street": "BLOCK - B , 13, MARG SOLUTION INDORE G-6, TAGORE CENTER, 14, RNT Marg, Indore, Madhya Pradesh 452001, India", "phone": "+91 731 403 0609", "rating": "4.5", "review_count": "", "website": "", "latitude": 22.712707899999998, "longitude": 75.8762824, "maps_url": "https://www.google.com/maps/search/?api=1&query=MARG%20SOLUTION%20INDORE&query_place_id=ChIJ-5bv9xf9YjkRte6QR_hQ56M"}, {"place_id": "ChIJ-ZhWYkD9YjkRgM1PWRXpRig", "name": "Matic Technology | Digital Marketing & Web Development Company", "street": "2nd Floor, Chetak Chamber, 222, Madhumilan Square, near Dawa Bazar, Madhumilan, M.Y.Hospital, Jaora Compound, Indore, Madhya Pradesh 452001, India", "phone": "+91 79744 96009", "rating": "4.6", "review_count": "", "website": "http://www.matictechnology.com/", "latitude": 22.7128428, "longitude": 75.8758618, "maps_url": "https://www.google.com/maps/search/?api=1&query=Matic%20Technology%20%7C%20Digital%20Marketing%20%26%20Web%20Development%20Company&query_place_id=ChIJ-ZhWYkD9YjkRgM1PWRXpRig"}, {"place_id": "ChIJd1ljDUj9YjkR86S6JSgu-HI", "name": "Mango IT Solutions", "street": "15/3, Old Palasia Rd, behind sarda house, Old Palasia, Indore, Madhya Pradesh 452018, India", "phone": "+91 731 404 6693", "rating": "4.3", "review_count": "", "website": "http://www.mangoitsolutions.com/", "latitude": 22.7276298, "longitude": 75.8888766, "maps_url": "https://www.google.com/maps/search/?api=1&query=Mango%20IT%20Solutions&query_place_id=ChIJd1ljDUj9YjkR86S6JSgu-HI"}, {"place_id": "ChIJpZCCdRf9YjkRxs_FG9QdXWI", "name": "RAYS Technologies", "street": "sunRays House, 82, Jaora Compound, Indore, Madhya Pradesh 452001, India", "phone": "+91 731 424 9244", "rating": "4.8", "review_count": "", "website": "http://www.raystec.com/", "latitude": 22.7119431, "longitude": 75.8769923, "maps_url": "https://www.google.com/maps/search/?api=1&query=RAYS%20Technologies&query_place_id=ChIJpZCCdRf9YjkRxs_FG9QdXWI"}, {"place_id": "ChIJ8929b1VVK4ER9MoZisJRoDc", "name": "TanmayiSoft - Website Design Company in Indore", "street": "Trade House, 415, 14/3, South Tukoganj, Indore, Madhya Pradesh 452016, India", "phone": "", "rating": "5", "review_count": "", "website": "https://tanmayisoft.com/", "latitude": 22.7159305, "longitude": 75.8757761, "maps_url": "https://www.google.com/maps/search/?api=1&query=TanmayiSoft%20-%20Website%20Design%20Company%20in%20Indore&query_place_id=ChIJ8929b1VVK4ER9MoZisJRoDc"}, {"place_id": "ChIJDSlVh639YjkRcqsmYirlm64", "name": "ThoughtWin IT Solutions Pvt. Ltd.", "street": "1 Panna estate, Kesar Bagh Rd, Indira Gandhi Nagar, Indore, Madhya Pradesh 452009, India", "phone": "+91 99770 69348", "rating": "4.1", "review_count": "", "website": "https://www.thoughtwin.com/", "latitude": 22.699189099999998, "longitude": 75.84473919999999, "maps_url": "https://www.google.com/maps/search/?api=1&query=ThoughtWin%20IT%20Solutions%20Pvt.%20Ltd.&query_place_id=ChIJDSlVh639YjkRcqsmYirlm64"}, {"place_id": "ChIJMXHLJC79YjkRgZZLgMZ8uaY", "name": "Wincom Technologies", "street": "405, Shreenathji Avenue, 158-RNT Marg, Chhawani Rd, near Kibe Compound, Indore, Madhya Pradesh 452001, India", "phone": "+91 88276 23611", "rating": "5", "review_count": "", "website": "https://www.wincomtechnologies.com/", "latitude": 22.7121875, "longitude": 75.8753456, "maps_url": "https://www.google.com/maps/search/?api=1&query=Wincom%20Technologies&query_place_id=ChIJMXHLJC79YjkRgZZLgMZ8uaY"}, {"place_id": "ChIJXxMUivf9YjkR0QRGB0IQIdo", "name": "Consistent Infosystems Pvt Ltd", "street": "Shop No 204, Silver Mall, RNT Marg, B- Block, Chhoti Gwaltoli, Indore, Madhya Pradesh 452001, India", "phone": "+91 89292 49560", "rating": "4.9", "review_count": "", "website": "https://consistent.in/", "latitude": 22.7143998, "longitude": 75.8745102, "maps_url": "https://www.google.com/maps/search/?api=1&query=Consistent%20Infosystems%20Pvt%20Ltd&query_place_id=ChIJXxMUivf9YjkR0QRGB0IQIdo"}, {"place_id": "ChIJb_RPVKgCYzkRCCxPrrevCXw", "name": "Conative IT Solutions Pvt. Ltd.", "street": "Office No. 608, 6th Floor, Airen Heights, Behind Pakiza Mall, Vijay Nagar, Scheme No 54, Indore, Madhya Pradesh 452010, India", "phone": "+91 82697 88173", "rating": "3.7", "review_count": "", "website": "https://conativeitsolutions.com/", "latitude": 22.745121299999997, "longitude": 75.89222699999999, "maps_url": "https://www.google.com/maps/search/?api=1&query=Conative%20IT%20Solutions%20Pvt.%20Ltd.&query_place_id=ChIJb_RPVKgCYzkRCCxPrrevCXw"}, {"place_id": "ChIJD21BAhj9YjkRrwiu19E-7BY", "name": "Sanjari It Solution", "street": "10, RNT Marg, Chhawni, Indore, Madhya Pradesh 452001, India", "phone": "", "rating": "2.7", "review_count": "", "website": "", "latitude": 22.712361599999998, "longitude": 75.8758223, "maps_url": "https://www.google.com/maps/search/?api=1&query=Sanjari%20It%20Solution&query_place_id=ChIJD21BAhj9YjkRrwiu19E-7BY"}, {"place_id": "ChIJBa__YUr9YjkRHdGJDSr5j8A", "name": "Top Custom Software Development Company | AI, IoT & IT Solutions – Hiteshi", "street": "8th Floor Crystal IT Park, Madhya Pradesh 452001, India", "phone": "+91 731 297 1133", "rating": "3.6", "review_count": "", "website": "https://www.hiteshi.com/", "latitude": 22.685651999999997, "longitude": 75.872211, "maps_url": "https://www.google.com/maps/search/?api=1&query=Top%20Custom%20Software%20Development%20Company%20%7C%20AI%2C%20IoT%20%26%20IT%20Solutions%20%E2%80%93%20Hiteshi&query_place_id=ChIJBa__YUr9YjkRHdGJDSr5j8A"}, {"place_id": "ChIJYZdOGIn9YjkRDg2NNra8hbI", "name": "Disambi Electronics Technology Pvt Ltd", "street": "4th Floor, Dawa Bazaar, 26, RNT Marg, M.Y., Jaora Compound, Indore, Madhya Pradesh 452001, India", "phone": "+91 89599 85144", "rating": "5", "review_count": "", "website": "http://www.disambi.com/", "latitude": 22.713015, "longitude": 75.87640979999999, "maps_url": "https://www.google.com/maps/search/?api=1&query=Disambi%20Electronics%20Technology%20Pvt%20Ltd&query_place_id=ChIJYZdOGIn9YjkRDg2NNra8hbI"}, {"place_id": "ChIJB9V-VWIdYzkRGpenK3q2wl0", "name": "Royal IT Service - IT Company in Indore", "street": "426 Scheme No. 114 Part 2, Anurag Nagar Ln, B/H, Shalimar Township, Indore, Madhya Pradesh 452010, India", "phone": "+91 92851 92850", "rating": "4.2", "review_count": "", "website": "http://royalitservice.com/", "latitude": 22.7622528, "longitude": 75.9022899, "maps_url": "https://www.google.com/maps/search/?api=1&query=Royal%20IT%20Service%20-%20IT%20Company%20in%20Indore&query_place_id=ChIJB9V-VWIdYzkRGpenK3q2wl0"}, {"place_id": "ChIJS59v8UD9YjkRym2vOQQwKBY", "name": "ClumpCoder", "street": "President Tower, 504, Madhumilan Square Rd, Chhoti Gwaltoli, Indore, Madhya Pradesh 452001, India", "phone": "+91 94798 40841", "rating": "5", "review_count": "", "website": "https://clumpcoder.com/", "latitude": 22.714378, "longitude": 75.87368339999999, "maps_url": "https://www.google.com/maps/search/?api=1&query=ClumpCoder&query_place_id=ChIJS59v8UD9YjkRym2vOQQwKBY"}, {"place_id": "ChIJhwOXvhb9YjkRp_nk8EPzN8c", "name": "Top Software Development Company in USA | AI/ML | AI Agent | Gen AI | UXUI | Product Development", "street": "Crystal IT Park STP-1, 4th Floor Right Wing Ring Road, Madhya Pradesh 452001, India", "phone": "+91 731 297 3109", "rating": "4.8", "review_count": "", "website": "https://47billion.com/", "latitude": 22.6858591, "longitude": 75.8723211, "maps_url": "https://www.google.com/maps/search/?api=1&query=Top%20Software%20Development%20Company%20in%20USA%20%7C%20AI/ML%20%7C%20AI%20Agent%20%7C%20Gen%20AI%20%7C%20UXUI%20%7C%20Product%20Development&query_place_id=ChIJhwOXvhb9YjkRp_nk8EPzN8c"}, {"place_id": "ChIJj-H8lbb9YjkRYkVxbElG6K0", "name": "Design Collection", "street": "5th, 509, Fortune Business Centre, 165, RNT Marg, South Tukoganj, Indore, Madhya Pradesh 452001, India", "phone": "+91 79878 87047", "rating": "5", "review_count": "", "website": "http://designcollection.in/", "latitude": 22.715233599999998, "longitude": 75.8737584, "maps_url": "https://www.google.com/maps/search/?api=1&query=Design%20Collection&query_place_id=ChIJj-H8lbb9YjkRYkVxbElG6K0"}, {"place_id": "ChIJzQ7zuGr9YjkR9Onf05leLc8", "name": "EXPERT LAPTOP SERVICES", "street": "C-BLOCK, SILVER MALL, UG-11, RNT Marg, Chhoti Gwaltoli, Indore, Madhya Pradesh 452001, India", "phone": "+91 75096 48274", "rating": "5", "review_count": "", "website": "", "latitude": 22.714225499999998, "longitude": 75.8741421, "maps_url": "https://www.google.com/maps/search/?api=1&query=EXPERT%20LAPTOP%20SERVICES&query_place_id=ChIJzQ7zuGr9YjkR9Onf05leLc8"}, {"place_id": "ChIJKZOqZDf9YjkRk3tV8cIzSxs", "name": "Indore Technology Solutions", "street": "PVFQ+39X, Old Palasia Rd, Near Mayank Hospital, Manorama Ganj, Indore, Madhya Pradesh 452001, India", "phone": "+91 94070 87049", "rating": "5", "review_count": "", "website": "http://indoretechnology.com/", "latitude": 22.7227252, "longitude": 75.8884757, "maps_url": "https://www.google.com/maps/search/?api=1&query=Indore%20Technology%20Solutions&query_place_id=ChIJKZOqZDf9YjkRk3tV8cIzSxs"}, {"place_id": "ChIJh6-LT3_9YjkRWMU7NvN1j1k", "name": "Aimfortech - Software | SaaS | Web | E-Commerce Gaming App Development Company in India", "street": "103, Greater Kailash Road, above Nafees Restaurant, Old Palasia, Indore, Madhya Pradesh 452018, India", "phone": "+91 731 406 6773", "rating": "5", "review_count": "", "website": "https://www.aimfortech.com/", "latitude": 22.7257765, "longitude": 75.8878778, "maps_url": "https://www.google.com/maps/search/?api=1&query=Aimfortech%20-%20Software%20%7C%20SaaS%20%7C%20Web%20%7C%20E-Commerce%20Gaming%20App%20Development%20Company%20in%20India&query_place_id=ChIJh6-LT3_9YjkRWMU7NvN1j1k"}, {"place_id": "ChIJd0Pz9xH9YjkRVh18wF1NZW4", "name": "adp itrescuer pvt ltd", "street": "114 3rd floor dawa bazaar, RNT Marg, Indore, Madhya Pradesh 452001, India", "phone": "+91 98930 19772", "rating": "5", "review_count": "", "website": "https://adpitrescuer.com/", "latitude": 22.7131893, "longitude": 75.8759104, "maps_url": "https://www.google.com/maps/search/?api=1&query=adp%20itrescuer%20pvt%20ltd&query_place_id=ChIJd0Pz9xH9YjkRVh18wF1NZW4"}, {"place_id": "ChIJkx4oC7P9YjkRivdcqx3A4Qk", "name": "Aiminent IT Solutions", "street": "2nd floor, 6 Dravid Nagar, Footi Kothi Main Road,, above Andhra Bank, Indore, Madhya Pradesh 452009, India", "phone": "+91 731 400 5778", "rating": "4.3", "review_count": "", "website": "http://aiminent.com/", "latitude": 22.70109, "longitude": 75.8374362, "maps_url": "https://www.google.com/maps/search/?api=1&query=Aiminent%20IT%20Solutions&query_place_id=ChIJkx4oC7P9YjkRivdcqx3A4Qk"}, {"place_id": "ChIJTVRh1Q39YjkRraaDkU0X69c", "name": "ARUN B. JAIN & COMPANY (Ca firm)", "street": "IIIrd Floor, Shyam Tower, 301, 164/2, RNT Marg, nr. Hotel President, Indore, Madhya Pradesh 452001, India", "phone": "+91 99260 06660", "rating": "4.9", "review_count": "", "website": "http://www.caabjain.com/", "latitude": 22.7148207, "longitude": 75.8737969, "maps_url": "https://www.google.com/maps/search/?api=1&query=ARUN%20B.%20JAIN%20%26%20COMPANY%20%28Ca%20firm%29&query_place_id=ChIJTVRh1Q39YjkRraaDkU0X69c"}, {"place_id": "ChIJEZRiXG39YjkRD9UcNOYSUWo", "name": "Kaizaan Electronics & Printer Zone", "street": "Shop 77 3rd Floor, Rabindranath Tagore Marg, Dawa Bazar, M Y Hospital, Dawa Bazar, Indore, Madhya Pradesh 452001, India", "phone": "+91 98260 20224", "rating": "5", "review_count": "", "website": "", "latitude": 22.713272099999998, "longitude": 75.8765488, "maps_url": "https://www.google.com/maps/search/?api=1&query=Kaizaan%20Electronics%20%26%20Printer%20Zone&query_place_id=ChIJEZRiXG39YjkRD9UcNOYSUWo"}, {"place_id": "ChIJjR2B1Bn9YjkRO_1vzf0CUqU", "name": "Techture", "street": "23, behind Madhumilan Talkies, Kibe Compound, Indore, Madhya Pradesh 452001, India", "phone": "+91 91300 92843", "rating": "4.3", "review_count": "", "website": "https://www.techture.global/", "latitude": 22.7128272, "longitude": 75.8736187, "maps_url": "https://www.google.com/maps/search/?api=1&query=Techture&query_place_id=ChIJjR2B1Bn9YjkRO_1vzf0CUqU"}, {"place_id": "ChIJ5_KQQ9T9YjkR9J41TBR7h3o", "name": "Tarning Point Marketing", "street": "LG -15 C-Block,Silver Mall 13, 14RNT Marg, Indore, Madhya Pradesh 452001, India", "phone": "+91 91797 84777", "rating": "4.9", "review_count": "", "website": "", "latitude": 22.7133401, "longitude": 75.8761474, "maps_url": "https://www.google.com/maps/search/?api=1&query=Tarning%20Point%20Marketing&query_place_id=ChIJ5_KQQ9T9YjkR9J41TBR7h3o"}, {"place_id": "ChIJB8JpAhj9YjkRyVtakxFMRJ8", "name": "Apurv Kansal & Company", "street": "Office No15 3rd Floor, Super Crop Science, RNT Marg, Dawa Bazar, Madhumilan, Murai Mohalla, Jaora Compound, Indore, Madhya Pradesh 452001, India", "phone": "+91 98272 05947", "rating": "4.9", "review_count": "", "website": "http://apurvkansal.co.in/", "latitude": 22.713349899999997, "longitude": 75.8760396, "maps_url": "https://www.google.com/maps/search/?api=1&query=Apurv%20Kansal%20%26%20Company&query_place_id=ChIJB8JpAhj9YjkRyVtakxFMRJ8"}, {"place_id": "ChIJOxX7dRf9YjkRRAtRwZ48oAA", "name": "SHANDILYA INFOTECH", "street": "502, President Tower, NEAR, Madhumilan Square, Chhoti Gwaltoli, Indore, Madhya Pradesh 452001, India", "phone": "", "rating": "3.7", "review_count": "", "website": "", "latitude": 22.714361699999998, "longitude": 75.87368959999999, "maps_url": "https://www.google.com/maps/search/?api=1&query=SHANDILYA%20INFOTECH&query_place_id=ChIJOxX7dRf9YjkRRAtRwZ48oAA"}, {"place_id": "ChIJq6JYARj9YjkR8wsiwbnnruU", "name": "Data recovery Indore(Porwal Computers)", "street": "76, 3rd Floor, Dawa Bazar,, near Madhumilan Square, Indore, Madhya Pradesh 452001, India", "phone": "+91 99773 51100", "rating": "4.5", "review_count": "", "website": "http://www.datarecoveryindore.com/", "latitude": 22.7132483, "longitude": 75.8765497, "maps_url": "https://www.google.com/maps/search/?api=1&query=Data%20recovery%20Indore%28Porwal%20Computers%29&query_place_id=ChIJq6JYARj9YjkR8wsiwbnnruU"}, {"place_id": "ChIJJ2QHIvT9YjkRgvT4t7HSSoY", "name": "Rera Solution", "street": "105-Ext. Manas Bhawan, Madhu Milan Square, 11, RNT Marg, near Hotel shreemaya, Indore, Madhya Pradesh 452001, India", "phone": "+91 97533 31432", "rating": "4.9", "review_count": "", "website": "http://www.rerasolution.com/", "latitude": 22.713116, "longitude": 75.8719248, "maps_url": "https://www.google.com/maps/search/?api=1&query=Rera%20Solution&query_place_id=ChIJJ2QHIvT9YjkRgvT4t7HSSoY"}, {"place_id": "ChIJEZRiXG39YjkRVnzDkuauNLc", "name": "Techzone", "street": "4th Floor, 130, RNT Marg, Madhu Milan, Dawa Bazar, Indore, Madhya Pradesh 452001, India", "phone": "+91 731 409 8070", "rating": "5", "review_count": "", "website": "https://computerrepairingservices.in/", "latitude": 22.7131713, "longitude": 75.87620799999999, "maps_url": "https://www.google.com/maps/search/?api=1&query=Techzone&query_place_id=ChIJEZRiXG39YjkRVnzDkuauNLc"}, {"place_id": "ChIJ6zx8vmr9YjkRRLa28E0uYuE", "name": "Syagro Kisan Tools Pvt. Ltd.", "street": "No.26 4th floor, Shop, 13/14, RNT Marg, Dawa Bazar, M.Y., Jaora Compound, Indore, Madhya Pradesh 452001, India", "phone": "+91 70002 70147", "rating": "4.9", "review_count": "", "website": "http://kisantools.in/", "latitude": 22.7132348, "longitude": 75.8765104, "maps_url": "https://www.google.com/maps/search/?api=1&query=Syagro%20Kisan%20Tools%20Pvt.%20Ltd.&query_place_id=ChIJ6zx8vmr9YjkRRLa28E0uYuE"}, {"place_id": "ChIJpYthZjf9YjkR83vtrMK9dec", "name": "HR BIZ HUB | Best Recruitment And Job Consultancy In Indore", "street": "311, President Tower, Madhumilan Square, Chhoti Gwaltoli, Indore, Madhya Pradesh 452001, India", "phone": "+91 82694 22002", "rating": "3.8", "review_count": "", "website": "http://www.hrbizhub.com/", "latitude": 22.714378, "longitude": 75.87368339999999, "maps_url": "https://www.google.com/maps/search/?api=1&query=HR%20BIZ%20HUB%20%7C%20Best%20Recruitment%20And%20Job%20Consultancy%20In%20Indore&query_place_id=ChIJpYthZjf9YjkR83vtrMK9dec"}, {"place_id": "ChIJrRgYFJH9YjkRJjKO4gHjlqQ", "name": "Sion Data matics India Pvt. Ltd| Best IT Company In Madhya Pradesh", "street": "11,5, bano doctor compound, Green Park, South Tukoganj, Indore, Madhya Pradesh 452001, India", "phone": "+91 78801 36882", "rating": "3.9", "review_count": "", "website": "https://www.sdmipl.com/", "latitude": 22.7181933, "longitude": 75.87494319999999, "maps_url": "https://www.google.com/maps/search/?api=1&query=Sion%20Data%20matics%20India%20Pvt.%20Ltd%7C%20Best%20IT%20Company%20In%20Madhya%20Pradesh&query_place_id=ChIJrRgYFJH9YjkRJjKO4gHjlqQ"}, {"place_id": "ChIJdbIdPMD9YjkRbOlUfTuPpis", "name": "Jain Placement Services Private Limited, Indore", "street": "226, Chetak Chamber, RNT Marg, near Dawa Bazar Building, Madhumilan, M.Y.Hospital, Jaora Compound, Indore, Madhya Pradesh 452001, India", "phone": "+91 74405 60206", "rating": "3.2", "review_count": "", "website": "", "latitude": 22.7128428, "longitude": 75.8758618, "maps_url": "https://www.google.com/maps/search/?api=1&query=Jain%20Placement%20Services%20Private%20Limited%2C%20Indore&query_place_id=ChIJdbIdPMD9YjkRbOlUfTuPpis"}, {"place_id": "ChIJlYYPV2v9YjkRk-VD4g0cD4c", "name": "TVS ELECTRONICS AYUSH COMPUTER PRINTER REPAIRING", "street": "2nd floor, Thanewala Terrace, 206, 163, RNT Marg, Madhu Milan, chouraha, Indore, Madhya Pradesh 452001, India", "phone": "+91 98262 20274", "rating": "4.9", "review_count": "", "website": "https://locate.tvs-e.in/tvs-electronics-chouraha-indore/63e0eb377e647f0714baa84e/overview", "latitude": 22.7144886, "longitude": 75.8742796, "maps_url": "https://www.google.com/maps/search/?api=1&query=TVS%20ELECTRONICS%20AYUSH%20COMPUTER%20PRINTER%20REPAIRING&query_place_id=ChIJlYYPV2v9YjkRk-VD4g0cD4c"}, {"place_id": "ChIJZ0YaMeP8YjkRBoTIurQLUdw", "name": "TechWiz Research & Consultancy", "street": "410,Shreenath Avenue, in front of Chetak Chamber, near Madhumilan, Indore, Madhya Pradesh 452001, India", "phone": "+91 96919 01570", "rating": "4.5", "review_count": "", "website": "", "latitude": 22.712389899999998, "longitude": 75.8748576, "maps_url": "https://www.google.com/maps/search/?api=1&query=TechWiz%20Research%20%26%20Consultancy&query_place_id=ChIJZ0YaMeP8YjkRBoTIurQLUdw"}, {"place_id": "ChIJi2X1nFn9YjkRb1bxzAK5m4Q", "name": "Yari QualiTech", "street": "Sapna Chambers, 201, 12 1, South Tukoganj, Indore, Madhya Pradesh 452001, India", "phone": "+91 75663 55111", "rating": "4.7", "review_count": "", "website": "https://yariqualitech.com/", "latitude": 22.7152015, "longitude": 75.87501449999999, "maps_url": "https://www.google.com/maps/search/?api=1&query=Yari%20QualiTech&query_place_id=ChIJi2X1nFn9YjkRb1bxzAK5m4Q"}, {"place_id": "ChIJOVVVRbP9YjkRyhg_Xzlf1xc", "name": "Kudoss IT Solutions", "street": "560, Usha Nagar, Ext, Indore, Madhya Pradesh 452009, India", "phone": "+91 79840 65677", "rating": "4.5", "review_count": "", "website": "https://kudossweb.com/", "latitude": 22.6971091, "longitude": 75.8373182, "maps_url": "https://www.google.com/maps/search/?api=1&query=Kudoss%20IT%20Solutions&query_place_id=ChIJOVVVRbP9YjkRyhg_Xzlf1xc"}, {"place_id": "ChIJc6bbsHH9YjkR_sLbIn7vuWk", "name": "It's Unicorntech", "street": "2, Ambedkar Nagar Rd, Mig Colony, New Palasia, Indore, Madhya Pradesh 452001, India", "phone": "+91 95895 72990", "rating": "", "review_count": "", "website": "http://itsunicorntech.com/", "latitude": 22.7309429, "longitude": 75.88466869999999, "maps_url": "https://www.google.com/maps/search/?api=1&query=It%27s%20Unicorntech&query_place_id=ChIJc6bbsHH9YjkR_sLbIn7vuWk"}, {"place_id": "ChIJ0Q9DQsMDYzkRWDCyObYkRb0", "name": "LotzAp Solutions", "street": "306, Fortune Business Center, 165, RNT Marg, South Tukoganj, Indore, Madhya Pradesh 452001, India", "phone": "(512) 333-1321", "rating": "5", "review_count": "", "website": "", "latitude": 22.7152165, "longitude": 75.8736752, "maps_url": "https://www.google.com/maps/search/?api=1&query=LotzAp%20Solutions&query_place_id=ChIJ0Q9DQsMDYzkRWDCyObYkRb0"}, {"place_id": "ChIJNeSvI8z9YjkRBhOxwHWygn4", "name": "Kisan4u Marketing Private Limited", "street": "512-B, RNT Marg, South Tukoganj, Indore, Madhya Pradesh 452001, India", "phone": "+91 98265 75663", "rating": "5", "review_count": "", "website": "http://www.kisan4u.com/", "latitude": 22.7153755, "longitude": 75.8744651, "maps_url": "https://www.google.com/maps/search/?api=1&query=Kisan4u%20Marketing%20Private%20Limited&query_place_id=ChIJNeSvI8z9YjkRBhOxwHWygn4"}, {"place_id": "ChIJYfrhUWD9YjkRRZPzRZPEGuo", "name": "Bluetech IT Services", "street": "", "phone": "+91 98935 09996", "rating": "4.6", "review_count": "", "website": "https://www.bluetechitservices.com/", "latitude": 14.157641199999999, "longitude": -16.7424939, "maps_url": "https://www.google.com/maps/search/?api=1&query=Bluetech%20IT%20Services&query_place_id=ChIJYfrhUWD9YjkRRZPzRZPEGuo"}, {"place_id": "ChIJERgkpRf9YjkR9E3OLZ-pm6o", "name": "Global Tenders", "street": "RNT Marg, South Tukoganj, Indore, Madhya Pradesh 452001, India", "phone": "", "rating": "4.2", "review_count": "", "website": "https://www.globaltenders.com/", "latitude": 22.715460999999998, "longitude": 75.874314, "maps_url": "https://www.google.com/maps/search/?api=1&query=Global%20Tenders&query_place_id=ChIJERgkpRf9YjkR9E3OLZ-pm6o"}, {"place_id": "ChIJe575LSD9YjkRn30Fg2fQVOo", "name": "GNS ENGINEERING & METALLURGICAL CONSULTANT PVT. LTD.", "street": "219, Chetak Chamber, 14, RNT Marg, Opp. Dawa Bazar, Jaora Compound, Indore, Madhya Pradesh 452001, India", "phone": "+91 95897 51155", "rating": "5", "review_count": "", "website": "https://www.gnsengineering.co.in/", "latitude": 22.7129031, "longitude": 75.8753394, "maps_url": "https://www.google.com/maps/search/?api=1&query=GNS%20ENGINEERING%20%26%20METALLURGICAL%20CONSULTANT%20PVT.%20LTD.&query_place_id=ChIJe575LSD9YjkRn30Fg2fQVOo"}, {"place_id": "ChIJXT_Rsm39YjkR6ApMT3JBZzo", "name": "CHITRANGANA - Leading eCommerce Consulting Co.", "street": "Mahavir Empire, 10, RNT Marg, Regal Cir, Indore, Madhya Pradesh 452001, India", "phone": "+91 94066 73501", "rating": "4.8", "review_count": "", "website": "https://www.chitrangana.com/", "latitude": 22.7130403, "longitude": 75.8755513, "maps_url": "https://www.google.com/maps/search/?api=1&query=CHITRANGANA%20-%20Leading%20eCommerce%20Consulting%20Co.&query_place_id=ChIJXT_Rsm39YjkR6ApMT3JBZzo"}, {"place_id": "ChIJyyyshav9YjkR7iXuBWs7sj4", "name": "Susan Automations India Pvt Ltd", "street": "sameer complex, 305, RNT Marg, Indore, Madhya Pradesh 452001, India", "phone": "+91 70660 37953", "rating": "5", "review_count": "", "website": "", "latitude": 22.714069, "longitude": 75.87465999999999, "maps_url": "https://www.google.com/maps/search/?api=1&query=Susan%20Automations%20India%20Pvt%20Ltd&query_place_id=ChIJyyyshav9YjkR7iXuBWs7sj4"}, {"place_id": "ChIJlyr05GodYzkRg5lv5iXIOwg", "name": "Techwave IT Solutions Pvt Ltd | Software Development Company in Indore | Top IT Company in Indore | India", "street": "Bhopal Motors JCB, near Panchvati, Lasudia Mori, Indore, Madhya Pradesh 453771, India", "phone": "+91 90091 55444", "rating": "", "review_count": "", "website": "http://techwaveitsolutions.com/", "latitude": 22.792078399999998, "longitude": 75.90735409999999, "maps_url": "https://www.google.com/maps/search/?api=1&query=Techwave%20IT%20Solutions%20Pvt%20Ltd%20%7C%20Software%20Development%20Company%20in%20Indore%20%7C%20Top%20IT%20Company%20in%20Indore%20%7C%20India&query_place_id=ChIJlyr05GodYzkRg5lv5iXIOwg"}]