[{"place_id": "ChIJExoZbgP9DDkRd2Q8vmEWFgc", "name": "Posistrength Software Solution Pvt.Ltd.", "street": "Workingdom,E-13/29, First Floor, Harsha Bhawan, Inner Circle, Block E, Connaught Place, New Delhi, Delhi 110001, India", "phone": "+91 89832 05821", "rating": "4.9", "review_count": "", "website": "https://www.posistrength.com/", "latitude": 28.6326204, "longitude": 77.22187869999999, "maps_url": "https://www.google.com/maps/search/?api=1&query=Posistrength%20Software%20Solution%20Pvt.Ltd.&query_place_id=ChIJExoZbgP9DDkRd2Q8vmEWFgc"}, {"place_id": "ChIJc-QFLnQSbQQRAu_8xjqxZFI", "name": "Info Tech India", "street": "KAILASH BUILDING, 1212, KG Marg, Barakhamba, New Delhi, Delhi 110001, India", "phone": "", "rating": "5", "review_count": "", "website": "https://infotechindia.in/", "latitude": 28.629473299999997, "longitude": 77.22220159999999, "maps_url": "https://www.google.com/maps/search/?api=1&query=Info%20Tech%20India&query_place_id=ChIJc-QFLnQSbQQRAu_8xjqxZFI"}, {"place_id": "ChIJlaY7HUv9DDkRXE7f2ZAgbLE", "name": "Infocera IT", "street": "First Floor, Block-L, L29 - L34, Block L, Connaught Place, New Delhi, Delhi 110001, India", "phone": "", "rating": "4.7", "review_count": "", "website": "https://infocera.in/", "latitude": 28.634275499999998, "longitude": 77.2217273, "maps_url": "https://www.google.com/maps/search/?api=1&query=Infocera%20IT&query_place_id=ChIJlaY7HUv9DDkRXE7f2ZAgbLE"}, {"place_id": "ChIJC3MN3zb9DDkR-JxtEG9cQg0", "name": "I. T. Solutions", "street": "Gate No. 8, A-6, 1st Floor, Inner Circle, Above Post office, near ICICI Bank, Bon Ton and Metro, Connaught Place, New Delhi, Delhi 110001, India", "phone": "+91 11 4152 3242", "rating": "4.9", "review_count": "", "website": "http://www.itsolutioncp.com/", "latitude": 28.6324367, "longitude": 77.2183441, "maps_url": "https://www.google.com/maps/search/?api=1&query=I.%20T.%20Solutions&query_place_id=ChIJC3MN3zb9DDkR-JxtEG9cQg0"}, {"place_id": "ChIJUTjmTlX9DDkRFs7kNi7bKuo", "name": "Globe Alley Tech. - Software Development Company", "street": "J6JG+6RW, 119, Fire Brigade Lane, Connaught Place, New Delhi, Delhi 110001, India", "phone": "+91 99107 10140", "rating": "4.9", "review_count": "", "website": "http://globealley.us/", "latitude": 28.6306084, "longitude": 77.22708829999999, "maps_url": "https://www.google.com/maps/search/?api=1&query=Globe%20Alley%20Tech.%20-%20Software%20Development%20Company&query_place_id=ChIJUTjmTlX9DDkRFs7kNi7bKuo"}, {"place_id": "ChIJfawe43D9DDkRZtHgN2jjzTc", "name": "Ammah TechSavvy Pvt. Ltd. Tally Partner Certified (Sales & Solution)", "street": "Block-H Indira Place, Office No. 31 IIIrd Floor, Connaught Place, New Delhi, Delhi 110001, India", "phone": "+91 99715 16460", "rating": "4.9", "review_count": "", "website": "http://www.ammahtechsavvy.com/", "latitude": 28.634802399999998, "longitude": 77.2186395, "maps_url": "https://www.google.com/maps/search/?api=1&query=Ammah%20TechSavvy%20Pvt.%20Ltd.%20Tally%20Partner%20Certified%20%28Sales%20%26%20Solution%29&query_place_id=ChIJfawe43D9DDkRZtHgN2jjzTc"}, {"place_id": "ChIJY05MZjb9DDkRTiB7cFBD48w", "name": "DataSlexIndia | On-Demand Software Development Company", "street": "210,211,212 BMC House, N1, Middle Cir, Connaught Place, New Delhi, Delhi 110001, India", "phone": "+91 11 2484 5172", "rating": "5", "review_count": "", "website": "https://dataslexindia.com/", "latitude": 28.630570499999997, "longitude": 77.2198088, "maps_url": "https://www.google.com/maps/search/?api=1&query=DataSlexIndia%20%7C%20On-Demand%20Software%20Development%20Company&query_place_id=ChIJY05MZjb9DDkRTiB7cFBD48w"}, {"place_id": "ChIJp25y1MqvSk0Rlx6nFNHxAKw", "name": "Apliko Technologies (OPC) Private Limited", "street": "44, Backary Portion, 2nd Floor, Regal Building, Hanuman Road Area, Connaught Place, New Delhi, Delhi 110001, India", "phone": "+91 97171 40547", "rating": "5", "review_count": "", "website": "https://apliko.tech/", "latitude": 28.6306726, "longitude": 77.21648929999999, "maps_url": "https://www.google.com/maps/search/?api=1&query=Apliko%20Technologies%20%28OPC%29%20Private%20Limited&query_place_id=ChIJp25y1MqvSk0Rlx6nFNHxAKw"}, {"place_id": "ChIJLXrkS8z9DDkRIXIDU_ojar0", "name": "Web Players Technology- Website Designing Company in Central Delhi - Landing Page Designing Company in Delhi", "street": "CP N-12 UPPER GROUND FLOOR MUNSI LAL BUILDING, Connaught Cir, OPPOSITE KFC, Connaught Place, New Delhi, Delhi 110001, India", "phone": "+91 97172 92583", "rating": "5", "review_count": "", "website": "https://www.web-players.co.in/", "latitude": 28.6315566, "longitude": 77.22262119999999, "maps_url": "https://www.google.com/maps/search/?api=1&query=Web%20Players%20Technology-%20Website%20Designing%20Company%20in%20Central%20Delhi%20-%20Landing%20Page%20Designing%20Company%20in%20Delhi&query_place_id=ChIJLXrkS8z9DDkRIXIDU_ojar0"}, {"place_id": "ChIJqyCtCTX7DDkReg_-w3ngKUY", "name": "Logical Learning Company Pvt Ltd", "street": "Building 29 1st Floor, Block-L, Middle Cir, Block L, Connaught Place, New Delhi, Delhi 110001, India", "phone": "+91 95609 42419", "rating": "3.3", "review_count": "", "website": "https://www.nxiindia.com/", "latitude": 28.634275499999998, "longitude": 77.2217273, "maps_url": "https://www.google.com/maps/search/?api=1&query=Logical%20Learning%20Company%20Pvt%20Ltd&query_place_id=ChIJqyCtCTX7DDkReg_-w3ngKUY"}, {"place_id": "ChIJl4FEUC79DDkRcO6JhMtCTyw", "name": "Accelon Technologies Pvt Ltd. SAP Business One Gold Partner, New Delhi", "street": "L-29, 1st Floor, Awfis Business Center, Connaught Cir, Connaught Place, New Delhi, Delhi 110001, India", "phone": "+91 90210 68822", "rating": "5", "review_count": "", "website": "https://accelontech.com/", "latitude": 28.6341117, "longitude": 77.2220997, "maps_url": "https://www.google.com/maps/search/?api=1&query=Accelon%20Technologies%20Pvt%20Ltd.%20SAP%20Business%20One%20Gold%20Partner%2C%20New%20Delhi&query_place_id=ChIJl4FEUC79DDkRcO6JhMtCTyw"}, {"place_id": "ChIJSclvODL9DDkRYyaAVInQcz0", "name": "Alliancef Cyber & Web Technologies Pvt. Ltd.", "street": "Vijaya Building, 811, 8th Floor, Barakhamba Rd, New Delhi, Delhi 110001, India", "phone": "+91 93502 54293", "rating": "5", "review_count": "", "website": "https://www.alliancef.com/", "latitude": 28.628895699999998, "longitude": 77.2252187, "maps_url": "https://www.google.com/maps/search/?api=1&query=Alliancef%20Cyber%20%26%20Web%20Technologies%20Pvt.%20Ltd.&query_place_id=ChIJSclvODL9DDkRYyaAVInQcz0"}, {"place_id": "ChIJITEUwdbiDDkRJOYUu7ijEEA", "name": "Atlanta Systems Private Limited", "street": "M-135, 2nd Floor, Connaught Place, New Delhi, Delhi 110001, India", "phone": "+91 80 4802 4386", "rating": "4.1", "review_count": "", "website": "", "latitude": 28.6335099, "longitude": 77.2225933, "maps_url": "https://www.google.com/maps/search/?api=1&query=Atlanta%20Systems%20Private%20Limited&query_place_id=ChIJITEUwdbiDDkRJOYUu7ijEEA"}, {"place_id": "ChIJZbFt6FH9DDkROB8cWxYquJY", "name": "Tech Learnit", "street": "1st Floor, Hamilton House, Block A, Connaught Place, New Delhi, Delhi 110001, India", "phone": "+91 80870 53668", "rating": "5", "review_count": "", "website": "https://www.techlearnit.com/", "latitude": 28.632013099999998, "longitude": 77.2178718, "maps_url": "https://www.google.com/maps/search/?api=1&query=Tech%20Learnit&query_place_id=ChIJZbFt6FH9DDkROB8cWxYquJY"}, {"place_id": "ChIJAQAQaDH9DDkR-lZqDqQpSgY", "name": "INSPIRA ENTERPRISE INDIA LTD.", "street": "24, Barakhamba Rd, Fire Brigade Lane, Barakhamba, New Delhi, Delhi 110001, India", "phone": "+91 11 4310 2841", "rating": "4.5", "review_count": "", "website": "https://inspiraenterprise.com/", "latitude": 28.6308105, "longitude": 77.22426659999999, "maps_url": "https://www.google.com/maps/search/?api=1&query=INSPIRA%20ENTERPRISE%20INDIA%20LTD.&query_place_id=ChIJAQAQaDH9DDkR-lZqDqQpSgY"}, {"place_id": "ChIJvf5v2kn9DDkRRLj0BpQjUPs", "name": "Asian infotech", "street": "J6J8+XMH, Connaught Cir, P-25, Connaught Place, New Delhi, Delhi 110001, India", "phone": "+91 98100 57894", "rating": "3.6", "review_count": "", "website": "", "latitude": 28.6324489, "longitude": 77.2167425, "maps_url": "https://www.google.com/maps/search/?api=1&query=Asian%20infotech&query_place_id=ChIJvf5v2kn9DDkRRLj0BpQjUPs"}, {"place_id": "ChIJp2QZy6PhDDkRo4MA8enlBaI", "name": "Highlex Technologies", "street": "1st Floor, Krishna Park, D-300, Connaught Place, New Delhi, Delhi 110001, India", "phone": "+91 85868 53031", "rating": "5", "review_count": "", "website": "https://highlex.in/", "latitude": 28.632742999999998, "longitude": 77.219597, "maps_url": "https://www.google.com/maps/search/?api=1&query=Highlex%20Technologies&query_place_id=ChIJp2QZy6PhDDkRo4MA8enlBaI"}, {"place_id": "ChIJjeJIYfv9DDkRW6JxZ0ugd-A", "name": "Alliancef Global | Mobile App Development | eCommerce Website Design and Development company in Delhi, India", "street": "8th Floor, Vijaya Building, 811, Barakhamba Rd, Todermal Road Area, Mandi House, New Delhi, Delhi 110001, India", "phone": "+91 95821 99196", "rating": "5", "review_count": "", "website": "https://alliancef.global/", "latitude": 28.628632099999997, "longitude": 77.2269889, "maps_url": "https://www.google.com/maps/search/?api=1&query=Alliancef%20Global%20%7C%20Mobile%20App%20Development%20%7C%20eCommerce%20Website%20Design%20and%20Development%20company%20in%20Delhi%2C%20India&query_place_id=ChIJjeJIYfv9DDkRW6JxZ0ugd-A"}, {"place_id": "ChIJO4sr49IDDTkRALZaeWsr-oI", "name": "Iraitech | Software Development Company", "street": "Central Square Complex 3, Unit No-1051, 1st Floor, Near Filmistan, DCM chowk, Bara Hindu Rao, Kishan Ganj, Delhi, 110006, India", "phone": "+91 81301 04108", "rating": "4.1", "review_count": "", "website": "https://www.iraitech.com/", "latitude": 28.6631951, "longitude": 77.20308639999999, "maps_url": "https://www.google.com/maps/search/?api=1&query=Iraitech%20%7C%20Software%20Development%20Company&query_place_id=ChIJO4sr49IDDTkRALZaeWsr-oI"}, {"place_id": "ChIJcesdOTX9DDkRtlHcx4gT3ds", "name": "Jak Software Pvt Ltd", "street": "52 Janpath, New Delhi, Delhi 110001, India", "phone": "+91 78272 49056", "rating": "4.4", "review_count": "", "website": "http://www.jaksoftware.co.in/", "latitude": 28.627537999999998, "longitude": 77.21878989999999, "maps_url": "https://www.google.com/maps/search/?api=1&query=Jak%20Software%20Pvt%20Ltd&query_place_id=ChIJcesdOTX9DDkRtlHcx4gT3ds"}, {"place_id": "ChIJAcBttzb9DDkRCoEeuTPCXmg", "name": "Telepie Technology", "street": "5TH FLOOR, Wing-A, Statesman House, Barakhamba Rd, Barakhamba, New Delhi, Delhi 110001, India", "phone": "+91 83686 15329", "rating": "5", "review_count": "", "website": "http://telepie.com/", "latitude": 28.630822199999997, "longitude": 77.2226395, "maps_url": "https://www.google.com/maps/search/?api=1&query=Telepie%20Technology&query_place_id=ChIJAcBttzb9DDkRCoEeuTPCXmg"}, {"place_id": "ChIJ9ZOwCKP9DDkRSrZFLkI00po", "name": "FeathrAI", "street": "P21/90, Panchkuian Road Railway Colony, Railway Colony, Connaught Place, New Delhi, Delhi 110001, India", "phone": "", "rating": "5", "review_count": "", "website": "https://feathrai.xyz/", "latitude": 28.635936599999997, "longitude": 77.21566229999999, "maps_url": "https://www.google.com/maps/search/?api=1&query=FeathrAI&query_place_id=ChIJ9ZOwCKP9DDkRSrZFLkI00po"}, {"place_id": "ChIJgSY04jf9DDkRReg95uiL0Co", "name": "Grid IT Solutions", "street": "1st Floor B, 39, Middle Cir, Block B, Connaught Place, New Delhi, Delhi 110001, India", "phone": "+91 99966 39777", "rating": "4", "review_count": "", "website": "http://griditsolutions.net/", "latitude": 28.6340552, "longitude": 77.21794419999999, "maps_url": "https://www.google.com/maps/search/?api=1&query=Grid%20IT%20Solutions&query_place_id=ChIJgSY04jf9DDkRReg95uiL0Co"}, {"place_id": "ChIJeRY9stf9DDkRYAKRJFhxaHY", "name": "Tally Experts", "street": "Statesman House, 4th, Barakhamba Rd, Connaught Lane, Barakhamba, New Delhi, Delhi 110001, India", "phone": "+91 92110 44269", "rating": "4.8", "review_count": "", "website": "https://tallyexperts.co.in/", "latitude": 28.6308044, "longitude": 77.22262529999999, "maps_url": "https://www.google.com/maps/search/?api=1&query=Tally%20Experts&query_place_id=ChIJeRY9stf9DDkRYAKRJFhxaHY"}, {"place_id": "ChIJjcZpn6UGDTkRPRUJ1Y8OFng", "name": "UniSpark Innovation", "street": "1st Floor, Unispark innovation Pvt. ltd, B-39, Middle Cir, Block B, Connaught Place, New Delhi, Delhi 110001, India", "phone": "+91 88600 77276", "rating": "5", "review_count": "", "website": "https://www.unisparkinnovation.com/", "latitude": 28.633904299999998, "longitude": 77.21771, "maps_url": "https://www.google.com/maps/search/?api=1&query=UniSpark%20Innovation&query_place_id=ChIJjcZpn6UGDTkRPRUJ1Y8OFng"}, {"place_id": "ChIJ4QYGyUj9DDkROXsrU8skcxw", "name": "GY SOLUTION INDIA", "street": "pachguiya road , basant lane, bansant lane, Paharganj, New Delhi, Delhi 110055, India", "phone": "+91 88003 18834", "rating": "5", "review_count": "", "website": "https://gysolutionindia.com/", "latitude": 28.6367588, "longitude": 77.21626119999999, "maps_url": "https://www.google.com/maps/search/?api=1&query=GY%20SOLUTION%20INDIA&query_place_id=ChIJ4QYGyUj9DDkROXsrU8skcxw"}, {"place_id": "ChIJt6MkQB_9DDkR2R74KHwN6Vc", "name": "Startupvisors", "street": "5th Floor, Wing-A, Statesman House, Startupvisors, AltF Statesman House, Barakhamba Rd, Connaught Place, New Delhi, Delhi 110001, India", "phone": "+91 82858 44875", "rating": "4.9", "review_count": "", "website": "http://www.startupvisors.com/", "latitude": 28.630803999999998, "longitude": 77.222625, "maps_url": "https://www.google.com/maps/search/?api=1&query=Startupvisors&query_place_id=ChIJt6MkQB_9DDkR2R74KHwN6Vc"}, {"place_id": "ChIJ4YcGHzb9DDkR7wUt-LcNrY8", "name": "Wow Digital Pvt. Ltd.", "street": "L 29 First Floor, Connaught Place, New Delhi, Delhi 110001, India", "phone": "+91 97112 21588", "rating": "4.3", "review_count": "", "website": "http://datswoww.com/", "latitude": 28.634127799999998, "longitude": 77.2223181, "maps_url": "https://www.google.com/maps/search/?api=1&query=Wow%20Digital%20Pvt.%20Ltd.&query_place_id=ChIJ4YcGHzb9DDkR7wUt-LcNrY8"}, {"place_id": "ChIJjTW40FvjDDkRMg33-9y4UpM", "name": "Asia Tech World", "street": "LB 15 ANSAL BHAWAN, KG Marg, Connaught Place, New Delhi, Delhi 110001, India", "phone": "+91 84470 19449", "rating": "5", "review_count": "", "website": "https://www.asiatechworld.in/", "latitude": 28.6228566, "longitude": 77.2253927, "maps_url": "https://www.google.com/maps/search/?api=1&query=Asia%20Tech%20World&query_place_id=ChIJjTW40FvjDDkRMg33-9y4UpM"}, {"place_id": "ChIJ8Ys1siUCDTkRgUaQzYhM_KY", "name": "SETINDIABIZ", "street": "2nd Floor, Regal Building, Innov8 CP2, 44, Backary Portion, Connaught Place, New Delhi, Delhi 110001, India", "phone": "+91 98996 00605", "rating": "4.7", "review_count": "", "website": "https://www.setindiabiz.com/", "latitude": 28.6311227, "longitude": 77.216672, "maps_url": "https://www.google.com/maps/search/?api=1&query=SETINDIABIZ&query_place_id=ChIJ8Ys1siUCDTkRgUaQzYhM_KY"}, {"place_id": "ChIJGawlns_P6EsRNuNQrmA54cA", "name": "Delhi Legal Company", "street": "4th floor, E Block, Innov8 Workspaces India Limited, Harsha Bhawan, 13/29, Connaught Place, New Delhi, Delhi 110001, India", "phone": "", "rating": "5", "review_count": "", "website": "https://www.delhilegalcompany.com/", "latitude": 28.632317, "longitude": 77.2216952, "maps_url": "https://www.google.com/maps/search/?api=1&query=Delhi%20Legal%20Company&query_place_id=ChIJGawlns_P6EsRNuNQrmA54cA"}, {"place_id": "ChIJq6VoZqf9DDkRaSoH1WyYcMk", "name": "GV InfoTech", "street": "Block-2, Shankar Market, Connaught Lane, Connaught Place, New Delhi, Delhi 110001, India", "phone": "+91 97738 70841", "rating": "", "review_count": "", "website": "https://gvinfotech.org/", "latitude": 28.6335701, "longitude": 77.2229116, "maps_url": "https://www.google.com/maps/search/?api=1&query=GV%20InfoTech&query_place_id=ChIJq6VoZqf9DDkRaSoH1WyYcMk"}, {"place_id": "ChIJQ20KLJ39DDkRBtjOr7WTP-o", "name": "Teasoft Corporation", "street": "Market, Block F, Connaught Place, Delhi, New Delhi, Delhi 110001, India", "phone": "", "rating": "5", "review_count": "", "website": "", "latitude": 28.631121399999998, "longitude": 77.217388, "maps_url": "https://www.google.com/maps/search/?api=1&query=Teasoft%20Corporation&query_place_id=ChIJQ20KLJ39DDkRBtjOr7WTP-o"}, {"place_id": "ChIJ9aF3zD7BwjsRqtR_ycLqUCA", "name": "ICT Circle", "street": "G 36 Second Floor, Block G, Connaught Place, New Delhi, Delhi 110001, India", "phone": "+91 556687933", "rating": "5", "review_count": "", "website": "", "latitude": 28.6330812, "longitude": 77.216946, "maps_url": "https://www.google.com/maps/search/?api=1&query=ICT%20Circle&query_place_id=ChIJ9aF3zD7BwjsRqtR_ycLqUCA"}, {"place_id": "ChIJXS2oHyP9DDkRNgKrkCiqcww", "name": "Altima Global", "street": "4th Floor, Statesman House Building, Barakhamba Road, Connaught Place, New Delhi, Delhi 110001, India", "phone": "+91 98104 46932", "rating": "4.9", "review_count": "", "website": "http://www.altimaglobal.com/", "latitude": 28.6308591, "longitude": 77.2217521, "maps_url": "https://www.google.com/maps/search/?api=1&query=Altima%20Global&query_place_id=ChIJXS2oHyP9DDkRNgKrkCiqcww"}, {"place_id": "ChIJnXsP_jD9DDkR3jAZQSbRVT4", "name": "Jindal Group of Companies", "street": "110, Babar Rd, Fire Brigade Lane, Barakhamba, New Delhi, Delhi 110001, India", "phone": "+91 11 2613 9256", "rating": "3.4", "review_count": "", "website": "http://www.jindalgroup.com/", "latitude": 28.632469, "longitude": 77.227425, "maps_url": "https://www.google.com/maps/search/?api=1&query=Jindal%20Group%20of%20Companies&query_place_id=ChIJnXsP_jD9DDkR3jAZQSbRVT4"}, {"place_id": "ChIJL1vpiaj9DDkRMpwTnnGfQNk", "name": "Cellbless Healthcare Private Limited", "street": "Yogeshwar Building, 301, Block M, Connaught Place, New Delhi, Delhi 110001, India", "phone": "", "rating": "4.8", "review_count": "", "website": "http://www.cellbless.com/", "latitude": 28.63328, "longitude": 77.2221836, "maps_url": "https://www.google.com/maps/search/?api=1&query=Cellbless%20Healthcare%20Private%20Limited&query_place_id=ChIJL1vpiaj9DDkRMpwTnnGfQNk"}, {"place_id": "ChIJ7wPsuzH9DDkRNVFcCPL-2pw", "name": "Convas Verity Services Private Limited", "street": "82 Ground Floor, Barakhamba Ln, Fire Brigade Lane, Connaught Place, New Delhi, Delhi 110001, India", "phone": "", "rating": "3.5", "review_count": "", "website": "http://www.convasverity.com/", "latitude": 28.6306084, "longitude": 77.22708829999999, "maps_url": "https://www.google.com/maps/search/?api=1&query=Convas%20Verity%20Services%20Private%20Limited&query_place_id=ChIJ7wPsuzH9DDkRNVFcCPL-2pw"}, {"place_id": "ChIJPQiUPjf9DDkRJv_O4ga-qDQ", "name": "ARENA ANIMATION", "street": "Gate No - 7, A Block, CONNAUGHT PLACE, ARENA ANIMATION CP, A Block Center. 202, A-19, Middle Cir, near Rajiv Chowk Metro Station, New Delhi, Delhi 110001, India", "phone": "+91 96506 79762", "rating": "4.4", "review_count": "", "website": "https://www.arenaanimationcp.com/", "latitude": 28.6321884, "longitude": 77.2174757, "maps_url": "https://www.google.com/maps/search/?api=1&query=ARENA%20ANIMATION&query_place_id=ChIJPQiUPjf9DDkRJv_O4ga-qDQ"}, {"place_id": "ChIJV7Tarzf9DDkRNuotI7eyjrc", "name": "Apar Industries Limited", "street": "House N Block 306, BMC, 07, Middle Cir, Connaught Place, New Delhi, Delhi 110001, India", "phone": "+91 11 4152 3320", "rating": "4.8", "review_count": "", "website": "http://www.apar.com/", "latitude": 28.630993999999998, "longitude": 77.2213057, "maps_url": "https://www.google.com/maps/search/?api=1&query=Apar%20Industries%20Limited&query_place_id=ChIJV7Tarzf9DDkRNuotI7eyjrc"}, {"place_id": "ChIJwQuVsDb9DDkRboW31hMj5nA", "name": "Avanta Business Centre", "street": "Statesman House, 402, Barakhamba Rd, Barakhamba, New Delhi, Delhi 110001, India", "phone": "+91 11 3044 6402", "rating": "4.8", "review_count": "", "website": "https://www.avanta.co.in/business-centre/connaught-place-delhi?utm_source=GMB-CP&utm_medium=gmb&utm_id=cpstatesman", "latitude": 28.630816099999997, "longitude": 77.2226072, "maps_url": "https://www.google.com/maps/search/?api=1&query=Avanta%20Business%20Centre&query_place_id=ChIJwQuVsDb9DDkRboW31hMj5nA"}, {"place_id": "ChIJl5geAqLjDDkRGQx9atNSvyg", "name": "It Softtech - Website Designing and Development Company in Delhi, India", "street": "149, Ring Rd, opp. Maharani Bagh, Kilokri, Phase 1, Hari Nagar Ashram, New Delhi, Delhi 110014, India", "phone": "+91 98100 56177", "rating": "5", "review_count": "", "website": "", "latitude": 28.5763395, "longitude": 77.2640869, "maps_url": "https://www.google.com/maps/search/?api=1&query=It%20Softtech%20-%20Website%20Designing%20and%20Development%20Company%20in%20Delhi%2C%20India&query_place_id=ChIJl5geAqLjDDkRGQx9atNSvyg"}, {"place_id": "ChIJN4BLWwn9DDkR_NhOquc5-yA", "name": "Write For Us Technology", "street": "Connaught Place, New Delhi, Delhi 110001, India", "phone": "", "rating": "4.3", "review_count": "", "website": "https://www.writeforustechnology.com/", "latitude": 28.632755699999997, "longitude": 77.2196957, "maps_url": "https://www.google.com/maps/search/?api=1&query=Write%20For%20Us%20Technology&query_place_id=ChIJN4BLWwn9DDkR_NhOquc5-yA"}, {"place_id": "ChIJo-qlLJD9DDkR-sCI6wJHDg4", "name": "Innovative Brothers", "street": "Nirmal Tower, 601, Barakhamba Rd, Delhi 110001, India", "phone": "+91 93541 54223", "rating": "5", "review_count": "", "website": "", "latitude": 28.6311479, "longitude": 77.22397959999999, "maps_url": "https://www.google.com/maps/search/?api=1&query=Innovative%20Brothers&query_place_id=ChIJo-qlLJD9DDkR-sCI6wJHDg4"}, {"place_id": "ChIJGe3Rkcj9DDkRxJgIY58DEx8", "name": "ConnectHQ", "street": "M 130-131, Connaught Cir, Shankar Market, Block M, Connaught Place, New Delhi, Delhi, 110001, India", "phone": "", "rating": "4.9", "review_count": "", "website": "https://connecthq.co.in/office-space-cp.html", "latitude": 28.633471999999998, "longitude": 77.222512, "maps_url": "https://www.google.com/maps/search/?api=1&query=ConnectHQ&query_place_id=ChIJGe3Rkcj9DDkRxJgIY58DEx8"}, {"place_id": "ChIJXztuxUn9DDkRkPzO2FdWpRo", "name": "Vixel Business Solutions LLP", "street": "44, Regal Building, Hanuman Road Area, Connaught Place, New Delhi, Delhi 110001, India", "phone": "+91 72481 71879", "rating": "3.9", "review_count": "", "website": "https://vixelbiz.com/", "latitude": 28.630747699999997, "longitude": 77.2165581, "maps_url": "https://www.google.com/maps/search/?api=1&query=Vixel%20Business%20Solutions%20LLP&query_place_id=ChIJXztuxUn9DDkRkPzO2FdWpRo"}, {"place_id": "ChIJ_wV9nnn9DDkRM-PlUl-ynUc", "name": "Staunch Eventz Pvt Ltd", "street": "Third Floor, Property Number 44, Regal Building, Hanuman Road Area, Connaught Place, New Delhi, Delhi 110001, India", "phone": "+91 98186 06462", "rating": "4.6", "review_count": "", "website": "http://www.stauncheventz.in/", "latitude": 28.630747699999997, "longitude": 77.2165581, "maps_url": "https://www.google.com/maps/search/?api=1&query=Staunch%20Eventz%20Pvt%20Ltd&query_place_id=ChIJ_wV9nnn9DDkRM-PlUl-ynUc"}, {"place_id": "ChIJd7Y2rqb9DDkRVkfDhbl4_Z8", "name": "Goyal Tech India", "street": "C Block, C-1A, Block C, Connaught Place, New Delhi, Delhi 110001, India", "phone": "", "rating": "5", "review_count": "", "website": "http://goyaltechindia.com/", "latitude": 28.634249999999998, "longitude": 77.2203334, "maps_url": "https://www.google.com/maps/search/?api=1&query=Goyal%20Tech%20India&query_place_id=ChIJd7Y2rqb9DDkRVkfDhbl4_Z8"}, {"place_id": "ChIJ3_tG5zb9DDkRZXVaS7JYy8A", "name": "Audo Viso Private Limited", "street": "2nd Floor, E-48, Connaught Place, New Delhi, Delhi 110001, India", "phone": "+91 11 2341 3315", "rating": "3.9", "review_count": "", "website": "http://audoviso.com/", "latitude": 28.6320168, "longitude": 77.2217802, "maps_url": "https://www.google.com/maps/search/?api=1&query=Audo%20Viso%20Private%20Limited&query_place_id=ChIJ3_tG5zb9DDkRZXVaS7JYy8A"}, {"place_id": "ChIJBwpa_jf9DDkR6lexq4I-1hE", "name": "Bira 91 Global HQ", "street": "H-106, 2nd Floor, Outer Circle, Connaught Place, New Delhi, Delhi 110001, India", "phone": "+91 1800 3002 3010", "rating": "4.3", "review_count": "", "website": "http://bira91.com/", "latitude": 28.6345417, "longitude": 77.21762509999999, "maps_url": "https://www.google.com/maps/search/?api=1&query=Bira%2091%20Global%20HQ&query_place_id=ChIJBwpa_jf9DDkR6lexq4I-1hE"}, {"place_id": "ChIJy1NfozH9DDkR-aNihjlhZ4Q", "name": "Indian Oil Corporation Limited", "street": "Delhi State Office, IOCL, World Trade Centre, 2nd Floor, Babar Road, Delhi, 110001, India", "phone": "+91 11 4636 3304", "rating": "4.6", "review_count": "", "website": "https://iocl.com/", "latitude": 28.631556999999997, "longitude": 77.227222, "maps_url": "https://www.google.com/maps/search/?api=1&query=Indian%20Oil%20Corporation%20Limited&query_place_id=ChIJy1NfozH9DDkR-aNihjlhZ4Q"}, {"place_id": "ChIJVVXFITf9DDkRiUoDCIGR2eE", "name": "Sharks Fund", "street": "Harsha Bhawan, E-13/29, 1st floor, Connaught Place, New Delhi, Delhi 110001, India", "phone": "", "rating": "4.8", "review_count": "", "website": "http://thesharksfund.com/", "latitude": 28.6326204, "longitude": 77.22187869999999, "maps_url": "https://www.google.com/maps/search/?api=1&query=Sharks%20Fund&query_place_id=ChIJVVXFITf9DDkRiUoDCIGR2eE"}, {"place_id": "ChIJoyOgWmr9DDkRe0ZlmGVlm68", "name": "Lift Digitally Best Internet Marketing Agency in Delhi", "street": "PVR Plaza, Block H, Connaught Place, New Delhi, Delhi 110001, India", "phone": "+91 97112 37678", "rating": "5", "review_count": "", "website": "https://liftdigitally.com/", "latitude": 28.634982299999997, "longitude": 77.2195529, "maps_url": "https://www.google.com/maps/search/?api=1&query=Lift%20Digitally%20Best%20Internet%20Marketing%20Agency%20in%20Delhi&query_place_id=ChIJoyOgWmr9DDkRe0ZlmGVlm68"}, {"place_id": "ChIJF-ok20n9DDkRj6FhZUiSfXI", "name": "Advance Services for Social & Administrative Reforms (ASSAR)", "street": "3rd Floor, 44, Regal Building, beside Ease of Doing Business, Hanuman Road Area, Connaught Place, New Delhi, Delhi 110001, India", "phone": "+91 11 4105 9899", "rating": "4.7", "review_count": "", "website": "http://assar.in/", "latitude": 28.6306726, "longitude": 77.21648929999999, "maps_url": "https://www.google.com/maps/search/?api=1&query=Advance%20Services%20for%20Social%20%26%20Administrative%20Reforms%20%28ASSAR%29&query_place_id=ChIJF-ok20n9DDkRj6FhZUiSfXI"}, {"place_id": "ChIJmTi5SDH9DDkRjtxPqn2GIWc", "name": "Best Consultants in India - Delhi Best HR Consultants", "street": "26, Barakhamba Rd, Fire Brigade Lane, Connaught Place, New Delhi, Delhi 110001, India", "phone": "+91 96259 94855", "rating": "4.2", "review_count": "", "website": "https://www.oasis-india.com/", "latitude": 28.6308622, "longitude": 77.2239164, "maps_url": "https://www.google.com/maps/search/?api=1&query=Best%20Consultants%20in%20India%20-%20Delhi%20Best%20HR%20Consultants&query_place_id=ChIJmTi5SDH9DDkRjtxPqn2GIWc"}, {"place_id": "ChIJw6YKOeH9DDkR3gerYHDsBRM", "name": "Future World", "street": "No G, 54, Radial Rd Number 2, near lords of drink, Block G, Connaught Place, New Delhi, Delhi 110001, India", "phone": "+91 88008 44522", "rating": "4.4", "review_count": "", "website": "https://stores.futureworldindia.in/future-world-apple-authorised-reseller-authorised-service-provider-connaught-place-g54-electronics-retail-and-repair-shop-connaught-place-new-delhi-198541/Home?utm_source=locator&utm_medium=googleplaces", "latitude": 28.631739099999997, "longitude": 77.2169804, "maps_url": "https://www.google.com/maps/search/?api=1&query=Future%20World&query_place_id=ChIJw6YKOeH9DDkR3gerYHDsBRM"}, {"place_id": "ChIJT4RW10vhDDkRxPr2ozxZvJo", "name": "Gyanwave", "street": "2nd Floor, Regal Building, Innov8, 44, Connaught Place, New Delhi, Delhi 110001, India", "phone": "+91 92125 23252", "rating": "4.5", "review_count": "", "website": "https://gyanwave.com/", "latitude": 28.630569299999998, "longitude": 77.2172975, "maps_url": "https://www.google.com/maps/search/?api=1&query=Gyanwave&query_place_id=ChIJT4RW10vhDDkRxPr2ozxZvJo"}, {"place_id": "ChIJqzFCKWsdDTkReD0USPPoxqU", "name": "BDG Lifesciences", "street": "First Floor, Block-L, L29 - L34, Connaught Cir, Block L, Connaught Place, New Delhi, Delhi 110001, India", "phone": "+91 97601 48880", "rating": "4.5", "review_count": "", "website": "https://bdglifesciences.com/", "latitude": 28.6342903, "longitude": 77.2218413, "maps_url": "https://www.google.com/maps/search/?api=1&query=BDG%20Lifesciences&query_place_id=ChIJqzFCKWsdDTkReD0USPPoxqU"}]