{"timestamp": 1773729005.8743348, "keyword": "IT company", "location": "delhi", "cell_idx": 25, "results": [{"place_id": "0x390d181b03ac9f6f:0x3ec5a92a519f94ad", "name": "Daffodil Software", "category": "Software company", "street": "9th Floor, Tower B1, DLF", "city": "World Tech Park", "phone": "01246817000", "website": "https://www.daffodilsw.com/", "rating": 4.1, "review_count": "", "latitude": 28.465191599999997, "longitude": 77.0564785, "maps_url": "https://www.google.com/maps/place/?q=place_id:0x390d181b03ac9f6f:0x3ec5a92a519f94ad"}, {"place_id": "0x390d190bbc037b65:0xae672c69a42e0226", "name": "One Point One Solutions Ltd", "category": "BPO Company", "street": "Plot No.17", "city": "Industrial Estate, Sector 18", "phone": "01246697900", "website": "https://www.1point1.com/", "rating": 3.9, "review_count": "", "latitude": 28.490675099999997, "longitude": 77.0606746, "maps_url": "https://www.google.com/maps/place/?q=place_id:0x390d190bbc037b65:0xae672c69a42e0226"}, {"place_id": "0x390d191100000001:0x424476192b3b5b5b", "name": "Binary Semantics Limited", "category": "Software company", "street": "PLot no", "city": "38", "phone": "08929156505", "website": "https://www.binarysemantics.com/", "rating": 3.7, "review_count": "", "latitude": 28.5018823, "longitude": 77.0701466, "maps_url": "https://www.google.com/maps/place/?q=place_id:0x390d191100000001:0x424476192b3b5b5b"}, {"place_id": "0x390d190c870c17bd:0x4409f3685fd1baf3", "name": "ALITSO INDIA IT CONSULTING PVT LTD", "category": "Computer Hardware Company", "street": "Plot No. 76 D", "city": "Phase IV, Sector 18", "phone": "09168491495", "website": "http://www.alitso.com/", "rating": 5, "review_count": "", "latitude": 28.4851782, "longitude": 77.0657025, "maps_url": "https://www.google.com/maps/place/?q=place_id:0x390d190c870c17bd:0x4409f3685fd1baf3"}, {"place_id": "0x390d192f80e784d3:0x2c271ddf93d663b4", "name": "Tranciscolabs | Mobile App Development Company | Web Development Company", "category": "Software company", "street": "Park", "city": "RGREP", "phone": "09580174570", "website": "https://tranciscolabs.com/", "rating": 4.4, "review_count": "", "latitude": 28.4695091, "longitude": 77.06860209999999, "maps_url": "https://www.google.com/maps/place/?q=place_id:0x390d192f80e784d3:0x2c271ddf93d663b4"}, {"place_id": "0x390d19440bc59efb:0xda6549686148f7b4", "name": "PerfectionGeeks Technologies", "category": "Software company", "street": "Plot 378-379, Udyog Vihar Phase 4 Rd", "city": "near nokia building", "phone": "08920947884", "website": "http://www.perfectiongeeks.com/", "rating": 4.9, "review_count": "", "latitude": 28.5002221, "longitude": 77.0730516, "maps_url": "https://www.google.com/maps/place/?q=place_id:0x390d19440bc59efb:0xda6549686148f7b4"}, {"place_id": "0x390d1990db19986d:0x76f7bda3736fe4c4", "name": "Panchisoft", "category": "Software company", "street": "H-166, Street No. 2", "city": "I Block, H- Block, Dharam Colony, Palam Vihar Extension", "phone": "09810735390", "website": "https://www.panchisoft.com/", "rating": 5, "review_count": "", "latitude": 28.5014164, "longitude": 77.0380527, "maps_url": "https://www.google.com/maps/place/?q=place_id:0x390d1990db19986d:0x76f7bda3736fe4c4"}, {"place_id": "0x390d1972e4565885:0xdbb0a0c36370d249", "name": "Hosting Precise - Web Hosting Company", "category": "Web hosting company", "street": "Plot No 23", "city": "Maruti Industrial Area, Sector 18", "phone": "08595104872", "website": "https://www.hostingprecise.com/", "rating": 4.9, "review_count": "", "latitude": 28.4898737, "longitude": 77.0620363, "maps_url": "https://www.google.com/maps/place/?q=place_id:0x390d1972e4565885:0xdbb0a0c36370d249"}, {"place_id": "0x390d191bdd750067:0xe9639855574194dd", "name": "Digiware It Solutions Pvt Ltd", "category": "Software company", "street": "1st Floor", "city": "plot no 60", "phone": "09999794342", "website": "https://digiwareitsolution.com/", "rating": 5, "review_count": "", "latitude": 28.4874852, "longitude": 77.06640709999999, "maps_url": "https://www.google.com/maps/place/?q=place_id:0x390d191bdd750067:0xe9639855574194dd"}, {"place_id": "0x390d192ead051335:0x1f45fb98e90cc397", "name": "Honeysha Technologies, Software Company in Gurgaon, Digital Marketing Agency in Gurgaon", "category": "Software company", "street": "Cyber City", "city": "U-79/18, Rd Number 79", "phone": "07692079000", "website": "https://honeyshatech.com/", "rating": 4.5, "review_count": "", "latitude": 28.4900566, "longitude": 77.09324459999999, "maps_url": "https://www.google.com/maps/place/?q=place_id:0x390d192ead051335:0x1f45fb98e90cc397"}, {"place_id": "0x390d192fc20b97e7:0x3048b25634f6d955", "name": "Nagarro", "category": "Software company", "street": "Plot 6B, Sub. Major Laxmi Chand Rd", "city": "Maruti Udyog, Sector 18", "phone": "", "website": "https://www.nagarro.com/en", "rating": 4.5, "review_count": "", "latitude": 28.491098599999997, "longitude": 77.0673492, "maps_url": "https://www.google.com/maps/place/?q=place_id:0x390d192fc20b97e7:0x3048b25634f6d955"}, {"place_id": "0x8be9b7917091d261:0x640c605cfabba2c2", "name": "Junitix Softech", "category": "Software company", "street": "Old, Sub. Major Laxmi Chand Rd", "city": "Om Vihar, Sector 18", "phone": "08941804006", "website": "https://junitixsoftech.com/", "rating": 5, "review_count": "", "latitude": 28.4930076, "longitude": 77.0581244, "maps_url": "https://www.google.com/maps/place/?q=place_id:0x8be9b7917091d261:0x640c605cfabba2c2"}, {"place_id": "0x390d1964921a1d9b:0x1fde406005cf8a72", "name": "Software Development Company in Gurgaon | Metafrone", "category": "Software company", "street": "M-45, First Floor", "city": "Mehrauli-Gurgaon Rd", "phone": "09811004471", "website": "http://www.insoftsys.com/", "rating": 5, "review_count": "", "latitude": 28.4693562, "longitude": 77.0441388, "maps_url": "https://www.google.com/maps/place/?q=place_id:0x390d1964921a1d9b:0x1fde406005cf8a72"}, {"place_id": "0x390d04dd5b5a36ef:0xc6294dd24c52409", "name": "XeliumTech Solutions - Best Mobile App Development Company", "category": "Software company", "street": "Xeliumtech Solutions - Mobile App Development Company", "city": "5, Tenon Ln", "phone": "08800464848", "website": "http://www.xeliumtech.com/", "rating": 4.3, "review_count": "", "latitude": 28.4991502, "longitude": 77.0675995, "maps_url": "https://www.google.com/maps/place/?q=place_id:0x390d04dd5b5a36ef:0xc6294dd24c52409"}, {"place_id": "0x390d195b233aaaab:0x416cb7b74c179f86", "name": "Trantor Software Pvt Ltd.", "category": "Corporate office", "street": "2nd floor, 91 Springboard, Business Hub Private Limited", "city": "Cabin 2", "phone": "06506467818", "website": "http://trantorinc.com/", "rating": 4.1, "review_count": "", "latitude": 28.486732399999998, "longitude": 77.0745902, "maps_url": "https://www.google.com/maps/place/?q=place_id:0x390d195b233aaaab:0x416cb7b74c179f86"}, {"place_id": "0x390d190ba7119bf3:0xe91d109675186ef0", "name": "Serco global", "category": "BPO Company", "street": "17, Sub. Major Laxmi Chand Rd", "city": "Sector 18", "phone": "", "website": "", "rating": 3.6, "review_count": "", "latitude": 28.490564499999998, "longitude": 77.06046309999999, "maps_url": "https://www.google.com/maps/place/?q=place_id:0x390d190ba7119bf3:0xe91d109675186ef0"}, {"place_id": "0x390d185739b22a15:0x9f6748278ced78ed", "name": "TS Infotech India Pvt. Ltd.", "category": "Software company", "street": "Tower A, 5th Floor, Unit 517-522, 526, 527, 534", "city": "Park Centra, BPTP", "phone": "01244935903", "website": "", "rating": 4.7, "review_count": "", "latitude": 28.459949199999997, "longitude": 77.0515892, "maps_url": "https://www.google.com/maps/place/?q=place_id:0x390d185739b22a15:0x9f6748278ced78ed"}, {"place_id": "0x390d194740fd1bb7:0x903b360406bf0902", "name": "Black Box Limited (Formerly AGC Networks Ltd.)", "category": "Software company", "street": "3rd Floor", "city": "CRS Towers", "phone": "", "website": "https://www.blackbox.com/en-in?utm_source=GMB&utm_medium=Gurugram_AGC&utm_campaign=GMB", "rating": 4.5, "review_count": "", "latitude": 28.4853298, "longitude": 77.06294849999999, "maps_url": "https://www.google.com/maps/place/?q=place_id:0x390d194740fd1bb7:0x903b360406bf0902"}, {"place_id": "0x390d19298db2fb35:0xcaa0d46737c4561c", "name": "MLM Software Developer | Sunny citrix", "category": "Software company", "street": "office no 427C, 4th floor, vashisht complex", "city": "Sikanderpur", "phone": "07906059336", "website": "http://sunnycitrix.com/", "rating": 4.8, "review_count": "", "latitude": 28.4816798, "longitude": 77.09770569999999, "maps_url": "https://www.google.com/maps/place/?q=place_id:0x390d19298db2fb35:0xcaa0d46737c4561c"}, {"place_id": "0x390d19174792f4db:0xcb5f589caa71b6e7", "name": "Knocial India Limited", "category": "Software company", "street": "60B", "city": "Udyog Vihar, Sector 22", "phone": "09354120847", "website": "https://www.knocialindia.com/", "rating": 4.7, "review_count": "", "latitude": 28.504239499999997, "longitude": 77.0651981, "maps_url": "https://www.google.com/maps/place/?q=place_id:0x390d19174792f4db:0xcb5f589caa71b6e7"}, {"place_id": "0x390cfd00fd453a1b:0x9b04afa48c2538ec", "name": "Inwoin Technologies Pvt. Ltd.", "category": "Software company", "street": "Building No. 309", "city": "310", "phone": "", "website": "http://www.inwoin.com/", "rating": 4.5, "review_count": "", "latitude": 28.4999559, "longitude": 77.07965879999999, "maps_url": "https://www.google.com/maps/place/?q=place_id:0x390cfd00fd453a1b:0x9b04afa48c2538ec"}, {"place_id": "0x390d19659311a5c3:0x1fdd664b42d6e7d4", "name": "SANDHAR TECHNOLOGIES LIMITED", "category": "Industrial Spares & Products Wholesaler", "street": "plot no, Service Ln", "city": "Maruti Udyog, 3&4Sector 18", "phone": "", "website": "http://www.sandhar.co.in/", "rating": 4.4, "review_count": "", "latitude": 28.4911195, "longitude": 77.0585718, "maps_url": "https://www.google.com/maps/place/?q=place_id:0x390d19659311a5c3:0x1fdd664b42d6e7d4"}, {"place_id": "0x390d1923af5d91ed:0xbe103b16161f5631", "name": "Condeco Software Private Limited", "category": "Software company", "street": "Tower C", "city": "4th floor building 10", "phone": "01244760150", "website": "http://www.condecosoftware.com/apac", "rating": 4.3, "review_count": "", "latitude": 28.4940696, "longitude": 77.0885457, "maps_url": "https://www.google.com/maps/place/?q=place_id:0x390d1923af5d91ed:0xbe103b16161f5631"}, {"place_id": "0x390d192409eb1411:0xbf1f68f4b2dd1d69", "name": "Appicia Technologies", "category": "Software company", "street": "Third floor", "city": "Ashirwad", "phone": "08076917265", "website": "https://appicia.com/", "rating": 5, "review_count": "", "latitude": 28.4885505, "longitude": 77.01963889999999, "maps_url": "https://www.google.com/maps/place/?q=place_id:0x390d192409eb1411:0xbf1f68f4b2dd1d69"}, {"place_id": "0x390d183a3846403b:0x8fd7c90645a11f72", "name": "Vashist IT Solutions Pvt Ltd", "category": "Software company", "street": "729", "city": "Islampur Village, Sector 38", "phone": "09718216517", "website": "https://vashist.tech/", "rating": 4.4, "review_count": "", "latitude": 28.4305924, "longitude": 77.0415957, "maps_url": "https://www.google.com/maps/place/?q=place_id:0x390d183a3846403b:0x8fd7c90645a11f72"}, {"place_id": "0x390ce458d0000001:0xf2123bd299ec4501", "name": "IT Company India", "category": "Software company", "street": "D56", "city": "D Block, Sector 10", "phone": "09999244854", "website": "https://www.itcompanyindia.in/", "rating": 4.7, "review_count": "", "latitude": 28.589917699999997, "longitude": 77.3351153, "maps_url": "https://www.google.com/maps/place/?q=place_id:0x390ce458d0000001:0xf2123bd299ec4501"}, {"place_id": "0x390d190dd05e2f47:0xc8bbd0ff4d3e91b0", "name": "Programming.com", "category": "Corporate office", "street": "46", "city": "Sector 18", "phone": "01724946000", "website": "https://programming.com/", "rating": 4.1, "review_count": "", "latitude": 28.4887834, "longitude": 77.0657227, "maps_url": "https://www.google.com/maps/place/?q=place_id:0x390d190dd05e2f47:0xc8bbd0ff4d3e91b0"}, {"place_id": "0x390d196aa65f2787:0x206eea180dde1151", "name": "Targus Technologies", "category": "Software company", "street": "S&A Tower First Floor, Plot 5", "city": "6 and 7", "phone": "01244742300", "website": "http://www.targustech.com/", "rating": 4.1, "review_count": "", "latitude": 28.4914788, "longitude": 77.07879179999999, "maps_url": "https://www.google.com/maps/place/?q=place_id:0x390d196aa65f2787:0x206eea180dde1151"}, {"place_id": "0x390d183d8ffffffd:0xbbe3233b2d9e6363", "name": "Akoode Technologies - An AI Powered Corporation", "category": "Software company", "street": "Tower B4", "city": "SPAZE ITECH PARK", "phone": "09899300017", "website": "https://www.akoode.com/", "rating": 4.9, "review_count": "", "latitude": 28.4126859, "longitude": 77.0438551, "maps_url": "https://www.google.com/maps/place/?q=place_id:0x390d183d8ffffffd:0xbbe3233b2d9e6363"}, {"place_id": "0x390d18dc634e8941:0x312bd42b85ef737d", "name": "Solution 4 Retail", "category": "Software company", "street": "3rd floor, Pandit Jeet Ram Complex", "city": "Mehrauli-Gurgaon Rd", "phone": "09971461748", "website": "https://www.solution4retail.com/", "rating": 4.9, "review_count": "", "latitude": 28.4765415, "longitude": 77.0628878, "maps_url": "https://www.google.com/maps/place/?q=place_id:0x390d18dc634e8941:0x312bd42b85ef737d"}, {"place_id": "0x390d19dc45d3b3e9:0xd30c1188b3261320", "name": "Canny Alley", "category": "Software company", "street": "2nd Floor", "city": "Plot No.249", "phone": "07838144063", "website": "https://cannyalley.com/", "rating": 4.4, "review_count": "", "latitude": 28.4920144, "longitude": 77.05981919999999, "maps_url": "https://www.google.com/maps/place/?q=place_id:0x390d19dc45d3b3e9:0xd30c1188b3261320"}, {"place_id": "0x390d19b1446866fb:0x2a5581c86a83116f", "name": "Cut Edge Technology", "category": "Software company", "street": "3rd Floor", "city": "Bimla Tower", "phone": "07988315190", "website": "https://cutedgetechnology.com/", "rating": 4.9, "review_count": "", "latitude": 28.466314699999998, "longitude": 77.04113199999999, "maps_url": "https://www.google.com/maps/place/?q=place_id:0x390d19b1446866fb:0x2a5581c86a83116f"}, {"place_id": "0x390d1705616fa363:0xffc4fd09eebea589", "name": "Artigor India Private Limited", "category": "Software company", "street": "F-Block", "city": "143", "phone": "08595246698", "website": "https://www.artigorindia.com/", "rating": 5, "review_count": "", "latitude": 28.491231, "longitude": 77.006479, "maps_url": "https://www.google.com/maps/place/?q=place_id:0x390d1705616fa363:0xffc4fd09eebea589"}, {"place_id": "0x390d3c333c7742a5:0xa7aa3725e0fbe09d", "name": "AG Industries Pvt Ltd", "category": "Plastic Injection Molding Workshop", "street": "F3Q5+H5X", "city": "Plot No. GP-9, Sector-18", "phone": "01244604700", "website": "http://www.agindus.com/", "rating": 4.2, "review_count": "", "latitude": 28.4888551, "longitude": 77.058233, "maps_url": "https://www.google.com/maps/place/?q=place_id:0x390d3c333c7742a5:0xa7aa3725e0fbe09d"}, {"place_id": "0x390d229af8f3fa85:0x4a7c26c2574253e4", "name": "Trion Technologies", "category": "Software company", "street": "Tower A, Spaze iTech Park", "city": "7C B4, Ground Floor", "phone": "01244038435", "website": "", "rating": 4.6, "review_count": "", "latitude": 28.4152709, "longitude": 77.0419029, "maps_url": "https://www.google.com/maps/place/?q=place_id:0x390d229af8f3fa85:0x4a7c26c2574253e4"}, {"place_id": "0x390d23273c272c39:0x15ce775ab82e82c4", "name": "IIIOT Infotech - A Leading Automation and AI company", "category": "Automation company", "street": "7th floor", "city": "Space Boulevard", "phone": "01244032289", "website": "https://iiiot-infotech.com/", "rating": 4.8, "review_count": "", "latitude": 28.417985299999998, "longitude": 77.04105229999999, "maps_url": "https://www.google.com/maps/place/?q=place_id:0x390d23273c272c39:0x15ce775ab82e82c4"}, {"place_id": "0x390d191598f48ef3:0x70991b4ff870f05d", "name": "Shree Partners LLC", "category": "Software company", "street": "1, Tower A, Building, Cyber City", "city": "Corporate Edge Level", "phone": "01246728815", "website": "https://www.shreepartners.com/", "rating": 4.3, "review_count": "", "latitude": 28.4936018, "longitude": 77.088325, "maps_url": "https://www.google.com/maps/place/?q=place_id:0x390d191598f48ef3:0x70991b4ff870f05d"}, {"place_id": "0x390d1960c2b8367f:0xd2d30e45ac71acea", "name": "Vorombetech Solutions - Top IT & Digitalization Service Company in Gurugram", "category": "Software company", "street": "249", "city": "Phase IV, Udyog Vihar, Sector 19", "phone": "", "website": "https://vorombetech.com/", "rating": 4.8, "review_count": "", "latitude": 28.4941475, "longitude": 77.0808448, "maps_url": "https://www.google.com/maps/place/?q=place_id:0x390d1960c2b8367f:0xd2d30e45ac71acea"}, {"place_id": "0x390d2340cf3b81ff:0x3a15d5780cb1f829", "name": "Sage Software Solutions Pvt Ltd | ERP & CRM Provider in Gurugram", "category": "Software company", "street": "Tower-A", "city": "IRIS Tech Park", "phone": "08655306473", "website": "https://www.sagesoftware.co.in/", "rating": 4.7, "review_count": "", "latitude": 28.418723, "longitude": 77.0383319, "maps_url": "https://www.google.com/maps/place/?q=place_id:0x390d2340cf3b81ff:0x3a15d5780cb1f829"}, {"place_id": "0x390d194902b19f69:0x6f9f7dac1d565cc8", "name": "Websbaba Technologies Pvt.Ltd.", "category": "Software company", "street": "828 B3, Ground Floor", "city": "Tower A, Spaze iTech Park", "phone": "01244066733", "website": "https://websbaba.com/", "rating": 4.6, "review_count": "", "latitude": 28.4138566, "longitude": 77.04217849999999, "maps_url": "https://www.google.com/maps/place/?q=place_id:0x390d194902b19f69:0x6f9f7dac1d565cc8"}, {"place_id": "0x390d1960bdb20c0f:0x96dad7862383f70d", "name": "Ezeiatech Systems Private Limited", "category": "Software company", "street": "208", "city": "Vipul Business Park", "phone": "01244670064", "website": "http://www.ezeiatech.com/", "rating": 4.3, "review_count": "", "latitude": 28.4226457, "longitude": 77.0376039, "maps_url": "https://www.google.com/maps/place/?q=place_id:0x390d1960bdb20c0f:0x96dad7862383f70d"}, {"place_id": "0x390d193b91020b5f:0x29f92a3eb636e978", "name": "Upbeat IT Solutions", "category": "Computer support and services", "street": "Chanderlok, DLF Phase IV", "city": "Gurugram, Haryana 122002", "phone": "08851731423", "website": "https://em77v8.webwave.dev/", "rating": 5, "review_count": "", "latitude": 28.4749868, "longitude": 77.0804268, "maps_url": "https://www.google.com/maps/place/?q=place_id:0x390d193b91020b5f:0x29f92a3eb636e978"}, {"place_id": "0x390ce1877a5ef8eb:0xd5abb94a30425144", "name": "Plusone Technologies Private Limited", "category": "Software company", "street": "Phase IV, Udyog Vihar, Sector 18", "city": "Gurugram, Haryana 122015", "phone": "09891387094", "website": "https://www.plusonetech.co/", "rating": 4.7, "review_count": "", "latitude": 28.4941475, "longitude": 77.0808448, "maps_url": "https://www.google.com/maps/place/?q=place_id:0x390ce1877a5ef8eb:0xd5abb94a30425144"}, {"place_id": "0x390d233c46c26d2b:0x446639ea271d0221", "name": "Private Limited Company Registration Service in Gurgaon, India | LLP Registration, OPC Registration", "category": "Corporate office", "street": "Ground Floor", "city": "JMD MEGAPOLIS", "phone": "09910687775", "website": "https://www.companiesnext.com/", "rating": 5, "review_count": "", "latitude": 28.4193611, "longitude": 77.0378102, "maps_url": "https://www.google.com/maps/place/?q=place_id:0x390d233c46c26d2b:0x446639ea271d0221"}, {"place_id": "0x390d19aabe7d692b:0xd6ac9bdd0332d56c", "name": "Sirion", "category": "Software company", "street": "8th floor", "city": "One Qube", "phone": "01244915400", "website": "http://www.sirion.ai/", "rating": 4.2, "review_count": "", "latitude": 28.4855172, "longitude": 77.07554449999999, "maps_url": "https://www.google.com/maps/place/?q=place_id:0x390d19aabe7d692b:0xd6ac9bdd0332d56c"}, {"place_id": "0x390d190bc5f6f031:0x712894f32542f70", "name": "Enco Engineers Combine Private Limited", "category": "Steel fabricator", "street": "GP-75 Maruti Industrial Estate", "city": "Sector 18", "phone": "09810022927", "website": "http://www.enco.in/", "rating": 4.1, "review_count": "", "latitude": 28.488943, "longitude": 77.0601188, "maps_url": "https://www.google.com/maps/place/?q=place_id:0x390d190bc5f6f031:0x712894f32542f70"}, {"place_id": "0x390d22818540f847:0x498516ca559348a5", "name": "Industrial PCs - Thinvent Technologies Pvt. Ltd.", "category": "Software company", "street": "UGF-10-A", "city": "Omaxe Gurgaon Mall", "phone": "", "website": "https://www.thinvent.in/", "rating": 4.5, "review_count": "", "latitude": 28.411808599999997, "longitude": 77.0434117, "maps_url": "https://www.google.com/maps/place/?q=place_id:0x390d22818540f847:0x498516ca559348a5"}, {"place_id": "0x390d18b4f787fb51:0xa55a99d13052e0e4", "name": "HW Infotech \u2013 Website & Mobile App Development | AI, Blockchain & SaaS Company", "category": "Software company", "street": "Cospaces Cowork Plot No 360", "city": "Golf Course Rd", "phone": "07678430274", "website": "https://www.hwinfotech.com/", "rating": 5, "review_count": "", "latitude": 28.4721168, "longitude": 77.0907581, "maps_url": "https://www.google.com/maps/place/?q=place_id:0x390d18b4f787fb51:0xa55a99d13052e0e4"}, {"place_id": "0x390d19f6c877f18d:0x7e4b7123e80af6c5", "name": "Shriram IT Solutions", "category": "Computer support and services", "street": "512/18 GF", "city": "opp. Forest Office", "phone": "09971423321", "website": "http://www.shriramits.in/", "rating": 4.7, "review_count": "", "latitude": 28.4513318, "longitude": 77.0322651, "maps_url": "https://www.google.com/maps/place/?q=place_id:0x390d19f6c877f18d:0x7e4b7123e80af6c5"}, {"place_id": "0x390d19437cb628b3:0x12e71803eb09ac16", "name": "Clavax Technologies", "category": "Software company", "street": "727", "city": "Udyog Vihar, Phase 5", "phone": "+18444252829", "website": "http://www.clavax.com/", "rating": 4.1, "review_count": "", "latitude": 28.5052123, "longitude": 77.0850025, "maps_url": "https://www.google.com/maps/place/?q=place_id:0x390d19437cb628b3:0x12e71803eb09ac16"}, {"place_id": "0x390d193ff211b3fb:0xd964ffb67296e058", "name": "IStrat Software Pvt. Ltd.", "category": "Software company", "street": "90D,", "city": "Udyog Vihar Phase IV, Sector 18", "phone": "01244121000", "website": "", "rating": 3.8, "review_count": "", "latitude": 28.485205399999998, "longitude": 77.0740924, "maps_url": "https://www.google.com/maps/place/?q=place_id:0x390d193ff211b3fb:0xd964ffb67296e058"}, {"place_id": "0x390d198f62c557d7:0x4b037444663d7f50", "name": "Triyuga Soft Tech Pvt Ltd | IT Company in Gurgaon | Digital Marketing Company in Gurgaon", "category": "Software company", "street": "Shop No : 4", "city": "Main, Bajghera Rd", "phone": "09999699936", "website": "https://www.triyugasofttech.com/", "rating": "", "review_count": "", "latitude": 28.495755199999998, "longitude": 77.011887, "maps_url": "https://www.google.com/maps/place/?q=place_id:0x390d198f62c557d7:0x4b037444663d7f50"}, {"place_id": "0x390d1846bf95334b:0xdb60e62cb25dbc6a", "name": "ALPHA INFOTECH - A Total IT Solution Company", "category": "Software company", "street": "Plot No-36", "city": "Sector 15 Part 2, 1", "phone": "01244004035", "website": "https://alphainfotech.co.in/", "rating": 4.1, "review_count": "", "latitude": 28.4577043, "longitude": 77.045251, "maps_url": "https://www.google.com/maps/place/?q=place_id:0x390d1846bf95334b:0xdb60e62cb25dbc6a"}, {"place_id": "0x390d1946a4b0d01f:0xab23cbaa408b3b9c", "name": "Tagbin Services Pvt. Ltd. \u2013 Best AI & Experiential Tech Company in Gurgaon", "category": "Software company", "street": "3rd Floor, Wing A, Enkay Centre", "city": "Vaniya Kunj", "phone": "08178112682", "website": "https://tagbin.in/", "rating": 4.2, "review_count": "", "latitude": 28.4974691, "longitude": 77.08654609999999, "maps_url": "https://www.google.com/maps/place/?q=place_id:0x390d1946a4b0d01f:0xab23cbaa408b3b9c"}, {"place_id": "0x390d190ada0bab79:0x23a4e189c207a3f", "name": "Niit Ltd", "category": "Training center", "street": "26, Old Delhi Gurugram Rd", "city": "Old DLF Colony, Sector 14", "phone": "180030006448", "website": "https://www.niit.com/", "rating": 4.2, "review_count": "", "latitude": 28.492732099999998, "longitude": 77.05888689999999, "maps_url": "https://www.google.com/maps/place/?q=place_id:0x390d190ada0bab79:0x23a4e189c207a3f"}, {"place_id": "0x390d19316748a39b:0x427bebf40160d8ac", "name": "Construe IT Solutions Pvt. Ltd.", "category": "Software company", "street": "R # 3", "city": "56/10", "phone": "08130713756", "website": "http://www.construesol.com/", "rating": 4, "review_count": "", "latitude": 28.489741799999997, "longitude": 77.0963127, "maps_url": "https://www.google.com/maps/place/?q=place_id:0x390d19316748a39b:0x427bebf40160d8ac"}, {"place_id": "0x390d18574741abd3:0x6533204c7dde11d0", "name": "Analec Infotech Pvt. Ltd.", "category": "Software company", "street": "6th floor, Tower B", "city": "Park Centra", "phone": "", "website": "http://www.analec.com/", "rating": 3.7, "review_count": "", "latitude": 28.459702399999998, "longitude": 77.0516896, "maps_url": "https://www.google.com/maps/place/?q=place_id:0x390d18574741abd3:0x6533204c7dde11d0"}, {"place_id": "0x390d191d0bb8a9db:0xf6295047e107a843", "name": "Robust Infotech - IT Services | Digital Transformation | Best Website/Software Development Company", "category": "Software company", "street": "90B, Delhi - Jaipur Expy", "city": "Nitin Vihar, Udyog Vihar, Sector 18", "phone": "07982914476", "website": "", "rating": 5, "review_count": "", "latitude": 28.441292299999997, "longitude": 77.0148859, "maps_url": "https://www.google.com/maps/place/?q=place_id:0x390d191d0bb8a9db:0xf6295047e107a843"}, {"place_id": "0x390d19f8f485de2b:0x1272dc5f3676ba6c", "name": "Future Tech Lancer", "category": "Software company", "street": "914", "city": "Urban Estate, Sector 4", "phone": "09717776087", "website": "https://futuretechlancer.com/", "rating": 4.6, "review_count": "", "latitude": 28.4741485, "longitude": 77.0165451, "maps_url": "https://www.google.com/maps/place/?q=place_id:0x390d19f8f485de2b:0x1272dc5f3676ba6c"}, {"place_id": "0x390d195c26bfa369:0x69bd8efd2e3a31fe", "name": "Radical Minds Technologies Pvt. Ltd.", "category": "BPO Company", "street": "368", "city": "Phase II, Udyog Vihar, Sector 20", "phone": "01244338366", "website": "http://www.radicalminds.in/", "rating": 4.2, "review_count": "", "latitude": 28.506335099999998, "longitude": 77.0877546, "maps_url": "https://www.google.com/maps/place/?q=place_id:0x390d195c26bfa369:0x69bd8efd2e3a31fe"}, {"place_id": "0x390d19c4f81c373b:0x569790526001fe47", "name": "Pasenture Technologies - Web Development Company in Gurugram, Software Development Company in Gurgaon for CRM & Saas Software", "category": "Software company", "street": "2nd Floor", "city": "90, IDC", "phone": "09717197498", "website": "https://pasenture.in/", "rating": 4, "review_count": "", "latitude": 28.4716508, "longitude": 77.0509349, "maps_url": "https://www.google.com/maps/place/?q=place_id:0x390d19c4f81c373b:0x569790526001fe47"}, {"place_id": "0x484025b6488f98dd:0x648bed1c75013da8", "name": "Codevio Digital \u2013 IT & Software Company in Gurgaon", "category": "Software company", "street": "UNITECH CYBER PARK", "city": "Durga Colony, Sector 39", "phone": "07428036870", "website": "https://codevio.io/", "rating": 4.8, "review_count": "", "latitude": 28.443307899999997, "longitude": 77.0561005, "maps_url": "https://www.google.com/maps/place/?q=place_id:0x484025b6488f98dd:0x648bed1c75013da8"}, {"place_id": "0x390d199812f41331:0x3e445b3fe5e6ac46", "name": "Fare Destination Pvt Ltd", "category": "Software company", "street": "75C", "city": "Sector 18", "phone": "", "website": "http://www.faredestination.com/", "rating": 4.6, "review_count": "", "latitude": 28.4874825, "longitude": 77.0651038, "maps_url": "https://www.google.com/maps/place/?q=place_id:0x390d199812f41331:0x3e445b3fe5e6ac46"}, {"place_id": "0x390ce458ced74c29:0x1b3276a817488cb0", "name": "C1 India Private Limited", "category": "Software company", "street": "3rd Floor", "city": "Plot No. 68", "phone": "01244302000", "website": "https://c1india.com/", "rating": 3.8, "review_count": "", "latitude": 28.451106099999997, "longitude": 77.06929889999999, "maps_url": "https://www.google.com/maps/place/?q=place_id:0x390ce458ced74c29:0x1b3276a817488cb0"}, {"place_id": "0x390d19404f4f65d5:0xc7a5e785eb2e8ef6", "name": "Infodart Technologies Ltd", "category": "Software company", "street": "2nd floor", "city": "plot no 254", "phone": "", "website": "https://www.infodartglobal.com/", "rating": 4, "review_count": "", "latitude": 28.4979135, "longitude": 77.0815518, "maps_url": "https://www.google.com/maps/place/?q=place_id:0x390d19404f4f65d5:0xc7a5e785eb2e8ef6"}, {"place_id": "0x390d190777c81cff:0xfce17b8900021750", "name": "Alisan Smart Homes - Home Automation Company in India", "category": "Software company", "street": "Iffco Chowk", "city": "Unit 7-8, Sehrawat Complex", "phone": "18001211300", "website": "https://www.alisan.co.in/", "rating": 4.9, "review_count": "", "latitude": 28.476379899999998, "longitude": 77.0625586, "maps_url": "https://www.google.com/maps/place/?q=place_id:0x390d190777c81cff:0xfce17b8900021750"}, {"place_id": "0x390d19d6fada2dbb:0xf471019497f6cda8", "name": "Suvrin Technologies|Website Development | eCommerce & Mobile App Development company", "category": "Software company", "street": "P1/55", "city": "Mushedpur, DLF Phase 2, Sector 25", "phone": "09811021616", "website": "https://www.suvrin.com/", "rating": 3.9, "review_count": "", "latitude": 28.4872941, "longitude": 77.0874865, "maps_url": "https://www.google.com/maps/place/?q=place_id:0x390d19d6fada2dbb:0xf471019497f6cda8"}, {"place_id": "0x390ce3b5c2a11543:0xc4df0cd95534bf85", "name": "LimeTray", "category": "Software company", "street": "2nd Floor", "city": "815", "phone": "", "website": "https://limetray.com/", "rating": 3.6, "review_count": "", "latitude": 28.5015508, "longitude": 77.08626919999999, "maps_url": "https://www.google.com/maps/place/?q=place_id:0x390ce3b5c2a11543:0xc4df0cd95534bf85"}, {"place_id": "0x390d199136403043:0x2b1694bb78c06df4", "name": "LINETECH IT SOLUTIONS PVT LTD", "category": "Software company", "street": "645/38,Ground Floor", "city": "Ashok Vihar Phase- 1", "phone": "09311733006", "website": "http://www.linetech.in/", "rating": 5, "review_count": "", "latitude": 28.4855302, "longitude": 77.018385, "maps_url": "https://www.google.com/maps/place/?q=place_id:0x390d199136403043:0x2b1694bb78c06df4"}, {"place_id": "0x390d190b8996b54d:0xa4d9ad7263547701", "name": "Company", "category": "Corporate office", "street": "The Coworking Space", "city": "A-14/15 DLF Phase 1, Sector 26 A Truworx", "phone": "01140844560", "website": "https://www.quickcompany.in/", "rating": 4.1, "review_count": "", "latitude": 28.474366699999997, "longitude": 77.0943154, "maps_url": "https://www.google.com/maps/place/?q=place_id:0x390d190b8996b54d:0xa4d9ad7263547701"}, {"place_id": "0x390d19361c56cecd:0x50517af3dc928d70", "name": "Mycom", "category": "Software company", "street": "7th Floor", "city": "Building 8b", "phone": "01244508000", "website": "http://www.mycom-osi.com/", "rating": 4.3, "review_count": "", "latitude": 28.4982059, "longitude": 77.0900367, "maps_url": "https://www.google.com/maps/place/?q=place_id:0x390d19361c56cecd:0x50517af3dc928d70"}, {"place_id": "0x390d19d9eb88a061:0xe1ceb1ff64960d37", "name": "We2India Web Solution", "category": "Software company", "street": "F", "city": "54", "phone": "08923339447", "website": "http://we2india.in/", "rating": 5, "review_count": "", "latitude": 28.4974012, "longitude": 77.0261081, "maps_url": "https://www.google.com/maps/place/?q=place_id:0x390d19d9eb88a061:0xe1ceb1ff64960d37"}, {"place_id": "0x390d19f9a69eb751:0x6cb2ad4d17b3ed26", "name": "Sparsa Digital Pvt. Ltd.", "category": "Software company", "street": "119 A, DLF Star Tower", "city": "Sector 30", "phone": "08043063109", "website": "https://sparsadigital.in/", "rating": 4.8, "review_count": "", "latitude": 28.460650599999997, "longitude": 77.05282969999999, "maps_url": "https://www.google.com/maps/place/?q=place_id:0x390d19f9a69eb751:0x6cb2ad4d17b3ed26"}, {"place_id": "0x390d193854a9b805:0xeb675c7a6d5768f7", "name": "Cvent India", "category": "Software company", "street": "19th Floor Building", "city": "No.14C", "phone": "0008001008934", "website": "https://careers.cvent.com/", "rating": 4.3, "review_count": "", "latitude": 28.4968638, "longitude": 77.0941567, "maps_url": "https://www.google.com/maps/place/?q=place_id:0x390d193854a9b805:0xeb675c7a6d5768f7"}, {"place_id": "0x390d1915fa5d766d:0x1d92c0eb013cd4f2", "name": "FIS Global Business Solutions India Pvt. Ltd.", "category": "Corporate office", "street": "402, I Park, Plot No. 15", "city": "Phase IV", "phone": "01243927500", "website": "https://www.fisglobal.com/", "rating": 4.1, "review_count": "", "latitude": 28.490092899999997, "longitude": 77.078841, "maps_url": "https://www.google.com/maps/place/?q=place_id:0x390d1915fa5d766d:0x1d92c0eb013cd4f2"}, {"place_id": "0x390d178c9e570a93:0xc5aaf0883f275212", "name": "MD Info Solutions (Tally Certified Partner)", "category": "Software company", "street": "1st Floor", "city": "SCO 99, Sector 10A", "phone": "09810012029", "website": "https://mdinfosolutions.com/?utm_source=google&utm_medium=organic&utm_campaign=gmb_listing", "rating": 5, "review_count": "", "latitude": 28.4423866, "longitude": 77.0091726, "maps_url": "https://www.google.com/maps/place/?q=place_id:0x390d178c9e570a93:0xc5aaf0883f275212"}, {"place_id": "0x390d236da8a22aa5:0x963097a95cd8c760", "name": "Android Developer - Android Application Development Company in Gurgaon, India", "category": "Software company", "street": "646, 6th Floor", "city": "Tower A, Spaze iTech Park", "phone": "09821746493", "website": "https://www.androiddeveloper.co.in/?utm_source=googlelisting&utm_medium=listingsearch&utm_campaign=visitors", "rating": 5, "review_count": "", "latitude": 28.413624, "longitude": 77.04239, "maps_url": "https://www.google.com/maps/place/?q=place_id:0x390d236da8a22aa5:0x963097a95cd8c760"}, {"place_id": "0x390d19ad5c000001:0xb02d03917da87f56", "name": "Netscape India", "category": "Software company", "street": "M-44, (1st Floor", "city": "Mehrauli-Gurgaon Rd", "phone": "09871296565", "website": "https://www.netscapeindia.com/", "rating": 4.5, "review_count": "", "latitude": 28.4693085, "longitude": 77.044257, "maps_url": "https://www.google.com/maps/place/?q=place_id:0x390d19ad5c000001:0xb02d03917da87f56"}, {"place_id": "0x390ce58c7403e0a1:0x2a35ba3fcd3ecb95", "name": "Akhil Systems Pvt Ltd - Electronic Medical Records Software, Best Hospital Software India, Hospital Management Software", "category": "Software company", "street": "5th Floor", "city": "Incuspaze Building", "phone": "08448799453", "website": "https://akhilsystems.com/", "rating": 3.4, "review_count": "", "latitude": 28.4914019, "longitude": 77.0771321, "maps_url": "https://www.google.com/maps/place/?q=place_id:0x390ce58c7403e0a1:0x2a35ba3fcd3ecb95"}, {"place_id": "0x390d195483e39b25:0xdb284651b4ad712", "name": "Defitex Innovative Solutions Pvt Ltd", "category": "Consultant", "street": "MiQB", "city": "Maruti Industrial Development Area", "phone": "04069867149", "website": "", "rating": 4.5, "review_count": "", "latitude": 28.4895772, "longitude": 77.06224379999999, "maps_url": "https://www.google.com/maps/place/?q=place_id:0x390d195483e39b25:0xdb284651b4ad712"}, {"place_id": "0x390d1927b07807c3:0xe807c871bbf6b9b3", "name": "Corewave- CRM, ERP, Mobile app, Software Development Company Gurgaon, Digital Marketing, SEO Company in Gurgaon", "category": "Software company", "street": "Tower B1, Sector 30 DLF", "city": "Silokhera, SEZ", "phone": "09810676072", "website": "https://corewave.io/", "rating": 4.6, "review_count": "", "latitude": 28.4606674, "longitude": 77.0518158, "maps_url": "https://www.google.com/maps/place/?q=place_id:0x390d1927b07807c3:0xe807c871bbf6b9b3"}, {"place_id": "0x390d19e5c122cf53:0x64ffb5ee4f353204", "name": "Nexus IT Solution - Gurugram", "category": "Software company", "street": "2nd Floor", "city": "Shanti Tower", "phone": "", "website": "https://www.nexusitsolution.com/", "rating": 5, "review_count": "", "latitude": 28.457690999999997, "longitude": 77.03425849999999, "maps_url": "https://www.google.com/maps/place/?q=place_id:0x390d19e5c122cf53:0x64ffb5ee4f353204"}, {"place_id": "0x390d1910da46a7db:0x18c0a10a69f503f8", "name": "Coforge", "category": "Corporate office", "street": "5th & 6th Floor", "city": "Plot No-13", "phone": "02240103100", "website": "https://www.coforge.com/", "rating": 3.9, "review_count": "", "latitude": 28.4915973, "longitude": 77.07432709999999, "maps_url": "https://www.google.com/maps/place/?q=place_id:0x390d1910da46a7db:0x18c0a10a69f503f8"}, {"place_id": "0x390d19437e719739:0x14737a286b425c55", "name": "Mediology Software", "category": "Software company", "street": "Tower B, 4th Floor", "city": "ASF Towers", "phone": "01244747500", "website": "https://www.mediologysoftware.com/", "rating": 4.1, "review_count": "", "latitude": 28.4966176, "longitude": 77.0842566, "maps_url": "https://www.google.com/maps/place/?q=place_id:0x390d19437e719739:0x14737a286b425c55"}, {"place_id": "0x390d18fc94cdeaad:0x86ca1d7affe08c15", "name": "Believ-In Technologies | Website Design & Development Services in Gurgaon", "category": "Software company", "street": "ILD Tower 2nd floor, Unit 235-245", "city": "Gurugram, Haryana 122018", "phone": "09958992236", "website": "https://believintech.com/", "rating": 4.8, "review_count": "", "latitude": 28.4252899, "longitude": 77.0389605, "maps_url": "https://www.google.com/maps/place/?q=place_id:0x390d18fc94cdeaad:0x86ca1d7affe08c15"}, {"place_id": "0x390d23e83bb73bd9:0xfa27d59a72595eb0", "name": "TAPIRSOFT | Best Software Development Company", "category": "Software company", "street": "3rd Floor", "city": "Landmark Cyber Park", "phone": "07300005661", "website": "http://www.tapirsoft.com/", "rating": 5, "review_count": "", "latitude": 28.390846699999997, "longitude": 77.0597157, "maps_url": "https://www.google.com/maps/place/?q=place_id:0x390d23e83bb73bd9:0xfa27d59a72595eb0"}, {"place_id": "0x390d2298bc1357bd:0xba1e27d3f5f7fcac", "name": "Wingreens World Corporate Office", "category": "Food manufacturer", "street": "Ground Floor", "city": "CRS Towers", "phone": "", "website": "http://www.wingreensworld.com/", "rating": 4.3, "review_count": "", "latitude": 28.485060999999998, "longitude": 77.0630353, "maps_url": "https://www.google.com/maps/place/?q=place_id:0x390d2298bc1357bd:0xba1e27d3f5f7fcac"}, {"place_id": "0x390d193b8f3e99b1:0xcdbf337e35dfc25f", "name": "INSTA DIGITECH (2D/3D CAD SOFTWARE)", "category": "Software company", "street": "H.NO", "city": "234/8", "phone": "07834906194", "website": "https://www.instadigitech.com/", "rating": 5, "review_count": "", "latitude": 28.4449902, "longitude": 77.0256584, "maps_url": "https://www.google.com/maps/place/?q=place_id:0x390d193b8f3e99b1:0xcdbf337e35dfc25f"}, {"place_id": "0x390d190e1332cfb7:0xaddb08e1284e308c", "name": "GRID INFOCOM PVT. LTD.", "category": "Software company", "street": "Plot No. 59", "city": "Sarhaul, Sector 18", "phone": "01244942200", "website": "", "rating": 3.8, "review_count": "", "latitude": 28.487510099999998, "longitude": 77.0665222, "maps_url": "https://www.google.com/maps/place/?q=place_id:0x390d190e1332cfb7:0xaddb08e1284e308c"}, {"place_id": "0x390d1f4effffffff:0xcfc715ac63417946", "name": "Bechtel India Private Limited", "category": "Corporate office", "street": "244-245", "city": "Phase IV, Udyog Vihar, Knowledge Park", "phone": "01244098000", "website": "http://www.bechtel.com/", "rating": 4.4, "review_count": "", "latitude": 28.4956277, "longitude": 77.0839426, "maps_url": "https://www.google.com/maps/place/?q=place_id:0x390d1f4effffffff:0xcfc715ac63417946"}, {"place_id": "0x390d19b51e5edf49:0xd17618454eb66b58", "name": "STERLING MANUFACTURING COMPANY", "category": "Manufacturer", "street": "2nd Floor", "city": "249", "phone": "09310644419", "website": "https://sterlingmfgco.com/", "rating": 4.8, "review_count": "", "latitude": 28.498040099999997, "longitude": 77.0824007, "maps_url": "https://www.google.com/maps/place/?q=place_id:0x390d19b51e5edf49:0xd17618454eb66b58"}, {"place_id": "0x390d1905cf9418ab:0x68c73ef2c55c6a92", "name": "Dixinfotech | Best Web Development Company in Gurgaon", "category": "Software company", "street": "Plot No. 96, 1st Floor", "city": "Udyog Vihar Phase 1, Sector 20", "phone": "09717106162", "website": "https://www.dixinfotech.com/website-designing-company-in-gurgaon", "rating": 5, "review_count": "", "latitude": 28.5169219, "longitude": 77.0803425, "maps_url": "https://www.google.com/maps/place/?q=place_id:0x390d1905cf9418ab:0x68c73ef2c55c6a92"}, {"place_id": "0x390d191442c50bc7:0xa5db14e6a1c12984", "name": "Parishram Resources Pvt. Ltd", "category": "Corporate office", "street": "5th Floor GP 28", "city": "TAG 28", "phone": "01246633400", "website": "http://www.parishram.co.in/", "rating": 3.8, "review_count": "", "latitude": 28.4899375, "longitude": 77.0605229, "maps_url": "https://www.google.com/maps/place/?q=place_id:0x390d191442c50bc7:0xa5db14e6a1c12984"}, {"place_id": "0x390d19c6f4dd6c85:0xdf90f796a39f25f1", "name": "Digiintern | Digital Marketing Company", "category": "Marketing consultant", "street": "Plot No 76", "city": "d Phase IV, Sector 18", "phone": "09653545560", "website": "https://www.digiintern.com/", "rating": 4.7, "review_count": "", "latitude": 28.4851782, "longitude": 77.0657025, "maps_url": "https://www.google.com/maps/place/?q=place_id:0x390d19c6f4dd6c85:0xdf90f796a39f25f1"}, {"place_id": "0x390d23cd188f3bbb:0x81dd70218a5e76e", "name": "Mobodevelopers - IT Services & Software Development Company", "category": "Software company", "street": "Mobodevelopers B-401 JMD Suburbio 2", "city": "Sector 67", "phone": "09653541324", "website": "https://www.mobodevelopers.com/", "rating": 3.5, "review_count": "", "latitude": 28.3820692, "longitude": 77.0548273, "maps_url": "https://www.google.com/maps/place/?q=place_id:0x390d23cd188f3bbb:0x81dd70218a5e76e"}, {"place_id": "0x83adce4462c394dd:0x3f2706d70a065e6", "name": "TechMetronix LLP - India's No. 1 Software and Web Development Company", "category": "Software company", "street": "Welldone tech park", "city": "Sohna - Gurgaon Rd", "phone": "09971840928", "website": "http://techmetronix.com/", "rating": 4.2, "review_count": "", "latitude": 28.4185216, "longitude": 77.0380948, "maps_url": "https://www.google.com/maps/place/?q=place_id:0x83adce4462c394dd:0x3f2706d70a065e6"}, {"place_id": "0x390d19ad585bba37:0xc7a1380f3c30571a", "name": "Wroffy Technologies Pvt Ltd", "category": "Software company", "street": "304", "city": "Vipul Business Park", "phone": "01244349014", "website": "https://www.wroffy.com/", "rating": 4.3, "review_count": "", "latitude": 28.4226457, "longitude": 77.0376039, "maps_url": "https://www.google.com/maps/place/?q=place_id:0x390d19ad585bba37:0xc7a1380f3c30571a"}, {"place_id": "0x390d19414b0e5321:0xf7a5ae3e08b20907", "name": "Real Time Data Services Pvt. Ltd.", "category": "Corporate office", "street": "809-A", "city": "Phase V, Udyog Vihar, Sector 19", "phone": "01244018891", "website": "https://www.myrealdata.in/", "rating": 3.8, "review_count": "", "latitude": 28.5007093, "longitude": 77.08505699999999, "maps_url": "https://www.google.com/maps/place/?q=place_id:0x390d19414b0e5321:0xf7a5ae3e08b20907"}, {"place_id": "0x390d2397de5e6a51:0x25c03d8b2aa55fe2", "name": "Revinfotech Inc - Best Software & Web Development Company in Gurugram", "category": "Software company", "street": "Second floor", "city": "ILD Trade Center", "phone": "09041888886", "website": "https://www.revinfotech.com/", "rating": 4.9, "review_count": "", "latitude": 28.425377599999997, "longitude": 77.03883119999999, "maps_url": "https://www.google.com/maps/place/?q=place_id:0x390d2397de5e6a51:0x25c03d8b2aa55fe2"}, {"place_id": "0x390d196ef0493d6b:0xaef80ac4c4873fae", "name": "QUARTH IT SOLUTIONS PVT. LTD.", "category": "Software company", "street": "M-18, Ground Floor", "city": "near Sani Mandir", "phone": "01244324094", "website": "", "rating": 4.5, "review_count": "", "latitude": 28.4698493, "longitude": 77.0442382, "maps_url": "https://www.google.com/maps/place/?q=place_id:0x390d196ef0493d6b:0xaef80ac4c4873fae"}]}