{"timestamp": 1773731498.0690084, "keyword": "IT company", "location": "delhi", "cell_idx": 481, "results": [{"place_id": "0x390d1ca9e50d176d:0x9986a01a4b66bca0", "name": "VUnify Technology Private Limited", "category": "Software company", "street": "WZ-13H, Aggarwal Sweets Rd", "city": "near New", "phone": "", "website": "https://vunify.in/", "rating": 4.8, "review_count": "", "latitude": 28.6079093, "longitude": 77.1023304, "maps_url": "https://www.google.com/maps/place/?q=place_id:0x390d1ca9e50d176d:0x9986a01a4b66bca0"}, {"place_id": "0x390d1ca8de94abb1:0xc070687f1d5f8558", "name": "Bita Infotech IT Solutions:: Website Designing & Development Company", "category": "Software company", "street": "Rz-31 B, Street No. 5", "city": "Block M, West Sagarpur, Sagar Pur", "phone": "08178256664", "website": "https://bitainfotech.com/", "rating": 4.7, "review_count": "", "latitude": 28.6056495, "longitude": 77.1012293, "maps_url": "https://www.google.com/maps/place/?q=place_id:0x390d1ca8de94abb1:0xc070687f1d5f8558"}, {"place_id": "0x390d04ebffffffff:0x91c04a15b79d72c6", "name": "Incredible Softwares", "category": "Software company", "street": "Block D2, Mohan Nagar, Janakpuri", "city": "New Delhi, Delhi, 110058", "phone": "08010421613", "website": "https://www.incrediblesoftwares.com/", "rating": 4.9, "review_count": "", "latitude": 28.607412099999998, "longitude": 77.1055037, "maps_url": "https://www.google.com/maps/place/?q=place_id:0x390d04ebffffffff:0x91c04a15b79d72c6"}, {"place_id": "0x2a72b8b69d7b6493:0x11251466d4d34cac", "name": "WebZonal IT Company", "category": "Website designer", "street": "Wz-258/2-3, D Block Rd", "city": "Khazan Basti, Nangal Raya, Janakpuri", "phone": "09811170903", "website": "http://webzonal.com/", "rating": 5, "review_count": "", "latitude": 28.6122102, "longitude": 77.11159549999999, "maps_url": "https://www.google.com/maps/place/?q=place_id:0x2a72b8b69d7b6493:0x11251466d4d34cac"}, {"place_id": "0x390d1cac6aaaaaab:0x20e09e6dc5902ba9", "name": "Lumineux Informatik Technologies", "category": "Software company", "street": "Ground Floor shop", "city": "wz 227", "phone": "+17073482990", "website": "http://lumineuxinformatik.com/", "rating": 5, "review_count": "", "latitude": 28.6087477, "longitude": 77.1096829, "maps_url": "https://www.google.com/maps/place/?q=place_id:0x390d1cac6aaaaaab:0x20e09e6dc5902ba9"}, {"place_id": "0x390d1caa88009239:0x327717152469f399", "name": "Embedded Designs Services India Pvt Ltd", "category": "Software company", "street": "D1A", "city": "A3, Sewa Marg", "phone": "09910022166", "website": "http://www.eds-india.in/", "rating": 4.9, "review_count": "", "latitude": 28.609572999999997, "longitude": 77.103214, "maps_url": "https://www.google.com/maps/place/?q=place_id:0x390d1caa88009239:0x327717152469f399"}, {"place_id": "0x390d1b1de850c583:0x788950f675b157fb", "name": "Chirai Technologies Pvt. Ltd.", "category": "Computer support and services", "street": "WZ-51, B2", "city": "Vashist Park, Sagar Pur", "phone": "09466817787", "website": "https://www.chiraitechnologies.com/", "rating": 5, "review_count": "", "latitude": 28.6090606, "longitude": 77.10049889999999, "maps_url": "https://www.google.com/maps/place/?q=place_id:0x390d1b1de850c583:0x788950f675b157fb"}, {"place_id": "0x390d1caa0c34e6ed:0xb215e72e4664c223", "name": "ARIHANT SOFTWARE AND SERVICES", "category": "Software company", "street": "WZ-13C/1, 2nd Floor Vashisht Park, Nr, Aggarwal Sweets", "city": "Pankha Rd", "phone": "09990009799", "website": "https://arihantsoftbusy.com/", "rating": 4.4, "review_count": "", "latitude": 28.6080796, "longitude": 77.1031457, "maps_url": "https://www.google.com/maps/place/?q=place_id:0x390d1caa0c34e6ed:0xb215e72e4664c223"}, {"place_id": "0x390d04b79a4812e7:0x5314f306ae500cd7", "name": "Xicom Technologies Ltd.", "category": "Software company", "street": "C-1/134", "city": "Block C1, Janakpuri", "phone": "01125502616", "website": "http://www.xicom.biz/", "rating": 4.2, "review_count": "", "latitude": 28.620959, "longitude": 77.081805, "maps_url": "https://www.google.com/maps/place/?q=place_id:0x390d04b79a4812e7:0x5314f306ae500cd7"}, {"place_id": "0x390d1b3ce3c8f855:0xee4a65138d454b3d", "name": "Aarti Web Technology", "category": "Software company", "street": "West Sagarpur, Dayal Park, Main Sagarpur, Sagar Pur", "city": "New Delhi, Delhi, 110046", "phone": "08882819003", "website": "http://aartitech.in/", "rating": 4.7, "review_count": "", "latitude": 28.605843699999998, "longitude": 77.0962301, "maps_url": "https://www.google.com/maps/place/?q=place_id:0x390d1b3ce3c8f855:0xee4a65138d454b3d"}, {"place_id": "0x390d05656f372539:0xe596ab591b5bdf8c", "name": "ZonSource\u00ae IT Solutions Pvt. Ltd.", "category": "Software company", "street": "Community Centre", "city": "Block C, Janakpuri", "phone": "09599902185", "website": "https://zonsource.com/", "rating": 5, "review_count": "", "latitude": 28.6117124, "longitude": 77.0937137, "maps_url": "https://www.google.com/maps/place/?q=place_id:0x390d05656f372539:0xe596ab591b5bdf8c"}, {"place_id": "0x390d1cab760e10c7:0x1455768f6745bf1c", "name": "Tech Observer", "category": "Pharmaceutical company", "street": "1391, 34A, PT Vishnu Datt Marg", "city": "RC Basti,Block WZ, Nangal Raya, Janakpuri", "phone": "01128524382", "website": "https://www.tech-observer.com/", "rating": 4.2, "review_count": "", "latitude": 28.6099158, "longitude": 77.1073184, "maps_url": "https://www.google.com/maps/place/?q=place_id:0x390d1cab760e10c7:0x1455768f6745bf1c"}, {"place_id": "0x390d05f8ccacc973:0x96e03b9c34745e2", "name": "DDT SOFTWARE & ECOMM PVT LTD", "category": "Software company", "street": "331-B", "city": "C4B/331", "phone": "09810944806", "website": "https://toponsearch.com/", "rating": 4.4, "review_count": "", "latitude": 28.618974899999998, "longitude": 77.0913518, "maps_url": "https://www.google.com/maps/place/?q=place_id:0x390d05f8ccacc973:0x96e03b9c34745e2"}, {"place_id": "0x390d1b56cb173bd9:0x818bf2fa36e3d6a8", "name": "Travinto Technologies", "category": "Software company", "street": "RZ 49C, Gali No. 8A", "city": "Vashist Park, Sagar Pur", "phone": "", "website": "https://travinto.com/", "rating": 5, "review_count": "", "latitude": 28.608297999999998, "longitude": 77.1017762, "maps_url": "https://www.google.com/maps/place/?q=place_id:0x390d1b56cb173bd9:0x818bf2fa36e3d6a8"}, {"place_id": "0x390d05f046137f4b:0x8d96116e2d5a4cd1", "name": "StudApps Technologies", "category": "Software company", "street": "A5A", "city": "74, Janakpuri", "phone": "09005194860", "website": "https://studapps.com/", "rating": 4.9, "review_count": "", "latitude": 28.6246752, "longitude": 77.0899803, "maps_url": "https://www.google.com/maps/place/?q=place_id:0x390d05f046137f4b:0x8d96116e2d5a4cd1"}, {"place_id": "0x390d054d244ad30f:0x3784c74184b34eda", "name": "Triyuga Soft Tech Pvt Ltd | IT Company in Delhi | Digital Marketing Company | Web Development Company", "category": "Software company", "street": "Wz-245/5d 1st Floor Main Najafgarh Road", "city": "West", "phone": "09267954524", "website": "https://www.triyugasofttech.com/", "rating": 4.4, "review_count": "", "latitude": 28.623697399999998, "longitude": 77.06208649999999, "maps_url": "https://www.google.com/maps/place/?q=place_id:0x390d054d244ad30f:0x3784c74184b34eda"}, {"place_id": "0x390d1b558ba088b7:0x7075ca6a2365b49f", "name": "FIIS TECHNOLOGIES", "category": "Computer support and services", "street": "WZ-16H 3rd floor street", "city": "Gali Number 6", "phone": "01128520869", "website": "", "rating": 5, "review_count": "", "latitude": 28.6082416, "longitude": 77.10224869999999, "maps_url": "https://www.google.com/maps/place/?q=place_id:0x390d1b558ba088b7:0x7075ca6a2365b49f"}, {"place_id": "0x390d013ca8ac1387:0x8a0db85b518267d5", "name": "NexGen Innovators", "category": "Software company", "street": "114B, 3rd floor, Dwarka Mor", "city": "New Delhi, Delhi 110059", "phone": "", "website": "https://www.nexgi.com/", "rating": 4.9, "review_count": "", "latitude": 28.618961, "longitude": 77.0322202, "maps_url": "https://www.google.com/maps/place/?q=place_id:0x390d013ca8ac1387:0x8a0db85b518267d5"}, {"place_id": "0x23fcf0d8b93f2fb7:0x745a018d0f07c925", "name": "Anshwar Tech Solutions", "category": "Software company", "street": "A-19 Chanakya Place", "city": "near Mata Chanan Devi Hospital", "phone": "", "website": "https://anshwartech.com/", "rating": 5, "review_count": "", "latitude": 28.6185697, "longitude": 77.0781253, "maps_url": "https://www.google.com/maps/place/?q=place_id:0x23fcf0d8b93f2fb7:0x745a018d0f07c925"}, {"place_id": "0x390d1b5595cd80d9:0x2f314fc8f5d7c823", "name": "Matrix Electronics Projects", "category": "Electronics manufacturer", "street": "bus stand", "city": "Rz-24/21, Gali Number 11", "phone": "09891082537", "website": "http://matrixelectronicprojects.com/", "rating": 4.3, "review_count": "", "latitude": 28.608485299999998, "longitude": 77.1010424, "maps_url": "https://www.google.com/maps/place/?q=place_id:0x390d1b5595cd80d9:0x2f314fc8f5d7c823"}, {"place_id": "0x390d057c8ee7e0db:0xe23e4cf1c1c1bd6e", "name": "MLM Software Company in Delhi- Best MLM Software Developer", "category": "Software company", "street": "305", "city": "Kirti Shikhar", "phone": "09582569545", "website": "https://www.n2nsystems.co.in/", "rating": 4.7, "review_count": "", "latitude": 28.629019399999997, "longitude": 77.08068449999999, "maps_url": "https://www.google.com/maps/place/?q=place_id:0x390d057c8ee7e0db:0xe23e4cf1c1c1bd6e"}, {"place_id": "0x390d03adaef37299:0xd8b343093deaee7", "name": "Ruminate IT Solution | Best software company in Delhi NCR | IT Software company", "category": "Software company", "street": "C-64", "city": "Pocket B, Hari Nagar", "phone": "09625650376", "website": "https://www.ruminateitsolution.com/", "rating": 5, "review_count": "", "latitude": 28.628819, "longitude": 77.10428399999999, "maps_url": "https://www.google.com/maps/place/?q=place_id:0x390d03adaef37299:0xd8b343093deaee7"}, {"place_id": "0x390ce54a2ffa7a35:0xbc45f708bc311be9", "name": "MLM Software Company in Delhi | MLM Software Development Company in Delhi | India - SOFTKWIT", "category": "Software company", "street": "801B", "city": "Janakpuri District Center, Janakpuri", "phone": "08882925582", "website": "https://softkwit.in/mlm-software.php", "rating": 5, "review_count": "", "latitude": 28.630030599999998, "longitude": 77.0809543, "maps_url": "https://www.google.com/maps/place/?q=place_id:0x390ce54a2ffa7a35:0xbc45f708bc311be9"}, {"place_id": "0x390ce458d0000001:0xf2123bd299ec4501", "name": "IT Company India", "category": "Software company", "street": "D56", "city": "D Block, Sector 10", "phone": "09999244854", "website": "https://www.itcompanyindia.in/", "rating": 4.7, "review_count": "", "latitude": 28.589917699999997, "longitude": 77.3351153, "maps_url": "https://www.google.com/maps/place/?q=place_id:0x390ce458d0000001:0xf2123bd299ec4501"}, {"place_id": "0x390d1b44dac29e85:0xd19c8cf2057c43e8", "name": "AVC Dotfy LLP", "category": "Software company", "street": "C-157, Janak Cinema Community Center Janakpuri Janak Cinema Community Center", "city": "110056", "phone": "09821830895", "website": "https://dotfy.in/", "rating": 4.7, "review_count": "", "latitude": 28.6114547, "longitude": 77.0945327, "maps_url": "https://www.google.com/maps/place/?q=place_id:0x390d1b44dac29e85:0xd19c8cf2057c43e8"}, {"place_id": "0x390ce280b6806e99:0xdd27470b6a7584c2", "name": "Mega Softwares", "category": "Software company", "street": "507", "city": "Vishal Tower", "phone": "09891804444", "website": "https://www.megasoftwares.com/", "rating": 4.7, "review_count": "", "latitude": 28.629297299999998, "longitude": 77.0819685, "maps_url": "https://www.google.com/maps/place/?q=place_id:0x390ce280b6806e99:0xdd27470b6a7584c2"}, {"place_id": "0x390d04bf088b2c4f:0xcc9a31cf894c766a", "name": "SHIVA INFOTECH INNOVATIONS PVT. LTD.", "category": "Software company", "street": "DDA Tower 2", "city": "604", "phone": "09818583822", "website": "https://www.shivainfotech.com/", "rating": 4.1, "review_count": "", "latitude": 28.630048, "longitude": 77.08113399999999, "maps_url": "https://www.google.com/maps/place/?q=place_id:0x390d04bf088b2c4f:0xcc9a31cf894c766a"}, {"place_id": "0x8be65278a5572b07:0x413ba8eb2bfa0ea6", "name": "Webcorewin Business Solution LLP | Top Website & Software Development Company in Delhi NCR", "category": "Software company", "street": "Metro Pillar Number 571", "city": "Second Floor", "phone": "09811382167", "website": "https://www.webcorewin.com/", "rating": 5, "review_count": "", "latitude": 28.6314446, "longitude": 77.0831694, "maps_url": "https://www.google.com/maps/place/?q=place_id:0x8be65278a5572b07:0x413ba8eb2bfa0ea6"}, {"place_id": "0x390ce48b23974633:0xb8ba3774a47b52e", "name": "Radical Geeks Technologies", "category": "Software company", "street": "Community Centre, Janak Cinema", "city": "C/59, SVAM Tower", "phone": "09899854721", "website": "http://www.radical-geeks.com/", "rating": 4.7, "review_count": "", "latitude": 28.628869599999998, "longitude": 77.0912057, "maps_url": "https://www.google.com/maps/place/?q=place_id:0x390ce48b23974633:0xb8ba3774a47b52e"}, {"place_id": "0x390d053af4b9fae1:0xa955718786ea4c90", "name": "Efficient IT & Electronic Services Private Limited", "category": "Software company", "street": "1st floor", "city": "VV Plaza building", "phone": "08750042191", "website": "http://www.efficientindia.com/", "rating": 4.4, "review_count": "", "latitude": 28.6100702, "longitude": 77.03385709999999, "maps_url": "https://www.google.com/maps/place/?q=place_id:0x390d053af4b9fae1:0xa955718786ea4c90"}, {"place_id": "0x390d1b55a6145c67:0x5e2f9fd5e92df246", "name": "ATIVS (Asian Technical Institute for Vocational Studies)", "category": "Computer service", "street": "First Floor Gali No.14", "city": "RZ-53/54, Pankha Rd", "phone": "09818963397", "website": "", "rating": 4.6, "review_count": "", "latitude": 28.6091262, "longitude": 77.10048549999999, "maps_url": "https://www.google.com/maps/place/?q=place_id:0x390d1b55a6145c67:0x5e2f9fd5e92df246"}, {"place_id": "0x390d0390bfffffff:0xa1061df027587269", "name": "Softmore It Solutions", "category": "Website designer", "street": "A1 B8", "city": "Block A1B, Janakpuri", "phone": "09266474766", "website": "https://www.softmoreit.co.in/", "rating": 4.9, "review_count": "", "latitude": 28.623256899999998, "longitude": 77.07134169999999, "maps_url": "https://www.google.com/maps/place/?q=place_id:0x390d0390bfffffff:0xa1061df027587269"}, {"place_id": "0x390d052784967271:0x3800de98e6304b2d", "name": "Software & Website Development Company - InCodersLab", "category": "Software company", "street": "1ST FLOOR", "city": "WZ A-198, Hastsal Rd", "phone": "09110099102", "website": "https://incoderslab.com/", "rating": 4.9, "review_count": "", "latitude": 28.6240554, "longitude": 77.0622583, "maps_url": "https://www.google.com/maps/place/?q=place_id:0x390d052784967271:0x3800de98e6304b2d"}, {"place_id": "0x390d1b56c51f3ccb:0x7a0de2c32ebc3e1a", "name": "Star Infotech | Computer Education Institute", "category": "Educational institution", "street": "Bus Stand", "city": "WZ 61 A/3 B, Pankha Rd", "phone": "09805457195", "website": "https://starinfotech.info/", "rating": 4.6, "review_count": "", "latitude": 28.609001799999998, "longitude": 77.10094409999999, "maps_url": "https://www.google.com/maps/place/?q=place_id:0x390d1b56c51f3ccb:0x7a0de2c32ebc3e1a"}, {"place_id": "0x390d1df65355a0ff:0x6eedc0ab81739bc2", "name": "AV CRAFT", "category": "Electronics manufacturer", "street": "A291", "city": "Street No. -15, Soniya Vihar OLD", "phone": "", "website": "https://avcraft.tech/", "rating": 4.6, "review_count": "", "latitude": 28.6084844, "longitude": 77.1002214, "maps_url": "https://www.google.com/maps/place/?q=place_id:0x390d1df65355a0ff:0x6eedc0ab81739bc2"}, {"place_id": "0x390d1caa3f432f3d:0x53f363a5dac31dc8", "name": "TESTPAN INDIA PRIVATE LIMITED", "category": "Corporate office", "street": "IInd Floor", "city": "WZ-1390/7, Pankha Rd", "phone": "01144748200", "website": "http://www.testpanindia.com/", "rating": 3.8, "review_count": "", "latitude": 28.6078311, "longitude": 77.1044311, "maps_url": "https://www.google.com/maps/place/?q=place_id:0x390d1caa3f432f3d:0x53f363a5dac31dc8"}, {"place_id": "0x390d1b547be471ef:0xead048431b26ef19", "name": "Krishna Labels Inc", "category": "Manufacturer", "street": "81- A, Vashist Park, Pankha Road, Street No. 12, Vashisht Park", "city": "New Delhi, Delhi 110046", "phone": "08700044506", "website": "http://www.tagsandlabel.com/", "rating": 4.9, "review_count": "", "latitude": 28.6086839, "longitude": 77.10108249999999, "maps_url": "https://www.google.com/maps/place/?q=place_id:0x390d1b547be471ef:0xead048431b26ef19"}, {"place_id": "0x390d04b07d2b1ac1:0x3af1551fe829aea7", "name": "Avant Garde", "category": "HVAC contractor", "street": "D-1/1, Ground Floor", "city": "opp. MERI College", "phone": "01145508664", "website": "https://www.acespl.in/", "rating": 4.6, "review_count": "", "latitude": 28.610508199999998, "longitude": 77.1037197, "maps_url": "https://www.google.com/maps/place/?q=place_id:0x390d04b07d2b1ac1:0x3af1551fe829aea7"}, {"place_id": "0x390d1b55bccf90ff:0x6c8bcabde34d35c3", "name": "Leader Printing Solutions", "category": "Digital printing service", "street": "Rz-62b/1,Vashist Park Pankha Road", "city": "Street No. 12", "phone": "09198949390", "website": "https://www.leaderprints.in/", "rating": 5, "review_count": "", "latitude": 28.608940699999998, "longitude": 77.10099369999999, "maps_url": "https://www.google.com/maps/place/?q=place_id:0x390d1b55bccf90ff:0x6c8bcabde34d35c3"}, {"place_id": "0x390d1dae41294ea5:0xc26436d4cefde302", "name": "SuperWebs 360 Web Development & Digi Marketing Agency", "category": "Website designer", "street": "1st Floor", "city": "Wz-1390/6A, Pankha Rd", "phone": "09717929957", "website": "https://superwebs360.com/", "rating": 5, "review_count": "", "latitude": 28.608259399999998, "longitude": 77.1034423, "maps_url": "https://www.google.com/maps/place/?q=place_id:0x390d1dae41294ea5:0xc26436d4cefde302"}, {"place_id": "0x390d1b56c51f3ccb:0x6a1b22cf4a83281", "name": "Value First Electronics", "category": "Electronics store", "street": "F18", "city": "Shasti Market, West Sagarpur, Sagar Pur", "phone": "09990535719", "website": "http://www.valuefirstelectronics.com/", "rating": 5, "review_count": "", "latitude": 28.608067799999997, "longitude": 77.09946649999999, "maps_url": "https://www.google.com/maps/place/?q=place_id:0x390d1b56c51f3ccb:0x6a1b22cf4a83281"}, {"place_id": "0x390d1b4c9f678269:0x7f0b7e3d7bb46400", "name": "ApnaJob.in", "category": "Employment agency", "street": "15 WZ, Street Number 3", "city": "Vashist Park, Dabri", "phone": "", "website": "http://apnajob.in/", "rating": 3.3, "review_count": "", "latitude": 28.6085195, "longitude": 77.1002664, "maps_url": "https://www.google.com/maps/place/?q=place_id:0x390d1b4c9f678269:0x7f0b7e3d7bb46400"}, {"place_id": "0x390d1b316be1e947:0xd0c9a55d4aac6cec", "name": "The Prime Digital \u2013 Digital Marketing Agency New Delhi", "category": "Internet marketing service", "street": "Office No. 19", "city": "C 1A, Street Number 3", "phone": "", "website": "https://theprimedigital.site/", "rating": 5, "review_count": "", "latitude": 28.607969999999998, "longitude": 77.101095, "maps_url": "https://www.google.com/maps/place/?q=place_id:0x390d1b316be1e947:0xd0c9a55d4aac6cec"}, {"place_id": "0x390d1d11360408c3:0x63532ef9ffa34805", "name": "SURYAADARASH CALIBRATION AND CONSULTANT (OPC) PRIVATE LIMITED", "category": "Laboratory", "street": "1390/Z-2", "city": "WZ, Pankha Rd", "phone": "09999761885", "website": "https://wa.link/gkh1n5", "rating": 4.8, "review_count": "", "latitude": 28.608242999999998, "longitude": 77.1041042, "maps_url": "https://www.google.com/maps/place/?q=place_id:0x390d1d11360408c3:0x63532ef9ffa34805"}, {"place_id": "0x390d1b55075a1ff5:0xbb34832e02a5b634", "name": "IETE Delhi Center", "category": "Education center", "street": "institutional area", "city": "16/1-2, Pankha Rd", "phone": "09911127559", "website": "http://www.ietedelhi.org/", "rating": 3.7, "review_count": "", "latitude": 28.609725899999997, "longitude": 77.10064849999999, "maps_url": "https://www.google.com/maps/place/?q=place_id:0x390d1b55075a1ff5:0xbb34832e02a5b634"}, {"place_id": "0x390d1ba9daf6eb2f:0x82faa5622cd1bfe3", "name": "IITM Janakpuri Delhi | Institute of Innovation in Technology & Management (IITM)", "category": "College", "street": "D-27 & 28", "city": "Janakpuri Institutional Area, Janakpuri", "phone": "01128520894", "website": "http://www.iitmjp.ac.in/", "rating": 4.5, "review_count": "", "latitude": 28.6103722, "longitude": 77.1018734, "maps_url": "https://www.google.com/maps/place/?q=place_id:0x390d1ba9daf6eb2f:0x82faa5622cd1bfe3"}, {"place_id": "0x390d1b5567911807:0x996e86fe24144daf", "name": "Institute of Information Technology and Management (IITM)", "category": "College", "street": "D-29", "city": "Janakpuri Institutional Area, Janakpuri", "phone": "01128525882", "website": "http://www.iitmjanakpuri.com/", "rating": 4.3, "review_count": "", "latitude": 28.61076, "longitude": 77.1020075, "maps_url": "https://www.google.com/maps/place/?q=place_id:0x390d1b5567911807:0x996e86fe24144daf"}, {"place_id": "0x390d1b0ffd95bae3:0x4729012408357e25", "name": "BIS Consultants In Delhi", "category": "Consultant", "street": "Rz -3b", "city": "near Palam Junction & D-1", "phone": "08802978299", "website": "https://nandighoshconsulting.com/", "rating": 5, "review_count": "", "latitude": 28.6076399, "longitude": 77.0988512, "maps_url": "https://www.google.com/maps/place/?q=place_id:0x390d1b0ffd95bae3:0x4729012408357e25"}, {"place_id": "0x4f6402c2da16ff95:0xd3b65b0e189f65b0", "name": "Radiant Technologies - E-commerce Website Development & Designing Company, Digital Marketing, Customized CRM", "category": "Software company", "street": "Second Floor", "city": "WZ 10B, Asalatpur Rd", "phone": "09999886194", "website": "https://techradiant.net/", "rating": 4.5, "review_count": "", "latitude": 28.6217926, "longitude": 77.0763157, "maps_url": "https://www.google.com/maps/place/?q=place_id:0x4f6402c2da16ff95:0xd3b65b0e189f65b0"}, {"place_id": "0x390d1d9e08005453:0x178eabbd09f75b7f", "name": "The Muse Project", "category": "Event management company", "street": "D-1-A/93", "city": "near D Block Road", "phone": "08130380287", "website": "https://museprojectevents.in/", "rating": 4.9, "review_count": "", "latitude": 28.609001, "longitude": 77.105125, "maps_url": "https://www.google.com/maps/place/?q=place_id:0x390d1d9e08005453:0x178eabbd09f75b7f"}, {"place_id": "0x390d1bf150b9df15:0xfc2fd93fcf89179a", "name": "Brightminds Academy (BMA)", "category": "Educational institution", "street": "RZ-58", "city": "bus stand", "phone": "08467066515", "website": "", "rating": 5, "review_count": "", "latitude": 28.6091826, "longitude": 77.1000703, "maps_url": "https://www.google.com/maps/place/?q=place_id:0x390d1bf150b9df15:0xfc2fd93fcf89179a"}, {"place_id": "0x390d1bba92c14e11:0x62d902f11818416d", "name": "ELVISH EMPIRE", "category": "Internet cafe", "street": "RZ- 61A/8A, Pankha Rd", "city": "Vashist Park, Sagar Pur", "phone": "09643902699", "website": "", "rating": 5, "review_count": "", "latitude": 28.6087097, "longitude": 77.0993599, "maps_url": "https://www.google.com/maps/place/?q=place_id:0x390d1bba92c14e11:0x62d902f11818416d"}, {"place_id": "0x390d042905555553:0xac1a60e08c27ea47", "name": "A1websolution", "category": "Website designer", "street": "F-15, R.C. Plaza Complex, Kirari Suleman Nagar, New Delhi", "city": "New Delhi, Delhi 110058", "phone": "09212633121", "website": "http://a1websolution.com/", "rating": 5, "review_count": "", "latitude": 28.611117, "longitude": 77.09865599999999, "maps_url": "https://www.google.com/maps/place/?q=place_id:0x390d042905555553:0xac1a60e08c27ea47"}, {"place_id": "0x390d1b55994d6529:0xe6719db9c82e99fe", "name": "All India Institute of Local Self Government", "category": "Educational institution", "street": "22, 23", "city": "D Block, Pankha Rd", "phone": "01128521783", "website": "", "rating": 4, "review_count": "", "latitude": 28.609897999999998, "longitude": 77.1015529, "maps_url": "https://www.google.com/maps/place/?q=place_id:0x390d1b55994d6529:0xe6719db9c82e99fe"}, {"place_id": "0x390d1dcb319b203d:0xa4decee2bc9ec33b", "name": "StixUniverse Digital Printing Shop", "category": "Digital printing service", "street": "WZ-1390/1, Pankha Rd", "city": "D1B Block, Nangal Raya, Janakpuri", "phone": "09873301137", "website": "https://www.stixuniverse.in/", "rating": 4.6, "review_count": "", "latitude": 28.6081433, "longitude": 77.1037262, "maps_url": "https://www.google.com/maps/place/?q=place_id:0x390d1dcb319b203d:0xa4decee2bc9ec33b"}, {"place_id": "0x390d1b93637df2e1:0x70f7fbdba92f183a", "name": "Valcus Private Limited", "category": "Accounting firm", "street": "WZ-13, GALI NO. 4", "city": "Pankha Rd", "phone": "09999761122", "website": "http://valcus.in/", "rating": 5, "review_count": "", "latitude": 28.608186399999997, "longitude": 77.10280279999999, "maps_url": "https://www.google.com/maps/place/?q=place_id:0x390d1b93637df2e1:0x70f7fbdba92f183a"}, {"place_id": "0x390d1b5586f7e945:0x763a59284495096f", "name": "National Horticultural Research And Development Foundation", "category": "Corporate office", "street": "47", "city": "Janakpuri Institutional Area, Janakpuri", "phone": "01128524150", "website": "http://www.nhrdf.org/", "rating": 4.4, "review_count": "", "latitude": 28.6089332, "longitude": 77.102261, "maps_url": "https://www.google.com/maps/place/?q=place_id:0x390d1b5586f7e945:0x763a59284495096f"}, {"place_id": "0x390d1b526f479db5:0x9c815350c011d90c", "name": "Navbharat Pest Control (P) Ltd", "category": "Pest control service", "street": "Gali No 4", "city": "RZ-20A", "phone": "09910635832", "website": "https://navbharatpestcontrol.org/", "rating": 4.6, "review_count": "", "latitude": 28.6080099, "longitude": 77.1008832, "maps_url": "https://www.google.com/maps/place/?q=place_id:0x390d1b526f479db5:0x9c815350c011d90c"}, {"place_id": "0x390d1d36fc181da7:0x83be8797dbb8f261", "name": "Anban tours x Okay trips", "category": "Tour operator", "street": "Rz", "city": "Aditi Apartments, D Block, Janakpuri", "phone": "09013308848", "website": "http://okaytrips.in/", "rating": 4.9, "review_count": "", "latitude": 28.609521899999997, "longitude": 77.10394459999999, "maps_url": "https://www.google.com/maps/place/?q=place_id:0x390d1d36fc181da7:0x83be8797dbb8f261"}, {"place_id": "0x390d1b0c54bd8475:0xa27c762f8d25b81d", "name": "AAKVI AUTOMATION", "category": "Computer support and services", "street": "RZ H 78", "city": "Block E, West Sagarpur, Dabri", "phone": "", "website": "", "rating": "", "review_count": "", "latitude": 28.608176999999998, "longitude": 77.0988081, "maps_url": "https://www.google.com/maps/place/?q=place_id:0x390d1b0c54bd8475:0xa27c762f8d25b81d"}, {"place_id": "0x390d055ab880b807:0xcb5c025daa2b2795", "name": "Tech Web Mantra", "category": "Software company", "street": "B-77", "city": "near Dwarka Mor Metro Station", "phone": "09871521039", "website": "https://www.techwebmantra.com/", "rating": 5, "review_count": "", "latitude": 28.614187899999997, "longitude": 77.0362179, "maps_url": "https://www.google.com/maps/place/?q=place_id:0x390d055ab880b807:0xcb5c025daa2b2795"}, {"place_id": "0x390d1b52c3931cf3:0xef709d569644db1", "name": "IT Electronics", "category": "Electronics repair shop", "street": "Rzf/30A", "city": "Block T, West Sagarpur, Sagar Pur", "phone": "08235821866", "website": "", "rating": 4.8, "review_count": "", "latitude": 28.607584499999998, "longitude": 77.0990874, "maps_url": "https://www.google.com/maps/place/?q=place_id:0x390d1b52c3931cf3:0xef709d569644db1"}, {"place_id": "0x390d04bf1dc56e1d:0xb4e2068a9167a759", "name": "ITindustries.com", "category": "Software company", "street": "Janakpuri District Center, Janakpuri", "city": "New Delhi, Delhi, 110058", "phone": "09810232774", "website": "https://itindustries.com/", "rating": 4.8, "review_count": "", "latitude": 28.629365699999997, "longitude": 77.08019, "maps_url": "https://www.google.com/maps/place/?q=place_id:0x390d04bf1dc56e1d:0xb4e2068a9167a759"}, {"place_id": "0x390d1b56c51f3ccb:0x6a1b22cf4a83281", "name": "Value First Electronics", "category": "Electronics store", "street": "F18", "city": "Shasti Market, West Sagarpur, Sagar Pur", "phone": "09990535719", "website": "http://www.valuefirstelectronics.com/", "rating": 5, "review_count": "", "latitude": 28.608067799999997, "longitude": 77.09946649999999, "maps_url": "https://www.google.com/maps/place/?q=place_id:0x390d1b56c51f3ccb:0x6a1b22cf4a83281"}, {"place_id": "0x390d1b4c9f678269:0x7f0b7e3d7bb46400", "name": "ApnaJob.in", "category": "Employment agency", "street": "15 WZ, Street Number 3", "city": "Vashist Park, Dabri", "phone": "", "website": "http://apnajob.in/", "rating": 3.3, "review_count": "", "latitude": 28.6085195, "longitude": 77.1002664, "maps_url": "https://www.google.com/maps/place/?q=place_id:0x390d1b4c9f678269:0x7f0b7e3d7bb46400"}, {"place_id": "0x390d1d11360408c3:0x63532ef9ffa34805", "name": "SURYAADARASH CALIBRATION AND CONSULTANT (OPC) PRIVATE LIMITED", "category": "Laboratory", "street": "1390/Z-2", "city": "WZ, Pankha Rd", "phone": "09999761885", "website": "https://wa.link/gkh1n5", "rating": 4.8, "review_count": "", "latitude": 28.608242999999998, "longitude": 77.1041042, "maps_url": "https://www.google.com/maps/place/?q=place_id:0x390d1d11360408c3:0x63532ef9ffa34805"}, {"place_id": "0x390d1b55075a1ff5:0xbb34832e02a5b634", "name": "IETE Delhi Center", "category": "Education center", "street": "institutional area", "city": "16/1-2, Pankha Rd", "phone": "09911127559", "website": "http://www.ietedelhi.org/", "rating": 3.7, "review_count": "", "latitude": 28.609725899999997, "longitude": 77.10064849999999, "maps_url": "https://www.google.com/maps/place/?q=place_id:0x390d1b55075a1ff5:0xbb34832e02a5b634"}, {"place_id": "0x390d1b5586f7e945:0x763a59284495096f", "name": "National Horticultural Research And Development Foundation", "category": "Corporate office", "street": "47", "city": "Janakpuri Institutional Area, Janakpuri", "phone": "01128524150", "website": "http://www.nhrdf.org/", "rating": 4.4, "review_count": "", "latitude": 28.6089332, "longitude": 77.102261, "maps_url": "https://www.google.com/maps/place/?q=place_id:0x390d1b5586f7e945:0x763a59284495096f"}, {"place_id": "0x390d1ba9daf6eb2f:0x82faa5622cd1bfe3", "name": "IITM Janakpuri Delhi | Institute of Innovation in Technology & Management (IITM)", "category": "College", "street": "D-27 & 28", "city": "Janakpuri Institutional Area, Janakpuri", "phone": "01128520894", "website": "http://www.iitmjp.ac.in/", "rating": 4.5, "review_count": "", "latitude": 28.6103722, "longitude": 77.1018734, "maps_url": "https://www.google.com/maps/place/?q=place_id:0x390d1ba9daf6eb2f:0x82faa5622cd1bfe3"}, {"place_id": "0x390d1b5567911807:0x996e86fe24144daf", "name": "Institute of Information Technology and Management (IITM)", "category": "College", "street": "D-29", "city": "Janakpuri Institutional Area, Janakpuri", "phone": "01128525882", "website": "http://www.iitmjanakpuri.com/", "rating": 4.3, "review_count": "", "latitude": 28.61076, "longitude": 77.1020075, "maps_url": "https://www.google.com/maps/place/?q=place_id:0x390d1b5567911807:0x996e86fe24144daf"}, {"place_id": "0x390d1b0ffd95bae3:0x4729012408357e25", "name": "BIS Consultants In Delhi", "category": "Consultant", "street": "Rz -3b", "city": "near Palam Junction & D-1", "phone": "08802978299", "website": "https://nandighoshconsulting.com/", "rating": 5, "review_count": "", "latitude": 28.6076399, "longitude": 77.0988512, "maps_url": "https://www.google.com/maps/place/?q=place_id:0x390d1b0ffd95bae3:0x4729012408357e25"}, {"place_id": "0x390d1bf279061815:0x39f1d4883cdd3b3f", "name": "Amandeep Prints as Printer and Designer", "category": "Graphic designer", "street": "C3a", "city": "60a, Pankha Rd", "phone": "09250219457", "website": "", "rating": 5, "review_count": "", "latitude": 28.6092476, "longitude": 77.1000272, "maps_url": "https://www.google.com/maps/place/?q=place_id:0x390d1bf279061815:0x39f1d4883cdd3b3f"}, {"place_id": "0x4f6402c2da16ff95:0xd3b65b0e189f65b0", "name": "Radiant Technologies - E-commerce Website Development & Designing Company, Digital Marketing, Customized CRM", "category": "Software company", "street": "Second Floor", "city": "WZ 10B, Asalatpur Rd", "phone": "09999886194", "website": "https://techradiant.net/", "rating": 4.5, "review_count": "", "latitude": 28.6217926, "longitude": 77.0763157, "maps_url": "https://www.google.com/maps/place/?q=place_id:0x4f6402c2da16ff95:0xd3b65b0e189f65b0"}, {"place_id": "0x390d1d9e08005453:0x178eabbd09f75b7f", "name": "The Muse Project", "category": "Event management company", "street": "D-1-A/93", "city": "near D Block Road", "phone": "08130380287", "website": "https://museprojectevents.in/", "rating": 4.9, "review_count": "", "latitude": 28.609001, "longitude": 77.105125, "maps_url": "https://www.google.com/maps/place/?q=place_id:0x390d1d9e08005453:0x178eabbd09f75b7f"}, {"place_id": "0x390d042905555553:0xac1a60e08c27ea47", "name": "A1websolution", "category": "Website designer", "street": "F-15, R.C. Plaza Complex, Kirari Suleman Nagar, New Delhi", "city": "New Delhi, Delhi 110058", "phone": "09212633121", "website": "http://a1websolution.com/", "rating": 5, "review_count": "", "latitude": 28.611117, "longitude": 77.09865599999999, "maps_url": "https://www.google.com/maps/place/?q=place_id:0x390d042905555553:0xac1a60e08c27ea47"}, {"place_id": "0x390d1bf150b9df15:0xfc2fd93fcf89179a", "name": "Brightminds Academy (BMA)", "category": "Educational institution", "street": "RZ-58", "city": "bus stand", "phone": "08467066515", "website": "", "rating": 5, "review_count": "", "latitude": 28.6091826, "longitude": 77.1000703, "maps_url": "https://www.google.com/maps/place/?q=place_id:0x390d1bf150b9df15:0xfc2fd93fcf89179a"}, {"place_id": "0x390d1bba92c14e11:0x62d902f11818416d", "name": "ELVISH EMPIRE", "category": "Internet cafe", "street": "RZ- 61A/8A, Pankha Rd", "city": "Vashist Park, Sagar Pur", "phone": "09643902699", "website": "", "rating": 5, "review_count": "", "latitude": 28.6087097, "longitude": 77.0993599, "maps_url": "https://www.google.com/maps/place/?q=place_id:0x390d1bba92c14e11:0x62d902f11818416d"}, {"place_id": "0x8f1069178017e329:0x8e55f45c66419ec3", "name": "ZionSoft Tech It Solution LLP", "category": "Software company", "street": "PLOT NO.C 92 and 93 A", "city": "Block C, Vishwas Park, Uttam Nagar", "phone": "08810456468", "website": "https://zionsoftit.com/", "rating": "", "review_count": "", "latitude": 28.610937, "longitude": 77.0568282, "maps_url": "https://www.google.com/maps/place/?q=place_id:0x8f1069178017e329:0x8e55f45c66419ec3"}, {"place_id": "0x390d1b55994d6529:0xe6719db9c82e99fe", "name": "All India Institute of Local Self Government", "category": "Educational institution", "street": "22, 23", "city": "D Block, Pankha Rd", "phone": "01128521783", "website": "", "rating": 4, "review_count": "", "latitude": 28.609897999999998, "longitude": 77.1015529, "maps_url": "https://www.google.com/maps/place/?q=place_id:0x390d1b55994d6529:0xe6719db9c82e99fe"}, {"place_id": "0x390d1dcb319b203d:0xa4decee2bc9ec33b", "name": "StixUniverse Digital Printing Shop", "category": "Digital printing service", "street": "WZ-1390/1, Pankha Rd", "city": "D1B Block, Nangal Raya, Janakpuri", "phone": "09873301137", "website": "https://www.stixuniverse.in/", "rating": 4.6, "review_count": "", "latitude": 28.6081433, "longitude": 77.1037262, "maps_url": "https://www.google.com/maps/place/?q=place_id:0x390d1dcb319b203d:0xa4decee2bc9ec33b"}, {"place_id": "0x390d1b526f479db5:0x9c815350c011d90c", "name": "Navbharat Pest Control (P) Ltd", "category": "Pest control service", "street": "Gali No 4", "city": "RZ-20A", "phone": "09910635832", "website": "https://navbharatpestcontrol.org/", "rating": 4.6, "review_count": "", "latitude": 28.6080099, "longitude": 77.1008832, "maps_url": "https://www.google.com/maps/place/?q=place_id:0x390d1b526f479db5:0x9c815350c011d90c"}, {"place_id": "0x390d1d36fc181da7:0x83be8797dbb8f261", "name": "Anban tours x Okay trips", "category": "Tour operator", "street": "Rz", "city": "Aditi Apartments, D Block, Janakpuri", "phone": "09013308848", "website": "http://okaytrips.in/", "rating": 4.9, "review_count": "", "latitude": 28.609521899999997, "longitude": 77.10394459999999, "maps_url": "https://www.google.com/maps/place/?q=place_id:0x390d1d36fc181da7:0x83be8797dbb8f261"}, {"place_id": "0x390d1b0c54bd8475:0xa27c762f8d25b81d", "name": "AAKVI AUTOMATION", "category": "Computer support and services", "street": "RZ H 78", "city": "Block E, West Sagarpur, Dabri", "phone": "", "website": "", "rating": "", "review_count": "", "latitude": 28.608176999999998, "longitude": 77.0988081, "maps_url": "https://www.google.com/maps/place/?q=place_id:0x390d1b0c54bd8475:0xa27c762f8d25b81d"}, {"place_id": "0x390d050e989b80e5:0x980de092f04b1c6", "name": "GoGlobalWays - Coding, Robotics, AI, ML and Metaverse for Kids -Age 6-16", "category": "Education center", "street": "D1", "city": "D1B Block, Janakpuri", "phone": "08882330300", "website": "https://goglobalways.com/", "rating": 5, "review_count": "", "latitude": 28.608361499999997, "longitude": 77.1036393, "maps_url": "https://www.google.com/maps/place/?q=place_id:0x390d050e989b80e5:0x980de092f04b1c6"}, {"place_id": "0x390d1b557a901ad1:0x2fd9df8bd5cd979e", "name": "Indraprastha Institute Of Technology And Management(IITM Delhi)", "category": "College", "street": "D-21", "city": "near Vashisht Park", "phone": "01128520890", "website": "http://iitm.net.in/", "rating": 4.6, "review_count": "", "latitude": 28.609793399999997, "longitude": 77.1017164, "maps_url": "https://www.google.com/maps/place/?q=place_id:0x390d1b557a901ad1:0x2fd9df8bd5cd979e"}, {"place_id": "0x390d055ca1bede39:0x1a7deac492759612", "name": "UBS ASSOCIATES LLP", "category": "Legal services", "street": "J \u2013 BLOCK", "city": "RZ 37/209", "phone": "09773524992", "website": "http://ubsassociates.in/", "rating": 4.4, "review_count": "", "latitude": 28.6079868, "longitude": 77.10096349999999, "maps_url": "https://www.google.com/maps/place/?q=place_id:0x390d055ca1bede39:0x1a7deac492759612"}, {"place_id": "0x390d1d50b1f0e98b:0x66970e3185207ed9", "name": "Gem Portal Solutions", "category": "Business management consultant", "street": "", "city": "", "phone": "09871549615", "website": "https://www.gemportalsolutions.in/", "rating": 4.8, "review_count": "", "latitude": 21.0680074, "longitude": 82.7525294, "maps_url": "https://www.google.com/maps/place/?q=place_id:0x390d1d50b1f0e98b:0x66970e3185207ed9"}, {"place_id": "0x390d04b60b6f198f:0x4f366458ce5a4e28", "name": "Incredible Tourist Destination Pvt.Ltd", "category": "Travel agency", "street": "RZ-62-B, Pankha Rd", "city": "Block T, Vashist Park, Sagar Pur", "phone": "09810538869", "website": "https://itdholiday.com/", "rating": 4.8, "review_count": "", "latitude": 28.6079859, "longitude": 77.1009918, "maps_url": "https://www.google.com/maps/place/?q=place_id:0x390d04b60b6f198f:0x4f366458ce5a4e28"}, {"place_id": "0x390d1bf279061815:0x39f1d4883cdd3b3f", "name": "Amandeep Prints as Printer and Designer", "category": "Advertising agency", "street": "C3a", "city": "60a, Pankha Rd", "phone": "09250219457", "website": "", "rating": 5, "review_count": "", "latitude": 28.6092476, "longitude": 77.1000272, "maps_url": "https://www.google.com/maps/place/?q=place_id:0x390d1bf279061815:0x39f1d4883cdd3b3f"}, {"place_id": "0x390d1b55bfa35479:0x9d84525d735c5805", "name": "Medicevo", "category": "Medical Equipment Manufacturer", "street": "Sitapuri 30, RZ Rd", "city": "Block T, Gandhi Market, Sagar Pur", "phone": "09871167118", "website": "http://medicevo.in/", "rating": 5, "review_count": "", "latitude": 28.6079913, "longitude": 77.1009548, "maps_url": "https://www.google.com/maps/place/?q=place_id:0x390d1b55bfa35479:0x9d84525d735c5805"}, {"place_id": "0x60ff827e2cd46c87:0xf4b0595142a26963", "name": "The Code Craft", "category": "Software company", "street": "", "city": "", "phone": "09818913424", "website": "https://www.thecodecraft.com/", "rating": 5, "review_count": "", "latitude": 21.0680074, "longitude": 82.7525294, "maps_url": "https://www.google.com/maps/place/?q=place_id:0x60ff827e2cd46c87:0xf4b0595142a26963"}, {"place_id": "0x390d03281871ef51:0x87d05ae5b85adc52", "name": "CRCIT INFOTECH PVT LTD", "category": "Software company", "street": "RZ B-4, Pankha Rd", "city": "opposite Janak Cinema Complex", "phone": "09599884630", "website": "", "rating": 4.9, "review_count": "", "latitude": 28.7321179, "longitude": 77.0297145, "maps_url": "https://www.google.com/maps/place/?q=place_id:0x390d03281871ef51:0x87d05ae5b85adc52"}, {"place_id": "0x390d1b354efd8b53:0xa3c8b3ccbe5eb342", "name": "Shritej Global", "category": "Computer security service", "street": "RZ 9B/4", "city": "Block T, Gandhi Market, Sagar Pur", "phone": "", "website": "", "rating": "", "review_count": "", "latitude": 28.6079214, "longitude": 77.09899659999999, "maps_url": "https://www.google.com/maps/place/?q=place_id:0x390d1b354efd8b53:0xa3c8b3ccbe5eb342"}, {"place_id": "0x390d1b228a5a976f:0x2c3d8c4d4679ed07", "name": "Sakal | Corporate Merchandise | Custom T-Shirts | Corporate Uniforms | Startup Apparel", "category": "Clothing manufacturer", "street": "F-26 B", "city": "West Sagarpur, Sagar Pur", "phone": "09818121026", "website": "", "rating": 5, "review_count": "", "latitude": 28.6081681, "longitude": 77.09878479999999, "maps_url": "https://www.google.com/maps/place/?q=place_id:0x390d1b228a5a976f:0x2c3d8c4d4679ed07"}, {"place_id": "0x390d1b5467afb96b:0xb4fedef071a2363", "name": "Cool Breeze Enterpriseses", "category": "Air conditioning repair service", "street": "RZ-39, Street Number 3", "city": "Block T, Raghu Nagar, Sagar Pur", "phone": "09810665365", "website": "", "rating": 4.8, "review_count": "", "latitude": 28.607986699999998, "longitude": 77.10096659999999, "maps_url": "https://www.google.com/maps/place/?q=place_id:0x390d1b5467afb96b:0xb4fedef071a2363"}]}