{"timestamp": 1773731425.414414, "keyword": "IT company", "location": "delhi", "cell_idx": 376, "results": [{"place_id": "0x390d1b3d620205b1:0xe21a1fe217f40c4", "name": "InFutive Technology Pvt Ltd.", "category": "Software company", "street": "C-Block", "city": "B - 282 Palam Extension", "phone": "08882283917", "website": "http://www.infutive.com/", "rating": 5, "review_count": "", "latitude": 28.5862752, "longitude": 77.0697868, "maps_url": "https://www.google.com/maps/place/?q=place_id:0x390d1b3d620205b1:0xe21a1fe217f40c4"}, {"place_id": "0x390d1b1fb85c71ed:0x1aa4ba2a08b02c1d", "name": "Tecmicra Solutions - Software, Website Development & Digital Marketing Company", "category": "Software company", "street": "Floor, D410", "city": "3rd", "phone": "07042387253", "website": "https://tecmicra.co.in/", "rating": 5, "review_count": "", "latitude": 28.5849324, "longitude": 77.071085, "maps_url": "https://www.google.com/maps/place/?q=place_id:0x390d1b1fb85c71ed:0x1aa4ba2a08b02c1d"}, {"place_id": "0x390d1bb72bd328b1:0xd9425539dc10edb3", "name": "SOFT INDIA WEB SOFTWARE DEVELOPMENT PVT LTD", "category": "Software company", "street": "Ground Floor", "city": "A- 107", "phone": "09625503688", "website": "http://www.softindia.in/", "rating": 3.2, "review_count": "", "latitude": 28.587611, "longitude": 77.0704514, "maps_url": "https://www.google.com/maps/place/?q=place_id:0x390d1bb72bd328b1:0xd9425539dc10edb3"}, {"place_id": "0x390d1bedde2c99bd:0x162fa54778df6fe", "name": "Omneelab Software Solutions Pvt Ltd", "category": "Software company", "street": "3rd Floor", "city": "LSC -2", "phone": "09958123820", "website": "https://www.omneelab.com/", "rating": 4.7, "review_count": "", "latitude": 28.5897889, "longitude": 77.06333149999999, "maps_url": "https://www.google.com/maps/place/?q=place_id:0x390d1bedde2c99bd:0x162fa54778df6fe"}, {"place_id": "0x390d1b0ad6565c37:0x9ee772d45ffed70d", "name": "IOTtech Softwares", "category": "Software company", "street": "First & Second Floor", "city": "Lucky Plaza", "phone": "08034798583", "website": "", "rating": 4.9, "review_count": "", "latitude": 28.5847981, "longitude": 77.07323199999999, "maps_url": "https://www.google.com/maps/place/?q=place_id:0x390d1b0ad6565c37:0x9ee772d45ffed70d"}, {"place_id": "0x390d05f1c70d0d6b:0x80d816e36f28618f", "name": "Katchin Tech Private Limited | Software Development Company in Delhi NCR", "category": "Software company", "street": "A-4", "city": "near skin decor", "phone": "07669005215", "website": "https://www.katchintech.com/", "rating": 5, "review_count": "", "latitude": 28.575834099999998, "longitude": 77.05139609999999, "maps_url": "https://www.google.com/maps/place/?q=place_id:0x390d05f1c70d0d6b:0x80d816e36f28618f"}, {"place_id": "0x390d04d87fa425e9:0xabbae143206fe3b7", "name": "Xcrino Business Solutions Pvt Ltd", "category": "Software company", "street": "3rd Floor", "city": "Goma Plaza", "phone": "09211352844", "website": "https://www.xcrino.com/", "rating": 3.8, "review_count": "", "latitude": 28.585049599999998, "longitude": 77.0719654, "maps_url": "https://www.google.com/maps/place/?q=place_id:0x390d04d87fa425e9:0xabbae143206fe3b7"}, {"place_id": "0x390d1bf88ab89bd1:0x49f17641759ec540", "name": "Velcode Solutions Pvt Ltd", "category": "Software company", "street": "A-19, 3rd Floor, Palam Extension", "city": "Ramphal Chowk Rd", "phone": "01145694931", "website": "https://velcodesolutions.com/", "rating": 5, "review_count": "", "latitude": 28.588264, "longitude": 77.0710003, "maps_url": "https://www.google.com/maps/place/?q=place_id:0x390d1bf88ab89bd1:0x49f17641759ec540"}, {"place_id": "0x390d1b4247c3e999:0x23b346992f7a49c6", "name": "SE Technology", "category": "Website designer", "street": "Sector 10 Dwarka, Dwarka", "city": "New Delhi, Delhi, 110075", "phone": "09891827147", "website": "http://www.sparroweye.com/", "rating": 4.9, "review_count": "", "latitude": 28.585585799999997, "longitude": 77.0577191, "maps_url": "https://www.google.com/maps/place/?q=place_id:0x390d1b4247c3e999:0x23b346992f7a49c6"}, {"place_id": "0x390d1b848d0e338f:0x8460a067e5247c10", "name": "Sam Digital Media", "category": "Software company", "street": "3rd Floor", "city": "A - 66", "phone": "09891848423", "website": "https://www.samdigitalmedia.com/", "rating": 4.8, "review_count": "", "latitude": 28.587982699999998, "longitude": 77.0714031, "maps_url": "https://www.google.com/maps/place/?q=place_id:0x390d1b848d0e338f:0x8460a067e5247c10"}, {"place_id": "0x390d1bdf0a3e7f61:0x9183ef9d4cac657c", "name": "TechBinge India", "category": "Software company", "street": "E-515, 1st Floor", "city": "Block E, Sector 7 Dwarka, Dwarka", "phone": "09871056158", "website": "https://techbinge.org/", "rating": 4.3, "review_count": "", "latitude": 28.5850108, "longitude": 77.07190899999999, "maps_url": "https://www.google.com/maps/place/?q=place_id:0x390d1bdf0a3e7f61:0x9183ef9d4cac657c"}, {"place_id": "0x390d013ca8ac1387:0x8a0db85b518267d5", "name": "NexGen Innovators", "category": "Software company", "street": "114B, 3rd floor, Dwarka Mor", "city": "New Delhi, Delhi 110059", "phone": "", "website": "https://www.nexgi.com/", "rating": 4.9, "review_count": "", "latitude": 28.618961, "longitude": 77.0322202, "maps_url": "https://www.google.com/maps/place/?q=place_id:0x390d013ca8ac1387:0x8a0db85b518267d5"}, {"place_id": "0x390d1b27bf9d8d37:0x5f125406986bc620", "name": "AMR Technosoft Pvt. Ltd.", "category": "Computer support and services", "street": "D-3", "city": "near MAXFORT SCHOOL DWARKA", "phone": "01149058903", "website": "https://www.amrtechnosoft.com/", "rating": 4.7, "review_count": "", "latitude": 28.5861713, "longitude": 77.0682667, "maps_url": "https://www.google.com/maps/place/?q=place_id:0x390d1b27bf9d8d37:0x5f125406986bc620"}, {"place_id": "0x390d04ae48526021:0xfc8962573381adb3", "name": "Softonic Solution", "category": "Software company", "street": "Building A", "city": "Block A, 2nd Floor, Plot No. 11, 12, 16, 17 Palam Extension", "phone": "09990944381", "website": "", "rating": 4.9, "review_count": "", "latitude": 28.582297399999998, "longitude": 77.07083709999999, "maps_url": "https://www.google.com/maps/place/?q=place_id:0x390d04ae48526021:0xfc8962573381adb3"}, {"place_id": "0x390d1ac339555557:0x9e72f1346ffa17f8", "name": "DIGIWIZ TECHNOLOGIES PVT LTD", "category": "Software company", "street": "112,MANISH MARKET", "city": "Sector 11 Dwarka, Dwarka", "phone": "08800643456", "website": "https://seoservicessk.com/seo-services-in-dwarka-seo-course-in-dwarka/", "rating": 4.9, "review_count": "", "latitude": 28.586458, "longitude": 77.0457241, "maps_url": "https://www.google.com/maps/place/?q=place_id:0x390d1ac339555557:0x9e72f1346ffa17f8"}, {"place_id": "0x390d1ac4f284e761:0x9464ca79c229a74d", "name": "Times IT Services Pvt. Ltd", "category": "Software company", "street": "Vardhman Bahnhof Plaza", "city": "204", "phone": "09650012304", "website": "https://www.timesitservices.com/", "rating": 4.9, "review_count": "", "latitude": 28.5906919, "longitude": 77.043549, "maps_url": "https://www.google.com/maps/place/?q=place_id:0x390d1ac4f284e761:0x9464ca79c229a74d"}, {"place_id": "0x390d1b162ed2908d:0x35f238c42a340589", "name": "Udigie - Best Website Development Company In Delhi", "category": "Website designer", "street": "D-486, 1st Floor", "city": "Ramphal Chowk Rd", "phone": "07982140540", "website": "https://udigie.com/", "rating": 5, "review_count": "", "latitude": 28.5847357, "longitude": 77.0703491, "maps_url": "https://www.google.com/maps/place/?q=place_id:0x390d1b162ed2908d:0x35f238c42a340589"}, {"place_id": "0x390d053af4b9fae1:0xa955718786ea4c90", "name": "Efficient IT & Electronic Services Private Limited", "category": "Software company", "street": "1st floor", "city": "VV Plaza building", "phone": "08750042191", "website": "http://www.efficientindia.com/", "rating": 4.4, "review_count": "", "latitude": 28.6100702, "longitude": 77.03385709999999, "maps_url": "https://www.google.com/maps/place/?q=place_id:0x390d053af4b9fae1:0xa955718786ea4c90"}, {"place_id": "0x390d1b1f98684d39:0x3bbe02d8e1fde161", "name": "COMSYS IT", "category": "Software company", "street": "Flat Number 507", "city": "Supriya Apartment", "phone": "07632917531", "website": "http://comsysit.in/", "rating": "", "review_count": "", "latitude": 28.583852, "longitude": 77.058729, "maps_url": "https://www.google.com/maps/place/?q=place_id:0x390d1b1f98684d39:0x3bbe02d8e1fde161"}, {"place_id": "0x390d1b53669611a7:0xd0180d327b46ea0e", "name": "GRK Info Services Pvt Ltd", "category": "Software company", "street": "E - 595, UGF", "city": "Daani Plaza", "phone": "", "website": "http://grkpl.com/", "rating": 4.6, "review_count": "", "latitude": 28.5852842, "longitude": 77.0713699, "maps_url": "https://www.google.com/maps/place/?q=place_id:0x390d1b53669611a7:0xd0180d327b46ea0e"}, {"place_id": "0x390ce458d0000001:0xf2123bd299ec4501", "name": "IT Company India", "category": "Software company", "street": "D56", "city": "D Block, Sector 10", "phone": "09999244854", "website": "https://www.itcompanyindia.in/", "rating": 4.7, "review_count": "", "latitude": 28.589917699999997, "longitude": 77.3351153, "maps_url": "https://www.google.com/maps/place/?q=place_id:0x390ce458d0000001:0xf2123bd299ec4501"}, {"place_id": "0x390d059150d8d8d3:0xa88f8d2856eab58e", "name": "Codemez It Solutions", "category": "Software company", "street": "Ground Floor", "city": "H No 271", "phone": "08800598521", "website": "https://codemez.com/", "rating": 5, "review_count": "", "latitude": 28.6140609, "longitude": 77.0312409, "maps_url": "https://www.google.com/maps/place/?q=place_id:0x390d059150d8d8d3:0xa88f8d2856eab58e"}, {"place_id": "0x390d1da73a24973f:0xfcbd561b3e6e5b0b", "name": "Adsource IT Solutions", "category": "Software company", "street": "Metro Pilllar, metro station", "city": "Dwarka More", "phone": "", "website": "https://www.adsourceitsolutions.com/", "rating": 5, "review_count": "", "latitude": 28.619874, "longitude": 77.0310854, "maps_url": "https://www.google.com/maps/place/?q=place_id:0x390d1da73a24973f:0xfcbd561b3e6e5b0b"}, {"place_id": "0x390d1c153a0323ff:0x48e3aad9be77d23c", "name": "Msinterface Technologies Pvt Ltd - Website Designer in Dwarka", "category": "Software company", "street": "Mahavir Enclave", "city": "Mahavir Enclave I, Sector 1 Dwarka, Dwarka", "phone": "09971787219", "website": "https://www.msinterface.in/", "rating": 5, "review_count": "", "latitude": 28.5961926, "longitude": 77.0823114, "maps_url": "https://www.google.com/maps/place/?q=place_id:0x390d1c153a0323ff:0x48e3aad9be77d23c"}, {"place_id": "0x390d1b8d94bfebb9:0xdbd74207ae3d35e7", "name": "SysTools Software Pvt Ltd", "category": "Software company", "street": "City Centre", "city": "528", "phone": "06230830862", "website": "https://www.systoolsgroup.com/", "rating": 4.5, "review_count": "", "latitude": 28.5921344, "longitude": 77.0417265, "maps_url": "https://www.google.com/maps/place/?q=place_id:0x390d1b8d94bfebb9:0xdbd74207ae3d35e7"}, {"place_id": "0x390d1be0f1470549:0x17a9d7f6d78b0d57", "name": "Cognam Technologies", "category": "Corporate office", "street": "B299&300, 1st Floor, Palam Extn", "city": "near Ramphal Chowk Road", "phone": "", "website": "https://www.cognam.com/", "rating": 4.3, "review_count": "", "latitude": 28.5860047, "longitude": 77.07136419999999, "maps_url": "https://www.google.com/maps/place/?q=place_id:0x390d1be0f1470549:0x17a9d7f6d78b0d57"}, {"place_id": "0x390d1b3d95555591:0x43c9fe791aed7a0e", "name": "Acetech Information Systems Pvt. Ltd", "category": "Software company", "street": "Unit No. 469-470, Vegas Mall", "city": "Commercial Towers", "phone": "09650972345", "website": "http://www.acetechindia.com/", "rating": 4.4, "review_count": "", "latitude": 28.601454, "longitude": 77.0294002, "maps_url": "https://www.google.com/maps/place/?q=place_id:0x390d1b3d95555591:0x43c9fe791aed7a0e"}, {"place_id": "0x2a72b8b69d7b6493:0x11251466d4d34cac", "name": "WebZonal IT Company", "category": "Website designer", "street": "Wz-258/2-3, D Block Rd", "city": "Khazan Basti, Nangal Raya, Janakpuri", "phone": "09811170903", "website": "http://webzonal.com/", "rating": 5, "review_count": "", "latitude": 28.6122102, "longitude": 77.11159549999999, "maps_url": "https://www.google.com/maps/place/?q=place_id:0x2a72b8b69d7b6493:0x11251466d4d34cac"}, {"place_id": "0x390d05c021c5643f:0x4c5794b17406c81c", "name": "Web2online Solutions - web designing and web development company in delhi, seo company delhi", "category": "Website designer", "street": "C 917", "city": "Block C, Sector 7 Dwarka, Dwarka", "phone": "08860303721", "website": "https://web2onlinesolutions.com/", "rating": 4.9, "review_count": "", "latitude": 28.585333499999997, "longitude": 77.0707252, "maps_url": "https://www.google.com/maps/place/?q=place_id:0x390d05c021c5643f:0x4c5794b17406c81c"}, {"place_id": "0x390d1b38fd32b4f3:0x82d62331243c57ca", "name": "Techiedom", "category": "Software company", "street": "12, 16", "city": "Block A, 2nd Floor, Plot No. 11", "phone": "08076944161", "website": "https://www.techiedom.com/", "rating": 4.7, "review_count": "", "latitude": 28.592847, "longitude": 77.07793199999999, "maps_url": "https://www.google.com/maps/place/?q=place_id:0x390d1b38fd32b4f3:0x82d62331243c57ca"}, {"place_id": "0x390d05cd2ace8d53:0xf82774e10e1ff47c", "name": "Quicky Technologies", "category": "Software company", "street": "3rd Floor", "city": "C-85, Rama Park Rd", "phone": "09899550472", "website": "https://www.quickytechnologies.com/", "rating": 5, "review_count": "", "latitude": 28.622149999999998, "longitude": 77.03673069999999, "maps_url": "https://www.google.com/maps/place/?q=place_id:0x390d05cd2ace8d53:0xf82774e10e1ff47c"}, {"place_id": "0x390d058eebd4e349:0xe3540cff21ac1db4", "name": "Matrix Infotech Solution | Software Development Company in Delhi", "category": "Software company", "street": "3rd floor, Besmate Indian Bank, housing complex", "city": "Main Market", "phone": "08920817059", "website": "https://www.matrixinfotechsolution.com/", "rating": 5, "review_count": "", "latitude": 28.6165375, "longitude": 77.0282521, "maps_url": "https://www.google.com/maps/place/?q=place_id:0x390d058eebd4e349:0xe3540cff21ac1db4"}, {"place_id": "0x390d1b17c1460683:0x291058c4deac1538", "name": "Bonwic Technologies- Best Digital\u2019s Marketing Agency in Delhi", "category": "Website designer", "street": "12, 16, 17", "city": "Block A, 2nd Floor", "phone": "09220447211", "website": "https://www.bonwic.com/", "rating": 4.7, "review_count": "", "latitude": 28.589510299999997, "longitude": 77.0715165, "maps_url": "https://www.google.com/maps/place/?q=place_id:0x390d1b17c1460683:0x291058c4deac1538"}, {"place_id": "0x390d1b1636772253:0x90fb52e5011143a6", "name": "Janus Global LLP", "category": "Computer support and services", "street": "D 459A, Ramphal Chowk Rd", "city": "Block D, Sector 7 Dwarka, Dwarka", "phone": "09999216234", "website": "https://janusglobal.in/", "rating": 5, "review_count": "", "latitude": 28.585091, "longitude": 77.06935159999999, "maps_url": "https://www.google.com/maps/place/?q=place_id:0x390d1b1636772253:0x90fb52e5011143a6"}, {"place_id": "0x390d1b3c7aaaaaab:0xcc0116b944b8452c", "name": "ESIGN WEB SERVICES PVT LTD", "category": "Website designer", "street": "3rd Floor", "city": "Plot No 24", "phone": "09718099999", "website": "https://www.esignwebservices.com/", "rating": 4.7, "review_count": "", "latitude": 28.5857121, "longitude": 77.0494913, "maps_url": "https://www.google.com/maps/place/?q=place_id:0x390d1b3c7aaaaaab:0xcc0116b944b8452c"}, {"place_id": "0x390d05713cbc05f9:0x29ec332097ea9861", "name": "Bluebyte It Solutions", "category": "Software company", "street": "MS-83", "city": "Block MS, Mohan Garden, Uttam Nagar", "phone": "08178838292", "website": "https://www.bluebyteitsolutions.com/", "rating": 5, "review_count": "", "latitude": 28.6289797, "longitude": 77.0335781, "maps_url": "https://www.google.com/maps/place/?q=place_id:0x390d05713cbc05f9:0x29ec332097ea9861"}, {"place_id": "0x390d1b5c83984955:0xab519a2222070475", "name": "Vision Web India | Best Web Development & Digital Marketing Company In Delhi", "category": "Website designer", "street": "B 252, Palam Extension", "city": "Ramphal Chowk Rd", "phone": "09667719394", "website": "https://visionwebindia.com/", "rating": 5, "review_count": "", "latitude": 28.586551699999998, "longitude": 77.0690965, "maps_url": "https://www.google.com/maps/place/?q=place_id:0x390d1b5c83984955:0xab519a2222070475"}, {"place_id": "0x390d1b4b364a8b53:0xeabf993e57f64dcb", "name": "QuiX Services Private Limited", "category": "Moving service", "street": "MUNIRKA APARTMENT", "city": "A403", "phone": "08368284251", "website": "http://www.quixmoving.com/", "rating": 4.7, "review_count": "", "latitude": 28.583054399999998, "longitude": 77.0667431, "maps_url": "https://www.google.com/maps/place/?q=place_id:0x390d1b4b364a8b53:0xeabf993e57f64dcb"}, {"place_id": "0x390d1bf7b99f3135:0x7b59ef65ff972e2", "name": "XB Software Development Company", "category": "Software company", "street": "Goma Plaza", "city": "E-512, Ramphal Chowk Rd", "phone": "08802878718", "website": "", "rating": 5, "review_count": "", "latitude": 28.586331899999998, "longitude": 77.0716807, "maps_url": "https://www.google.com/maps/place/?q=place_id:0x390d1bf7b99f3135:0x7b59ef65ff972e2"}, {"place_id": "0x390d1b2440000001:0x7b52a88f21fc0d82", "name": "DesignDot Technologies | #1 Best Website & App Development | Top Software & AIML Solutions Company in Delhi", "category": "Software company", "street": "RZ 1/13, 3RD FLOOR, Main Road Above HDFC Bank, Dwarka, Near Palam Metro Gate 2", "city": "New Delhi, Delhi 110077", "phone": "09999652812", "website": "https://www.designdot.co.in/", "rating": 5, "review_count": "", "latitude": 28.587238199999998, "longitude": 77.0850727, "maps_url": "https://www.google.com/maps/place/?q=place_id:0x390d1b2440000001:0x7b52a88f21fc0d82"}, {"place_id": "0x390d05c8987801e5:0x128e04dce6c4cbc4", "name": "Matrix Infotech Solution | Software Development Company", "category": "Software company", "street": "j j", "city": "Dwarka Mor, Block WE, Mohan Garden, Razapur Khurd", "phone": "08920817059", "website": "http://www.matrixinfotechsolution.com/", "rating": 3.9, "review_count": "", "latitude": 28.637037, "longitude": 77.0291258, "maps_url": "https://www.google.com/maps/place/?q=place_id:0x390d05c8987801e5:0x128e04dce6c4cbc4"}, {"place_id": "0x20616dbf813c03ef:0xc8fd1ca47f902e9e", "name": "Bloatware IT Software Company | website Designing Company | Software Company | MLM |CRM | Android Apps", "category": "Software company", "street": "C1", "city": "Rama Park", "phone": "08920750797", "website": "https://bloatwareitsolutions.com/", "rating": 4.5, "review_count": "", "latitude": 28.621265599999997, "longitude": 77.0324943, "maps_url": "https://www.google.com/maps/place/?q=place_id:0x20616dbf813c03ef:0xc8fd1ca47f902e9e"}, {"place_id": "0x390d1b8e5b6999a1:0x522ffbc2c7c23362", "name": "Techthastu Private Limited (Techthaastu)", "category": "Software company", "street": "Techthaastu Office, Pt. Mehru Marg, Outer Bharthal Firni road Bharthal Village", "city": "near Govt. Girls senior secondary School", "phone": "08383889042", "website": "https://www.techthaastu.com/", "rating": 5, "review_count": "", "latitude": 28.5403192, "longitude": 77.0524594, "maps_url": "https://www.google.com/maps/place/?q=place_id:0x390d1b8e5b6999a1:0x522ffbc2c7c23362"}, {"place_id": "0x390d050d9e7ce6a3:0xa72607a5a8be6510", "name": "Shri Sai Tech Solutions", "category": "Software company", "street": "Pillar number 783", "city": "Metro Station Dwarka Mor A-109, Street No. 4", "phone": "07210868167", "website": "https://shrisaitechsolutions.com/", "rating": 4.3, "review_count": "", "latitude": 28.6189075, "longitude": 77.0333678, "maps_url": "https://www.google.com/maps/place/?q=place_id:0x390d050d9e7ce6a3:0xa72607a5a8be6510"}, {"place_id": "0x390d1df0721e08c5:0x49d5fd4648a33c2d", "name": "Nibble Software | Website Design & Development | Travel Web API & CRM | SEO, SMO, Paid Ads, Amazon & Flipkart Marketing", "category": "Website designer", "street": "4th Floor", "city": "Moolchand Tower", "phone": "09971066697", "website": "https://www.nibblesoftware.com/", "rating": 4.8, "review_count": "", "latitude": 28.6000862, "longitude": 77.0818018, "maps_url": "https://www.google.com/maps/place/?q=place_id:0x390d1df0721e08c5:0x49d5fd4648a33c2d"}, {"place_id": "0x390d055ab880b807:0xcb5c025daa2b2795", "name": "Tech Web Mantra", "category": "Software company", "street": "B-77", "city": "near Dwarka Mor Metro Station", "phone": "09871521039", "website": "https://www.techwebmantra.com/", "rating": 5, "review_count": "", "latitude": 28.614187899999997, "longitude": 77.0362179, "maps_url": "https://www.google.com/maps/place/?q=place_id:0x390d055ab880b807:0xcb5c025daa2b2795"}, {"place_id": "0x390d1bcd76384d39:0xdb32f9430e255f8e", "name": "WINISHTECH IT SOLUTIONS PRIVATE LIMITED", "category": "Software company", "street": "B1/639 A", "city": "Janakpuri West, Block B1, Janakpuri", "phone": "", "website": "https://winishtechitsolutions.com/", "rating": 5, "review_count": "", "latitude": 28.6324707, "longitude": 77.0857044, "maps_url": "https://www.google.com/maps/place/?q=place_id:0x390d1bcd76384d39:0xdb32f9430e255f8e"}, {"place_id": "0x390d052a1265bc33:0xd1f77384fcc24135", "name": "Grace Techno | Web Designing Company in Delhi | Web & Software Development Company in Delhi", "category": "Software company", "street": "First Floor", "city": "Building Burger King", "phone": "08595273503", "website": "https://gracetechno.online/", "rating": 5, "review_count": "", "latitude": 28.6198245, "longitude": 77.054174, "maps_url": "https://www.google.com/maps/place/?q=place_id:0x390d052a1265bc33:0xd1f77384fcc24135"}, {"place_id": "0x390d1bb4e8fbf6db:0x7bdb46bd724f02e", "name": "The Yellow Car Company", "category": "Business management consultant", "street": "Sanskriti Apts", "city": "Plot No 35", "phone": "09818123110", "website": "https://theyellowcarcompany.com/", "rating": 5, "review_count": "", "latitude": 28.585733299999998, "longitude": 77.0598656, "maps_url": "https://www.google.com/maps/place/?q=place_id:0x390d1bb4e8fbf6db:0x7bdb46bd724f02e"}, {"place_id": "0x390d1bffa87acef1:0x46675627987ad8a0", "name": "WE DESIGNS - BEST GRAPHIC AGENCY IN DELHI NCR", "category": "Website designer", "street": "E-596, Ramphal Chowk Rd", "city": "above Adhara Bank", "phone": "09654398877", "website": "https://wedesigns1.in/", "rating": 4.7, "review_count": "", "latitude": 28.5851544, "longitude": 77.07242939999999, "maps_url": "https://www.google.com/maps/place/?q=place_id:0x390d1bffa87acef1:0x46675627987ad8a0"}, {"place_id": "0x390cef0e6abd6c7f:0x611d985ddfde3944", "name": "Dishis Designer Jewellery", "category": "Corporate office", "street": "PLOT-1", "city": "Pocket 2, Dwarka Sector 9, Dwarka", "phone": "09310403936", "website": "http://www.dishisjewels.com/", "rating": 4.5, "review_count": "", "latitude": 28.581174899999997, "longitude": 77.06679129999999, "maps_url": "https://www.google.com/maps/place/?q=place_id:0x390cef0e6abd6c7f:0x611d985ddfde3944"}, {"place_id": "0x390d1bf18bb462db:0xcd031e577fcfd98b", "name": "PRS Electronics", "category": "Television repair service", "street": "C-713a, Ramphal chowk", "city": "Shiksha Bharti School Rd", "phone": "09990368156", "website": "https://prselectronics.in/", "rating": 4.7, "review_count": "", "latitude": 28.585201599999998, "longitude": 77.0676242, "maps_url": "https://www.google.com/maps/place/?q=place_id:0x390d1bf18bb462db:0xcd031e577fcfd98b"}, {"place_id": "0x390d1b4bbe055da3:0x949b4619372409fb", "name": "Dakshankan \u2013 Digital Marketing Institute, Dwarka", "category": "Educational institution", "street": "C-713/G", "city": "2nd Floor", "phone": "09217178587", "website": "https://dakshankan.com/", "rating": 5, "review_count": "", "latitude": 28.5851567, "longitude": 77.0668255, "maps_url": "https://www.google.com/maps/place/?q=place_id:0x390d1b4bbe055da3:0x949b4619372409fb"}, {"place_id": "0x390d1bfeb326936b:0x29290885caef8af0", "name": "H&A India Pvt Ltd - Arms Incorporation TITP Program", "category": "Educational institution", "street": "Building, plot no. 6, Nearest Metro Station", "city": "YWCA", "phone": "09319708711", "website": "https://www.arms-incorporation.com/", "rating": 4.4, "review_count": "", "latitude": 28.584458899999998, "longitude": 77.0636178, "maps_url": "https://www.google.com/maps/place/?q=place_id:0x390d1bfeb326936b:0x29290885caef8af0"}, {"place_id": "0x390d1be71ca08db9:0xbcc90a323c2aaa01", "name": "SpreadTheName | Digital Marketing Agency", "category": "Website designer", "street": "First floor", "city": "C-35", "phone": "07982742809", "website": "https://spreadthename.com/", "rating": 4.9, "review_count": "", "latitude": 28.5894965, "longitude": 77.0770455, "maps_url": "https://www.google.com/maps/place/?q=place_id:0x390d1be71ca08db9:0xbcc90a323c2aaa01"}, {"place_id": "0x390ce25e35301717:0xc928e6782b250d7c", "name": "FOSTIIMA Business School", "category": "Business school", "street": "Plot No. HAF-1", "city": "Pocket 2, Dwarka Sector 9, Dwarka", "phone": "09891844585", "website": "http://www.fostiima.org/", "rating": 3.8, "review_count": "", "latitude": 28.580943899999998, "longitude": 77.0667725, "maps_url": "https://www.google.com/maps/place/?q=place_id:0x390ce25e35301717:0xc928e6782b250d7c"}, {"place_id": "0x390d1b0010fc2321:0x12e9154c815cf007", "name": "Prashant Dwivedi IT company", "category": "Warehouse", "street": "G3P5+GVC", "city": "Nayak Pura, Bijwasan", "phone": "", "website": "", "rating": "", "review_count": "", "latitude": 28.536316, "longitude": 77.059649, "maps_url": "https://www.google.com/maps/place/?q=place_id:0x390d1b0010fc2321:0x12e9154c815cf007"}, {"place_id": "0x390d1b1f8e465e41:0xb82f2e0498ac03be", "name": "Neha Chaudhary", "category": "Website designer", "street": "Sector 10 Dwarka, Dwarka", "city": "New Delhi, Delhi, 110075", "phone": "09319776761", "website": "http://www.nehachaudhry.com/", "rating": 5, "review_count": "", "latitude": 28.5845584, "longitude": 77.05837, "maps_url": "https://www.google.com/maps/place/?q=place_id:0x390d1b1f8e465e41:0xb82f2e0498ac03be"}]}