{"timestamp": 1773730355.287621, "keyword": "IT company", "location": "delhi", "cell_idx": 225, "results": [{"place_id": "0x390d1a5532eb800f:0xf2e1540348673db7", "name": "bitGain Technology Private Limited", "category": "Software company", "street": "Plot No 497", "city": "Bharthal, Sector 26 Dwarka, Bharthal", "phone": "09560002243", "website": "https://www.bitgaintech.com/", "rating": 4.7, "review_count": "", "latitude": 28.5467209, "longitude": 77.0473114, "maps_url": "https://www.google.com/maps/place/?q=place_id:0x390d1a5532eb800f:0xf2e1540348673db7"}, {"place_id": "0x390d1b8e5b6999a1:0x522ffbc2c7c23362", "name": "Techthastu Private Limited (Techthaastu)", "category": "Software company", "street": "Techthaastu Office, Pt. Mehru Marg, Outer Bharthal Firni road Bharthal Village", "city": "near Govt. Girls senior secondary School", "phone": "08383889042", "website": "https://www.techthaastu.com/", "rating": 5, "review_count": "", "latitude": 28.5403192, "longitude": 77.0524594, "maps_url": "https://www.google.com/maps/place/?q=place_id:0x390d1b8e5b6999a1:0x522ffbc2c7c23362"}, {"place_id": "0x390d1a34dce10001:0x81ee938136b1aabf", "name": "GANGATIKA TECHNOLOGIES PRIVATE LIMITED", "category": "Software company", "street": "Plot No. 551", "city": "Near, Holi Chowk Rd", "phone": "07838189178", "website": "", "rating": 4.4, "review_count": "", "latitude": 28.5355068, "longitude": 77.0551984, "maps_url": "https://www.google.com/maps/place/?q=place_id:0x390d1a34dce10001:0x81ee938136b1aabf"}, {"place_id": "0x390ce458d0000001:0xf2123bd299ec4501", "name": "IT Company India", "category": "Software company", "street": "D56", "city": "D Block, Sector 10", "phone": "09999244854", "website": "https://www.itcompanyindia.in/", "rating": 4.7, "review_count": "", "latitude": 28.589917699999997, "longitude": 77.3351153, "maps_url": "https://www.google.com/maps/place/?q=place_id:0x390ce458d0000001:0xf2123bd299ec4501"}, {"place_id": "0x390d05f1c70d0d6b:0x80d816e36f28618f", "name": "Katchin Tech Private Limited | Software Development Company in Delhi NCR", "category": "Software company", "street": "A-4", "city": "near skin decor", "phone": "07669005215", "website": "https://www.katchintech.com/", "rating": 5, "review_count": "", "latitude": 28.575834099999998, "longitude": 77.05139609999999, "maps_url": "https://www.google.com/maps/place/?q=place_id:0x390d05f1c70d0d6b:0x80d816e36f28618f"}, {"place_id": "0x390d1ac4f284e761:0x9464ca79c229a74d", "name": "Times IT Services Pvt. Ltd", "category": "Software company", "street": "Vardhman Bahnhof Plaza", "city": "204", "phone": "09650012304", "website": "https://www.timesitservices.com/", "rating": 4.9, "review_count": "", "latitude": 28.5906919, "longitude": 77.043549, "maps_url": "https://www.google.com/maps/place/?q=place_id:0x390d1ac4f284e761:0x9464ca79c229a74d"}, {"place_id": "0x390d191100000001:0x424476192b3b5b5b", "name": "Binary Semantics Limited", "category": "Software company", "street": "PLot no", "city": "38", "phone": "08929156505", "website": "https://www.binarysemantics.com/", "rating": 3.7, "review_count": "", "latitude": 28.5018823, "longitude": 77.0701466, "maps_url": "https://www.google.com/maps/place/?q=place_id:0x390d191100000001:0x424476192b3b5b5b"}, {"place_id": "0x390d181b03ac9f6f:0x3ec5a92a519f94ad", "name": "Daffodil Software", "category": "Software company", "street": "9th Floor, Tower B1, DLF", "city": "World Tech Park", "phone": "01246817000", "website": "https://www.daffodilsw.com/", "rating": 4.1, "review_count": "", "latitude": 28.465191599999997, "longitude": 77.0564785, "maps_url": "https://www.google.com/maps/place/?q=place_id:0x390d181b03ac9f6f:0x3ec5a92a519f94ad"}, {"place_id": "0x390d1bb72bd328b1:0xd9425539dc10edb3", "name": "SOFT INDIA WEB SOFTWARE DEVELOPMENT PVT LTD", "category": "Software company", "street": "Ground Floor", "city": "A- 107", "phone": "09625503688", "website": "http://www.softindia.in/", "rating": 3.2, "review_count": "", "latitude": 28.587611, "longitude": 77.0704514, "maps_url": "https://www.google.com/maps/place/?q=place_id:0x390d1bb72bd328b1:0xd9425539dc10edb3"}, {"place_id": "0x390d053af4b9fae1:0xa955718786ea4c90", "name": "Efficient IT & Electronic Services Private Limited", "category": "Software company", "street": "1st floor", "city": "VV Plaza building", "phone": "08750042191", "website": "http://www.efficientindia.com/", "rating": 4.4, "review_count": "", "latitude": 28.6100702, "longitude": 77.03385709999999, "maps_url": "https://www.google.com/maps/place/?q=place_id:0x390d053af4b9fae1:0xa955718786ea4c90"}, {"place_id": "0x390d1b16f3209f21:0xd3b436cdb0d1a2bb", "name": "TACITURN CARETECH OPC PRIVATE LIMITED", "category": "Corporate office", "street": "Plot no- 477, 1st Floor, Near Pole No-001, Village & P.O. - Bharthal, Near SBI Bank, Sector-26, Dwarka, New Delhi-110 077", "city": "New Delhi, Delhi 110077", "phone": "08046071465", "website": "https://www.taciturncoatings.com/", "rating": 5, "review_count": "", "latitude": 28.5449554, "longitude": 77.0457416, "maps_url": "https://www.google.com/maps/place/?q=place_id:0x390d1b16f3209f21:0xd3b436cdb0d1a2bb"}, {"place_id": "0x390d1a4940794a8d:0x61a953b3be130f42", "name": "Vanshika Computers", "category": "Computer store", "street": "h, no 311", "city": "c/o Uday ram", "phone": "09555996660", "website": "", "rating": 4.5, "review_count": "", "latitude": 28.5428173, "longitude": 77.0493114, "maps_url": "https://www.google.com/maps/place/?q=place_id:0x390d1a4940794a8d:0x61a953b3be130f42"}, {"place_id": "0x390d1b0ad6565c37:0x9ee772d45ffed70d", "name": "IOTtech Softwares", "category": "Software company", "street": "First & Second Floor", "city": "Lucky Plaza", "phone": "08034798583", "website": "", "rating": 4.9, "review_count": "", "latitude": 28.5847981, "longitude": 77.07323199999999, "maps_url": "https://www.google.com/maps/place/?q=place_id:0x390d1b0ad6565c37:0x9ee772d45ffed70d"}, {"place_id": "0x390d1b86b6b5582d:0x36c722e124b57be8", "name": "kdrsoft Technologies - website designing company in delhi", "category": "Website designer", "street": "2nd Floor", "city": "Manish Global Mall", "phone": "09910258463", "website": "https://www.kdrsoft.com/", "rating": 4.9, "review_count": "", "latitude": 28.559937299999998, "longitude": 77.0596687, "maps_url": "https://www.google.com/maps/place/?q=place_id:0x390d1b86b6b5582d:0x36c722e124b57be8"}, {"place_id": "0x390d1ac339555557:0x9e72f1346ffa17f8", "name": "DIGIWIZ TECHNOLOGIES PVT LTD", "category": "Software company", "street": "112,MANISH MARKET", "city": "Sector 11 Dwarka, Dwarka", "phone": "08800643456", "website": "https://seoservicessk.com/seo-services-in-dwarka-seo-course-in-dwarka/", "rating": 4.9, "review_count": "", "latitude": 28.586458, "longitude": 77.0457241, "maps_url": "https://www.google.com/maps/place/?q=place_id:0x390d1ac339555557:0x9e72f1346ffa17f8"}, {"place_id": "0x390d1bbce0c510a9:0x35adc335e65a9136", "name": "ITL Movers Private Limited", "category": "Transportation service", "street": "Plot no. 341C", "city": "Bharthal, Sector 26 Dwarka, Dwarka", "phone": "", "website": "https://itlmovers.com/", "rating": 4.2, "review_count": "", "latitude": 28.542717399999997, "longitude": 77.04925039999999, "maps_url": "https://www.google.com/maps/place/?q=place_id:0x390d1bbce0c510a9:0x35adc335e65a9136"}, {"place_id": "0x390d195e4483ae05:0xec67b2579bb38803", "name": "eXtendCode - Software Development Company", "category": "Software company", "street": "Plot 63, Second Floor, Udyog Vihar Phase -1,", "city": "Gurugram, Haryana 122016", "phone": "01244261219", "website": "http://www.extendcode.com/", "rating": 4.1, "review_count": "", "latitude": 28.514535199999997, "longitude": 77.0815075, "maps_url": "https://www.google.com/maps/place/?q=place_id:0x390d195e4483ae05:0xec67b2579bb38803"}, {"place_id": "0x390d1b1fb85c71ed:0x1aa4ba2a08b02c1d", "name": "Tecmicra Solutions - Software, Website Development & Digital Marketing Company", "category": "Software company", "street": "Floor, D410", "city": "3rd", "phone": "07042387253", "website": "https://tecmicra.co.in/", "rating": 5, "review_count": "", "latitude": 28.5849324, "longitude": 77.071085, "maps_url": "https://www.google.com/maps/place/?q=place_id:0x390d1b1fb85c71ed:0x1aa4ba2a08b02c1d"}, {"place_id": "0x390d19440bc59efb:0xda6549686148f7b4", "name": "PerfectionGeeks Technologies", "category": "Software company", "street": "Plot 378-379, Udyog Vihar Phase 4 Rd", "city": "near nokia building", "phone": "08920947884", "website": "http://www.perfectiongeeks.com/", "rating": 4.9, "review_count": "", "latitude": 28.5002221, "longitude": 77.0730516, "maps_url": "https://www.google.com/maps/place/?q=place_id:0x390d19440bc59efb:0xda6549686148f7b4"}, {"place_id": "0x390d1bbd14a92329:0x69ccddf6d89ff", "name": "PMPA SOFTTECH PVT. LTD.", "category": "Software company", "street": "6/A6", "city": "Pocket-8, Sector 23b, Dwarka", "phone": "07073003833", "website": "", "rating": 4.5, "review_count": "", "latitude": 28.563591799999998, "longitude": 77.0417138, "maps_url": "https://www.google.com/maps/place/?q=place_id:0x390d1bbd14a92329:0x69ccddf6d89ff"}, {"place_id": "0x390d1923af5d91ed:0xbe103b16161f5631", "name": "Condeco Software Private Limited", "category": "Software company", "street": "Tower C", "city": "4th floor building 10", "phone": "01244760150", "website": "http://www.condecosoftware.com/apac", "rating": 4.3, "review_count": "", "latitude": 28.4940696, "longitude": 77.0885457, "maps_url": "https://www.google.com/maps/place/?q=place_id:0x390d1923af5d91ed:0xbe103b16161f5631"}, {"place_id": "0x390cfd00fd453a1b:0x9b04afa48c2538ec", "name": "Inwoin Technologies Pvt. Ltd.", "category": "Software company", "street": "Building No. 309", "city": "310", "phone": "", "website": "http://www.inwoin.com/", "rating": 4.5, "review_count": "", "latitude": 28.4999559, "longitude": 77.07965879999999, "maps_url": "https://www.google.com/maps/place/?q=place_id:0x390cfd00fd453a1b:0x9b04afa48c2538ec"}, {"place_id": "0x390d19298db2fb35:0xcaa0d46737c4561c", "name": "MLM Software Developer | Sunny citrix", "category": "Software company", "street": "office no 427C, 4th floor, vashisht complex", "city": "Sikanderpur", "phone": "07906059336", "website": "http://sunnycitrix.com/", "rating": 4.8, "review_count": "", "latitude": 28.4816798, "longitude": 77.09770569999999, "maps_url": "https://www.google.com/maps/place/?q=place_id:0x390d19298db2fb35:0xcaa0d46737c4561c"}, {"place_id": "0x390ce3c153b89811:0xe7a279685777e9ca", "name": "IT Company", "category": "Automation company", "street": "A-14", "city": "near iskcon temple", "phone": "", "website": "http://www.opuswiz.com/", "rating": 3, "review_count": "", "latitude": 28.557167, "longitude": 77.25424819999999, "maps_url": "https://www.google.com/maps/place/?q=place_id:0x390ce3c153b89811:0xe7a279685777e9ca"}, {"place_id": "0x390d192f80e784d3:0x2c271ddf93d663b4", "name": "Tranciscolabs | Mobile App Development Company | Web Development Company", "category": "Software company", "street": "Park", "city": "RGREP", "phone": "09580174570", "website": "https://tranciscolabs.com/", "rating": 4.4, "review_count": "", "latitude": 28.4695091, "longitude": 77.06860209999999, "maps_url": "https://www.google.com/maps/place/?q=place_id:0x390d192f80e784d3:0x2c271ddf93d663b4"}, {"place_id": "0x2a72b8b69d7b6493:0x11251466d4d34cac", "name": "WebZonal IT Company", "category": "Website designer", "street": "Wz-258/2-3, D Block Rd", "city": "Khazan Basti, Nangal Raya, Janakpuri", "phone": "09811170903", "website": "http://webzonal.com/", "rating": 5, "review_count": "", "latitude": 28.6122102, "longitude": 77.11159549999999, "maps_url": "https://www.google.com/maps/place/?q=place_id:0x2a72b8b69d7b6493:0x11251466d4d34cac"}, {"place_id": "0x390d1b0010fc2321:0x12e9154c815cf007", "name": "Prashant Dwivedi IT company", "category": "Warehouse", "street": "G3P5+GVC", "city": "Nayak Pura, Bijwasan", "phone": "", "website": "", "rating": "", "review_count": "", "latitude": 28.536316, "longitude": 77.059649, "maps_url": "https://www.google.com/maps/place/?q=place_id:0x390d1b0010fc2321:0x12e9154c815cf007"}, {"place_id": "0x390d02e520aee25b:0x322870f3355c7f4b", "name": "Delphi Infotech (Cybersecurity & Cloud Solutions)", "category": "Software company", "street": "225A, D-21", "city": "Corporate Park", "phone": "01145075151", "website": "https://www.delphiinfo.com/", "rating": 4.2, "review_count": "", "latitude": 28.5618181, "longitude": 77.0670596, "maps_url": "https://www.google.com/maps/place/?q=place_id:0x390d02e520aee25b:0x322870f3355c7f4b"}, {"place_id": "0x390d19174792f4db:0xcb5f589caa71b6e7", "name": "Knocial India Limited", "category": "Software company", "street": "60B", "city": "Udyog Vihar, Sector 22", "phone": "09354120847", "website": "https://www.knocialindia.com/", "rating": 4.7, "review_count": "", "latitude": 28.504239499999997, "longitude": 77.0651981, "maps_url": "https://www.google.com/maps/place/?q=place_id:0x390d19174792f4db:0xcb5f589caa71b6e7"}, {"place_id": "0x390d1a494e326d51:0x6cf11ec96f58d082", "name": "Move It Solution", "category": "Moving service", "street": "near", "city": "Sco No : 487, 1st Floor", "phone": "07056997000", "website": "", "rating": 4.5, "review_count": "", "latitude": 28.5436847, "longitude": 77.049916, "maps_url": "https://www.google.com/maps/place/?q=place_id:0x390d1a494e326d51:0x6cf11ec96f58d082"}, {"place_id": "0x390d1b8d94bfebb9:0xdbd74207ae3d35e7", "name": "SysTools Software Pvt Ltd", "category": "Software company", "street": "City Centre", "city": "528", "phone": "06230830862", "website": "https://www.systoolsgroup.com/", "rating": 4.5, "review_count": "", "latitude": 28.5921344, "longitude": 77.0417265, "maps_url": "https://www.google.com/maps/place/?q=place_id:0x390d1b8d94bfebb9:0xdbd74207ae3d35e7"}, {"place_id": "0x390d1b8802c225d9:0x4ccc6fe7477bb7c7", "name": "ABZ Healthcare", "category": "Medical Equipment Manufacturer", "street": "519/2/1", "city": "Sector 26 Dwarka, Industrial Area", "phone": "02912745788", "website": "https://abzhealthcare.com/", "rating": 5, "review_count": "", "latitude": 28.5391461, "longitude": 77.05133289999999, "maps_url": "https://www.google.com/maps/place/?q=place_id:0x390d1b8802c225d9:0x4ccc6fe7477bb7c7"}, {"place_id": "0x390d1a493fffffff:0xf0f25d2adca04a5d", "name": "Indore Relocation & Packers", "category": "Corporate office", "street": "New Line", "city": "Plot No \u2013 23", "phone": "09599974215", "website": "http://indorelocationmovers.com/", "rating": 4.7, "review_count": "", "latitude": 28.542728, "longitude": 77.049206, "maps_url": "https://www.google.com/maps/place/?q=place_id:0x390d1a493fffffff:0xf0f25d2adca04a5d"}, {"place_id": "0x390d1a493fffffff:0xccc30f6109e38c6", "name": "Spencer India Technologies Private Limited", "category": "Medical equipment supplier", "street": "Ground Floor", "city": "Plot No. 291", "phone": "09999775664", "website": "http://spencer-india.com/", "rating": 5, "review_count": "", "latitude": 28.540011699999997, "longitude": 77.0525572, "maps_url": "https://www.google.com/maps/place/?q=place_id:0x390d1a493fffffff:0xccc30f6109e38c6"}, {"place_id": "0x448aa981f5f4e8af:0x24d0bd0e978530df", "name": "Tech Rajendra", "category": "Software company", "street": "3rd Floor", "city": "Plot no. 190, Golf Course Rd", "phone": "09540020546", "website": "https://www.techrajendra.com/", "rating": 4.5, "review_count": "", "latitude": 28.586822299999998, "longitude": 77.0276827, "maps_url": "https://www.google.com/maps/place/?q=place_id:0x448aa981f5f4e8af:0x24d0bd0e978530df"}, {"place_id": "0x390d191598f48ef3:0x70991b4ff870f05d", "name": "Shree Partners LLC", "category": "Software company", "street": "1, Tower A, Building, Cyber City", "city": "Corporate Edge Level", "phone": "01246728815", "website": "https://www.shreepartners.com/", "rating": 4.3, "review_count": "", "latitude": 28.4936018, "longitude": 77.088325, "maps_url": "https://www.google.com/maps/place/?q=place_id:0x390d191598f48ef3:0x70991b4ff870f05d"}, {"place_id": "0x390d1b9e6bd3aa6d:0xa0d1d1b35f47fc8", "name": "Atri Packaging", "category": "Packaging company", "street": "G2RW+FHX", "city": "Bharthal, Bharthal Village, Dwarka", "phone": "", "website": "", "rating": 5, "review_count": "", "latitude": 28.541234799999998, "longitude": 77.0464925, "maps_url": "https://www.google.com/maps/place/?q=place_id:0x390d1b9e6bd3aa6d:0xa0d1d1b35f47fc8"}, {"place_id": "0x390d19437cb628b3:0x12e71803eb09ac16", "name": "Clavax Technologies", "category": "Software company", "street": "727", "city": "Udyog Vihar, Phase 5", "phone": "+18444252829", "website": "http://www.clavax.com/", "rating": 4.1, "review_count": "", "latitude": 28.5052123, "longitude": 77.0850025, "maps_url": "https://www.google.com/maps/place/?q=place_id:0x390d19437cb628b3:0x12e71803eb09ac16"}, {"place_id": "0x390d1b03afd847d1:0x3f8589776214e47b", "name": "Techbizz - IT Solutions", "category": "Software company", "street": "1st floor", "city": "Najafgarh Kapashera Rd", "phone": "08130622472", "website": "", "rating": 5, "review_count": "", "latitude": 28.5325596, "longitude": 77.0540195, "maps_url": "https://www.google.com/maps/place/?q=place_id:0x390d1b03afd847d1:0x3f8589776214e47b"}, {"place_id": "0x390ce1877a5ef8eb:0xd5abb94a30425144", "name": "Plusone Technologies Private Limited", "category": "Software company", "street": "Phase IV, Udyog Vihar, Sector 18", "city": "Gurugram, Haryana 122015", "phone": "09891387094", "website": "https://www.plusonetech.co/", "rating": 4.7, "review_count": "", "latitude": 28.4941475, "longitude": 77.0808448, "maps_url": "https://www.google.com/maps/place/?q=place_id:0x390ce1877a5ef8eb:0xd5abb94a30425144"}, {"place_id": "0x390d1b03afd847d1:0x3f8589776214e47b", "name": "Techbizz - IT Solutions", "category": "Software company", "street": "1st floor", "city": "Najafgarh Kapashera Rd", "phone": "08130622472", "website": "", "rating": 5, "review_count": "", "latitude": 28.5325596, "longitude": 77.0540195, "maps_url": "https://www.google.com/maps/place/?q=place_id:0x390d1b03afd847d1:0x3f8589776214e47b"}, {"place_id": "0x390d195c26bfa369:0x69bd8efd2e3a31fe", "name": "Radical Minds Technologies Pvt. Ltd.", "category": "BPO Company", "street": "368", "city": "Phase II, Udyog Vihar, Sector 20", "phone": "01244338366", "website": "http://www.radicalminds.in/", "rating": 4.2, "review_count": "", "latitude": 28.506335099999998, "longitude": 77.0877546, "maps_url": "https://www.google.com/maps/place/?q=place_id:0x390d195c26bfa369:0x69bd8efd2e3a31fe"}, {"place_id": "0x390d1bce0358de9f:0xac68cdfb987df9d3", "name": "Hortizi Solutions", "category": "Interior plant service", "street": "Golak Dham, mandir", "city": "Near", "phone": "08882767278", "website": "http://www.hortizi.in/", "rating": 5, "review_count": "", "latitude": 28.545131899999998, "longitude": 77.049246, "maps_url": "https://www.google.com/maps/place/?q=place_id:0x390d1bce0358de9f:0xac68cdfb987df9d3"}, {"place_id": "0x390d1a493fffffff:0x9ef00bf32614e22c", "name": "Latway Packers And Movers", "category": "Storage facility", "street": "Address :- PLOE NO-18, H.NO-493, PLOT NO.318, NEAR PANCHAYAT GHAR, BHARTHAL", "city": "VILLAGE", "phone": "09311950119", "website": "http://www.latwaypackers.com/", "rating": 4.8, "review_count": "", "latitude": 28.5408832, "longitude": 77.0483639, "maps_url": "https://www.google.com/maps/place/?q=place_id:0x390d1a493fffffff:0x9ef00bf32614e22c"}, {"place_id": "0x390ce1877a5ef8eb:0xd5abb94a30425144", "name": "Plusone Technologies Private Limited", "category": "Software company", "street": "Phase IV, Udyog Vihar, Sector 18", "city": "Gurugram, Haryana 122015", "phone": "09891387094", "website": "https://www.plusonetech.co/", "rating": 4.7, "review_count": "", "latitude": 28.4941475, "longitude": 77.0808448, "maps_url": "https://www.google.com/maps/place/?q=place_id:0x390ce1877a5ef8eb:0xd5abb94a30425144"}, {"place_id": "0x29182cd90b477205:0xafbdc18388b8d100", "name": "Ananta Technology - IT Company", "category": "Web hosting company", "street": "RZB-214, Old Mehrauli Rd", "city": "Palam Colony, Part - I, Raj Nagar", "phone": "", "website": "https://anantatechnology.com/", "rating": 5, "review_count": "", "latitude": 28.584313899999998, "longitude": 77.0862543, "maps_url": "https://www.google.com/maps/place/?q=place_id:0x29182cd90b477205:0xafbdc18388b8d100"}, {"place_id": "0x390d1a4e40000001:0x2e76ff9b10e12f8b", "name": "Co Works City - Yashobhoomi", "category": "Coworking space", "street": "Plot no 497 Bharthal Village Dwarka sector 26 Opposite Yashobhoomi Gate. 1", "city": "New Delhi, Delhi 110077", "phone": "", "website": "http://coworkscity.com/", "rating": 4.7, "review_count": "", "latitude": 28.546776899999998, "longitude": 77.04725289999999, "maps_url": "https://www.google.com/maps/place/?q=place_id:0x390d1a4e40000001:0x2e76ff9b10e12f8b"}, {"place_id": "0x390d1b80aad367c7:0x2f3368c7b2fe6761", "name": "Boss Relocation India PvtLtd", "category": "Corporate office", "street": "Pole No-60A", "city": "Bharthal, Sector 26 Dwarka, Dwarka", "phone": "09990533367", "website": "https://bossrelocation.in/", "rating": 4.7, "review_count": "", "latitude": 28.542355999999998, "longitude": 77.0469203, "maps_url": "https://www.google.com/maps/place/?q=place_id:0x390d1b80aad367c7:0x2f3368c7b2fe6761"}, {"place_id": "0x390d1960c2b8367f:0xd2d30e45ac71acea", "name": "Vorombetech Solutions - Top IT & Digitalization Service Company in Gurugram", "category": "Software company", "street": "249", "city": "Phase IV, Udyog Vihar, Sector 19", "phone": "", "website": "https://vorombetech.com/", "rating": 4.8, "review_count": "", "latitude": 28.4941475, "longitude": 77.0808448, "maps_url": "https://www.google.com/maps/place/?q=place_id:0x390d1960c2b8367f:0xd2d30e45ac71acea"}, {"place_id": "0x390d1946a4b0d01f:0xab23cbaa408b3b9c", "name": "Tagbin Services Pvt. Ltd. \u2013 Best AI & Experiential Tech Company in Gurgaon", "category": "Software company", "street": "3rd Floor, Wing A, Enkay Centre", "city": "Vaniya Kunj", "phone": "08178112682", "website": "https://tagbin.in/", "rating": 4.2, "review_count": "", "latitude": 28.4974691, "longitude": 77.08654609999999, "maps_url": "https://www.google.com/maps/place/?q=place_id:0x390d1946a4b0d01f:0xab23cbaa408b3b9c"}, {"place_id": "0x390d1b0a3fcd1059:0x37a6e43c8453be9f", "name": "Indian Cargo Packers And Movers", "category": "Packaging company", "street": "Plot No. 356, Bharthal", "city": "near Syndicate Bank", "phone": "09992357427", "website": "https://indiancargopackersmovers.in/contact.html", "rating": 4.3, "review_count": "", "latitude": 28.542830499999997, "longitude": 77.04901439999999, "maps_url": "https://www.google.com/maps/place/?q=place_id:0x390d1b0a3fcd1059:0x37a6e43c8453be9f"}, {"place_id": "0x390d1b1444dfbb09:0xa8f4647f5da617bf", "name": "NoBroker Packers and Movers Dwarka", "category": "Packaging company", "street": "G2RX+M79", "city": "near Panchyat Ghar", "phone": "08306668725", "website": "https://www.nobroker.in/packers-and-movers-in-dwarka-delhi?utm_source=Google&utm_medium=Maps&utm_campaign=PnM_Local_Listing_New_Delhi_G2RX_M79_near_Panchyat_Ghar_Bharthal_Sector_26_Dwarka_Bharthal_New_Delhi_Delhi_110075", "rating": 3.7, "review_count": "", "latitude": 28.541840999999998, "longitude": 77.0483055, "maps_url": "https://www.google.com/maps/place/?q=place_id:0x390d1b1444dfbb09:0xa8f4647f5da617bf"}, {"place_id": "0x20616dbf813c03ef:0xc8fd1ca47f902e9e", "name": "Bloatware IT Software Company | website Designing Company | Software Company | MLM |CRM | Android Apps", "category": "Software company", "street": "C1", "city": "Rama Park", "phone": "08920750797", "website": "https://bloatwareitsolutions.com/", "rating": 4.5, "review_count": "", "latitude": 28.621265599999997, "longitude": 77.0324943, "maps_url": "https://www.google.com/maps/place/?q=place_id:0x20616dbf813c03ef:0xc8fd1ca47f902e9e"}, {"place_id": "0x390d1b9ddfccb265:0xb589ee8b4aaaa57c", "name": "50 Hertz Limited", "category": "Software company", "street": "Corporate Park", "city": "303, 3rd Floor, D21", "phone": "01140110747", "website": "https://www.50hertz.in/", "rating": 4.6, "review_count": "", "latitude": 28.5618181, "longitude": 77.0670596, "maps_url": "https://www.google.com/maps/place/?q=place_id:0x390d1b9ddfccb265:0xb589ee8b4aaaa57c"}, {"place_id": "0x390d192fc20b97e7:0x3048b25634f6d955", "name": "Nagarro", "category": "Software company", "street": "Plot 6B, Sub. Major Laxmi Chand Rd", "city": "Maruti Udyog, Sector 18", "phone": "", "website": "https://www.nagarro.com/en", "rating": 4.5, "review_count": "", "latitude": 28.491098599999997, "longitude": 77.0673492, "maps_url": "https://www.google.com/maps/place/?q=place_id:0x390d192fc20b97e7:0x3048b25634f6d955"}, {"place_id": "0x390ce3b5c2a11543:0xc4df0cd95534bf85", "name": "LimeTray", "category": "Software company", "street": "2nd Floor", "city": "815", "phone": "", "website": "https://limetray.com/", "rating": 3.6, "review_count": "", "latitude": 28.5015508, "longitude": 77.08626919999999, "maps_url": "https://www.google.com/maps/place/?q=place_id:0x390ce3b5c2a11543:0xc4df0cd95534bf85"}, {"place_id": "0x390d1a4e85c01b3d:0xf8cf1b2affc116a6", "name": "Sahara Relocation Packers And Movers", "category": "Logistics service", "street": "Farst Floor", "city": "Manish Global Mall", "phone": "09990631115", "website": "https://www.saharapackersmover.com/", "rating": 4.4, "review_count": "", "latitude": 28.546651699999998, "longitude": 77.0500619, "maps_url": "https://www.google.com/maps/place/?q=place_id:0x390d1a4e85c01b3d:0xf8cf1b2affc116a6"}, {"place_id": "0x390d198f62c557d7:0x4b037444663d7f50", "name": "Triyuga Soft Tech Pvt Ltd | IT Company in Gurgaon | Digital Marketing Company in Gurgaon", "category": "Software company", "street": "Shop No : 4", "city": "Main, Bajghera Rd", "phone": "09999699936", "website": "https://www.triyugasofttech.com/", "rating": "", "review_count": "", "latitude": 28.495755199999998, "longitude": 77.011887, "maps_url": "https://www.google.com/maps/place/?q=place_id:0x390d198f62c557d7:0x4b037444663d7f50"}, {"place_id": "0x390d1a493fffffff:0x5cf43186212aaaec", "name": "Kushagra Packers And Movers", "category": "Corporate office", "street": "Shop Near Pole No-J-888,Old Pole No-17", "city": "Bharthal Village, Bharthal", "phone": "09540711100", "website": "", "rating": 3.1, "review_count": "", "latitude": 28.542728, "longitude": 77.049206, "maps_url": "https://www.google.com/maps/place/?q=place_id:0x390d1a493fffffff:0x5cf43186212aaaec"}, {"place_id": "0x390d1a493fffffff:0xb25a51582951751e", "name": "Accord Movers", "category": "Moving service", "street": "Plot no. 516", "city": "near canera bank", "phone": "08882488814", "website": "http://accordmovers.in/", "rating": 5, "review_count": "", "latitude": 28.542727799999998, "longitude": 77.04920589999999, "maps_url": "https://www.google.com/maps/place/?q=place_id:0x390d1a493fffffff:0xb25a51582951751e"}, {"place_id": "0x390d1bcb2d006f1d:0x83ded1552f902fa4", "name": "Emiza Supply Chain Services Pvt. Ltd", "category": "Warehouse", "street": "715", "city": "Nayak Pura, Bijwasan", "phone": "08097448884", "website": "http://www.emizainc.com/", "rating": 4.1, "review_count": "", "latitude": 28.535572, "longitude": 77.0568334, "maps_url": "https://www.google.com/maps/place/?q=place_id:0x390d1bcb2d006f1d:0x83ded1552f902fa4"}, {"place_id": "0x390d19361c56cecd:0x50517af3dc928d70", "name": "Mycom", "category": "Software company", "street": "7th Floor", "city": "Building 8b", "phone": "01244508000", "website": "http://www.mycom-osi.com/", "rating": 4.3, "review_count": "", "latitude": 28.4982059, "longitude": 77.0900367, "maps_url": "https://www.google.com/maps/place/?q=place_id:0x390d19361c56cecd:0x50517af3dc928d70"}, {"place_id": "0x390d19404f4f65d5:0xc7a5e785eb2e8ef6", "name": "Infodart Technologies Ltd", "category": "Software company", "street": "2nd floor", "city": "plot no 254", "phone": "", "website": "https://www.infodartglobal.com/", "rating": 4, "review_count": "", "latitude": 28.4979135, "longitude": 77.0815518, "maps_url": "https://www.google.com/maps/place/?q=place_id:0x390d19404f4f65d5:0xc7a5e785eb2e8ef6"}, {"place_id": "0x390d1b34a7aa6771:0xa95b284ad63b6330", "name": "Fast Packers And Movers", "category": "Moving service", "street": "Poll No", "city": "59B", "phone": "09319876002", "website": "http://www.fastpackersandmovers.in/", "rating": 4.7, "review_count": "", "latitude": 28.5435841, "longitude": 77.0515245, "maps_url": "https://www.google.com/maps/place/?q=place_id:0x390d1b34a7aa6771:0xa95b284ad63b6330"}, {"place_id": "0x390d190b8996b54d:0xa4d9ad7263547701", "name": "Company", "category": "Corporate office", "street": "The Coworking Space", "city": "A-14/15 DLF Phase 1, Sector 26 A Truworx", "phone": "01140844560", "website": "https://www.quickcompany.in/", "rating": 4.1, "review_count": "", "latitude": 28.474366699999997, "longitude": 77.0943154, "maps_url": "https://www.google.com/maps/place/?q=place_id:0x390d190b8996b54d:0xa4d9ad7263547701"}, {"place_id": "0x390d1b06e4fb2fa7:0x2abeeaa55794234", "name": "Starline Enterprises", "category": "Clothing store", "street": "GF Shop", "city": "No 1", "phone": "09870410102", "website": "http://starlinebeyond.com/", "rating": 5, "review_count": "", "latitude": 28.5447612, "longitude": 77.05097409999999, "maps_url": "https://www.google.com/maps/place/?q=place_id:0x390d1b06e4fb2fa7:0x2abeeaa55794234"}, {"place_id": "0x390d1a493fffffff:0xc906ab7c0130ab76", "name": "VCS Packers & Movers", "category": "Logistics service", "street": "Khasra No:266", "city": "Sector 26", "phone": "08882639410", "website": "http://vcspackersmovers.com/", "rating": 4.6, "review_count": "", "latitude": 28.542727799999998, "longitude": 77.04920589999999, "maps_url": "https://www.google.com/maps/place/?q=place_id:0x390d1a493fffffff:0xc906ab7c0130ab76"}, {"place_id": "0x390d1bfb21fa970f:0x966b356cb2b32cbd", "name": "DLF Safe Packers and Movers", "category": "Packaging company", "street": "Plot no 350", "city": "near Little Birds Convent School", "phone": "", "website": "https://www.dlfsafepackers.in/", "rating": 5, "review_count": "", "latitude": 28.542727799999998, "longitude": 77.04920589999999, "maps_url": "https://www.google.com/maps/place/?q=place_id:0x390d1bfb21fa970f:0x966b356cb2b32cbd"}, {"place_id": "0x390d1b2440000001:0x7b52a88f21fc0d82", "name": "DesignDot Technologies | #1 Best Website & App Development | Top Software & AIML Solutions Company in Delhi", "category": "Software company", "street": "RZ 1/13, 3RD FLOOR, Main Road Above HDFC Bank, Dwarka, Near Palam Metro Gate 2", "city": "New Delhi, Delhi 110077", "phone": "09999652812", "website": "https://www.designdot.co.in/", "rating": 5, "review_count": "", "latitude": 28.587238199999998, "longitude": 77.0850727, "maps_url": "https://www.google.com/maps/place/?q=place_id:0x390d1b2440000001:0x7b52a88f21fc0d82"}, {"place_id": "0x390d1a493fffffff:0x5cf43186212aaaec", "name": "Kushagra Packers And Movers", "category": "Corporate office", "street": "Shop Near Pole No-J-888,Old Pole No-17", "city": "Bharthal Village, Bharthal", "phone": "09540711100", "website": "", "rating": 3.1, "review_count": "", "latitude": 28.542728, "longitude": 77.049206, "maps_url": "https://www.google.com/maps/place/?q=place_id:0x390d1a493fffffff:0x5cf43186212aaaec"}, {"place_id": "0x390d1a4c75eb83d7:0xbc831f08945f8afa", "name": "A K Cyber Point", "category": "Store", "street": "Shop No 1", "city": "Bharthal, Bharthal Village, Bharthal", "phone": "09015279371", "website": "", "rating": 4.1, "review_count": "", "latitude": 28.5446244, "longitude": 77.0522931, "maps_url": "https://www.google.com/maps/place/?q=place_id:0x390d1a4c75eb83d7:0xbc831f08945f8afa"}, {"place_id": "0x390d1917379d3b71:0xd150edb6567b3cfe", "name": "Xindus Trade Networks Private Limited", "category": "Software company", "street": "First Floor", "city": "Plot No. 89", "phone": "09540159595", "website": "https://www.xindus.net/", "rating": 4.1, "review_count": "", "latitude": 28.547878299999997, "longitude": 77.03239409999999, "maps_url": "https://www.google.com/maps/place/?q=place_id:0x390d1917379d3b71:0xd150edb6567b3cfe"}, {"place_id": "0x390d193854a9b805:0xeb675c7a6d5768f7", "name": "Cvent India", "category": "Software company", "street": "19th Floor Building", "city": "No.14C", "phone": "0008001008934", "website": "https://careers.cvent.com/", "rating": 4.3, "review_count": "", "latitude": 28.4968638, "longitude": 77.0941567, "maps_url": "https://www.google.com/maps/place/?q=place_id:0x390d193854a9b805:0xeb675c7a6d5768f7"}, {"place_id": "0x390d1bcd76384d39:0xdb32f9430e255f8e", "name": "WINISHTECH IT SOLUTIONS PRIVATE LIMITED", "category": "Software company", "street": "B1/639 A", "city": "Janakpuri West, Block B1, Janakpuri", "phone": "", "website": "https://winishtechitsolutions.com/", "rating": 5, "review_count": "", "latitude": 28.6324707, "longitude": 77.0857044, "maps_url": "https://www.google.com/maps/place/?q=place_id:0x390d1bcd76384d39:0xdb32f9430e255f8e"}, {"place_id": "0x390d1bb43323f61b:0x20a8acc8f4ea2611", "name": "Safe Logistics Cargo Movers", "category": "Packaging company", "street": "H. No. 493 Shop", "city": "1", "phone": "09896185001", "website": "http://safelogisticcargomovers.in/", "rating": 3.7, "review_count": "", "latitude": 28.5484519, "longitude": 77.04925039999999, "maps_url": "https://www.google.com/maps/place/?q=place_id:0x390d1bb43323f61b:0x20a8acc8f4ea2611"}, {"place_id": "0x390d193c3a36e523:0xe68f8d2568faeaad", "name": "Espire Infolabs Pvt. Ltd.", "category": "Software company", "street": "486 & 487", "city": "Phase III, Udyog Vihar III, Sector 20", "phone": "01247173000", "website": "http://www.espire.com/", "rating": 4.1, "review_count": "", "latitude": 28.5119516, "longitude": 77.0899661, "maps_url": "https://www.google.com/maps/place/?q=place_id:0x390d193c3a36e523:0xe68f8d2568faeaad"}, {"place_id": "0x390d19c4f81c373b:0x569790526001fe47", "name": "Pasenture Technologies - Web Development Company in Gurugram, Software Development Company in Gurgaon for CRM & Saas Software", "category": "Software company", "street": "2nd Floor", "city": "90, IDC", "phone": "09717197498", "website": "https://pasenture.in/", "rating": 4, "review_count": "", "latitude": 28.4716508, "longitude": 77.0509349, "maps_url": "https://www.google.com/maps/place/?q=place_id:0x390d19c4f81c373b:0x569790526001fe47"}, {"place_id": "0x390d19ad585bba37:0xc7a1380f3c30571a", "name": "Wroffy Technologies Pvt Ltd", "category": "Software company", "street": "304", "city": "Vipul Business Park", "phone": "01244349014", "website": "https://www.wroffy.com/", "rating": 4.3, "review_count": "", "latitude": 28.4226457, "longitude": 77.0376039, "maps_url": "https://www.google.com/maps/place/?q=place_id:0x390d19ad585bba37:0xc7a1380f3c30571a"}, {"place_id": "0x390d19b51e5edf49:0xd17618454eb66b58", "name": "STERLING MANUFACTURING COMPANY", "category": "Manufacturer", "street": "2nd Floor", "city": "249", "phone": "09310644419", "website": "https://sterlingmfgco.com/", "rating": 4.8, "review_count": "", "latitude": 28.498040099999997, "longitude": 77.0824007, "maps_url": "https://www.google.com/maps/place/?q=place_id:0x390d19b51e5edf49:0xd17618454eb66b58"}, {"place_id": "0x390d1f4effffffff:0xcfc715ac63417946", "name": "Bechtel India Private Limited", "category": "Corporate office", "street": "244-245", "city": "Phase IV, Udyog Vihar, Knowledge Park", "phone": "01244098000", "website": "http://www.bechtel.com/", "rating": 4.4, "review_count": "", "latitude": 28.4956277, "longitude": 77.0839426, "maps_url": "https://www.google.com/maps/place/?q=place_id:0x390d1f4effffffff:0xcfc715ac63417946"}, {"place_id": "0x390d195b180061c3:0xbc2dc26222ba3801", "name": "Team Computers Pvt Ltd", "category": "Software company", "street": "5th floor", "city": "Plot no. 278", "phone": "18001024200", "website": "https://www.teamcomputers.com/", "rating": 4.3, "review_count": "", "latitude": 28.508890599999997, "longitude": 77.087429, "maps_url": "https://www.google.com/maps/place/?q=place_id:0x390d195b180061c3:0xbc2dc26222ba3801"}, {"place_id": "0x390d1df0721e08c5:0x49d5fd4648a33c2d", "name": "Nibble Software | Website Design & Development | Travel Web API & CRM | SEO, SMO, Paid Ads, Amazon & Flipkart Marketing", "category": "Website designer", "street": "4th Floor", "city": "Moolchand Tower", "phone": "09971066697", "website": "https://www.nibblesoftware.com/", "rating": 4.8, "review_count": "", "latitude": 28.6000862, "longitude": 77.0818018, "maps_url": "https://www.google.com/maps/place/?q=place_id:0x390d1df0721e08c5:0x49d5fd4648a33c2d"}, {"place_id": "0x390cfc13e34b8ea1:0x482abe6fb68aede7", "name": "Techindia Infotech", "category": "Internet marketing service", "street": "Ground floor", "city": "Pocket 7", "phone": "", "website": "https://www.techindiainfotech.com/", "rating": 4.5, "review_count": "", "latitude": 28.5605801, "longitude": 77.04042199999999, "maps_url": "https://www.google.com/maps/place/?q=place_id:0x390cfc13e34b8ea1:0x482abe6fb68aede7"}, {"place_id": "0x390d1b00746b4937:0x806e4985457ae237", "name": "Velca Racking Systems Pvt Ltd", "category": "Manufacturer", "street": "Northern Peripheral Rd", "city": "Bharthal, Sector 26 Dwarka, Bharthal", "phone": "09311959529", "website": "http://www.velcaracks.com/", "rating": 4.7, "review_count": "", "latitude": 28.540288699999998, "longitude": 77.05240409999999, "maps_url": "https://www.google.com/maps/place/?q=place_id:0x390d1b00746b4937:0x806e4985457ae237"}, {"place_id": "0x4156579e876131e7:0x356c887f8dac5e97", "name": "Haaditech Private Limited", "category": "Software company", "street": "Gate No. 04", "city": "Ambience Mall", "phone": "", "website": "https://www.haaditech.com/", "rating": 5, "review_count": "", "latitude": 28.5057491, "longitude": 77.0960972, "maps_url": "https://www.google.com/maps/place/?q=place_id:0x4156579e876131e7:0x356c887f8dac5e97"}, {"place_id": "0x390d1959e54e0cdb:0x7120a86a0b29095e", "name": "Gurgaon SEO Company", "category": "Website designer", "street": "First Floor Plot", "city": "270, Udyog Vihar II Rd", "phone": "", "website": "", "rating": 2, "review_count": "", "latitude": 28.5074082, "longitude": 77.08512379999999, "maps_url": "https://www.google.com/maps/place/?q=place_id:0x390d1959e54e0cdb:0x7120a86a0b29095e"}, {"place_id": "0x390d195e96bb4105:0xfba8615a67d65660", "name": "Onkar Infotech", "category": "BPO Company", "street": "117", "city": "Udyog Vihar Phase 1, Udyog Vihar, Sector 20", "phone": "01244004742", "website": "http://www.onkarinfotech.com/", "rating": 3.9, "review_count": "", "latitude": 28.5137038, "longitude": 77.0832096, "maps_url": "https://www.google.com/maps/place/?q=place_id:0x390d195e96bb4105:0xfba8615a67d65660"}, {"place_id": "0x390d1a4bb47faa7f:0x5f7f20debfc5648a", "name": "Dtc Express Packers & Movers", "category": "Storage facility", "street": "Pole No. J", "city": "85", "phone": "", "website": "", "rating": 4.8, "review_count": "", "latitude": 28.541785599999997, "longitude": 77.0524781, "maps_url": "https://www.google.com/maps/place/?q=place_id:0x390d1a4bb47faa7f:0x5f7f20debfc5648a"}, {"place_id": "0x390d1b3c7aaaaaab:0xcc0116b944b8452c", "name": "ESIGN WEB SERVICES PVT LTD", "category": "Website designer", "street": "3rd Floor", "city": "Plot No 24", "phone": "09718099999", "website": "https://www.esignwebservices.com/", "rating": 4.7, "review_count": "", "latitude": 28.5857121, "longitude": 77.0494913, "maps_url": "https://www.google.com/maps/place/?q=place_id:0x390d1b3c7aaaaaab:0xcc0116b944b8452c"}, {"place_id": "0x390d1915fa5d766d:0x1d92c0eb013cd4f2", "name": "FIS Global Business Solutions India Pvt. Ltd.", "category": "Corporate office", "street": "402, I Park, Plot No. 15", "city": "Phase IV", "phone": "01243927500", "website": "https://www.fisglobal.com/", "rating": 4.1, "review_count": "", "latitude": 28.490092899999997, "longitude": 77.078841, "maps_url": "https://www.google.com/maps/place/?q=place_id:0x390d1915fa5d766d:0x1d92c0eb013cd4f2"}, {"place_id": "0x390d1bc061d08815:0x9b7a3b50784239d4", "name": "D Agarwal Packers And Movers Delhi", "category": "Packaging company", "street": "Plot, H.NO-452, KH NO.376, V.P.O", "city": "Second Floor Right Side", "phone": "07206671201", "website": "https://dagarwalpackers.com/", "rating": 4.6, "review_count": "", "latitude": 28.5431134, "longitude": 77.0450838, "maps_url": "https://www.google.com/maps/place/?q=place_id:0x390d1bc061d08815:0x9b7a3b50784239d4"}, {"place_id": "0x390ce58c7403e0a1:0x2a35ba3fcd3ecb95", "name": "Akhil Systems Pvt Ltd - Electronic Medical Records Software, Best Hospital Software India, Hospital Management Software", "category": "Software company", "street": "5th Floor", "city": "Incuspaze Building", "phone": "08448799453", "website": "https://akhilsystems.com/", "rating": 3.4, "review_count": "", "latitude": 28.4914019, "longitude": 77.0771321, "maps_url": "https://www.google.com/maps/place/?q=place_id:0x390ce58c7403e0a1:0x2a35ba3fcd3ecb95"}, {"place_id": "0x390d1a493fffffff:0x29f365a76887fb1d", "name": "SHIVAM EXPRESS PACKERS & MOVERS", "category": "Corporate office", "street": "1st floor", "city": "Plot no. 351", "phone": "09513888861", "website": "http://shivamexpresspacker.com/", "rating": 5, "review_count": "", "latitude": 28.542727799999998, "longitude": 77.04920589999999, "maps_url": "https://www.google.com/maps/place/?q=place_id:0x390d1a493fffffff:0x29f365a76887fb1d"}, {"place_id": "0x390d19158765706b:0x7940981b18929c00", "name": "Infogix International Pvt. Ltd.", "category": "Software company", "street": "5 th floor", "city": "Tower 10", "phone": "01244802900", "website": "https://www.infogix.com/", "rating": 4, "review_count": "", "latitude": 28.4945511, "longitude": 77.08714619999999, "maps_url": "https://www.google.com/maps/place/?q=place_id:0x390d19158765706b:0x7940981b18929c00"}, {"place_id": "0x390d19437e719739:0x14737a286b425c55", "name": "Mediology Software", "category": "Software company", "street": "Tower B, 4th Floor", "city": "ASF Towers", "phone": "01244747500", "website": "https://www.mediologysoftware.com/", "rating": 4.1, "review_count": "", "latitude": 28.4966176, "longitude": 77.0842566, "maps_url": "https://www.google.com/maps/place/?q=place_id:0x390d19437e719739:0x14737a286b425c55"}, {"place_id": "0x390d1a4bb4a6881d:0x480f3907dea9db06", "name": "UNITRANS PACKERS & MOVERS", "category": "Storage facility", "street": "Bharthal, Bharthal Village, Bharthal", "city": "Delhi, 110077", "phone": "08882005008", "website": "", "rating": 5, "review_count": "", "latitude": 28.541650399999998, "longitude": 77.05246919999999, "maps_url": "https://www.google.com/maps/place/?q=place_id:0x390d1a4bb4a6881d:0x480f3907dea9db06"}, {"place_id": "0x390d1bb5993e24dd:0x44788a62f9299cf5", "name": "Shukla Upvc Craft Pvt. Ltd", "category": "Door manufacturer", "street": "Nearest metro station", "city": "Sector 25 near Heavy zone gym Bharthal Village", "phone": "07011407294", "website": "http://shuklaupvccraft.com/", "rating": 4.8, "review_count": "", "latitude": 28.5443225, "longitude": 77.0469265, "maps_url": "https://www.google.com/maps/place/?q=place_id:0x390d1bb5993e24dd:0x44788a62f9299cf5"}, {"place_id": "0x390d1be2cd16ad57:0x7a5bc020e7f40d27", "name": "KUNJ SECURITY SYSTEM", "category": "Computer security service", "street": "sai baba mandir", "city": "Sai Baba mandir", "phone": "", "website": "", "rating": "", "review_count": "", "latitude": 28.5459128, "longitude": 77.047964, "maps_url": "https://www.google.com/maps/place/?q=place_id:0x390d1be2cd16ad57:0x7a5bc020e7f40d27"}, {"place_id": "0x390d19bfbf51a3c3:0xbb504a2fdd8f2c51", "name": "Standup Startup Pvt Ltd", "category": "Software company", "street": "Appicia, TVS Rd", "city": "Block H, Ashok Vihar Phase III Extension", "phone": "08432644183", "website": "https://standupstartup.in/", "rating": 5, "review_count": "", "latitude": 28.4996461, "longitude": 77.02719669999999, "maps_url": "https://www.google.com/maps/place/?q=place_id:0x390d19bfbf51a3c3:0xbb504a2fdd8f2c51"}, {"place_id": "0x390d19afd1d64805:0xdc0ff76292f115a0", "name": "ichhapurti Corporate Office", "category": "E-commerce service", "street": "GGJ SOLUTIONS PVT. LTD, Plot No. 112, 3rd Floor", "city": "Udyog Vihar, Phase I, Sector 20", "phone": "", "website": "", "rating": 3.3, "review_count": "", "latitude": 28.5147753, "longitude": 77.0848065, "maps_url": "https://www.google.com/maps/place/?q=place_id:0x390d19afd1d64805:0xdc0ff76292f115a0"}]}