{"timestamp": 1773733424.2853034, "keyword": "IT company", "location": "Indore", "cell_idx": 41, "results": [{"place_id": "0x3962fb9e7ee26cd1:0x6e8b064681fc929b", "name": "Ozlo IT Services Pvt Ltd", "category": "Software company", "street": "Nakoda Apt", "city": "203", "phone": "07389028888", "website": "https://www.ozloits.com/", "rating": 4.9, "review_count": "", "latitude": 22.646292, "longitude": 75.8283652, "maps_url": "https://www.google.com/maps/place/?q=place_id:0x3962fb9e7ee26cd1:0x6e8b064681fc929b"}, {"place_id": "0x3962fd71266aaa83:0x82398caa17930a40", "name": "Octavian InfoTech LLP", "category": "Software company", "street": "A 41 Ayodhya Puri", "city": "Kodriya", "phone": "09977741168", "website": "https://www.octavianinfotech.com/", "rating": 5, "review_count": "", "latitude": 22.537258599999998, "longitude": 75.7726136, "maps_url": "https://www.google.com/maps/place/?q=place_id:0x3962fd71266aaa83:0x82398caa17930a40"}, {"place_id": "0x3962fbe2776846d3:0x99a7ea634a997a68", "name": "Pushkal IT Solution (owner Divya Dubey )", "category": "Software company", "street": "Sai Vihar Colony, Rau", "city": "Indore, Madhya Pradesh 453331", "phone": "07314878045", "website": "http://www.pushkalit.com/", "rating": 4.1, "review_count": "", "latitude": 22.633637, "longitude": 75.807174, "maps_url": "https://www.google.com/maps/place/?q=place_id:0x3962fbe2776846d3:0x99a7ea634a997a68"}, {"place_id": "0x390ce458d0000001:0xf2123bd299ec4501", "name": "IT Company India", "category": "Software company", "street": "D56", "city": "D Block, Sector 10", "phone": "09999244854", "website": "https://www.itcompanyindia.in/", "rating": 4.7, "review_count": "", "latitude": 28.589917699999997, "longitude": 77.3351153, "maps_url": "https://www.google.com/maps/place/?q=place_id:0x390ce458d0000001:0xf2123bd299ec4501"}, {"place_id": "0x3962fb0e50ec276f:0xef677c5d30e8edda", "name": "Viami Global Services LLP", "category": "Software company", "street": "454, N Block, Silicon City", "city": "Road", "phone": "09075007690", "website": "https://viami.co.in/", "rating": 4.9, "review_count": "", "latitude": 22.649313, "longitude": 75.8281813, "maps_url": "https://www.google.com/maps/place/?q=place_id:0x3962fb0e50ec276f:0xef677c5d30e8edda"}, {"place_id": "0x3962fbe8afbe2b99:0x4e9292db9a3f1152", "name": "Vigility Technologies Pvt Ltd", "category": "Software company", "street": "279, Vrindavan Street, Line no. 8", "city": "Shiv City", "phone": "07314275588", "website": "https://www.vigility.in/", "rating": 5, "review_count": "", "latitude": 22.6505044, "longitude": 75.8325826, "maps_url": "https://www.google.com/maps/place/?q=place_id:0x3962fbe8afbe2b99:0x4e9292db9a3f1152"}, {"place_id": "0x3962fb2d779beb81:0x2a79d443a30878c9", "name": "Shikha Innovative IT Solution Pvt Ltd", "category": "Software company", "street": "Flat No 405", "city": "Block B", "phone": "", "website": "https://www.shikhainnovative.in/", "rating": 5, "review_count": "", "latitude": 22.6137773, "longitude": 75.8095991, "maps_url": "https://www.google.com/maps/place/?q=place_id:0x3962fb2d779beb81:0x2a79d443a30878c9"}, {"place_id": "0x3be7c21b5901e181:0x7fe794585addc1f6", "name": "Smartinfologiks - Software Development Company in India | IT Solutions", "category": "Software company", "street": "Hilton Center", "city": "514", "phone": "07400064691", "website": "https://www.smartinfologiks.com/", "rating": 4.6, "review_count": "", "latitude": 19.0139592, "longitude": 73.0382705, "maps_url": "https://www.google.com/maps/place/?q=place_id:0x3be7c21b5901e181:0x7fe794585addc1f6"}, {"place_id": "0x39629b8170fda0bf:0xda674acf28fe98df", "name": "Hardik SoftTech", "category": "Software company", "street": "Infront of Vishal Motors", "city": "Pipalgone Rd", "phone": "09630787397", "website": "https://hardiksofttech.com/", "rating": 5, "review_count": "", "latitude": 22.1028676, "longitude": 75.9485346, "maps_url": "https://www.google.com/maps/place/?q=place_id:0x39629b8170fda0bf:0xda674acf28fe98df"}, {"place_id": "0x3bc2becdc35b6937:0x515ac559c349eee3", "name": "Thinkitive Technologies Private Limited", "category": "Software company", "street": "4th Floor", "city": "ABIL IMPERIAL COMMERCIAL SPACES", "phone": "08956467327", "website": "https://www.thinkitive.com/", "rating": 3.9, "review_count": "", "latitude": 18.5563888, "longitude": 73.7729748, "maps_url": "https://www.google.com/maps/place/?q=place_id:0x3bc2becdc35b6937:0x515ac559c349eee3"}, {"place_id": "0x3962e7120255878b:0xb42bc41f83831f1", "name": "Vaidik Ecosystems Pvt. Ltd.", "category": "Business management consultant", "street": "Srijan Ground Floor Crystal IT Park", "city": "Indore, Madhya Pradesh 452020", "phone": "09993987422", "website": "http://www.vaidikecosystems.com/", "rating": 5, "review_count": "", "latitude": 22.606925699999998, "longitude": 76.0215904, "maps_url": "https://www.google.com/maps/place/?q=place_id:0x3962e7120255878b:0xb42bc41f83831f1"}, {"place_id": "0x3962fd40bddad7e9:0x72758eb1ac441977", "name": "Rambina Infotech Pvt. Ltd.", "category": "Internet marketing service", "street": "SS City", "city": "L-02 S Sector", "phone": "09111156555", "website": "https://rambina.com/", "rating": 5, "review_count": "", "latitude": 22.6501982, "longitude": 75.8387657, "maps_url": "https://www.google.com/maps/place/?q=place_id:0x3962fd40bddad7e9:0x72758eb1ac441977"}, {"place_id": "0x3962f9236d105caf:0xbbc3c9013b8d48dc", "name": "Compli-Tech - Startup Consultant | Company Registration | Website Designing | Ecommerce Website Development", "category": "Business management consultant", "street": "Malwa Complex", "city": "88", "phone": "09302151441", "website": "https://compli-tech.odoo.com/", "rating": "", "review_count": "", "latitude": 22.5676845, "longitude": 75.7600538, "maps_url": "https://www.google.com/maps/place/?q=place_id:0x3962f9236d105caf:0xbbc3c9013b8d48dc"}, {"place_id": "0x3962e4fc3e534d7d:0x8b28eddbdf10d6fd", "name": "Flavorite Technologies", "category": "Food machinery supplier", "street": "Khasra No. 50/1, Tillorekhurd", "city": "Indore, Madhya Pradesh 452020", "phone": "08878111150", "website": "http://flavoritetechnologies.com/", "rating": 4.5, "review_count": "", "latitude": 22.618402, "longitude": 75.93977799999999, "maps_url": "https://www.google.com/maps/place/?q=place_id:0x3962e4fc3e534d7d:0x8b28eddbdf10d6fd"}, {"place_id": "0x3962fb94fc28ce15:0x775c0704a9c3d320", "name": "intevest", "category": "Software company", "street": "", "city": "", "phone": "", "website": "", "rating": 5, "review_count": "", "latitude": 21.0680074, "longitude": 82.7525294, "maps_url": "https://www.google.com/maps/place/?q=place_id:0x3962fb94fc28ce15:0x775c0704a9c3d320"}, {"place_id": "0x9b11f92b7f68547:0x586dbc90a7ad0040", "name": "Devonix Tech", "category": "Software company", "street": "", "city": "", "phone": "07747911593", "website": "https://devonixtech.netlify.app/", "rating": 5, "review_count": "", "latitude": 14.157641199999999, "longitude": 9.2565711, "maps_url": "https://www.google.com/maps/place/?q=place_id:0x9b11f92b7f68547:0x586dbc90a7ad0040"}, {"place_id": "0x3962fb2a008d3de5:0x352eeb43f166a053", "name": "Kehems Technologies Pvt Ltd.", "category": "HVAC contractor", "street": "12th K. M", "city": "Indore - Khandwa Rd", "phone": "07314228306", "website": "http://kehems.com/", "rating": 4.2, "review_count": "", "latitude": 22.6102533, "longitude": 75.8942004, "maps_url": "https://www.google.com/maps/place/?q=place_id:0x3962fb2a008d3de5:0x352eeb43f166a053"}, {"place_id": "0x3962fb706198f3cf:0x23e20adbe44a7e31", "name": "Tech Lancers", "category": "Website designer", "street": "05 Gayatri Nagar, Narmada Road", "city": "AB Rd", "phone": "09669696223", "website": "https://techlancers.in/", "rating": 5, "review_count": "", "latitude": 22.632776, "longitude": 75.8114682, "maps_url": "https://www.google.com/maps/place/?q=place_id:0x3962fb706198f3cf:0x23e20adbe44a7e31"}, {"place_id": "0x3962fce330e1541b:0x125ef4cec09bea4e", "name": "Twarak Infotech Pvt Ltd", "category": "Software company", "street": "201 Sankalp 1", "city": "Chinar Residency, Kishanganj", "phone": "08770604745", "website": "https://www.twarakinfotech.com/", "rating": 4.5, "review_count": "", "latitude": 22.5789062, "longitude": 75.77662269999999, "maps_url": "https://www.google.com/maps/place/?q=place_id:0x3962fce330e1541b:0x125ef4cec09bea4e"}, {"place_id": "0x3962e55f9afb01a5:0xa908d4803d9c573c", "name": "Grow Tech website Designing and Developement Company Indore", "category": "Website designer", "street": "BUSINESS PARK", "city": "AB, Indore Bypass Rd", "phone": "07746006410", "website": "https://growtechservices.com/", "rating": 5, "review_count": "", "latitude": 22.6577672, "longitude": 75.9091621, "maps_url": "https://www.google.com/maps/place/?q=place_id:0x3962e55f9afb01a5:0xa908d4803d9c573c"}]}