[{"place_id": "ChIJL4BtX1wdDTkRIiNTpELCuuM", "name": "Nobilitas Infotech Pvt. Ltd. - IT Solutions Company", "street": "Padma Tower II, 210, Rajendra Place, New Delhi, Delhi 110005, India", "phone": "+91 84483 84926", "rating": "5", "review_count": "", "website": "https://www.nobilitasinfotech.com/", "latitude": 28.6451836, "longitude": 77.1780375, "maps_url": "https://www.google.com/maps/search/?api=1&query=Nobilitas%20Infotech%20Pvt.%20Ltd.%20-%20IT%20Solutions%20Company&query_place_id=ChIJL4BtX1wdDTkRIiNTpELCuuM"}, {"place_id": "ChIJL955hJYCDTkREqQASrd_gPQ", "name": "Tick Softwares Ltd.", "street": "1207, Pragati Tower, 26, Prasad Nagar, Rajendra Place, New Delhi, Delhi, 110008, India", "phone": "+91 75330 16990", "rating": "4.5", "review_count": "", "website": "http://ticksoftwares.in/", "latitude": 28.645996, "longitude": 77.1773839, "maps_url": "https://www.google.com/maps/search/?api=1&query=Tick%20Softwares%20Ltd.&query_place_id=ChIJL955hJYCDTkREqQASrd_gPQ"}, {"place_id": "ChIJA6KtL5kCDTkR7wFe_OSD2bE", "name": "Omniscient IT Solutions Pvt. Ltd", "street": "4, 28, Saraswati Marg, Block 15A, WEA, Karol Bagh, New Delhi, Delhi, 110005, India", "phone": "+91 98110 27310", "rating": "4.6", "review_count": "", "website": "https://www.omniscientitsolutions.com/", "latitude": 28.646959, "longitude": 77.1882229, "maps_url": "https://www.google.com/maps/search/?api=1&query=Omniscient%20IT%20Solutions%20Pvt.%20Ltd&query_place_id=ChIJA6KtL5kCDTkR7wFe_OSD2bE"}, {"place_id": "ChIJ____ewXiDDkRWkRWfPl6bfA", "name": "BNG Infotech Private Limited", "street": "509-511 Gagandeep Building, Rajendra Place, New Delhi, Delhi 110008, India", "phone": "+91 81006 41006", "rating": "4.4", "review_count": "", "website": "https://www.bng.co.in/", "latitude": 28.6439304, "longitude": 77.1772003, "maps_url": "https://www.google.com/maps/search/?api=1&query=BNG%20Infotech%20Private%20Limited&query_place_id=ChIJ____ewXiDDkRWkRWfPl6bfA"}, {"place_id": "ChIJFeXlTZkCDTkRNw2aQAO8CNk", "name": "Himalayan IT Solutions | Best Website Designing Company in Delhi | SEO/Digital Marketing Company in Delhi NCR, India", "street": "61/4255, Padam Singh Rd, Block 29, Block 1, Regar Pura, Karol Bagh, Delhi, 110005, India", "phone": "+91 98990 98509", "rating": "3.9", "review_count": "", "website": "http://www.himalayanitsolutions.com/", "latitude": 28.649673999999997, "longitude": 77.186599, "maps_url": "https://www.google.com/maps/search/?api=1&query=Himalayan%20IT%20Solutions%20%7C%20Best%20Website%20Designing%20Company%20in%20Delhi%20%7C%20SEO/Digital%20Marketing%20Company%20in%20Delhi%20NCR%2C%20India&query_place_id=ChIJFeXlTZkCDTkRNw2aQAO8CNk"}, {"place_id": "ChIJe2B7xb4DDTkR_Qj3HQx-8AA", "name": "A21 Technologies LLP", "street": "TOWER-3, 807, 4, West, Rajendra Place, New Delhi, Delhi, 110005, India", "phone": "+91 11 2582 3210", "rating": "4.8", "review_count": "", "website": "https://a21technologies.com/", "latitude": 28.6459957, "longitude": 77.17800679999999, "maps_url": "https://www.google.com/maps/search/?api=1&query=A21%20Technologies%20LLP&query_place_id=ChIJe2B7xb4DDTkR_Qj3HQx-8AA"}, {"place_id": "ChIJH5W-35UCDTkRV4TEq7lGHtE", "name": "Webtel Electrosoft Ltd.", "street": "1st Floor, Rattan Jyoti Building, 110-114, 18, Rajendra Place, New Delhi, Delhi 110008, India", "phone": "+91 11 4505 4000", "rating": "3.9", "review_count": "", "website": "https://webtel.in/", "latitude": 28.644031199999997, "longitude": 77.1772288, "maps_url": "https://www.google.com/maps/search/?api=1&query=Webtel%20Electrosoft%20Ltd.&query_place_id=ChIJH5W-35UCDTkRV4TEq7lGHtE"}, {"place_id": "ChIJofXOHrADDTkRTIvyQore29w", "name": "Dial ERP", "street": "608, Padma Tower II, Rajendra Place, New Delhi, Delhi 110005, India", "phone": "+91 99711 22333", "rating": "4.9", "review_count": "", "website": "http://dialerp.in/", "latitude": 28.6451836, "longitude": 77.1780375, "maps_url": "https://www.google.com/maps/search/?api=1&query=Dial%20ERP&query_place_id=ChIJofXOHrADDTkRTIvyQore29w"}, {"place_id": "ChIJ____75YCDTkRjLFp7iFxdWw", "name": "Saraswati Accountants Software Pvt. Ltd. |Tally Prime | Tally Cloud | Tally Renewal | Tally Customization & Training|", "street": "Tower-4, Vikrant, 807, 8th, Rajendra Place, New Delhi, Delhi 110008, India", "phone": "+91 11 4766 0000", "rating": "4.9", "review_count": "", "website": "http://www.saraswatiaccountants.com/", "latitude": 28.6458658, "longitude": 77.177678, "maps_url": "https://www.google.com/maps/search/?api=1&query=Saraswati%20Accountants%20Software%20Pvt.%20Ltd.%20%7CTally%20Prime%20%7C%20Tally%20Cloud%20%7C%20Tally%20Renewal%20%7C%20Tally%20Customization%20%26%20Training%7C&query_place_id=ChIJ____75YCDTkRjLFp7iFxdWw"}, {"place_id": "ChIJUX61TOUCDTkRPmeqyd2Pcps", "name": "IT Solutions & Services (ITSS)", "street": "T–2425 Street Number 21, Baljeet Nagar, West Patel Nagar, New Delhi, Delhi 110008, India", "phone": "+91 88004 19462", "rating": "4.7", "review_count": "", "website": "https://www.itssin.com/", "latitude": 28.6576111, "longitude": 77.160708, "maps_url": "https://www.google.com/maps/search/?api=1&query=IT%20Solutions%20%26%20Services%20%28ITSS%29&query_place_id=ChIJUX61TOUCDTkRPmeqyd2Pcps"}, {"place_id": "ChIJuWHhgOADDTkRnxxopj0gupQ", "name": "Accuwisetech IT Solution & Digital Marketing Agency", "street": "Metro Station Patel Nagar, 2/15, station, West Patel Nagar, New Delhi, Delhi, 110008, India", "phone": "", "rating": "4.9", "review_count": "", "website": "https://accuwisetech.com/", "latitude": 28.645363, "longitude": 77.1688322, "maps_url": "https://www.google.com/maps/search/?api=1&query=Accuwisetech%20IT%20Solution%20%26%20Digital%20Marketing%20Agency&query_place_id=ChIJuWHhgOADDTkRnxxopj0gupQ"}, {"place_id": "ChIJoRLETjoDDTkRGHZniF8i0Rs", "name": "Allegient Unified Technology Pvt. Ltd.", "street": "66,2nd Floor, South Patel Nagar, New Delhi, Delhi 110008, India", "phone": "+91 98735 50688", "rating": "3.4", "review_count": "", "website": "http://www.allegientservices.com/", "latitude": 28.644002, "longitude": 77.1703209, "maps_url": "https://www.google.com/maps/search/?api=1&query=Allegient%20Unified%20Technology%20Pvt.%20Ltd.&query_place_id=ChIJoRLETjoDDTkRGHZniF8i0Rs"}, {"place_id": "ChIJzRqnjpYCDTkRkI9ORTiyouY", "name": "Ascomp Technologies Pvt. Ltd.", "street": "1203, Padma Tower 1,, 5, Rajendra Place,, Prasad Nagar, Karol Bagh, New Delhi, Delhi 110005, India", "phone": "+91 11 4393 0000", "rating": "3.2", "review_count": "", "website": "http://www.ascomp.com/", "latitude": 28.6458937, "longitude": 77.1782388, "maps_url": "https://www.google.com/maps/search/?api=1&query=Ascomp%20Technologies%20Pvt.%20Ltd.&query_place_id=ChIJzRqnjpYCDTkRkI9ORTiyouY"}, {"place_id": "ChIJ7yxdoOsCDTkRQFTUEp0piHI", "name": "Vinsol (Vinayak Solutions Pvt Ltd)", "street": "1/4 (Basement, East Patel Nagar, Patel Nagar, New Delhi, Delhi 110008, India", "phone": "+91 4156 803 362", "rating": "3.4", "review_count": "", "website": "https://vinsol.com/", "latitude": 28.644902599999998, "longitude": 77.17004639999999, "maps_url": "https://www.google.com/maps/search/?api=1&query=Vinsol%20%28Vinayak%20Solutions%20Pvt%20Ltd%29&query_place_id=ChIJ7yxdoOsCDTkRQFTUEp0piHI"}, {"place_id": "ChIJJXCOjEMDDTkRfmllQmBiMX4", "name": "10x Global", "street": "2nd Floor, 2/6, above ICICI Bank, Block 2, West Patel Nagar, Patel Nagar, New Delhi, Delhi, 110008, India", "phone": "+91 11 3574 6767", "rating": "5", "review_count": "", "website": "https://www.10x.global/", "latitude": 28.64625, "longitude": 77.1679569, "maps_url": "https://www.google.com/maps/search/?api=1&query=10x%20Global&query_place_id=ChIJJXCOjEMDDTkRfmllQmBiMX4"}, {"place_id": "ChIJOw-MK5EDDTkRK8ZBOdXXcic", "name": "IndusTreeBiz - Business Growth Consultancy for Family Businesses , Brands and MSMEs", "street": "11th floor, Gopala Tower, 11L, Prasad Nagar, Rajendra Place, New Delhi, Delhi 110008, India", "phone": "+91 89564 90723", "rating": "4", "review_count": "", "website": "http://www.industreebiz.com/", "latitude": 28.645730699999998, "longitude": 77.1773712, "maps_url": "https://www.google.com/maps/search/?api=1&query=IndusTreeBiz%20-%20Business%20Growth%20Consultancy%20for%20Family%20Businesses%20%2C%20Brands%20and%20MSMEs&query_place_id=ChIJOw-MK5EDDTkRK8ZBOdXXcic"}, {"place_id": "ChIJc80Hk_0DDTkRzeDGAgk6Ino", "name": "Web Cloud Technology", "street": "3A/74 W.E.A, Sat Nagar, Karol Bagh, New Delhi, Delhi 110005, India", "phone": "+91 88823 24811", "rating": "4.4", "review_count": "", "website": "https://webcloudtechnology.in/", "latitude": 28.6465632, "longitude": 77.1824149, "maps_url": "https://www.google.com/maps/search/?api=1&query=Web%20Cloud%20Technology&query_place_id=ChIJc80Hk_0DDTkRzeDGAgk6Ino"}, {"place_id": "ChIJx0cQi_ICDTkRxLtiHK_RVDc", "name": "Taarak India Pvt Ltd.", "street": "4/23, Balraj Khanna Marg, Block 4, East Patel Nagar, Patel Nagar, New Delhi, Delhi 110008, India", "phone": "", "rating": "3.8", "review_count": "", "website": "http://www.taarak.com/", "latitude": 28.642749, "longitude": 77.1744721, "maps_url": "https://www.google.com/maps/search/?api=1&query=Taarak%20India%20Pvt%20Ltd.&query_place_id=ChIJx0cQi_ICDTkRxLtiHK_RVDc"}, {"place_id": "ChIJl1XknesCDTkRCAvQm0XALHc", "name": "WebzPapa - SEO Company in Delhi I SEO Services Agency in Delhi", "street": "Gate no 6, Building - O, 4th Floor, South Patel Nagar Near Patel Nagar Metro Station, New Delhi, Delhi 110008, India", "phone": "+91 99539 93944", "rating": "4.7", "review_count": "", "website": "https://webzpapa.com/seo-company-delhi.html", "latitude": 28.6450192, "longitude": 77.1688623, "maps_url": "https://www.google.com/maps/search/?api=1&query=WebzPapa%20-%20SEO%20Company%20in%20Delhi%20I%20SEO%20Services%20Agency%20in%20Delhi&query_place_id=ChIJl1XknesCDTkRCAvQm0XALHc"}, {"place_id": "ChIJR-7GCuwCDTkRtR3Xge9l3EU", "name": "Onsite Teams", "street": "805, Vikrant Tower, Prasad Nagar, New Patel Nagar, Karol Bagh, New Delhi, Delhi 110008, India", "phone": "+91 80540 14173", "rating": "4.5", "review_count": "", "website": "https://onsiteteams.com/contact/", "latitude": 28.6458478, "longitude": 77.1779616, "maps_url": "https://www.google.com/maps/search/?api=1&query=Onsite%20Teams&query_place_id=ChIJR-7GCuwCDTkRtR3Xge9l3EU"}, {"place_id": "ChIJWwWxD-sCDTkRjTu134yah5c", "name": "infotech Solution", "street": "2, 15, Patel Rd, Block 2, East Patel Nagar, Patel Nagar, New Delhi, Delhi 110008, India", "phone": "+91 83779 66458", "rating": "2.6", "review_count": "", "website": "", "latitude": 28.6455329, "longitude": 77.1685655, "maps_url": "https://www.google.com/maps/search/?api=1&query=infotech%20Solution&query_place_id=ChIJWwWxD-sCDTkRjTu134yah5c"}, {"place_id": "ChIJVVVl-ZUCDTkRFnU1G79sHbA", "name": "Peritus Exim Pvt Ltd", "street": "1206, 12th Floor, Vikram Tower, Rajendra Place, New Delhi, Delhi, 110060, India", "phone": "+91 11 4130 6047", "rating": "4.4", "review_count": "", "website": "http://www.peritusexim.com/", "latitude": 28.6430568, "longitude": 77.1783918, "maps_url": "https://www.google.com/maps/search/?api=1&query=Peritus%20Exim%20Pvt%20Ltd&query_place_id=ChIJVVVl-ZUCDTkRFnU1G79sHbA"}, {"place_id": "ChIJDyqA4pwCDTkR4LNbv90XL60", "name": "SELECTIVE GLOBAL SEARCH PRIVATE LIMITED", "street": "5TH FLOOR, Padma Tower 1, Unit 501-504, Prasad Nagar, Rajendra Place, New Delhi, Delhi, 110005, India", "phone": "+91 70425 99002", "rating": "4.7", "review_count": "", "website": "http://www.selectiveglobalsearch.com/", "latitude": 28.6458129, "longitude": 77.1782757, "maps_url": "https://www.google.com/maps/search/?api=1&query=SELECTIVE%20GLOBAL%20SEARCH%20PRIVATE%20LIMITED&query_place_id=ChIJDyqA4pwCDTkR4LNbv90XL60"}, {"place_id": "ChIJq6qqGpYCDTkRHwvhtAlOO8k", "name": "TriEdge Solutions Pvt. Ltd.", "street": "403, Prem Sadan, 11, Rajendra Place, New Delhi, Delhi 110008, India", "phone": "+91 97175 44416", "rating": "4.1", "review_count": "", "website": "https://triedge.in/", "latitude": 28.644143999999997, "longitude": 77.17690999999999, "maps_url": "https://www.google.com/maps/search/?api=1&query=TriEdge%20Solutions%20Pvt.%20Ltd.&query_place_id=ChIJq6qqGpYCDTkRHwvhtAlOO8k"}, {"place_id": "ChIJ_yLEwawEDTkRQntrXqPNPK4", "name": "Fortune Makers", "street": "Third Floor, Naivedhiyam 25 / 35, above Naivedhiyam Restaurant, East Patel Nagar, New Delhi, Delhi 110008, India", "phone": "+91 11 4560 8413", "rating": "4.9", "review_count": "", "website": "http://www.fortunemakersindia.in/", "latitude": 28.6445717, "longitude": 77.1765791, "maps_url": "https://www.google.com/maps/search/?api=1&query=Fortune%20Makers&query_place_id=ChIJ_yLEwawEDTkRQntrXqPNPK4"}, {"place_id": "ChIJdx_eNWIDDTkRcYhmS8CtwqI", "name": "Aegeus Food Private Limited", "street": "209, second floor, DEEP SHIKHA BUILDING, Rajendra Place, Delhi, New Delhi, Delhi 110008, India", "phone": "+91 98110 36634", "rating": "4.9", "review_count": "", "website": "https://aegeusfood.in/", "latitude": 28.6446866, "longitude": 77.1775404, "maps_url": "https://www.google.com/maps/search/?api=1&query=Aegeus%20Food%20Private%20Limited&query_place_id=ChIJdx_eNWIDDTkRcYhmS8CtwqI"}, {"place_id": "ChIJU1BKfJYCDTkRCq3phHxZx70", "name": "Aggarwal Corporate Tower", "street": "Plot No. 23, Govind Lal Sikka Marg, Rajendra Place, New Delhi, Delhi 110008, India", "phone": "", "rating": "4", "review_count": "", "website": "", "latitude": 28.645205699999998, "longitude": 77.1776307, "maps_url": "https://www.google.com/maps/search/?api=1&query=Aggarwal%20Corporate%20Tower&query_place_id=ChIJU1BKfJYCDTkRCq3phHxZx70"}, {"place_id": "ChIJx27aG74CDTkRdIGMI-uFLv0", "name": "INDIAN POTASH LIMITED - CORPORATE OFFICE", "street": "J5RG+QCX, Pusa Rd, Block 1, WEA, Karol Bagh, New Delhi, Delhi 110060, India", "phone": "+91 11 2573 2438", "rating": "4.2", "review_count": "", "website": "http://www.indianpotash.org/", "latitude": 28.6419854, "longitude": 77.17612299999999, "maps_url": "https://www.google.com/maps/search/?api=1&query=INDIAN%20POTASH%20LIMITED%20-%20CORPORATE%20OFFICE&query_place_id=ChIJx27aG74CDTkRdIGMI-uFLv0"}, {"place_id": "ChIJUzCnx8kFDTkRzXhond83eM0", "name": "Bestal HR Pvt Ltd", "street": "Gopala Tower, 9J & 9G, opposite to NABARD Towers, Prasad Nagar, Rajendra Place, Delhi, 110008, India", "phone": "+91 99717 79076", "rating": "4.8", "review_count": "", "website": "https://bestalhr.com/", "latitude": 28.645955299999997, "longitude": 77.1774873, "maps_url": "https://www.google.com/maps/search/?api=1&query=Bestal%20HR%20Pvt%20Ltd&query_place_id=ChIJUzCnx8kFDTkRzXhond83eM0"}, {"place_id": "ChIJb-72SdIDDTkRWdwiczLkiEM", "name": "Future Plannerz", "street": "50-51 3rd Floor, South Patel Nagar, New Delhi, Delhi 110008, India", "phone": "+91 78387 77776", "rating": "4.8", "review_count": "", "website": "https://futureplannerz.in/", "latitude": 28.645069799999998, "longitude": 77.1680047, "maps_url": "https://www.google.com/maps/search/?api=1&query=Future%20Plannerz&query_place_id=ChIJb-72SdIDDTkRWdwiczLkiEM"}, {"place_id": "ChIJVVVVBZYCDTkRIRspC-p2Z4I", "name": "SEPERHR services pvt ltd", "street": "Office no. 109, 1st floor, Vikrant Tower, No 4, Prasad Nagar, Rajendra Place, New Delhi, Delhi, 110005, India", "phone": "+91 11 7190 7318", "rating": "3.5", "review_count": "", "website": "http://seperhr.com/", "latitude": 28.6459957, "longitude": 77.17800679999999, "maps_url": "https://www.google.com/maps/search/?api=1&query=SEPERHR%20services%20pvt%20ltd&query_place_id=ChIJVVVVBZYCDTkRIRspC-p2Z4I"}, {"place_id": "ChIJ_4BfnR8DDTkRFCoWp3KElfA", "name": "GREEN FUTURE PRIVATE LIMITED", "street": "507, 26, Rajendra Place, Delhi, 110008, India", "phone": "+91 98105 58695", "rating": "4.5", "review_count": "", "website": "http://www.greenfuturemill.com/", "latitude": 28.6458554, "longitude": 77.17758429999999, "maps_url": "https://www.google.com/maps/search/?api=1&query=GREEN%20FUTURE%20PRIVATE%20LIMITED&query_place_id=ChIJ_4BfnR8DDTkRFCoWp3KElfA"}, {"place_id": "ChIJV4DiGUVrx4gRyLzJzC2p7-4", "name": "Sam Web Studio", "street": "Second Floor, Plot no-68, South Patel Nagar, Block 8, Patel Nagar, New Delhi, Delhi 110008, India", "phone": "+91 99683 53570", "rating": "5", "review_count": "", "website": "https://www.samwebstudio.com/", "latitude": 28.644581799999997, "longitude": 77.168632, "maps_url": "https://www.google.com/maps/search/?api=1&query=Sam%20Web%20Studio&query_place_id=ChIJV4DiGUVrx4gRyLzJzC2p7-4"}, {"place_id": "ChIJxWj1DnYDDTkRlFY95MdGIZk", "name": "New Delhi SEO", "street": "Floor - B2, Metro Parking Lower Ground, 8/22, near Patel Nagar, South Patel Nagar, Block 8, Patel Nagar, Delhi, New Delhi, Delhi 110008, India", "phone": "+91 97181 65735", "rating": "4.9", "review_count": "", "website": "https://www.newdelhiseo.com/", "latitude": 28.644101, "longitude": 77.169423, "maps_url": "https://www.google.com/maps/search/?api=1&query=New%20Delhi%20SEO&query_place_id=ChIJxWj1DnYDDTkRlFY95MdGIZk"}, {"place_id": "ChIJuxGdA5UCDTkRe-8wEozDGBE", "name": "Head Hunters Consultancy", "street": "3rd Floor, Main Market, 23/4, Block 12, East Patel Nagar, Patel Nagar, New Delhi, Delhi 110008, India", "phone": "+91 98735 19800", "rating": "4", "review_count": "", "website": "http://www.head-hunters.in/", "latitude": 28.6445987, "longitude": 77.1735671, "maps_url": "https://www.google.com/maps/search/?api=1&query=Head%20Hunters%20Consultancy&query_place_id=ChIJuxGdA5UCDTkRe-8wEozDGBE"}, {"place_id": "ChIJq6qqmmPhDDkRgsw34YWYTeA", "name": "Total Solutions Group (A division of Total Business Solutions India Pvt Ltd)", "street": "Lower Ground Floor, 11/5B, Pusa Rd, Block 11, Old Rajinder Nagar, Rajinder Nagar, New Delhi, Delhi, 110005, India", "phone": "+91 99102 68000", "rating": "2.3", "review_count": "", "website": "http://totalsolutions.in/", "latitude": 28.6426545, "longitude": 77.181634, "maps_url": "https://www.google.com/maps/search/?api=1&query=Total%20Solutions%20Group%20%28A%20division%20of%20Total%20Business%20Solutions%20India%20Pvt%20Ltd%29&query_place_id=ChIJq6qqmmPhDDkRgsw34YWYTeA"}, {"place_id": "ChIJwTYR-ZQCDTkRnKFPrfn20cI", "name": "WOW Events Pvt Ltd", "street": "1/7 3rd Floor, WOW Events Pvt. Ltd, above SBI Bank, Block 1, East Patel Nagar, Patel Nagar, New Delhi, Delhi 110008, India", "phone": "+91 11 4248 8720", "rating": "4.7", "review_count": "", "website": "http://www.wowevents.in/", "latitude": 28.6445176, "longitude": 77.1702317, "maps_url": "https://www.google.com/maps/search/?api=1&query=WOW%20Events%20Pvt%20Ltd&query_place_id=ChIJwTYR-ZQCDTkRnKFPrfn20cI"}, {"place_id": "ChIJf-v2zzUDDTkRCWfqwxHYySk", "name": "The Global Zone HR Services", "street": "Metro Gate No. 3, 1/7, above SBI/ Federal Bank, opp. Metro Pillar Number 178, Block 1, East Patel Nagar, Patel Nagar, New Delhi, Delhi 110008, India", "phone": "", "rating": "4.6", "review_count": "", "website": "http://www.globalzone.net.in/", "latitude": 28.644445899999997, "longitude": 77.1706754, "maps_url": "https://www.google.com/maps/search/?api=1&query=The%20Global%20Zone%20HR%20Services&query_place_id=ChIJf-v2zzUDDTkRCWfqwxHYySk"}, {"place_id": "ChIJ4ShVir0CDTkR1ihrSFHdrsA", "name": "Borar & Company (CA Firm)", "street": "Aman Chamber, 202A, 47/22, New, Old Rajinder Nagar, Rajinder Nagar, New Delhi, Delhi 110060, India", "phone": "+91 11 4704 9931", "rating": "4.5", "review_count": "", "website": "", "latitude": 28.6424484, "longitude": 77.1788979, "maps_url": "https://www.google.com/maps/search/?api=1&query=Borar%20%26%20Company%20%28CA%20Firm%29&query_place_id=ChIJ4ShVir0CDTkR1ihrSFHdrsA"}, {"place_id": "ChIJAQAwfZYCDTkRrZHXwR51e2k", "name": "HBS SYSTEMS PRIVATE LIMITED", "street": "107-108, PADMA TOWER II 22, Rajendra Place, New Delhi, Delhi 110008, India", "phone": "+91 11 2576 7117", "rating": "3.5", "review_count": "", "website": "http://hbsindia.com/", "latitude": 28.6451836, "longitude": 77.1780375, "maps_url": "https://www.google.com/maps/search/?api=1&query=HBS%20SYSTEMS%20PRIVATE%20LIMITED&query_place_id=ChIJAQAwfZYCDTkRrZHXwR51e2k"}, {"place_id": "ChIJz9bYFOwCDTkREj8LirH5MbU", "name": "Astrokidz Inc", "street": "gate no 4, metro station, Ashoka chambers, Plot no B5,flat, A10, Pusa Rd, near Rajindra place, Rajendra Park, Delhi 110060, India", "phone": "+91 80 4803 4014", "rating": "4.1", "review_count": "", "website": "https://www.astrokidz.net/", "latitude": 28.641913199999998, "longitude": 77.177094, "maps_url": "https://www.google.com/maps/search/?api=1&query=Astrokidz%20Inc&query_place_id=ChIJz9bYFOwCDTkREj8LirH5MbU"}, {"place_id": "ChIJl1XknesCDTkRpvPuM7uyEKw", "name": "INDIA RETAIL COMPANY", "street": "Plot No. 3046 , South Patel Nagar, Delhi, 110008, India", "phone": "+91 95823 60856", "rating": "3", "review_count": "", "website": "", "latitude": 28.6463269, "longitude": 77.1685907, "maps_url": "https://www.google.com/maps/search/?api=1&query=INDIA%20RETAIL%20COMPANY&query_place_id=ChIJl1XknesCDTkRpvPuM7uyEKw"}, {"place_id": "ChIJqc7fpesCDTkR353vcOZ9NsE", "name": "Digital Marketing Clue", "street": "Metro Station 53, near Patel Nagar, South Patel Nagar, Block 2, Market, Patel Nagar, Delhi, New Delhi, Delhi 110008, India", "phone": "+91 78358 00828", "rating": "4.7", "review_count": "", "website": "http://www.digitalmarketingclue.com/", "latitude": 28.6455365, "longitude": 77.1683128, "maps_url": "https://www.google.com/maps/search/?api=1&query=Digital%20Marketing%20Clue&query_place_id=ChIJqc7fpesCDTkR353vcOZ9NsE"}, {"place_id": "ChIJXXgFfpYCDTkRou2ArMh3V84", "name": "Unity Group", "street": "G-3, Aggarwal Corporate Tower, 23, Rajendra Place, New Delhi, Delhi 110008, India", "phone": "+91 11 6124 6666", "rating": "4.3", "review_count": "", "website": "https://www.unitygroup.co.in/", "latitude": 28.645243999999998, "longitude": 77.1775949, "maps_url": "https://www.google.com/maps/search/?api=1&query=Unity%20Group&query_place_id=ChIJXXgFfpYCDTkRou2ArMh3V84"}, {"place_id": "ChIJseweCJ8DDTkRGNh-jQYsi_o", "name": "White Tech Climbing Holds Volume Holds Speed Climbing Holds Rappling Gloves | Manufacturer", "street": "Rajendra Bhawan, 143, Rajendra Place, New Delhi, Delhi 110008, India", "phone": "", "rating": "3.3", "review_count": "", "website": "http://whitetech.in/", "latitude": 28.643364599999998, "longitude": 77.1779257, "maps_url": "https://www.google.com/maps/search/?api=1&query=White%20Tech%20Climbing%20Holds%20Volume%20Holds%20Speed%20Climbing%20Holds%20Rappling%20Gloves%20%7C%20Manufacturer&query_place_id=ChIJseweCJ8DDTkRGNh-jQYsi_o"}, {"place_id": "ChIJCZvSauwCDTkRNtRdydTbMv4", "name": "Healthwatch Telediagnostics Pvt. Ltd.", "street": "#26/1, CHC House, East Patel Nagar, New Delhi, Delhi 110008, India", "phone": "+91 99992 22554", "rating": "4.9", "review_count": "", "website": "https://www.chchealthwatch.com/", "latitude": 28.6448371, "longitude": 77.17479279999999, "maps_url": "https://www.google.com/maps/search/?api=1&query=Healthwatch%20Telediagnostics%20Pvt.%20Ltd.&query_place_id=ChIJCZvSauwCDTkRNtRdydTbMv4"}, {"place_id": "ChIJ____75YCDTkR6fojxbF2rCA", "name": "Easy Source HR Solutions Pvt. Ltd.", "street": "3C&D, Gopala Tower, Pusa Rd, Prasad Nagar, Rajendra Place, New Delhi, Delhi 110008, India", "phone": "", "rating": "3.7", "review_count": "", "website": "https://www.easysourceindia.com/", "latitude": 28.645730699999998, "longitude": 77.1773712, "maps_url": "https://www.google.com/maps/search/?api=1&query=Easy%20Source%20HR%20Solutions%20Pvt.%20Ltd.&query_place_id=ChIJ____75YCDTkR6fojxbF2rCA"}, {"place_id": "ChIJTbcOBbTjDDkRu3RDv8RSPB4", "name": "Rhymes Digital Solution", "street": "25/16, Block 29, East Patel Nagar, Patel Nagar, New Delhi, Delhi, 110008, India", "phone": "", "rating": "4.7", "review_count": "", "website": "https://www.rhymesdigisolution.com/", "latitude": 28.646051699999997, "longitude": 77.1744628, "maps_url": "https://www.google.com/maps/search/?api=1&query=Rhymes%20Digital%20Solution&query_place_id=ChIJTbcOBbTjDDkRu3RDv8RSPB4"}, {"place_id": "ChIJ2R1uyJUDDTkRxBkDXQkEius", "name": "HAE Digital Marketing Company", "street": "505, 5th Floor, Padma Tower II, Rajendra Place, New Delhi, Delhi 110005, India", "phone": "+91 92897 65898", "rating": "4.9", "review_count": "", "website": "https://www.haedigital.com/", "latitude": 28.6451836, "longitude": 77.1780375, "maps_url": "https://www.google.com/maps/search/?api=1&query=HAE%20Digital%20Marketing%20Company&query_place_id=ChIJ2R1uyJUDDTkRxBkDXQkEius"}, {"place_id": "ChIJOZd2wWIDDTkRMdyNCdCtCIQ", "name": "Groot Infotech", "street": "Padma Tower II, 502, Rajendra Place, New Delhi, Delhi 110005, India", "phone": "+91 85273 53508", "rating": "", "review_count": "", "website": "https://www.grootinfotech.com/", "latitude": 28.6451836, "longitude": 77.1780375, "maps_url": "https://www.google.com/maps/search/?api=1&query=Groot%20Infotech&query_place_id=ChIJOZd2wWIDDTkRMdyNCdCtCIQ"}, {"place_id": "ChIJhZZTFZQPDTkRO-IYWevEiH0", "name": "Namah India", "street": "3/9 Basement, Block 6, East Patel Nagar, Patel Nagar, New Delhi, Delhi 110008, India", "phone": "+91 98598 51030", "rating": "4.9", "review_count": "", "website": "http://www.namahindia.com/", "latitude": 28.6451623, "longitude": 77.1703477, "maps_url": "https://www.google.com/maps/search/?api=1&query=Namah%20India&query_place_id=ChIJhZZTFZQPDTkRO-IYWevEiH0"}, {"place_id": "ChIJe_BxMIU7eaMRd7OFoq75-oc", "name": "KraftedX", "street": "908 (9th Floor), Vikrant Tower, 4, Rajendra Place, New Delhi, Delhi 110005, India", "phone": "", "rating": "5", "review_count": "", "website": "https://www.kraftedx.com/", "latitude": 28.645905799999998, "longitude": 77.17804009999999, "maps_url": "https://www.google.com/maps/search/?api=1&query=KraftedX&query_place_id=ChIJe_BxMIU7eaMRd7OFoq75-oc"}, {"place_id": "ChIJrRQLMWD9DDkRTJTGqGnpqnQ", "name": "Ghum India Ghum", "street": "9th Floor, Gopala Tower, 9k, Rajendra Place, New Delhi, Delhi 110008, India", "phone": "+91 88601 39194", "rating": "4.8", "review_count": "", "website": "https://www.ghumindiaghum.com/", "latitude": 28.645730699999998, "longitude": 77.1773712, "maps_url": "https://www.google.com/maps/search/?api=1&query=Ghum%20India%20Ghum&query_place_id=ChIJrRQLMWD9DDkRTJTGqGnpqnQ"}, {"place_id": "ChIJVzqiwe4CDTkRmxGmLXrM3e4", "name": "GR8 INDIA FILM PRODUCTION", "street": "First Floor, 9/24, South Patel Nagar, New Delhi, Delhi 110008, India", "phone": "+91 88822 22334", "rating": "4.8", "review_count": "", "website": "", "latitude": 28.642649199999997, "longitude": 77.1717808, "maps_url": "https://www.google.com/maps/search/?api=1&query=GR8%20INDIA%20FILM%20PRODUCTION&query_place_id=ChIJVzqiwe4CDTkRmxGmLXrM3e4"}, {"place_id": "ChIJRaWq-70CDTkR5nU3eIw3IE8", "name": "Alstone Textiles (India) Limited", "street": "203 Aman Chamber, Pusa Road, Rajendra Place Metro Station, New Delhi, Delhi 110060, India", "phone": "+91 11 4747 6072", "rating": "4.1", "review_count": "", "website": "https://www.alstonetextiles.in/", "latitude": 28.641968499999997, "longitude": 77.1779217, "maps_url": "https://www.google.com/maps/search/?api=1&query=Alstone%20Textiles%20%28India%29%20Limited&query_place_id=ChIJRaWq-70CDTkR5nU3eIw3IE8"}, {"place_id": "ChIJQ5K8ZuADDTkRe4l1tHsQXP4", "name": "Neha R Gupta & Co.", "street": "1108, 11th floor, Pragati Tower, Rajendra Place, New Delhi, Delhi 110008, India", "phone": "+91 85959 17721", "rating": "4.8", "review_count": "", "website": "", "latitude": 28.6457469, "longitude": 77.1776534, "maps_url": "https://www.google.com/maps/search/?api=1&query=Neha%20R%20Gupta%20%26%20Co.&query_place_id=ChIJQ5K8ZuADDTkRe4l1tHsQXP4"}, {"place_id": "ChIJQ_Ay-1cCDTkRh2gFa2VBF0Y", "name": "Adventure Gears - Office", "street": "7th Floor, Padma Tower II, 701-710, Rajendra Place, New Delhi, Delhi 110005, India", "phone": "+91 11 4987 9350", "rating": "4.5", "review_count": "", "website": "https://www.adventuregears.com/", "latitude": 28.6451836, "longitude": 77.1780376, "maps_url": "https://www.google.com/maps/search/?api=1&query=Adventure%20Gears%20-%20Office&query_place_id=ChIJQ_Ay-1cCDTkRh2gFa2VBF0Y"}, {"place_id": "ChIJifA7RusCDTkRSAfgS_fqv78", "name": "Fox My Box", "street": "10/5, Block 10, East Patel Nagar, Patel Nagar, New Delhi, Delhi, 110008, India", "phone": "", "rating": "4.7", "review_count": "", "website": "http://www.foxmybox.com/", "latitude": 28.646376, "longitude": 77.170661, "maps_url": "https://www.google.com/maps/search/?api=1&query=Fox%20My%20Box&query_place_id=ChIJifA7RusCDTkRSAfgS_fqv78"}, {"place_id": "ChIJH315fKj9DDkRC-aS9mTD67w", "name": "Anan Enterprises", "street": "5th floor, Padma Tower-2, Rajendra Palace, 504, New Delhi, Delhi 110005, India", "phone": "+91 99962 35369", "rating": "4.9", "review_count": "", "website": "https://ananenterprises.com/", "latitude": 28.645200799999998, "longitude": 77.17821719999999, "maps_url": "https://www.google.com/maps/search/?api=1&query=Anan%20Enterprises&query_place_id=ChIJH315fKj9DDkRC-aS9mTD67w"}, {"place_id": "ChIJ6wQV6c_jDDkRnCCfvuxyEqo", "name": "TalentPro India - Payroll, Compliance & Staffing service provider in Delhi", "street": "8th Floor, Padma Tower II, 803, 804, Rajendra Place, New Delhi, Delhi 110005, India", "phone": "+91 1800 103 5642", "rating": "4", "review_count": "", "website": "https://www.talentproindia.com/hr-services-delhi", "latitude": 28.6453678, "longitude": 77.17797949999999, "maps_url": "https://www.google.com/maps/search/?api=1&query=TalentPro%20India%20-%20Payroll%2C%20Compliance%20%26%20Staffing%20service%20provider%20in%20Delhi&query_place_id=ChIJ6wQV6c_jDDkRnCCfvuxyEqo"}, {"place_id": "ChIJ8yv8nvUDDTkRw0Cy3mc_rNI", "name": "ADVANCE RESEARCH AND WEB DEVELOPMENT PVT. LTD. (ARWD)", "street": "3285, GF, South Patel Nagar, Block 9, Ranjeet Nagar, New Delhi, Delhi 110008, India", "phone": "+91 96547 41046", "rating": "4.7", "review_count": "", "website": "", "latitude": 28.643110399999998, "longitude": 77.1706392, "maps_url": "https://www.google.com/maps/search/?api=1&query=ADVANCE%20RESEARCH%20AND%20WEB%20DEVELOPMENT%20PVT.%20LTD.%20%28ARWD%29&query_place_id=ChIJ8yv8nvUDDTkRw0Cy3mc_rNI"}, {"place_id": "ChIJH5Q5Y5YCDTkR6m6P1wkJ_L4", "name": "Cosmic Healers Private Limited - Cleaning Equipment Manufacturer", "street": "Padma Tower II, Regd. Address:, Rajendra Place, New Delhi, Delhi 110005, India", "phone": "+91 99583 64364", "rating": "5", "review_count": "", "website": "https://cosmichealers.com/", "latitude": 28.6452161, "longitude": 77.17798189999999, "maps_url": "https://www.google.com/maps/search/?api=1&query=Cosmic%20Healers%20Private%20Limited%20-%20Cleaning%20Equipment%20Manufacturer&query_place_id=ChIJH5Q5Y5YCDTkR6m6P1wkJ_L4"}, {"place_id": "ChIJKxVFie8CDTkRgHo0tL5qAh8", "name": "Alpha kkc Logistics India Private Limited", "street": "Unit No - 402 & 403, 4th Floor, 12, Rajendra Place, New Delhi, Delhi 110008, India", "phone": "+91 11 4135 5555", "rating": "3.8", "review_count": "", "website": "http://www.alphakkclogistics.com/", "latitude": 28.644040999999998, "longitude": 77.17752639999999, "maps_url": "https://www.google.com/maps/search/?api=1&query=Alpha%20kkc%20Logistics%20India%20Private%20Limited&query_place_id=ChIJKxVFie8CDTkRgHo0tL5qAh8"}, {"place_id": "ChIJ8zVfgpYCDTkRnfLUpHTR0DU", "name": "Focus Energy Ltd", "street": "3rd Floor, Gopala Tower, 25, West, Prasad Nagar, Rajendra Place, New Delhi, Delhi, 110008, India", "phone": "+91 11 4230 0400", "rating": "2.5", "review_count": "", "website": "http://www.focusenergy.co.in/", "latitude": 28.6458768, "longitude": 77.17738489999999, "maps_url": "https://www.google.com/maps/search/?api=1&query=Focus%20Energy%20Ltd&query_place_id=ChIJ8zVfgpYCDTkRnfLUpHTR0DU"}, {"place_id": "ChIJt9QSSle9o0gRbNz8sCVY5os", "name": "Urban Cabin Cowork: Pusa Road, New Delhi - Coworking Space", "street": "11B/8, Pusa Rd, Block 11, Old Rajinder Nagar, Rajinder Nagar, Delhi, 110005, India", "phone": "+91 80 6906 9498", "rating": "4.9", "review_count": "", "website": "https://urbancabincowork.com/", "latitude": 28.6426187, "longitude": 77.180998, "maps_url": "https://www.google.com/maps/search/?api=1&query=Urban%20Cabin%20Cowork%3A%20Pusa%20Road%2C%20New%20Delhi%20-%20Coworking%20Space&query_place_id=ChIJt9QSSle9o0gRbNz8sCVY5os"}, {"place_id": "ChIJfaSp-tkDDTkROhTAYiiuAO8", "name": "Brightvision Solutions India Pvt. Ltd.", "street": "62a, South Patel Nagar, Block 8, Patel Nagar, New Delhi, Delhi 110008, India", "phone": "+91 98991 26871", "rating": "4.9", "review_count": "", "website": "http://brightvisionsolutions.in/", "latitude": 28.645279199999997, "longitude": 77.1679429, "maps_url": "https://www.google.com/maps/search/?api=1&query=Brightvision%20Solutions%20India%20Pvt.%20Ltd.&query_place_id=ChIJfaSp-tkDDTkROhTAYiiuAO8"}, {"place_id": "ChIJD7GSVp8CDTkRE47SqCTJ01c", "name": "Arena Animation Patel Nagar, Delhi - Best Institute for Animation, VFX, Gaming, Graphics and Web Courses", "street": "33, Patel Rd, South Patel Nagar, Block 5, Patel Nagar, New Delhi, Delhi 110008, India", "phone": "+91 96252 77697", "rating": "4.8", "review_count": "", "website": "https://arenaanimate.com/", "latitude": 28.6421361, "longitude": 77.1734986, "maps_url": "https://www.google.com/maps/search/?api=1&query=Arena%20Animation%20Patel%20Nagar%2C%20Delhi%20-%20Best%20Institute%20for%20Animation%2C%20VFX%2C%20Gaming%2C%20Graphics%20and%20Web%20Courses&query_place_id=ChIJD7GSVp8CDTkRE47SqCTJ01c"}, {"place_id": "ChIJtb8H8ZQDDTkRWktsrTLXOOU", "name": "OneNDF", "street": "Gagandeep Building, C/o Devick Biz Solutions Pvt Ltd, Rajendra Place, New Delhi, Delhi 110008, India", "phone": "+91 72900 41855", "rating": "4.8", "review_count": "", "website": "https://www.onendf.com/", "latitude": 28.644040999999998, "longitude": 77.17752639999999, "maps_url": "https://www.google.com/maps/search/?api=1&query=OneNDF&query_place_id=ChIJtb8H8ZQDDTkRWktsrTLXOOU"}, {"place_id": "ChIJIQU59r0CDTkRXVzobAw42bM", "name": "Surya Roshni Limited", "street": "Padma Tower-1, Rajendra Place, New Delhi, Delhi 110005, India", "phone": "+91 11 4710 8000", "rating": "4.1", "review_count": "", "website": "https://surya.co.in/about-us/", "latitude": 28.6459519, "longitude": 77.178285, "maps_url": "https://www.google.com/maps/search/?api=1&query=Surya%20Roshni%20Limited&query_place_id=ChIJIQU59r0CDTkRXVzobAw42bM"}, {"place_id": "ChIJ4z0gX-wDDTkR7apacHfwA3g", "name": "Taxfiniti:| Tax Audit | Accounting | Book Keeping | GST Return | GST Registration | Company Registration | CA Firm in Delhi", "street": "38/19, Govind Lal Sikka Marg, Block 38, East Patel Nagar, Patel Nagar, Delhi, New Delhi, Delhi 110008, India", "phone": "+91 87499 01234", "rating": "4.9", "review_count": "", "website": "https://taxfiniti.com/", "latitude": 28.6458633, "longitude": 77.1769272, "maps_url": "https://www.google.com/maps/search/?api=1&query=Taxfiniti%3A%7C%20Tax%20Audit%20%7C%20Accounting%20%7C%20Book%20Keeping%20%7C%20GST%20Return%20%7C%20GST%20Registration%20%7C%20Company%20Registration%20%7C%20CA%20Firm%20in%20Delhi&query_place_id=ChIJ4z0gX-wDDTkR7apacHfwA3g"}, {"place_id": "ChIJd1zrxRgDDTkR0Sx_E8OID0M", "name": "GUC Tourism Services Pvt. Ltd.", "street": "805, Prasad Nagar, Rajendra Place, New Delhi, Delhi, 110008, India", "phone": "", "rating": "4.7", "review_count": "", "website": "", "latitude": 28.645970799999997, "longitude": 77.1776527, "maps_url": "https://www.google.com/maps/search/?api=1&query=GUC%20Tourism%20Services%20Pvt.%20Ltd.&query_place_id=ChIJd1zrxRgDDTkR0Sx_E8OID0M"}, {"place_id": "ChIJd-3rnjD9DDkRl57EhpQsBF8", "name": "Mega Grain Trading Company Private Limited", "street": "402, Rajendra Place, New Delhi, Delhi 110060, India", "phone": "+91 11 2571 9896", "rating": "5", "review_count": "", "website": "https://www.megagrain.com/", "latitude": 28.6439639, "longitude": 77.1783969, "maps_url": "https://www.google.com/maps/search/?api=1&query=Mega%20Grain%20Trading%20Company%20Private%20Limited&query_place_id=ChIJd-3rnjD9DDkRl57EhpQsBF8"}, {"place_id": "ChIJb5BxaQD9DDkRfCNOcPvMCPM", "name": "Sloshout - Head Office", "street": "4th Floor, 11B, 8, Pusa Rd, Block 11, Old Rajinder Nagar, Rajinder Nagar, New Delhi, Delhi, 110005, India", "phone": "", "rating": "2.6", "review_count": "", "website": "http://www.sloshout.com/", "latitude": 28.642529, "longitude": 77.1809285, "maps_url": "https://www.google.com/maps/search/?api=1&query=Sloshout%20-%20Head%20Office&query_place_id=ChIJb5BxaQD9DDkRfCNOcPvMCPM"}, {"place_id": "ChIJW6eh6m4DDTkR_X3yTQcdTPI", "name": "Magicine Pharma | Cancer Medicine Manufacturer in India | Cancer Medicine Supplier in India", "street": "Gagandeep Building, Office No.2 Ground Floor, Govind Lal Sikka Marg, Rajendra Place, New Delhi, Delhi 110060, India", "phone": "+91 93191 13130", "rating": "4.8", "review_count": "", "website": "http://magicinepharma.com/", "latitude": 28.642034, "longitude": 77.177189, "maps_url": "https://www.google.com/maps/search/?api=1&query=Magicine%20Pharma%20%7C%20Cancer%20Medicine%20Manufacturer%20in%20India%20%7C%20Cancer%20Medicine%20Supplier%20in%20India&query_place_id=ChIJW6eh6m4DDTkR_X3yTQcdTPI"}, {"place_id": "ChIJcb-YD7YDDTkRO2FRUhVZ4u0", "name": "RKFMA Productions Private Limited", "street": "8A/8, W.E.A, Karol Bagh Behind MTNL Telephone Exchange on Pusa Road, Ganga Mandir Marg, New Delhi, Delhi 110005, India", "phone": "+91 93122 37583", "rating": "4.9", "review_count": "", "website": "http://www.rkfmaproductions.com/", "latitude": 28.644204, "longitude": 77.1821667, "maps_url": "https://www.google.com/maps/search/?api=1&query=RKFMA%20Productions%20Private%20Limited&query_place_id=ChIJcb-YD7YDDTkRO2FRUhVZ4u0"}, {"place_id": "ChIJK-JMhy8DDTkRAJyZ8etXxj4", "name": "Harvest Success Academy", "street": "25/35 second floor east patel nagar, above navedayam restaurent, Delhi 110008, India", "phone": "+91 90823 42339", "rating": "4.6", "review_count": "", "website": "https://www.harvestyourself.com/", "latitude": 28.6436674, "longitude": 77.1760181, "maps_url": "https://www.google.com/maps/search/?api=1&query=Harvest%20Success%20Academy&query_place_id=ChIJK-JMhy8DDTkRAJyZ8etXxj4"}, {"place_id": "ChIJAQAAAKMCDTkRHHLxK-01g-g", "name": "DMK Associates", "street": "31/36, Basement, Old Rajinder Nagar, New Delhi, Delhi 110060, India", "phone": "+91 11 4243 2721", "rating": "4.6", "review_count": "", "website": "http://dmkassociates.in/", "latitude": 28.641632899999998, "longitude": 77.1824979, "maps_url": "https://www.google.com/maps/search/?api=1&query=DMK%20Associates&query_place_id=ChIJAQAAAKMCDTkRHHLxK-01g-g"}, {"place_id": "ChIJoS3RAkUDDTkRPPEFyJTMbQs", "name": "SPG & Associates- Company Secretaries", "street": "10th Floor, Vikram Towers, 1001, Rajendra Place, New Delhi, Delhi 110060, India", "phone": "+91 99683 00649", "rating": "4.8", "review_count": "", "website": "http://www.spgindia.co.in/", "latitude": 28.6429525, "longitude": 77.1784464, "maps_url": "https://www.google.com/maps/search/?api=1&query=SPG%20%26%20Associates-%20Company%20Secretaries&query_place_id=ChIJoS3RAkUDDTkRPPEFyJTMbQs"}, {"place_id": "ChIJg4plhJYCDTkRMx7xON02Q0U", "name": "PARK MEDICLAIM TPA PVT LTD", "street": "702, Vikrant Tower,Rajendra Place, Delhi, 110005, India", "phone": "+91 1800 11 5533", "rating": "3.4", "review_count": "", "website": "http://www.parkmediclaim.co.in/", "latitude": 28.6458616, "longitude": 77.1779907, "maps_url": "https://www.google.com/maps/search/?api=1&query=PARK%20MEDICLAIM%20TPA%20PVT%20LTD&query_place_id=ChIJg4plhJYCDTkRMx7xON02Q0U"}, {"place_id": "ChIJJ4zYXb0CDTkRLAYOj59xcFI", "name": "GenuineMark", "street": "Lower Ground Floor, 11/ 5B, Pusa Rd, Block 11, Old Rajinder Nagar, Rajinder Nagar, Delhi, 110005, India", "phone": "+91 81309 35159", "rating": "5", "review_count": "", "website": "http://www.genuinemark.org/", "latitude": 28.642587, "longitude": 77.18168709999999, "maps_url": "https://www.google.com/maps/search/?api=1&query=GenuineMark&query_place_id=ChIJJ4zYXb0CDTkRLAYOj59xcFI"}, {"place_id": "ChIJc56XqD0FDTkRWZzpY9c2qwQ", "name": "AGA Export World Private Limited", "street": "168, Basement, M Block Rd, Site-1, Pocket R, Rajender Nagar Part 2, New Rajinder Nagar, New Delhi, Delhi 110060, India", "phone": "+91 92679 17055", "rating": "5", "review_count": "", "website": "", "latitude": 28.6401909, "longitude": 77.17580579999999, "maps_url": "https://www.google.com/maps/search/?api=1&query=AGA%20Export%20World%20Private%20Limited&query_place_id=ChIJc56XqD0FDTkRWZzpY9c2qwQ"}, {"place_id": "ChIJwY2Lhr0CDTkRBvjLhvvWl_Q", "name": "SMC Real Estate Advisors Pvt. Ltd", "street": "3rd Floor, 11/5B, Pusa Rd, opposite Metro Pillar Number 132, Block 11, Old Rajinder Nagar, Rajinder Nagar, New Delhi, Delhi, 110005, India", "phone": "+91 81301 15544", "rating": "4.1", "review_count": "", "website": "https://www.smcrealty.com/", "latitude": 28.6426402, "longitude": 77.18167749999999, "maps_url": "https://www.google.com/maps/search/?api=1&query=SMC%20Real%20Estate%20Advisors%20Pvt.%20Ltd&query_place_id=ChIJwY2Lhr0CDTkRBvjLhvvWl_Q"}, {"place_id": "ChIJpbHmFYICDTkRl9JDmzJ_Zeo", "name": "Bluecrane interiors", "street": "6A/43, Block 8A, WEA, Karol Bagh, New Delhi, Delhi, 110005, India", "phone": "+91 98919 76821", "rating": "4.8", "review_count": "", "website": "", "latitude": 28.6447959, "longitude": 77.1821671, "maps_url": "https://www.google.com/maps/search/?api=1&query=Bluecrane%20interiors&query_place_id=ChIJpbHmFYICDTkRl9JDmzJ_Zeo"}, {"place_id": "ChIJJ1taMi0FDTkRtEyy1B5WnDU", "name": "Master Brains", "street": "303, Prabhat Kiran Building, 17, Rajendra Place, New Delhi, Delhi 110060, India", "phone": "+91 85958 67402", "rating": "4.9", "review_count": "", "website": "https://masterbrains.co.in/", "latitude": 28.6439639, "longitude": 77.1783969, "maps_url": "https://www.google.com/maps/search/?api=1&query=Master%20Brains&query_place_id=ChIJJ1taMi0FDTkRtEyy1B5WnDU"}, {"place_id": "ChIJcXKWhCcFDTkRNEVFKwsKsds", "name": "LSONIC INDUSTRIES PVT. LTD.", "street": "Rajendra Place, New Delhi, Delhi 110008, India", "phone": "", "rating": "4.2", "review_count": "", "website": "http://lsonicindustries.com/", "latitude": 28.6432944, "longitude": 77.1779949, "maps_url": "https://www.google.com/maps/search/?api=1&query=LSONIC%20INDUSTRIES%20PVT.%20LTD.&query_place_id=ChIJcXKWhCcFDTkRNEVFKwsKsds"}, {"place_id": "ChIJB1i5musDDTkRR201ZBYajGM", "name": "Global Business Connects", "street": "R546, Shankar Rd, R-Block, Pocket R, Rajender Nagar Part 2, Rajinder Nagar, New Delhi, Delhi 110060, India", "phone": "+91 11 4520 2020", "rating": "5", "review_count": "", "website": "https://ourglobalgroup.com/", "latitude": 28.639675399999998, "longitude": 77.1777403, "maps_url": "https://www.google.com/maps/search/?api=1&query=Global%20Business%20Connects&query_place_id=ChIJB1i5musDDTkRR201ZBYajGM"}, {"place_id": "ChIJOXjV-5UCDTkRn4hoGe--DU4", "name": "Meteors Immigration Consultancy", "street": "202, 17, Rajendra Place, New Delhi, Delhi 110060, India", "phone": "+91 11 4573 3662", "rating": "3.8", "review_count": "", "website": "", "latitude": 28.6439639, "longitude": 77.1783969, "maps_url": "https://www.google.com/maps/search/?api=1&query=Meteors%20Immigration%20Consultancy&query_place_id=ChIJOXjV-5UCDTkRn4hoGe--DU4"}, {"place_id": "ChIJ__9PgpYCDTkR8MuK0Ke6Pug", "name": "RIPS Consultancy Services", "street": "6J 6th Floor, TOWER-5, 25, West, Prasad Nagar, Rajendra Place, New Delhi, Delhi, 110008, India", "phone": "+91 11 4350 3846", "rating": "5", "review_count": "", "website": "http://ripsconsultancy.com/", "latitude": 28.64584, "longitude": 77.1774085, "maps_url": "https://www.google.com/maps/search/?api=1&query=RIPS%20Consultancy%20Services&query_place_id=ChIJ__9PgpYCDTkR8MuK0Ke6Pug"}, {"place_id": "ChIJ_9hFWb0CDTkRuPEtro9WIFA", "name": "Tata AIA Life Insurance Co.Ltd.", "street": "Floor Tower B, 11/5, Gali Number 2, Block 11, Old Rajinder Nagar, Prem Nagar, New Delhi, Delhi, 110005, India", "phone": "+91 11 6666 0000", "rating": "3.7", "review_count": "", "website": "http://www.tataaia.com/", "latitude": 28.6426284, "longitude": 77.1819987, "maps_url": "https://www.google.com/maps/search/?api=1&query=Tata%20AIA%20Life%20Insurance%20Co.Ltd.&query_place_id=ChIJ_9hFWb0CDTkRuPEtro9WIFA"}, {"place_id": "ChIJn3lQ_CMDDTkRnejnmlbJHrA", "name": "HKS Manpower India Private Limited", "street": "1st Floor, 39/34, Old Rajinder Nagar, Rajinder Nagar, New Delhi, Delhi, 110005, India", "phone": "+91 93114 54311", "rating": "5", "review_count": "", "website": "http://www.hksmanpower.com/", "latitude": 28.642011699999998, "longitude": 77.18162769999999, "maps_url": "https://www.google.com/maps/search/?api=1&query=HKS%20Manpower%20India%20Private%20Limited&query_place_id=ChIJn3lQ_CMDDTkRnejnmlbJHrA"}, {"place_id": "ChIJ7aQz9CwDDTkReBA-Btx5gQI", "name": "THE BRANDNITY_ | Best Website Designing, Digital Marketing And AI ML Compnay In New Delhi", "street": "Shop No 59, Back Side, Station, near Metro Station Patel Nagar, Block 8, South Patel Nagar, New Delhi, Delhi 110008, India", "phone": "", "rating": "5", "review_count": "", "website": "http://www.brandnity.com/", "latitude": 28.6453991, "longitude": 77.1680413, "maps_url": "https://www.google.com/maps/search/?api=1&query=THE%20BRANDNITY_%20%7C%20Best%20Website%20Designing%2C%20Digital%20Marketing%20And%20AI%20ML%20Compnay%20In%20New%20Delhi&query_place_id=ChIJ7aQz9CwDDTkReBA-Btx5gQI"}]