{"timestamp": 1773731121.9892523, "keyword": "IT company", "location": "delhi", "cell_idx": 346, "results": [{"place_id": "0x39f89c0fb3b411eb:0xbe473f977e9b7558", "name": "Kbeatech - Digital Solutions Company", "category": "Software company", "street": "1893, 1st Floor", "city": "Uday Chand Marg", "phone": "", "website": "https://kbeatech.in/", "rating": 4.9, "review_count": "", "latitude": 28.571338299999997, "longitude": 77.2228884, "maps_url": "https://www.google.com/maps/place/?q=place_id:0x39f89c0fb3b411eb:0xbe473f977e9b7558"}, {"place_id": "0x390ce2e52043e633:0x3ed44d79ea4bd91c", "name": "Wirecto", "category": "Software company", "street": "Triloki Colony", "city": "C-49", "phone": "09716670074", "website": "https://wirecto.app/", "rating": 5, "review_count": "", "latitude": 28.575404799999998, "longitude": 77.2250054, "maps_url": "https://www.google.com/maps/place/?q=place_id:0x390ce2e52043e633:0x3ed44d79ea4bd91c"}, {"place_id": "0x390ce25e81555555:0xf93f773552127f47", "name": "SANEKT SOFTWARE SOLUTION", "category": "Software company", "street": "Top floor", "city": "H 11", "phone": "01141589565", "website": "http://sanekt.com/", "rating": 5, "review_count": "", "latitude": 28.571361, "longitude": 77.221733, "maps_url": "https://www.google.com/maps/place/?q=place_id:0x390ce25e81555555:0xf93f773552127f47"}, {"place_id": "0x390ce310ddbe6011:0x29e7c76ca87ea495", "name": "DigiTecholic Private Limited", "category": "Software company", "street": "1st Floor", "city": "H-11", "phone": "07700840888", "website": "https://www.digitecholic.com/", "rating": 5, "review_count": "", "latitude": 28.5713112, "longitude": 77.2219863, "maps_url": "https://www.google.com/maps/place/?q=place_id:0x390ce310ddbe6011:0x29e7c76ca87ea495"}, {"place_id": "0x390ce3e3ed0623a7:0x52530672253e6595", "name": "PRO ITPULP PRIVATE LIMITED", "category": "Corporate office", "street": "H", "city": "17", "phone": "07042325661", "website": "http://www.itpulp.com/", "rating": 4.7, "review_count": "", "latitude": 28.571332299999998, "longitude": 77.2221936, "maps_url": "https://www.google.com/maps/place/?q=place_id:0x390ce3e3ed0623a7:0x52530672253e6595"}, {"place_id": "0x390ce458d0000001:0xf2123bd299ec4501", "name": "IT Company India", "category": "Software company", "street": "D56", "city": "D Block, Sector 10", "phone": "09999244854", "website": "https://www.itcompanyindia.in/", "rating": 4.7, "review_count": "", "latitude": 28.589917699999997, "longitude": 77.3351153, "maps_url": "https://www.google.com/maps/place/?q=place_id:0x390ce458d0000001:0xf2123bd299ec4501"}, {"place_id": "0x390ce30054c8a693:0x37cd02e6bf025798", "name": "Phoenix Technologies India Pvt. Ltd.", "category": "Corporate office", "street": "2nd Floor", "city": "1497, Bhishma Pitamah Marg", "phone": "07503737604", "website": "https://pxtindia.com/", "rating": 4.8, "review_count": "", "latitude": 28.569951, "longitude": 77.2262181, "maps_url": "https://www.google.com/maps/place/?q=place_id:0x390ce30054c8a693:0x37cd02e6bf025798"}, {"place_id": "0x390ce25ed0000001:0x36fe63b9d60ce376", "name": "Saveer Biotech Limited", "category": "Corporate office", "street": "1442", "city": "South Extension I, Wazir Nagar", "phone": "09711315990", "website": "http://www.saveer.com/", "rating": 4.7, "review_count": "", "latitude": 28.571093899999997, "longitude": 77.2256027, "maps_url": "https://www.google.com/maps/place/?q=place_id:0x390ce25ed0000001:0x36fe63b9d60ce376"}, {"place_id": "0x390ce3781cbdb22d:0xbd41d0cf9e91ae18", "name": "AIscelsys Technologies India", "category": "Software company", "street": "H 5", "city": "near Mother Dairy", "phone": "09891117009", "website": "https://aiscelsys.com/", "rating": 5, "review_count": "", "latitude": 28.5705247, "longitude": 77.22214509999999, "maps_url": "https://www.google.com/maps/place/?q=place_id:0x390ce3781cbdb22d:0xbd41d0cf9e91ae18"}, {"place_id": "0x390ce25b18e7fa87:0x8810dd186178a9da", "name": "IPE Global Limited", "category": "Corporate office", "street": "B-84", "city": "Block B, Defence Colony", "phone": "01140755900", "website": "http://www.ipeglobal.com/", "rating": 4.1, "review_count": "", "latitude": 28.568590999999998, "longitude": 77.22605949999999, "maps_url": "https://www.google.com/maps/place/?q=place_id:0x390ce25b18e7fa87:0x8810dd186178a9da"}, {"place_id": "0x390ce3182c7259d9:0x2d02684137f095d1", "name": "SD Infosystems", "category": "Computer support and services", "street": "1483/A1, 3rd Floor, Wazir Nagar", "city": "South Extension I, Kotla Mubarakpur", "phone": "09810348327", "website": "http://sdinfosystems.com/", "rating": 4.8, "review_count": "", "latitude": 28.570127, "longitude": 77.2247721, "maps_url": "https://www.google.com/maps/place/?q=place_id:0x390ce3182c7259d9:0x2d02684137f095d1"}, {"place_id": "0x390ce32f9d887bb3:0xbf4a979b5e75fb57", "name": "360Pano - Virtual Reality Company", "category": "Corporate office", "street": "Zen Coworks", "city": "C 585", "phone": "", "website": "https://www.360pano.in/", "rating": 5, "review_count": "", "latitude": 28.5676565, "longitude": 77.2279933, "maps_url": "https://www.google.com/maps/place/?q=place_id:0x390ce32f9d887bb3:0xbf4a979b5e75fb57"}, {"place_id": "0x390ce35d25c5466f:0x41c40a2785d15027", "name": "JM INTERNATIONAL IT SERVICES", "category": "Computer support and services", "street": "Office Number 201, 1ST FLOOR", "city": "South Extension I, Mahaveer Nagar, Kotla Mubarakpur", "phone": "08882624635", "website": "", "rating": 5, "review_count": "", "latitude": 28.5713793, "longitude": 77.2232011, "maps_url": "https://www.google.com/maps/place/?q=place_id:0x390ce35d25c5466f:0x41c40a2785d15027"}, {"place_id": "0x4ebf586dbe4d7c09:0x968455c83bf5226c", "name": "Anchor IT Solutions- App Development | Website Development | Digital Marketing", "category": "Software company", "street": "4", "city": "Vinoba Puri, Lajpat Nagar II, Lajpat Nagar", "phone": "07678658584", "website": "", "rating": 4.8, "review_count": "", "latitude": 28.566371399999998, "longitude": 77.2486924, "maps_url": "https://www.google.com/maps/place/?q=place_id:0x4ebf586dbe4d7c09:0x968455c83bf5226c"}, {"place_id": "0x390ce25ebe73cb59:0x10c38414ead34923", "name": "Apptians", "category": "Software company", "street": "1473", "city": "South Extension I, Wazir Nagar", "phone": "07042202435", "website": "https://apptians.com/", "rating": 4.9, "review_count": "", "latitude": 28.5710859, "longitude": 77.22483319999999, "maps_url": "https://www.google.com/maps/place/?q=place_id:0x390ce25ebe73cb59:0x10c38414ead34923"}, {"place_id": "0x390ce3ca0c135e3b:0xf0057a56b947c097", "name": "DigiDotes", "category": "Website designer", "street": "S/F", "city": "Bhaskar Bhawan", "phone": "09311222735", "website": "https://digidotes.com/", "rating": 4.3, "review_count": "", "latitude": 28.5706109, "longitude": 77.2220881, "maps_url": "https://www.google.com/maps/place/?q=place_id:0x390ce3ca0c135e3b:0xf0057a56b947c097"}, {"place_id": "0x390ce39131a16a9f:0x2bbd1dd6c0dc7c9b", "name": "DivineTech Innovations| Special Purpose Machine | Automation | PLC | MCB | INDUSTRIAL EQUIPMENTS", "category": "Automation company", "street": "Dev Karan Complex", "city": "Sher Singh Bazaar Rd", "phone": "09205925200", "website": "http://www.divinetechinnovations.com/", "rating": 5, "review_count": "", "latitude": 28.5713732, "longitude": 77.2235358, "maps_url": "https://www.google.com/maps/place/?q=place_id:0x390ce39131a16a9f:0x2bbd1dd6c0dc7c9b"}, {"place_id": "0x390ce25d7ef609a1:0xdc7e8bb41614f0a7", "name": "AmazDraw Services PVT. LTD.", "category": "Graphic designer", "street": "", "city": "", "phone": "08595861648", "website": "https://amazdraw.com/", "rating": 5, "review_count": "", "latitude": 21.0680074, "longitude": 82.7525294, "maps_url": "https://www.google.com/maps/place/?q=place_id:0x390ce25d7ef609a1:0xdc7e8bb41614f0a7"}, {"place_id": "0x390ce30014214c05:0xbb73b67268c1b544", "name": "SK ENTERPRISES", "category": "Computer repair service", "street": "1812, Uday Chand Marg", "city": "near Barat Ghar", "phone": "09711709930", "website": "", "rating": 4.9, "review_count": "", "latitude": 28.571856999999998, "longitude": 77.2221845, "maps_url": "https://www.google.com/maps/place/?q=place_id:0x390ce30014214c05:0xbb73b67268c1b544"}, {"place_id": "0x390ce25c802336c3:0xdaab1f0e13d7be2e", "name": "Red Realm Marketing", "category": "Website designer", "street": "B-2, Gurudwara Rd", "city": "near Islam Motors", "phone": "08800229728", "website": "http://www.redrealm.co.in/", "rating": 4.6, "review_count": "", "latitude": 28.5693268, "longitude": 77.223213, "maps_url": "https://www.google.com/maps/place/?q=place_id:0x390ce25c802336c3:0xdaab1f0e13d7be2e"}, {"place_id": "0x390ce25ca3f15b15:0xb4b5f5c11db9706c", "name": "SHARDA TECH", "category": "Internet marketing service", "street": "M-11", "city": "South Extension II, Block M", "phone": "01204033888", "website": "http://shardatech.org/", "rating": 4.7, "review_count": "", "latitude": 28.567633299999997, "longitude": 77.22284669999999, "maps_url": "https://www.google.com/maps/place/?q=place_id:0x390ce25ca3f15b15:0xb4b5f5c11db9706c"}, {"place_id": "0x390ce3da5ee3183f:0x214bee4685d29ef8", "name": "Erekrut HR Automation Solutions Pvt Ltd", "category": "Human resource consulting", "street": "Rear Basement", "city": "M-3, Ring Rd", "phone": "01145000144", "website": "https://www.erekrut.com/", "rating": 3.7, "review_count": "", "latitude": 28.5676658, "longitude": 77.2242534, "maps_url": "https://www.google.com/maps/place/?q=place_id:0x390ce3da5ee3183f:0x214bee4685d29ef8"}, {"place_id": "0x390ce25c802336c3:0xdaab1f0e13d7be2e", "name": "Red Realm Marketing", "category": "Website designer", "street": "B-2, Gurudwara Rd", "city": "near Islam Motors", "phone": "08800229728", "website": "http://www.redrealm.co.in/", "rating": 4.6, "review_count": "", "latitude": 28.5693268, "longitude": 77.223213, "maps_url": "https://www.google.com/maps/place/?q=place_id:0x390ce25c802336c3:0xdaab1f0e13d7be2e"}, {"place_id": "0x390ce25b218ffc37:0x33eb9091b354e123", "name": "SIS Limited, Delhi - Regional Office", "category": "Security guard service", "street": "3rd Floor B", "city": "88, Bhishma Pitamah Marg", "phone": "01146464444", "website": "https://sisindia.com/", "rating": 3.8, "review_count": "", "latitude": 28.5681828, "longitude": 77.2258191, "maps_url": "https://www.google.com/maps/place/?q=place_id:0x390ce25b218ffc37:0x33eb9091b354e123"}, {"place_id": "0x390ce301c6c04671:0x740d812cf75c4abd", "name": "DLF Safe Shifting Expert", "category": "Packaging company", "street": "306", "city": "opposite Sukun Park", "phone": "", "website": "https://www.dlfsafeshifting.in/", "rating": 5, "review_count": "", "latitude": 28.5695446, "longitude": 77.2313698, "maps_url": "https://www.google.com/maps/place/?q=place_id:0x390ce301c6c04671:0x740d812cf75c4abd"}, {"place_id": "0x390cfd9ff4b82955:0xc78ee953f0fce882", "name": "USV & COMPANY", "category": "Estate planning attorney", "street": "LGF", "city": "B-27", "phone": "08920977471", "website": "https://usvassociate.com/", "rating": 5, "review_count": "", "latitude": 28.571118799999997, "longitude": 77.227732, "maps_url": "https://www.google.com/maps/place/?q=place_id:0x390cfd9ff4b82955:0xc78ee953f0fce882"}, {"place_id": "0x390ce35071aa88f7:0x6b1c5c0fde4cac28", "name": "CAAQ Consultancy - Company Registration & Compliance Consultant Delhi", "category": "Accounting firm", "street": "S/F", "city": "Bhaskar Bhavan", "phone": "", "website": "https://caaq.in/", "rating": 4.1, "review_count": "", "latitude": 28.570666, "longitude": 77.2222604, "maps_url": "https://www.google.com/maps/place/?q=place_id:0x390ce35071aa88f7:0x6b1c5c0fde4cac28"}, {"place_id": "0x390ce25977284821:0x71a0e34c6df60de6", "name": "Goyal Trading Co", "category": "Association / Organization", "street": "1466, Gurudwara Rd", "city": "Main Market, Mahaveer Nagar, Kotla Mubarakpur", "phone": "09599306642", "website": "", "rating": 4.2, "review_count": "", "latitude": 28.572097099999997, "longitude": 77.2251383, "maps_url": "https://www.google.com/maps/place/?q=place_id:0x390ce25977284821:0x71a0e34c6df60de6"}, {"place_id": "0x390ce25b21830847:0xf81b6b1dc8c644bc", "name": "Sanjay Grover & Associates(Company Secretaries)", "category": "Consultant", "street": "B-88, 1st Floor", "city": "Defence Colony", "phone": "01146790000", "website": "http://www.cssanjaygrover.in/resource/home.aspx", "rating": 4.8, "review_count": "", "latitude": 28.5681074, "longitude": 77.2258255, "maps_url": "https://www.google.com/maps/place/?q=place_id:0x390ce25b21830847:0xf81b6b1dc8c644bc"}, {"place_id": "0x390ce3941b71e84b:0xfc5131824c5bda4b", "name": "Gath Productions Pvt Ltd", "category": "Film Production Company", "street": "2nd Floor", "city": "A-6, Ring Rd", "phone": "08800593400", "website": "http://www.gathproductions.com/", "rating": 5, "review_count": "", "latitude": 28.568951, "longitude": 77.2225105, "maps_url": "https://www.google.com/maps/place/?q=place_id:0x390ce3941b71e84b:0xfc5131824c5bda4b"}, {"place_id": "0x390ce39d936b3e73:0x7322566a7104ffd3", "name": "Utsao - Corporate & Business Gifts", "category": "Corporate gift supplier", "street": "S/F1", "city": "Bhaskar Bhavan", "phone": "09289738874", "website": "https://utsao.com/", "rating": 4.7, "review_count": "", "latitude": 28.570666, "longitude": 77.2222604, "maps_url": "https://www.google.com/maps/place/?q=place_id:0x390ce39d936b3e73:0x7322566a7104ffd3"}, {"place_id": "0x390ce34afbbdb64b:0xc5bf5d9517628a72", "name": "Tennexo Import Export Pvt. Ltd.", "category": "Import export company", "street": "3rd Floor", "city": "Shanti Bhawan", "phone": "08076385425", "website": "https://tennexo.com/", "rating": 4.9, "review_count": "", "latitude": 28.5721106, "longitude": 77.2220581, "maps_url": "https://www.google.com/maps/place/?q=place_id:0x390ce34afbbdb64b:0xc5bf5d9517628a72"}, {"place_id": "0x390ce25bf3643f6d:0xf1699cfc4b71993d", "name": "Fireball Securitas | Security Guards Service | Top security services | Delhi India", "category": "Security guard service", "street": "1899, Uday Chand Marg", "city": "South Extension I, Kotla Mubarakpur", "phone": "08586977224", "website": "http://www.fireballindia.com/", "rating": 4.6, "review_count": "", "latitude": 28.5719329, "longitude": 77.221848, "maps_url": "https://www.google.com/maps/place/?q=place_id:0x390ce25bf3643f6d:0xf1699cfc4b71993d"}, {"place_id": "0x390ce3a71e9128e5:0xa5fb608323bb2b78", "name": "Salvator IT Solutions", "category": "Website designer", "street": "H-15", "city": "South Extension I, Block H", "phone": "", "website": "", "rating": 5, "review_count": "", "latitude": 28.571170799999997, "longitude": 77.2218998, "maps_url": "https://www.google.com/maps/place/?q=place_id:0x390ce3a71e9128e5:0xa5fb608323bb2b78"}, {"place_id": "0x390ce25115555555:0xe61b83975643916f", "name": "Armour Security (India) Ltd", "category": "Security guard service", "street": "B-87, 2nd Floor", "city": "Block B, Defence Colony", "phone": "01124331529", "website": "http://www.armoursecurities.com/", "rating": 4.1, "review_count": "", "latitude": 28.5686124, "longitude": 77.2259959, "maps_url": "https://www.google.com/maps/place/?q=place_id:0x390ce25115555555:0xe61b83975643916f"}, {"place_id": "0x390ce2506aabd7cb:0x2573f2ecbb8e812b", "name": "Zen Co-Works Business Centre", "category": "Business center", "street": "C585, Chakrabarti Vithi Rd", "city": "Block C, Defence Colony", "phone": "01149887777", "website": "http://zencoworks.com/", "rating": 4.3, "review_count": "", "latitude": 28.5677122, "longitude": 77.2280076, "maps_url": "https://www.google.com/maps/place/?q=place_id:0x390ce2506aabd7cb:0x2573f2ecbb8e812b"}, {"place_id": "0x390ce39a2e47b1d5:0x93c5f4b15b43d9d0", "name": "Future Point | Best Astrology Institute in Delhi", "category": "Astrologer", "street": "A", "city": "3, Ring Rd", "phone": "09310320121", "website": "", "rating": 4.3, "review_count": "", "latitude": 28.568957299999997, "longitude": 77.2228935, "maps_url": "https://www.google.com/maps/place/?q=place_id:0x390ce39a2e47b1d5:0x93c5f4b15b43d9d0"}, {"place_id": "0x390ce25b0a04f373:0x315945c18596071", "name": "Rajesh & Co. | WPC LOUVERS/PVC PANELS wholesaler", "category": "Lumber store", "street": "1451, Bhishma Pitamah Marg", "city": "Main Road", "phone": "09899749973", "website": "https://rajeshandco.com/", "rating": 4.7, "review_count": "", "latitude": 28.5709914, "longitude": 77.2268866, "maps_url": "https://www.google.com/maps/place/?q=place_id:0x390ce25b0a04f373:0x315945c18596071"}, {"place_id": "0x390ce25993ffffff:0xb1de287ac0317e4", "name": "Melon", "category": "Manufacturer", "street": "B", "city": "1898, Uday Chand Marg", "phone": "09102424636", "website": "http://melonforever.com/", "rating": 3.4, "review_count": "", "latitude": 28.5716741, "longitude": 77.2222177, "maps_url": "https://www.google.com/maps/place/?q=place_id:0x390ce25993ffffff:0xb1de287ac0317e4"}, {"place_id": "0x390ce25afce1a1eb:0x112666ea8904950d", "name": "Jyoti Group", "category": "Foreign Trade Consultant", "street": "B-79", "city": "Block B, Defence Colony", "phone": "01124337662", "website": "http://www.jtcindia.com/", "rating": 3.8, "review_count": "", "latitude": 28.5692663, "longitude": 77.2263239, "maps_url": "https://www.google.com/maps/place/?q=place_id:0x390ce25afce1a1eb:0x112666ea8904950d"}, {"place_id": "0x390ce25115555555:0xe61b83975643916f", "name": "Armour Security (India) Ltd", "category": "Security guard service", "street": "B-87, 2nd Floor", "city": "Block B, Defence Colony", "phone": "01124331529", "website": "http://www.armoursecurities.com/", "rating": 4.1, "review_count": "", "latitude": 28.5686124, "longitude": 77.2259959, "maps_url": "https://www.google.com/maps/place/?q=place_id:0x390ce25115555555:0xe61b83975643916f"}, {"place_id": "0x390ce25a3cab78d1:0xf38c70e2d94b9413", "name": "Rastey Cabs", "category": "Corporate office", "street": "59, Bhishma Pitamah Marg", "city": "South Extension I, Arjun Nagar, Wazir Nagar", "phone": "01148844884", "website": "", "rating": 4.5, "review_count": "", "latitude": 28.571959099999997, "longitude": 77.22724389999999, "maps_url": "https://www.google.com/maps/place/?q=place_id:0x390ce25a3cab78d1:0xf38c70e2d94b9413"}, {"place_id": "0x390ce25ae19bf7ed:0x929ba222db87f74f", "name": "Lovestruckcow", "category": "Marketing agency", "street": "B-89", "city": "Block B, Defence Colony", "phone": "01141888415", "website": "http://lovestruckcow.com/", "rating": 4.8, "review_count": "", "latitude": 28.5685732, "longitude": 77.2263524, "maps_url": "https://www.google.com/maps/place/?q=place_id:0x390ce25ae19bf7ed:0x929ba222db87f74f"}, {"place_id": "0x390ce25993ffffff:0xb1de287ac0317e4", "name": "Melon", "category": "Manufacturer", "street": "B", "city": "1898, Uday Chand Marg", "phone": "09102424636", "website": "http://melonforever.com/", "rating": 3.4, "review_count": "", "latitude": 28.5716741, "longitude": 77.2222177, "maps_url": "https://www.google.com/maps/place/?q=place_id:0x390ce25993ffffff:0xb1de287ac0317e4"}, {"place_id": "0x390ce3eb8341b381:0xe52592a7b1903023", "name": "A2Z Cyber Solution", "category": "Internet cafe", "street": "1804/5, PRASADI GALI", "city": "South Extension I, Zafar Nagar, Kotla Mubarakpur", "phone": "08506092483", "website": "", "rating": 5, "review_count": "", "latitude": 28.572293, "longitude": 77.2230268, "maps_url": "https://www.google.com/maps/place/?q=place_id:0x390ce3eb8341b381:0xe52592a7b1903023"}, {"place_id": "0x390ce25b0a04f373:0x315945c18596071", "name": "Rajesh & Co. | WPC LOUVERS/PVC PANELS wholesaler", "category": "Lumber store", "street": "1451, Bhishma Pitamah Marg", "city": "Main Road", "phone": "09899749973", "website": "https://rajeshandco.com/", "rating": 4.7, "review_count": "", "latitude": 28.5709914, "longitude": 77.2268866, "maps_url": "https://www.google.com/maps/place/?q=place_id:0x390ce25b0a04f373:0x315945c18596071"}, {"place_id": "0x390ce25afce1a1eb:0x112666ea8904950d", "name": "Jyoti Group", "category": "Foreign Trade Consultant", "street": "B-79", "city": "Block B, Defence Colony", "phone": "01124337662", "website": "http://www.jtcindia.com/", "rating": 3.8, "review_count": "", "latitude": 28.5692663, "longitude": 77.2263239, "maps_url": "https://www.google.com/maps/place/?q=place_id:0x390ce25afce1a1eb:0x112666ea8904950d"}, {"place_id": "0x390ce3044debc38d:0x2febb17c0d4c76f0", "name": "MAY & CO.", "category": "Beverage Store", "street": "1899-B", "city": "South Extension I, G/F, Kotla Mubarakpur", "phone": "07217834405", "website": "https://mayandco.in/", "rating": 4.3, "review_count": "", "latitude": 28.5716008, "longitude": 77.2217416, "maps_url": "https://www.google.com/maps/place/?q=place_id:0x390ce3044debc38d:0x2febb17c0d4c76f0"}, {"place_id": "0x390ce3249f01771f:0x37b74443e206b415", "name": "Ybratemedia", "category": "Marketing agency", "street": "H10", "city": "South Extension I, Block H, Manritoverseas", "phone": "07319729375", "website": "https://ybratemedia.com/", "rating": 5, "review_count": "", "latitude": 28.571382699999997, "longitude": 77.22176979999999, "maps_url": "https://www.google.com/maps/place/?q=place_id:0x390ce3249f01771f:0x37b74443e206b415"}, {"place_id": "0x390ce377f13e8cf1:0x497fde9401cff6a6", "name": "Hub and Oak Coworking - C-Block Defence Colony", "category": "Coworking space", "street": "LGF", "city": "C-360", "phone": "09711141520", "website": "https://hubandoak.com/coworking-space-defence-colony-new-delhi/?utm_source=google&utm_medium=organic&utm_campaign=gmb", "rating": 4.7, "review_count": "", "latitude": 28.5690712, "longitude": 77.2303328, "maps_url": "https://www.google.com/maps/place/?q=place_id:0x390ce377f13e8cf1:0x497fde9401cff6a6"}, {"place_id": "0x390ce39dc8df92c1:0x6767dbdb6148e477", "name": "Future Skill Computer Training Institute | Best Computer Class in South Extension", "category": "Education center", "street": "1899/4c, Uday Chand Marg", "city": "near Barat Ghar", "phone": "07761876100", "website": "https://66f93c9868be281cf89c2e9c--neon-paprenjak-1dccec.netlify.app/", "rating": 5, "review_count": "", "latitude": 28.5718487, "longitude": 77.2219738, "maps_url": "https://www.google.com/maps/place/?q=place_id:0x390ce39dc8df92c1:0x6767dbdb6148e477"}, {"place_id": "0x390ce3a09a36dec5:0x69aaa2f13c40037", "name": "Global Hygiene Services", "category": "Pest control service", "street": "1400/1 T-7 Hans Plaza Building Kotla Mubarak Pur", "city": "Wazir Nagar", "phone": "09667972228", "website": "http://www.globalhygieneservices.in/", "rating": 4.9, "review_count": "", "latitude": 28.5715337, "longitude": 77.2255328, "maps_url": "https://www.google.com/maps/place/?q=place_id:0x390ce3a09a36dec5:0x69aaa2f13c40037"}, {"place_id": "0x390ce3ad9aaaaaab:0xfaf86714c5dd77c0", "name": "Vidma Consulting Group LLP", "category": "Legal services", "street": "Zen Co-Works Business Centre", "city": "C-585, Basement, #2-127", "phone": "09836033992", "website": "http://vidmaconsulting.com/", "rating": 4.8, "review_count": "", "latitude": 28.567691, "longitude": 77.2279247, "maps_url": "https://www.google.com/maps/place/?q=place_id:0x390ce3ad9aaaaaab:0xfaf86714c5dd77c0"}, {"place_id": "0x390ce17e2fde5ddf:0x77b830449e29816c", "name": "Spacewood \u2013 Modular Kitchen & Wardrobe Manufacturer in Delhi", "category": "Furniture Manufacturer", "street": "2ND Floor", "city": "B \u2013 77, Bhishma Pitamah Marg", "phone": "09810084410", "website": "http://www.spacewood.in/", "rating": 3.8, "review_count": "", "latitude": 28.569292899999997, "longitude": 77.2264263, "maps_url": "https://www.google.com/maps/place/?q=place_id:0x390ce17e2fde5ddf:0x77b830449e29816c"}, {"place_id": "0x390ce25a1eeb701f:0x71fb81b7cec0842", "name": "Shooting Solutions", "category": "Equipment rental agency", "street": "Bhishma Pitamah Marg", "city": "South Extension I, Arjun Nagar, Kotla Mubarakpur", "phone": "09810881242", "website": "", "rating": 4.3, "review_count": "", "latitude": 28.5722991, "longitude": 77.2273859, "maps_url": "https://www.google.com/maps/place/?q=place_id:0x390ce25a1eeb701f:0x71fb81b7cec0842"}, {"place_id": "0x390ce3d9b15948e1:0x63270efd409ad96d", "name": "AIS Windows Experience Centre Delhi | Doors and Windows", "category": "Glass manufacturer", "street": "B - 86 First Floor", "city": "South Extension, Block B, Defence Colony", "phone": "18001034805", "website": "https://www.aiswindows.com/exp_center/?utm_source=google&utm_medium=gmb&utm_campaign=googlemybusiness&utm_content=delhi", "rating": 4.4, "review_count": "", "latitude": 28.5684102, "longitude": 77.2258911, "maps_url": "https://www.google.com/maps/place/?q=place_id:0x390ce3d9b15948e1:0x63270efd409ad96d"}, {"place_id": "0x390ce25e94baf273:0x6495c70872e4a3", "name": "Star Digital Print N Bind", "category": "Digital printing service", "street": "1823, Sher Singh Bazaar Rd", "city": "near Kailash Samosa", "phone": "09990450911", "website": "http://www.starprintcare.com/", "rating": 4.3, "review_count": "", "latitude": 28.571168699999998, "longitude": 77.2238983, "maps_url": "https://www.google.com/maps/place/?q=place_id:0x390ce25e94baf273:0x6495c70872e4a3"}, {"place_id": "0x390ce25ec0000001:0x2c8179b81f2e61bc", "name": "Ajanta Digital Studio", "category": "Photography studio", "street": "H-60", "city": "South Extension I, Block H", "phone": "01141655610", "website": "", "rating": 4.4, "review_count": "", "latitude": 28.5702805, "longitude": 77.2217612, "maps_url": "https://www.google.com/maps/place/?q=place_id:0x390ce25ec0000001:0x2c8179b81f2e61bc"}, {"place_id": "0x390ce25cbfa79397:0x46a2dca7ef01e52c", "name": "VAPS & CO.", "category": "Accounting firm", "street": "C-42", "city": "South Extension II, Block C", "phone": "01141645051", "website": "http://vaps.co.in/", "rating": 5, "review_count": "", "latitude": 28.567705999999998, "longitude": 77.22196199999999, "maps_url": "https://www.google.com/maps/place/?q=place_id:0x390ce25cbfa79397:0x46a2dca7ef01e52c"}, {"place_id": "0x27d08e51842e523:0x44637219eb30d668", "name": "Hash 9 Digital", "category": "Computer support and services", "street": "H-10", "city": "South Extension I, Block H", "phone": "08384070307", "website": "https://www.hash9digital.com/", "rating": 3.6, "review_count": "", "latitude": 28.571359599999997, "longitude": 77.2217773, "maps_url": "https://www.google.com/maps/place/?q=place_id:0x27d08e51842e523:0x44637219eb30d668"}, {"place_id": "0x390ce25ec0000001:0x2c8179b81f2e61bc", "name": "Ajanta Digital Studio", "category": "Photography studio", "street": "H-60", "city": "South Extension I, Block H", "phone": "01141655610", "website": "", "rating": 4.4, "review_count": "", "latitude": 28.5702805, "longitude": 77.2217612, "maps_url": "https://www.google.com/maps/place/?q=place_id:0x390ce25ec0000001:0x2c8179b81f2e61bc"}, {"place_id": "0x390ce25ba243cc5b:0x3122142de4475eb6", "name": "Creative Land Advertising", "category": "Graphic designer", "street": "1483, Gali No. 3", "city": "South Ex, Wazir Nagar, Kotla Mubarakpur", "phone": "09871435513", "website": "", "rating": 3.5, "review_count": "", "latitude": 28.570067299999998, "longitude": 77.2248183, "maps_url": "https://www.google.com/maps/place/?q=place_id:0x390ce25ba243cc5b:0x3122142de4475eb6"}, {"place_id": "0x390ce32095656bad:0x6c6b6ac07f75dc7", "name": "eTrack Computer Training Institute .| Best Computer Class in Dhanbad.", "category": "Training center", "street": "1899/4 C, Uday Chand Marg", "city": "near Barat Ghar", "phone": "", "website": "", "rating": 4.7, "review_count": "", "latitude": 28.5719329, "longitude": 77.221848, "maps_url": "https://www.google.com/maps/place/?q=place_id:0x390ce32095656bad:0x6c6b6ac07f75dc7"}, {"place_id": "0x390ce25bcbffffff:0xd313c53a4f588b6f", "name": "InstaFitness Pvt Ltd", "category": "Health consultant", "street": "1505, basement", "city": "Building No, Lane Number 3", "phone": "08800945109", "website": "https://instafitness.in/", "rating": 4.8, "review_count": "", "latitude": 28.5698783, "longitude": 77.225319, "maps_url": "https://www.google.com/maps/place/?q=place_id:0x390ce25bcbffffff:0xd313c53a4f588b6f"}, {"place_id": "0x390ce25c1acc0375:0xf4f8e7bea432dfd8", "name": "SQUAD GAMING CAFE", "category": "Internet cafe", "street": "Kotla / South Ex Community Center", "city": "1752, Kumhar Gali", "phone": "07011260948", "website": "", "rating": 4.5, "review_count": "", "latitude": 28.571592499999998, "longitude": 77.2227513, "maps_url": "https://www.google.com/maps/place/?q=place_id:0x390ce25c1acc0375:0xf4f8e7bea432dfd8"}, {"place_id": "0x27d08e51842e523:0x44637219eb30d668", "name": "Hash 9 Digital", "category": "Computer support and services", "street": "H-10", "city": "South Extension I, Block H", "phone": "08384070307", "website": "https://www.hash9digital.com/", "rating": 3.6, "review_count": "", "latitude": 28.571359599999997, "longitude": 77.2217773, "maps_url": "https://www.google.com/maps/place/?q=place_id:0x27d08e51842e523:0x44637219eb30d668"}, {"place_id": "0x390d04bf0bbb8ab3:0x7361602176e86f97", "name": "DHL Express (India) Pvt. Ltd", "category": "Courier service", "street": "Ground Floor", "city": "HPCL Petrol Pump", "phone": "08035469403", "website": "https://locations-in.express.dhl.com/courier-service-in-block-c-new-delhi-delhi/home", "rating": 4.7, "review_count": "", "latitude": 28.5679132, "longitude": 77.2239316, "maps_url": "https://www.google.com/maps/place/?q=place_id:0x390d04bf0bbb8ab3:0x7361602176e86f97"}, {"place_id": "0x390ce3f41c683de7:0xc06ed44a75c24914", "name": "Logitech Authorised Partner", "category": "Computer accessories store", "street": "Shop No", "city": "1718, Gurudwara Rd", "phone": "09619944352", "website": "https://dealersnearme.logitech-shopping.com/logitech-authorised-partner-balaji-computerkart-pvt-ltd-computer-accessories-shop-south-extension-new-delhi-323551/Home?utm_source=locator&utm_medium=googleplaces", "rating": 4.9, "review_count": "", "latitude": 28.5718809, "longitude": 77.22520659999999, "maps_url": "https://www.google.com/maps/place/?q=place_id:0x390ce3f41c683de7:0xc06ed44a75c24914"}, {"place_id": "0x390ce32763f74bf7:0x288322ab811ed233", "name": "Computer Repair Hub", "category": "Computer repair service", "street": "", "city": "", "phone": "09811612976", "website": "", "rating": 4.9, "review_count": "", "latitude": 28.5314385, "longitude": 77.20898509999999, "maps_url": "https://www.google.com/maps/place/?q=place_id:0x390ce32763f74bf7:0x288322ab811ed233"}, {"place_id": "0x390ce25a53e20569:0x41db209e6e6f7d11", "name": "Ali Enterprises", "category": "Interior designer", "street": "Ground Floor", "city": "1537, Wazir Nagar", "phone": "01145756837", "website": "https://www.alienterprises.co.in/", "rating": 4.1, "review_count": "", "latitude": 28.5714683, "longitude": 77.2258015, "maps_url": "https://www.google.com/maps/place/?q=place_id:0x390ce25a53e20569:0x41db209e6e6f7d11"}, {"place_id": "0x390ce3c4b45c8297:0xce89ca940fc804fe", "name": "DTDC Courier & Cargo Services", "category": "Courier service", "street": "Shop No. 1, no N-1", "city": "Basement Building", "phone": "08750047584", "website": "", "rating": 5, "review_count": "", "latitude": 28.568226499999998, "longitude": 77.2251392, "maps_url": "https://www.google.com/maps/place/?q=place_id:0x390ce3c4b45c8297:0xce89ca940fc804fe"}, {"place_id": "0x2cc7a929ce854f75:0xa17fcb9acf114754", "name": "Butterly Yours", "category": "Corporate gift supplier", "street": "C-447", "city": "Lane, Lajpat rai gali", "phone": "09560235444", "website": "https://butterlyyours.com/", "rating": 5, "review_count": "", "latitude": 28.570902099999998, "longitude": 77.22671849999999, "maps_url": "https://www.google.com/maps/place/?q=place_id:0x2cc7a929ce854f75:0xa17fcb9acf114754"}, {"place_id": "0x390ce3ac901c5127:0x6f21f30b27536a12", "name": "Grand Holiday Park Vacation Pvt Ltd", "category": "Travel agency", "street": "first floor", "city": "1898 C, Uday Chand Marg", "phone": "01146523036", "website": "http://grandholidayparkvacation.com/", "rating": 4.2, "review_count": "", "latitude": 28.571645, "longitude": 77.222158, "maps_url": "https://www.google.com/maps/place/?q=place_id:0x390ce3ac901c5127:0x6f21f30b27536a12"}, {"place_id": "0x390ce25bc31b4bcf:0x4ee9e610fe0c5b4b", "name": "Goyal & Co. A complete Hardware Solution Shop", "category": "Hardware store", "street": "Shop No", "city": "1876-A, Gurudwara Rd", "phone": "09999327807", "website": "", "rating": 4.6, "review_count": "", "latitude": 28.5705404, "longitude": 77.2241621, "maps_url": "https://www.google.com/maps/place/?q=place_id:0x390ce25bc31b4bcf:0x4ee9e610fe0c5b4b"}, {"place_id": "0x390ce25b3bfb8809:0x62ef0a0e76108291", "name": "Frankfinn Institute of Air Hostess Training South Extension", "category": "Aviation training institute", "street": "2nd Floor", "city": "M-3, Mahatma Gandhi Rd", "phone": "08448980652", "website": "http://www.frankfinn.com/?utm_source=Organic&utm_medium=GMB", "rating": 4.2, "review_count": "", "latitude": 28.5679005, "longitude": 77.2246179, "maps_url": "https://www.google.com/maps/place/?q=place_id:0x390ce25b3bfb8809:0x62ef0a0e76108291"}, {"place_id": "0x390cfd309eebed77:0x9967d64a1e358a57", "name": "Prolite Electric Inc", "category": "Electrical supply store", "street": "Shop No -9, H69F+J7M", "city": "N-13, Ring Rd", "phone": "09810134363", "website": "", "rating": 4.7, "review_count": "", "latitude": 28.5690089, "longitude": 77.22321389999999, "maps_url": "https://www.google.com/maps/place/?q=place_id:0x390cfd309eebed77:0x9967d64a1e358a57"}, {"place_id": "0x390ce3249f01771f:0x37b74443e206b415", "name": "Ybratemedia", "category": "Marketing agency", "street": "H10", "city": "South Extension I, Block H, Manritoverseas", "phone": "07319729375", "website": "https://ybratemedia.com/", "rating": 5, "review_count": "", "latitude": 28.571382699999997, "longitude": 77.22176979999999, "maps_url": "https://www.google.com/maps/place/?q=place_id:0x390ce3249f01771f:0x37b74443e206b415"}, {"place_id": "0x390ce3bacf976b11:0x8bbcc3029d8a6b69", "name": "CineLove Pvt Ltd", "category": "Wedding photographer", "street": "B-25", "city": "Block B, Defence Colony", "phone": "09667100111", "website": "http://www.cinelove.in/", "rating": 4.9, "review_count": "", "latitude": 28.571265699999998, "longitude": 77.22731979999999, "maps_url": "https://www.google.com/maps/place/?q=place_id:0x390ce3bacf976b11:0x8bbcc3029d8a6b69"}, {"place_id": "0x390ce25ae19bf7ed:0x929ba222db87f74f", "name": "Lovestruckcow", "category": "Marketing agency", "street": "B-89", "city": "Block B, Defence Colony", "phone": "01141888415", "website": "http://lovestruckcow.com/", "rating": 4.8, "review_count": "", "latitude": 28.5685732, "longitude": 77.2263524, "maps_url": "https://www.google.com/maps/place/?q=place_id:0x390ce25ae19bf7ed:0x929ba222db87f74f"}, {"place_id": "0x390ce25edbf979f5:0x2e9682e9b94c8290", "name": "OSSIM", "category": "Training center", "street": "1899, Uday Chand Marg", "city": "South Extension, Block H", "phone": "", "website": "http://www.ossim.in/", "rating": 4.9, "review_count": "", "latitude": 28.5719185, "longitude": 77.221859, "maps_url": "https://www.google.com/maps/place/?q=place_id:0x390ce25edbf979f5:0x2e9682e9b94c8290"}, {"place_id": "0x390d00e5a6e640ad:0xecd61d052de63e3b", "name": "Maharani Electricals", "category": "Electrical supply store", "street": "NDSE-I", "city": "C 6, Road", "phone": "", "website": "", "rating": 4.5, "review_count": "", "latitude": 28.5698106, "longitude": 77.22361169999999, "maps_url": "https://www.google.com/maps/place/?q=place_id:0x390d00e5a6e640ad:0xecd61d052de63e3b"}, {"place_id": "0x390ce25c198738a5:0xa53e723134225b74", "name": "RECORDME STUDIO", "category": "Recording studio", "street": "First Floor", "city": "1897", "phone": "08287301400", "website": "https://www.socialtempo.in/studio/recordme-studios", "rating": 4.7, "review_count": "", "latitude": 28.5715534, "longitude": 77.222459, "maps_url": "https://www.google.com/maps/place/?q=place_id:0x390ce25c198738a5:0xa53e723134225b74"}, {"place_id": "0x390ce3a24036971b:0x811dab7c604c7d1f", "name": "E-print Service", "category": "Print shop", "street": "H-10", "city": "South Extension I, Block H", "phone": "07982321369", "website": "https://e-print.in/", "rating": 5, "review_count": "", "latitude": 28.5713768, "longitude": 77.2217694, "maps_url": "https://www.google.com/maps/place/?q=place_id:0x390ce3a24036971b:0x811dab7c604c7d1f"}, {"place_id": "0x46c11557f765391d:0xc8cfabc394963fc1", "name": "Amozmeta", "category": "Software company", "street": "H5", "city": "near Aiscelsys Technologies India", "phone": "", "website": "https://www.amozmeta.com/", "rating": "", "review_count": "", "latitude": 28.5702075, "longitude": 77.2220193, "maps_url": "https://www.google.com/maps/place/?q=place_id:0x46c11557f765391d:0xc8cfabc394963fc1"}, {"place_id": "0x390ce30f052eb21b:0xb3d1f7d248000a0d", "name": "Erudite Business Solutions", "category": "Marketing agency", "street": "South Extension I, Block H", "city": "New Delhi, Delhi 110049", "phone": "", "website": "https://www.tryerudite.com/?utm_source=google&utm_medium=wix_google_business_profile&utm_campaign=12701508334569378332", "rating": 5, "review_count": "", "latitude": 28.5703309, "longitude": 77.222954, "maps_url": "https://www.google.com/maps/place/?q=place_id:0x390ce30f052eb21b:0xb3d1f7d248000a0d"}, {"place_id": "0x390ce3224dd1d8d7:0x7719bd716a81d47f", "name": "Ayush Digital Marketing Freelancer", "category": "Marketing agency", "street": "near Aaksh Institute", "city": "South Extension I, Block N", "phone": "", "website": "https://ayushbakshi.great-site.net/?i=1", "rating": 5, "review_count": "", "latitude": 28.5687873, "longitude": 77.2243757, "maps_url": "https://www.google.com/maps/place/?q=place_id:0x390ce3224dd1d8d7:0x7719bd716a81d47f"}, {"place_id": "0x390ce25ec0000001:0x57bc8bafd16bfe86", "name": "Andleys Associates Private Limited", "category": "Architect", "street": "C 39 Housing society, Part 1", "city": "South Extension, Block C", "phone": "01124626918", "website": "http://www.andleys.com/contactus.html", "rating": 4.2, "review_count": "", "latitude": 28.5695509, "longitude": 77.2219029, "maps_url": "https://www.google.com/maps/place/?q=place_id:0x390ce25ec0000001:0x57bc8bafd16bfe86"}, {"place_id": "0x876650369267e2f5:0xedeb3df2a30f5f80", "name": "Star and Sterling Associates", "category": "Legal services", "street": "1823, Sher Singh Bazaar Rd", "city": "South Extension I, Mahaveer Nagar, Kotla Mubarakpur", "phone": "", "website": "https://sasa.legal/", "rating": 5, "review_count": "", "latitude": 28.5711816, "longitude": 77.2238964, "maps_url": "https://www.google.com/maps/place/?q=place_id:0x876650369267e2f5:0xedeb3df2a30f5f80"}, {"place_id": "0x390ce25bdc32bc87:0x7b159f3027d75bf1", "name": "Vishnu Timber & Plywood Co", "category": "Plywood supplier", "street": "Timber Market", "city": "1492, Street 5 Wazir Nagar", "phone": "01141008209", "website": "http://www.vishnutimberandplywood.com/", "rating": 4.8, "review_count": "", "latitude": 28.570234799999998, "longitude": 77.22610569999999, "maps_url": "https://www.google.com/maps/place/?q=place_id:0x390ce25bdc32bc87:0x7b159f3027d75bf1"}, {"place_id": "0x390ce25a6b7233b3:0x8c914169e5aaf3f2", "name": "Rajbir Singh Bal & Co", "category": "Bankruptcy attorney", "street": "B-27", "city": "Block B, Defence Colony", "phone": "09910399327", "website": "https://rsblaw.in/", "rating": 5, "review_count": 94, "latitude": 28.571113099999998, "longitude": 77.2278001, "maps_url": "https://www.google.com/maps/place/?q=place_id:0x390ce25a6b7233b3:0x8c914169e5aaf3f2"}, {"place_id": "0x390ce36cfbd2445b:0xc27d111258a90e8a", "name": "A S Enterprises - Invisible Grill Installation | Invisible Grill Wire | Invisible grill aluminum Track | Fibermesh", "category": "Safety equipment supplier", "street": "1479, Gurudwara Rd", "city": "South Extension I, Wazir Nagar", "phone": "07065446215", "website": "", "rating": 4.8, "review_count": "", "latitude": 28.570508999999998, "longitude": 77.224335, "maps_url": "https://www.google.com/maps/place/?q=place_id:0x390ce36cfbd2445b:0xc27d111258a90e8a"}, {"place_id": "0x390ce35fb2969e67:0xe296d569e2663896", "name": "Chirag Services | Trackon Courier Pvt. Ltd. - Courier Services in Wazir Nagar", "category": "Courier service", "street": "Shop No. G-2, 1400/A, Ishwar Sadan, Wazir Nagar", "city": "Kotla Mubarakpur", "phone": "08069245428", "website": "https://www.chiragservice.in/", "rating": 4.9, "review_count": "", "latitude": 28.571243, "longitude": 77.225383, "maps_url": "https://www.google.com/maps/place/?q=place_id:0x390ce35fb2969e67:0xe296d569e2663896"}, {"place_id": "0x390ce3f404eaa34d:0x9e862a5be8753641", "name": "Xpress Gati Cargo Movers", "category": "Moving service", "street": "1736/5, L.G.F - 34 Lover G/F", "city": "South Extension I, Sher Singh Bazar, Kotla Mubarakpur", "phone": "18008890428", "website": "https://xpressgaticargomovers.co.in/packers-and-movers-delhi/", "rating": 3, "review_count": "", "latitude": 28.5711569, "longitude": 77.2239547, "maps_url": "https://www.google.com/maps/place/?q=place_id:0x390ce3f404eaa34d:0x9e862a5be8753641"}, {"place_id": "0x390ce25ae82fa893:0xfce7f5f77ab9f69a", "name": "Chandhiok & Mahajan, Advocates and Solicitors", "category": "Law firm", "street": "C-524, Chandra Gupta Vithi Rd", "city": "Block C, Defence Colony", "phone": "01141630033", "website": "http://www.chandhiok.com/", "rating": 4.6, "review_count": "", "latitude": 28.568396399999997, "longitude": 77.2270072, "maps_url": "https://www.google.com/maps/place/?q=place_id:0x390ce25ae82fa893:0xfce7f5f77ab9f69a"}, {"place_id": "0x390ce3f741337dc3:0x121e558522505ce9", "name": "Travotrip", "category": "Airline ticket agency", "street": "FIRST FLOOR", "city": "A- 1797", "phone": "09711144696", "website": "https://travotrip.com/", "rating": 4.9, "review_count": "", "latitude": 28.5719289, "longitude": 77.22269829999999, "maps_url": "https://www.google.com/maps/place/?q=place_id:0x390ce3f741337dc3:0x121e558522505ce9"}, {"place_id": "0x390ce348d60e5d95:0xf220f852310be2ad", "name": "Shri Ram Placement Service", "category": "House cleaning service", "street": "1st floor", "city": "1734, Sher Singh Bazaar Rd", "phone": "09319833287", "website": "https://www.shriramplacementservice.com/", "rating": 3.6, "review_count": "", "latitude": 28.57117, "longitude": 77.22413, "maps_url": "https://www.google.com/maps/place/?q=place_id:0x390ce348d60e5d95:0xf220f852310be2ad"}, {"place_id": "0x390ce25793252817:0x76281248afc09112", "name": "Olive Service Apartments Defence Colony", "category": "Service Apartment", "street": "A-454", "city": "Block A, Defence Colony", "phone": "07290029000", "website": "", "rating": 4.6, "review_count": "", "latitude": 28.5723099, "longitude": 77.2300966, "maps_url": "https://www.google.com/maps/place/?q=place_id:0x390ce25793252817:0x76281248afc09112"}, {"place_id": "0x390ce25bcbffffff:0xc09e494ae9cca363", "name": "TOUR4FUN", "category": "Tour operator", "street": "3rd Floor", "city": "1482/D", "phone": "08826798561", "website": "http://tour4fun.in/", "rating": 5, "review_count": "", "latitude": 28.5704355, "longitude": 77.2253032, "maps_url": "https://www.google.com/maps/place/?q=place_id:0x390ce25bcbffffff:0xc09e494ae9cca363"}, {"place_id": "0x390d1b5091555555:0xf396009310f059d8", "name": "KMF MEDIA Pvt Ltd", "category": "Marketing agency", "street": "1897, Uday Chand Marg", "city": "South Extension I, Sher Singh Bazar, Kotla Mubarakpur", "phone": "06267700575", "website": "https://kmfmedia.com/", "rating": "", "review_count": "", "latitude": 28.571796499999998, "longitude": 77.2222492, "maps_url": "https://www.google.com/maps/place/?q=place_id:0x390d1b5091555555:0xf396009310f059d8"}, {"place_id": "0x390ce394d1f6f38b:0xcb546504465cb1c0", "name": "RNP EVENTS", "category": "Event management company", "street": "1882, Jagram Mandir Gali", "city": "South Extension I, Block H", "phone": "09891550565", "website": "https://rnpevents.in/", "rating": 4.9, "review_count": "", "latitude": 28.5710029, "longitude": 77.2227334, "maps_url": "https://www.google.com/maps/place/?q=place_id:0x390ce394d1f6f38b:0xcb546504465cb1c0"}]}