{"timestamp": 1773734906.4917233, "keyword": "IT company", "location": "Indore", "cell_idx": 112, "results": [{"place_id": "0x3962fd115f9bdb93:0x763ee98f66e77650", "name": "Young Decade IT Software Solution", "category": "Software company", "street": "office No 202, 2nd floor, Gracia Heights", "city": "Devi Ahilya Marg", "phone": "07987611372", "website": "http://www.youngdecade.com/", "rating": 4.7, "review_count": "", "latitude": 22.7279596, "longitude": 75.8631723, "maps_url": "https://www.google.com/maps/place/?q=place_id:0x3962fd115f9bdb93:0x763ee98f66e77650"}, {"place_id": "0x3962fdad8755290d:0xae9be52a6226ab72", "name": "ThoughtWin IT Solutions Pvt. Ltd.", "category": "Software company", "street": "1 Panna estate", "city": "Kesar Bagh Rd", "phone": "09977069348", "website": "https://www.thoughtwin.com/", "rating": 4.1, "review_count": "", "latitude": 22.699189099999998, "longitude": 75.84473919999999, "maps_url": "https://www.google.com/maps/place/?q=place_id:0x3962fdad8755290d:0xae9be52a6226ab72"}, {"place_id": "0x3962fdadc95533b3:0x3c9e4e8a432e4e8b", "name": "Diaspark Infotech", "category": "Software company", "street": "60/2 Babulabh Chand Chajlani Marg Naidunia Parishar", "city": "Babu Lalchand Chajlani Rd", "phone": "07314756000", "website": "http://www.diaspark.com/", "rating": 4.2, "review_count": "", "latitude": 22.7036818, "longitude": 75.84430929999999, "maps_url": "https://www.google.com/maps/place/?q=place_id:0x3962fdadc95533b3:0x3c9e4e8a432e4e8b"}, {"place_id": "0x3962fcfd311b8d65:0x2a9d9f8d1bee6b64", "name": "InfoCentroid Software Solutions Pvt. Ltd", "category": "Software company", "street": "", "city": "", "phone": "07566663042", "website": "https://www.infocentroid.com/", "rating": 4.3, "review_count": "", "latitude": 23.970125, "longitude": 78.42099689999999, "maps_url": "https://www.google.com/maps/place/?q=place_id:0x3962fcfd311b8d65:0x2a9d9f8d1bee6b64"}, {"place_id": "0x3962fdf54164d23d:0xc82210a6e7c5c954", "name": "Dcode Infocorp Pvt Ltd.", "category": "Software company", "street": "Atulya IT park", "city": "Aditya Nagar, Bhanwar Kuwa", "phone": "", "website": "", "rating": 4.9, "review_count": "", "latitude": 22.6929136, "longitude": 75.8646807, "maps_url": "https://www.google.com/maps/place/?q=place_id:0x3962fdf54164d23d:0xc82210a6e7c5c954"}, {"place_id": "0x3962fd7221978859:0xf7a3ac341920f06f", "name": "Parkhya Solutions Pvt. Ltd.", "category": "Software company", "street": "121, Devi Ahilya Marg", "city": "Sahakar Nagar, Snehlataganj", "phone": "", "website": "http://www.parkhya.com/", "rating": 4.4, "review_count": "", "latitude": 22.729563499999998, "longitude": 75.863581, "maps_url": "https://www.google.com/maps/place/?q=place_id:0x3962fd7221978859:0xf7a3ac341920f06f"}, {"place_id": "0x3962fcf129c55555:0xf972ad5c5b881813", "name": "Technorizen Software Solution | Software Development Company | Mobile Apps l AI/ML Solution l Blockchain l Digital Marketing", "category": "Software company", "street": "Sapphire House", "city": "402 A, B, C", "phone": "07828407092", "website": "https://technorizen.com/", "rating": 4.7, "review_count": "", "latitude": 22.702807, "longitude": 75.871596, "maps_url": "https://www.google.com/maps/place/?q=place_id:0x3962fcf129c55555:0xf972ad5c5b881813"}, {"place_id": "0x3962fd470f1c8cf3:0x7fc7417560117321", "name": "Maverick Console Services Pvt. Ltd.", "category": "Software company", "street": "MG Road 109 , Royal Ratan Building", "city": "Madhya Pradesh 452007", "phone": "08889785888", "website": "http://www.maverickconsole.com/", "rating": 4.8, "review_count": "", "latitude": 22.7195626, "longitude": 75.8577153, "maps_url": "https://www.google.com/maps/place/?q=place_id:0x3962fd470f1c8cf3:0x7fc7417560117321"}, {"place_id": "0x3962fcfabafa14b9:0x8c7a302459aaec0", "name": "Dollop Infotech Pvt. Ltd. | Indore | India", "category": "Software company", "street": "302, Sukhmani Apartment", "city": "Bhawarkua Main Rd", "phone": "09644704844", "website": "https://www.dollopinfotech.com/", "rating": 4.6, "review_count": "", "latitude": 22.6899904, "longitude": 75.8640863, "maps_url": "https://www.google.com/maps/place/?q=place_id:0x3962fcfabafa14b9:0x8c7a302459aaec0"}, {"place_id": "0x3962fd19c553ee35:0x764cedb2503060d6", "name": "ThinkDebug Indore", "category": "Software company", "street": "301,302", "city": "Shanti Corporate 116", "phone": "09098002268", "website": "https://thinkdebug.com/", "rating": 4.9, "review_count": "", "latitude": 22.702656299999997, "longitude": 75.87068699999999, "maps_url": "https://www.google.com/maps/place/?q=place_id:0x3962fd19c553ee35:0x764cedb2503060d6"}, {"place_id": "0x3962fce49bc36553:0x367dceaf7fdaaf4e", "name": "LMS Solutions (India) Pvt. Ltd.", "category": "Software company", "street": "18, Bhawarkua Main Rd", "city": "Professor Colony", "phone": "07314025567", "website": "http://www.lmsin.com/", "rating": 4.4, "review_count": "", "latitude": 22.694553799999998, "longitude": 75.8668371, "maps_url": "https://www.google.com/maps/place/?q=place_id:0x3962fce49bc36553:0x367dceaf7fdaaf4e"}, {"place_id": "0x3962fce2079461c5:0xc4b4322623b79034", "name": "GlobalStack IT Solutions", "category": "Software company", "street": "Vikram Tower", "city": "408,", "phone": "", "website": "", "rating": 4.9, "review_count": "", "latitude": 22.7011969, "longitude": 75.8702004, "maps_url": "https://www.google.com/maps/place/?q=place_id:0x3962fce2079461c5:0xc4b4322623b79034"}, {"place_id": "0x3962fcde3d3ffaff:0x253b0cb7c6f4c785", "name": "Codezilla Technology & Consultancy Pvt. Ltd.", "category": "Software company", "street": "Plot no 92, Above of iWish showroom", "city": "Sapna Sangeeta Rd", "phone": "07314945411", "website": "https://codezilla.io/", "rating": 4.6, "review_count": "", "latitude": 22.7005084, "longitude": 75.86893839999999, "maps_url": "https://www.google.com/maps/place/?q=place_id:0x3962fcde3d3ffaff:0x253b0cb7c6f4c785"}, {"place_id": "0x3962fd23ffffff91:0x23824585c2254ab4", "name": "Amstech Incorporation Private Limited", "category": "Software company", "street": "3rd Floor", "city": "Veda Business Park", "phone": "09993126869", "website": "https://www.amstechinc.com/#/", "rating": 4.9, "review_count": "", "latitude": 22.693554799999998, "longitude": 75.8668603, "maps_url": "https://www.google.com/maps/place/?q=place_id:0x3962fd23ffffff91:0x23824585c2254ab4"}, {"place_id": "0x3962fd0b88b16d6d:0xf24dae166d51511b", "name": "SJS Web Developer's in INDORE Top E-commerce Web site App's Software IT Companies in INDORE", "category": "Software company", "street": "2nd Floor", "city": "Muley tower", "phone": "09340506934", "website": "http://sjswebdevelopers.com/", "rating": 4.3, "review_count": "", "latitude": 22.7197483, "longitude": 75.85903669999999, "maps_url": "https://www.google.com/maps/place/?q=place_id:0x3962fd0b88b16d6d:0xf24dae166d51511b"}, {"place_id": "0x3962fd164000000b:0x2e61ee9fc96847d0", "name": "Serosoft", "category": "Software company", "street": "5th Floor, Milinda\u2019s Manor, 2 RNT Marg", "city": "Central", "phone": "07314010724", "website": "https://www.serosoft.com/", "rating": 4.3, "review_count": "", "latitude": 22.718497499999998, "longitude": 75.8724651, "maps_url": "https://www.google.com/maps/place/?q=place_id:0x3962fd164000000b:0x2e61ee9fc96847d0"}, {"place_id": "0x3962fd2b816f11f5:0x7c4090c19212f021", "name": "TECAI Software & Automation Company in Indore", "category": "Software company", "street": "3rd Floor", "city": "Shubham Corporate", "phone": "07024031779", "website": "https://tecai.in/", "rating": 5, "review_count": "", "latitude": 22.699921399999997, "longitude": 75.8674451, "maps_url": "https://www.google.com/maps/place/?q=place_id:0x3962fd2b816f11f5:0x7c4090c19212f021"}, {"place_id": "0x3962fdcad4761681:0xb48cff9da2a402e2", "name": "CosmostakeR", "category": "Software company", "street": "326,3rd Floor", "city": "Milinda Manor", "phone": "09179019103", "website": "https://cosmostaker.com/", "rating": 4.9, "review_count": "", "latitude": 22.718567999999998, "longitude": 75.8723649, "maps_url": "https://www.google.com/maps/place/?q=place_id:0x3962fdcad4761681:0xb48cff9da2a402e2"}, {"place_id": "0x3962fdb345555539:0x17d75f395f3f18ca", "name": "Kudoss IT Solutions", "category": "Software company", "street": "560", "city": "Usha Nagar, Ext", "phone": "07984065677", "website": "https://kudossweb.com/", "rating": 4.5, "review_count": "", "latitude": 22.6971091, "longitude": 75.8373182, "maps_url": "https://www.google.com/maps/place/?q=place_id:0x3962fdb345555539:0x17d75f395f3f18ca"}, {"place_id": "0x3962fd16eda36469:0x361ef45f00c12f4d", "name": "Votive Technologies Pvt Ltd", "category": "Software company", "street": "308 Third floor, Votive Technologies", "city": "Shreevardhan Complex", "phone": "09993776088", "website": "https://www.votivetech.com/", "rating": 4.2, "review_count": "", "latitude": 22.7183082, "longitude": 75.8722945, "maps_url": "https://www.google.com/maps/place/?q=place_id:0x3962fd16eda36469:0x361ef45f00c12f4d"}, {"place_id": "0x3962fd16eda36469:0x361ef45f00c12f4d", "name": "Votive Technologies Pvt Ltd", "category": "Software company", "street": "308 Third floor, Votive Technologies", "city": "Shreevardhan Complex", "phone": "09993776088", "website": "https://www.votivetech.com/", "rating": 4.2, "review_count": "", "latitude": 22.7183082, "longitude": 75.8722945, "maps_url": "https://www.google.com/maps/place/?q=place_id:0x3962fd16eda36469:0x361ef45f00c12f4d"}, {"place_id": "0x396303dfb81c6d7d:0x952e1c33faf7cb89", "name": "InstaIT Technologies", "category": "Software company", "street": "50-Third Floor", "city": "Veer Sanwarkar Nagar", "phone": "07999587754", "website": "http://www.siteadda.com/", "rating": 4.8, "review_count": "", "latitude": 22.7323539, "longitude": 75.8514591, "maps_url": "https://www.google.com/maps/place/?q=place_id:0x396303dfb81c6d7d:0x952e1c33faf7cb89"}, {"place_id": "0x3962fd6d5c629411:0xd9414f33dcdc5496", "name": "Aking Web Tech", "category": "Software company", "street": "23/1", "city": "Kachi Mohalla, Jail Road", "phone": "09406600200", "website": "https://www.aking.co.in/", "rating": 4.6, "review_count": "", "latitude": 22.723143999999998, "longitude": 75.863481, "maps_url": "https://www.google.com/maps/place/?q=place_id:0x3962fd6d5c629411:0xd9414f33dcdc5496"}, {"place_id": "0x3962fdb30b281e93:0x9e1c01dab5cf78a", "name": "Aiminent IT Solutions", "category": "Software company", "street": "2nd floor, 6 Dravid Nagar, Footi Kothi Main Road,", "city": "above Andhra Bank", "phone": "07314005778", "website": "http://aiminent.com/", "rating": 4.3, "review_count": "", "latitude": 22.70109, "longitude": 75.8374362, "maps_url": "https://www.google.com/maps/place/?q=place_id:0x3962fdb30b281e93:0x9e1c01dab5cf78a"}, {"place_id": "0x3962fd480d635977:0x72f82e2825baa4f3", "name": "Mango IT Solutions", "category": "Software company", "street": "15/3, Old Palasia Rd", "city": "behind sarda house", "phone": "07314046693", "website": "http://www.mangoitsolutions.com/", "rating": 4.3, "review_count": "", "latitude": 22.7276298, "longitude": 75.8888766, "maps_url": "https://www.google.com/maps/place/?q=place_id:0x3962fd480d635977:0x72f82e2825baa4f3"}, {"place_id": "0x3962fdc7d944c4df:0x4d6d7c1ecc214970", "name": "Wappgo", "category": "Software company", "street": "403 , The View Tower", "city": "Yeshwant Niwas Rd", "phone": "07000581635", "website": "http://wappgo.com/", "rating": 4.2, "review_count": "", "latitude": 22.721693, "longitude": 75.8736651, "maps_url": "https://www.google.com/maps/place/?q=place_id:0x3962fdc7d944c4df:0x4d6d7c1ecc214970"}, {"place_id": "0x3962fdc6969403b1:0xde0646c82299c250", "name": "IT Spark Technology Pvt. Ltd.", "category": "Software company", "street": "4th Floor 418 Shekhar Central Manoramaganj", "city": "New Palasia", "phone": "09109845654", "website": "http://www.itsparktechnology.com/", "rating": 4.8, "review_count": "", "latitude": 22.722727, "longitude": 75.88707099999999, "maps_url": "https://www.google.com/maps/place/?q=place_id:0x3962fdc6969403b1:0xde0646c82299c250"}, {"place_id": "0x3962fd063cd6ab91:0x8add04ae8d4b7185", "name": "NREWIND Technologies - Best Website Development Company in Indore", "category": "Website designer", "street": "1712-B", "city": "behind Ranjeet Hanuman Mandir", "phone": "09009000549", "website": "https://nrewind.com/", "rating": 4.9, "review_count": "", "latitude": 22.699798899999998, "longitude": 75.8358946, "maps_url": "https://www.google.com/maps/place/?q=place_id:0x3962fd063cd6ab91:0x8add04ae8d4b7185"}, {"place_id": "0x3962fd9b07e5774d:0x2d57d4ac2d7d0645", "name": "Developer Bazaar Technologies LLP", "category": "Software company", "street": "401, Infront of", "city": "Sukhmani Apartment, I - Bus Stop", "phone": "07415887200", "website": "https://www.developerbazaar.com/", "rating": 4.8, "review_count": "", "latitude": 22.689997599999998, "longitude": 75.8640736, "maps_url": "https://www.google.com/maps/place/?q=place_id:0x3962fd9b07e5774d:0x2d57d4ac2d7d0645"}, {"place_id": "0x3962fd77fe66251b:0xf341c0ace0b98f53", "name": "Neyonix Infotech", "category": "Software company", "street": "Scheme No", "city": "Gopur Square", "phone": "08962402789", "website": "https://neyonix.com/", "rating": 4.9, "review_count": "", "latitude": 22.6845331, "longitude": 75.82877479999999, "maps_url": "https://www.google.com/maps/place/?q=place_id:0x3962fd77fe66251b:0xf341c0ace0b98f53"}, {"place_id": "0x3962fd16c6da7fff:0xa16ada7dbc36f449", "name": "Hvantage Tech Solutions Pvt. Ltd.", "category": "Software company", "street": "509 block B corporate house 5th floor, RNT Marg", "city": "Indore, Madhya Pradesh 452001", "phone": "07314074459", "website": "https://hvantagetechnologies.com/", "rating": 3.2, "review_count": "", "latitude": 22.7172125, "longitude": 75.87177729999999, "maps_url": "https://www.google.com/maps/place/?q=place_id:0x3962fd16c6da7fff:0xa16ada7dbc36f449"}, {"place_id": "0x8949ac2162e4c657:0xc480b5d13df550f9", "name": "India Soft Labs", "category": "Software company", "street": "3rd floor", "city": "5, Mahu Naka Rd", "phone": "", "website": "http://indiasoftlabs.com/", "rating": 5, "review_count": "", "latitude": 22.709615499999998, "longitude": 75.8464236, "maps_url": "https://www.google.com/maps/place/?q=place_id:0x8949ac2162e4c657:0xc480b5d13df550f9"}, {"place_id": "0x68ba25e128333e23:0x7545c88f9a3db7b7", "name": "Bheema Infotech Pvt Ltd", "category": "Software company", "street": "Rajat Complex", "city": "302 A", "phone": "09770362377", "website": "https://bheemainfotech.in/", "rating": 4.8, "review_count": "", "latitude": 22.7133024, "longitude": 75.8746274, "maps_url": "https://www.google.com/maps/place/?q=place_id:0x68ba25e128333e23:0x7545c88f9a3db7b7"}, {"place_id": "0x3962fd16be970387:0xc737f343f0e4f9a7", "name": "Top Software Development Company in USA | AI/ML | AI Agent | Gen AI | UXUI | Product Development", "category": "Software company", "street": "Crystal IT Park STP-1, 4th Floor Right Wing Ring Road", "city": "Madhya Pradesh 452001", "phone": "07312973109", "website": "https://47billion.com/", "rating": 4.8, "review_count": "", "latitude": 22.6858591, "longitude": 75.8723211, "maps_url": "https://www.google.com/maps/place/?q=place_id:0x3962fd16be970387:0xc737f343f0e4f9a7"}, {"place_id": "0x3962fc41ca24cfd1:0xaf6e0a08362244ec", "name": "Kiaan Technology", "category": "Software company", "street": "2341/e", "city": "Sector E, Sudama Nagar", "phone": "09752100980", "website": "http://kiaantechnology.com/", "rating": 4.6, "review_count": "", "latitude": 22.6886849, "longitude": 75.828512, "maps_url": "https://www.google.com/maps/place/?q=place_id:0x3962fc41ca24cfd1:0xaf6e0a08362244ec"}, {"place_id": "0x3962fd3f8f988287:0xad7dfabace781c5f", "name": "EverPeak IT Solution", "category": "Software company", "street": "Puma Showroom, Times squre Building", "city": "101", "phone": "09691912012", "website": "http://everpeakit.com/", "rating": 5, "review_count": "", "latitude": 22.697920699999997, "longitude": 75.8649492, "maps_url": "https://www.google.com/maps/place/?q=place_id:0x3962fd3f8f988287:0xad7dfabace781c5f"}, {"place_id": "0x3962fda8e326af83:0xc72287baed43471a", "name": "Beta IT Solution | Best Mailing Solution In Indore", "category": "Computer support and services", "street": "Plot No, 2, Second Floor", "city": "Annapurna Rd", "phone": "07241126081", "website": "https://www.betaitsolution.com/", "rating": 2.9, "review_count": "", "latitude": 22.7003924, "longitude": 75.8412941, "maps_url": "https://www.google.com/maps/place/?q=place_id:0x3962fda8e326af83:0xc72287baed43471a"}, {"place_id": "0x3962fd1ddad985b3:0x45be486a443156ea", "name": "WelkinGetter Global IT Solutions", "category": "Software company", "street": "Building No. 5", "city": "opposite Tilokchand jain H.S. SchoolMhownaka", "phone": "06232209202", "website": "https://welkingetter.com/", "rating": 5, "review_count": "", "latitude": 22.709618, "longitude": 75.8464834, "maps_url": "https://www.google.com/maps/place/?q=place_id:0x3962fd1ddad985b3:0x45be486a443156ea"}, {"place_id": "0x3962fd803725111f:0xdfe37f3c599b92cd", "name": "VeVa Technology", "category": "Software company", "street": "President Tower", "city": "401-A, RNT Marg", "phone": "09827037932", "website": "https://vevatechnology.com/", "rating": 4.9, "review_count": "", "latitude": 22.714437699999998, "longitude": 75.8737381, "maps_url": "https://www.google.com/maps/place/?q=place_id:0x3962fd803725111f:0xdfe37f3c599b92cd"}, {"place_id": "0x3962fce3233cac31:0x92f826f70c7c5a66", "name": "SB Infotech", "category": "Software company", "street": "604, Narendra Tiwari Marg", "city": "near SUDAMA DWAR -A", "phone": "07314932442", "website": "http://www.sbinfotech.org/", "rating": 3.9, "review_count": "", "latitude": 22.6955173, "longitude": 75.8354308, "maps_url": "https://www.google.com/maps/place/?q=place_id:0x3962fce3233cac31:0x92f826f70c7c5a66"}, {"place_id": "0x3962fd16f9e66369:0x2f7da749193be981", "name": "Ideavate Solutions", "category": "Software company", "street": "306, Silver Sanchora Castle", "city": "RNT Marg", "phone": "07314025351", "website": "http://www.ideavate.com/", "rating": 4.4, "review_count": "", "latitude": 22.716825, "longitude": 75.873437, "maps_url": "https://www.google.com/maps/place/?q=place_id:0x3962fd16f9e66369:0x2f7da749193be981"}, {"place_id": "0x3962fdf63c5a16a7:0x36aa8fadb45e2bcf", "name": "Onports Pvt. Ltd. | Software Development Company", "category": "Software company", "street": "Aslam estate", "city": "31", "phone": "09399390985", "website": "https://www.onports.in/", "rating": 5, "review_count": "", "latitude": 22.707174199999997, "longitude": 75.80335769999999, "maps_url": "https://www.google.com/maps/place/?q=place_id:0x3962fdf63c5a16a7:0x36aa8fadb45e2bcf"}, {"place_id": "0x3962fd1e14f80a81:0xd6b8001c164b1a19", "name": "Synoris Technologies", "category": "Software company", "street": "215, CAT Road", "city": "Reti Mandi", "phone": "09893296785", "website": "", "rating": 3.9, "review_count": "", "latitude": 22.693583, "longitude": 75.8416428, "maps_url": "https://www.google.com/maps/place/?q=place_id:0x3962fd1e14f80a81:0xd6b8001c164b1a19"}, {"place_id": "0x3962fdade43801fb:0xf3856ab91c60db52", "name": "LinuxBean Solutions LLP", "category": "Software company", "street": "1, Annapurna Rd", "city": "above Titan Showroom", "phone": "07314980182", "website": "", "rating": 3.9, "review_count": "", "latitude": 22.7042002, "longitude": 75.8427557, "maps_url": "https://www.google.com/maps/place/?q=place_id:0x3962fdade43801fb:0xf3856ab91c60db52"}, {"place_id": "0x3962fce358d788b1:0x356c2496ecf853f5", "name": "qualwebs", "category": "Software company", "street": "203, 9930 Spaces 4, Mangal Nagar, Near Rajeev Gandhi Square", "city": "AB Rd", "phone": "08827796669", "website": "http://www.qualwebs.com/", "rating": 4.5, "review_count": "", "latitude": 22.6862592, "longitude": 75.8598803, "maps_url": "https://www.google.com/maps/place/?q=place_id:0x3962fce358d788b1:0x356c2496ecf853f5"}, {"place_id": "0x3962fd400a08895d:0x1f627008bb5701e0", "name": "ASAP Infotech", "category": "Software company", "street": "503 A Block", "city": "Corporate House", "phone": "07314065619", "website": "http://www.theabicgroup.com/", "rating": 3.9, "review_count": "", "latitude": 22.7172125, "longitude": 75.87177729999999, "maps_url": "https://www.google.com/maps/place/?q=place_id:0x3962fd400a08895d:0x1f627008bb5701e0"}, {"place_id": "0x3962fce00db324a7:0xe0bfa4e3457de59c", "name": "Yuvasoft Solutions Private Limited", "category": "Software company", "street": "Pukhraj Corporate", "city": "715&801", "phone": "07314089013", "website": "http://www.yuvasoftech.com/", "rating": 4.1, "review_count": "", "latitude": 22.7007954, "longitude": 75.87572469999999, "maps_url": "https://www.google.com/maps/place/?q=place_id:0x3962fce00db324a7:0xe0bfa4e3457de59c"}, {"place_id": "0x3962fcf12e5fd331:0x3d10f773a83db31e", "name": "InfoGrains", "category": "Software company", "street": "407, Atulya IT Park", "city": "Bhawarkua Main Rd", "phone": "", "website": "https://infograins.com/", "rating": 4.4, "review_count": "", "latitude": 22.6866949, "longitude": 75.87149699999999, "maps_url": "https://www.google.com/maps/place/?q=place_id:0x3962fcf12e5fd331:0x3d10f773a83db31e"}, {"place_id": "0x3962fd152488324d:0x5354ade856cfd44c", "name": "Siteadda Labs Technologies LLP", "category": "Website designer", "street": "163, Babu Lalchand Chajlani Rd", "city": "Model Town Colony, Revenue Colony, Sachidanand Nagar", "phone": "07310000012", "website": "https://siteadda.com/", "rating": 4.1, "review_count": "", "latitude": 22.7012434, "longitude": 75.84476219999999, "maps_url": "https://www.google.com/maps/place/?q=place_id:0x3962fd152488324d:0x5354ade856cfd44c"}, {"place_id": "0x3962e2d6a52db2d7:0x4c94bdd22b5d6da1", "name": "Ignatiuz", "category": "Software company", "street": "Atulya IT Park IT Park Square", "city": "501", "phone": "09993018836", "website": "https://ignatiuz.com/", "rating": 4.2, "review_count": "", "latitude": 22.686808199999998, "longitude": 75.871459, "maps_url": "https://www.google.com/maps/place/?q=place_id:0x3962e2d6a52db2d7:0x4c94bdd22b5d6da1"}, {"place_id": "0x3962fda884647b9d:0xbab5f7ae3cc412d2", "name": "Hokrix Technologies | Blockchain & AI Development Company", "category": "Software company", "street": "Crystal It Park", "city": "Rajiv Gandhi Circle", "phone": "09993438344", "website": "https://hokrix.com/", "rating": 5, "review_count": "", "latitude": 22.685824, "longitude": 75.87226629999999, "maps_url": "https://www.google.com/maps/place/?q=place_id:0x3962fda884647b9d:0xbab5f7ae3cc412d2"}, {"place_id": "0x396302a8544ff46f:0x7c09afb7ae4f2c08", "name": "Conative IT Solutions Pvt. Ltd.", "category": "Software company", "street": "Office No. 608, 6th Floor", "city": "Airen Heights", "phone": "08269788173", "website": "https://conativeitsolutions.com/", "rating": 3.7, "review_count": "", "latitude": 22.745121299999997, "longitude": 75.89222699999999, "maps_url": "https://www.google.com/maps/place/?q=place_id:0x396302a8544ff46f:0x7c09afb7ae4f2c08"}, {"place_id": "0x3962fd1dfde216d7:0x55af29421813b8e6", "name": "Swap Infotech", "category": "Software company", "street": "601, Atulya IT Park", "city": "Bhawarkua Main Rd", "phone": "09340606911", "website": "http://www.swapinfotech.com/", "rating": 4.8, "review_count": "", "latitude": 22.6869445, "longitude": 75.8710822, "maps_url": "https://www.google.com/maps/place/?q=place_id:0x3962fd1dfde216d7:0x55af29421813b8e6"}, {"place_id": "0x3962fd83eafebe0b:0xb7f51ba9c78299d8", "name": "Satya Kabir E-solutions Private Limited - Indore", "category": "Software company", "street": "3rd Floor", "city": "Mishika Tower", "phone": "08959977624", "website": "https://satyakabir.com/", "rating": 5, "review_count": "", "latitude": 22.7014148, "longitude": 75.8703522, "maps_url": "https://www.google.com/maps/place/?q=place_id:0x3962fd83eafebe0b:0xb7f51ba9c78299d8"}, {"place_id": "0x396303818a953817:0xf67c56bdd73dbf71", "name": "InfiminTus Technologies - Website Design, Application and Software Development IT Company", "category": "Website designer", "street": "2nd Floor", "city": "Chetak Chamber", "phone": "09754316154", "website": "https://infimintustech.com/", "rating": 4.4, "review_count": "", "latitude": 22.7128428, "longitude": 75.8758618, "maps_url": "https://www.google.com/maps/place/?q=place_id:0x396303818a953817:0xf67c56bdd73dbf71"}, {"place_id": "0x3962fd1d7e773755:0x62e21178d57307e0", "name": "The Technogen Best - Web Design | SEO | Software Development Company in Indore", "category": "Software company", "street": "S-79", "city": "Yashwant Plaza", "phone": "07000504737", "website": "http://www.thetechnogen.in/", "rating": 4.7, "review_count": "", "latitude": 22.718565899999998, "longitude": 75.8698411, "maps_url": "https://www.google.com/maps/place/?q=place_id:0x3962fd1d7e773755:0x62e21178d57307e0"}, {"place_id": "0x39630396f8f29591:0x89941c1df2cc0c2e", "name": "Cerbosys Technologies Private Limited | Enterprise Solutions & IT Consulting", "category": "Software company", "street": "Trade Center", "city": "M 24, Jain Mandir Rd", "phone": "", "website": "https://www.cerbosys.com/", "rating": 4.7, "review_count": "", "latitude": 22.7215173, "longitude": 75.8831027, "maps_url": "https://www.google.com/maps/place/?q=place_id:0x39630396f8f29591:0x89941c1df2cc0c2e"}, {"place_id": "0x3963029cbe7dad9d:0x2702a5ef1ada853d", "name": "Vista IT Solutions Pvt. Ltd.", "category": "Software company", "street": "142-A, New IT Park building", "city": "Electronic Complex, Pardesipura", "phone": "", "website": "http://www.vitspl.com/", "rating": 4, "review_count": "", "latitude": 22.7532702, "longitude": 75.8653544, "maps_url": "https://www.google.com/maps/place/?q=place_id:0x3963029cbe7dad9d:0x2702a5ef1ada853d"}, {"place_id": "0x3962fd457f5260fd:0xcd2c51a579c7db5", "name": "Codiant Software Technologies", "category": "Software company", "street": "101", "city": "Bansi Trade Centre", "phone": "07314032967", "website": "https://codiant.com/", "rating": 4.5, "review_count": "", "latitude": 22.7236461, "longitude": 75.8816631, "maps_url": "https://www.google.com/maps/place/?q=place_id:0x3962fd457f5260fd:0xcd2c51a579c7db5"}, {"place_id": "0x3962fd1775834153:0x228cd29ca22a8bef", "name": "NCS^", "category": "Software company", "street": "NCS^ House, 80", "city": "Jaora Compound", "phone": "07313505885", "website": "http://www.nenosystems.com/", "rating": 4.7, "review_count": "", "latitude": 22.711851199999998, "longitude": 75.877246, "maps_url": "https://www.google.com/maps/place/?q=place_id:0x3962fd1775834153:0x228cd29ca22a8bef"}, {"place_id": "0x3962fd3bdc0199e3:0x52fd0fd05de49ecd", "name": "Throughout Technologies Pvt. Ltd.", "category": "Software company", "street": "103", "city": "Sanghi Manor", "phone": "09630303150", "website": "https://throughouttechnologies.com/", "rating": 4.3, "review_count": "", "latitude": 22.729320299999998, "longitude": 75.8743205, "maps_url": "https://www.google.com/maps/place/?q=place_id:0x3962fd3bdc0199e3:0x52fd0fd05de49ecd"}, {"place_id": "0x39631da0239602ff:0xa13448656bdbfa7a", "name": "Softsnare Technologies | IT Company | Software Company in Indore", "category": "Software company", "street": "R-353", "city": "Sector R, Mahalaxmi Nagar", "phone": "06264741175", "website": "http://www.softsnare.com/", "rating": 4.6, "review_count": "", "latitude": 22.758209299999997, "longitude": 75.9096251, "maps_url": "https://www.google.com/maps/place/?q=place_id:0x39631da0239602ff:0xa13448656bdbfa7a"}, {"place_id": "0x3962fcf129b6ad6b:0x2f740b60bcda116d", "name": "Gems Essence Infotech Pvt. Ltd.", "category": "Software company", "street": "First Floor", "city": "2570", "phone": "07314969817", "website": "https://www.gemsessence.com/", "rating": 4.6, "review_count": "", "latitude": 22.6883806, "longitude": 75.82845669999999, "maps_url": "https://www.google.com/maps/place/?q=place_id:0x3962fcf129b6ad6b:0x2f740b60bcda116d"}, {"place_id": "0x39631d62557ed507:0x5dc2b67a2ba7971a", "name": "Royal IT Service - IT Company in Indore", "category": "Software company", "street": "426 Scheme No. 114 Part 2", "city": "Anurag Nagar Ln", "phone": "09285192850", "website": "http://royalitservice.com/", "rating": 4.3, "review_count": "", "latitude": 22.7622528, "longitude": 75.9022899, "maps_url": "https://www.google.com/maps/place/?q=place_id:0x39631d62557ed507:0x5dc2b67a2ba7971a"}, {"place_id": "0x3963fff72da658e1:0x92f18af11b24e80", "name": "Blueslag Technologies l shopify website development company", "category": "Website designer", "street": "714 7th Floor", "city": "569/1, Mahatma Gandhi Rd", "phone": "07000472219", "website": "https://blueslag.com/", "rating": 4.8, "review_count": "", "latitude": 22.7208279, "longitude": 75.8735019, "maps_url": "https://www.google.com/maps/place/?q=place_id:0x3963fff72da658e1:0x92f18af11b24e80"}, {"place_id": "0x3962fdbd30b56e2f:0x6e2142278b0505b8", "name": "Cybernet Services-Digital Marketing, Website Designing & Development, Mobile App Development, Company in Indore | CNS", "category": "Software company", "street": "66, Manik Bagh Rd", "city": "Phadnis Colony, Ashoka Colony, Nandanvan Colony", "phone": "07314248982", "website": "https://cybernetservices.net/", "rating": 5, "review_count": "", "latitude": 22.6927481, "longitude": 75.8550762, "maps_url": "https://www.google.com/maps/place/?q=place_id:0x3962fdbd30b56e2f:0x6e2142278b0505b8"}, {"place_id": "0x39631dbc5e7d2a29:0x1c8746aae1d098c8", "name": "Logical Soft Tech Private Limited ( Software Development IT Company and Software IT training)", "category": "Software company", "street": "388, PU4", "city": "next to Krozzon Hotel", "phone": "08210251824", "website": "http://logicalsofttech.com/", "rating": 4.3, "review_count": "", "latitude": 22.747576, "longitude": 75.896326, "maps_url": "https://www.google.com/maps/place/?q=place_id:0x39631dbc5e7d2a29:0x1c8746aae1d098c8"}, {"place_id": "0x3962fcce471be92d:0xd56d849f777985e6", "name": "Systango", "category": "Software company", "street": "Crystal IT Park, Building 1, 3rd Floor", "city": "Ring Rd", "phone": "07312971030", "website": "https://www.systango.com/", "rating": 4.4, "review_count": "", "latitude": 22.685488199999998, "longitude": 75.872337, "maps_url": "https://www.google.com/maps/place/?q=place_id:0x3962fcce471be92d:0xd56d849f777985e6"}, {"place_id": "0x3962fd1790b2e6cb:0x47270a7fe30947bf", "name": "TECHFROLIC", "category": "Software company", "street": "Office No. 509, 165", "city": "Fortune Business Center", "phone": "06479922645", "website": "http://techfrolic.com/", "rating": 5, "review_count": "", "latitude": 22.7143998, "longitude": 75.8745102, "maps_url": "https://www.google.com/maps/place/?q=place_id:0x3962fd1790b2e6cb:0x47270a7fe30947bf"}, {"place_id": "0x3962fce49f79b7b3:0x853dda0c769e5137", "name": "Axiom Cloud Solutions", "category": "Software company", "street": "94, Indrapuri Colony, Near Bhawarkua Square", "city": "Indore, Madhya Pradesh 452001", "phone": "07314278572", "website": "http://axiomcloudtech.com/", "rating": 4.8, "review_count": "", "latitude": 22.688788199999998, "longitude": 75.8665621, "maps_url": "https://www.google.com/maps/place/?q=place_id:0x3962fce49f79b7b3:0x853dda0c769e5137"}, {"place_id": "0x3962fd76fcd4fde7:0x94ae8da5dd58cbbf", "name": "Gugli", "category": "Software company", "street": "3rd Floor", "city": "Atulya IT Park", "phone": "09479788257", "website": "https://www.gugli.in/", "rating": 5, "review_count": "", "latitude": 22.6866925, "longitude": 75.8713288, "maps_url": "https://www.google.com/maps/place/?q=place_id:0x3962fd76fcd4fde7:0x94ae8da5dd58cbbf"}, {"place_id": "0x3962fde93018d013:0x90b7de5a12427e20", "name": "Think it Loud - Digital Marketing Company", "category": "Website designer", "street": "9, Airport Rd", "city": "Venkatesh Nagar", "phone": "", "website": "", "rating": 4, "review_count": "", "latitude": 22.7255985, "longitude": 75.8222274, "maps_url": "https://www.google.com/maps/place/?q=place_id:0x3962fde93018d013:0x90b7de5a12427e20"}, {"place_id": "0x396302ab0db87d2d:0x21904cb1ee649626", "name": "Five Exceptions Software Solutions", "category": "Software company", "street": "301, Gravity Tower, Roshan Singh Bhandari Rd", "city": "Janjeerwala Square", "phone": "07314002593", "website": "http://5exceptions.com/", "rating": 4.5, "review_count": "", "latitude": 22.7256324, "longitude": 75.8811552, "maps_url": "https://www.google.com/maps/place/?q=place_id:0x396302ab0db87d2d:0x21904cb1ee649626"}, {"place_id": "0x396302bb86d03ddf:0x7202a9fbaa75df32", "name": "RecTra IT Infosystem Pvt. Ltd. - Bulk SMS Service Provider In Indore & Startup Consultant", "category": "Website designer", "street": "Unit No 301, 3rd floor", "city": "DNR 90", "phone": "09993097487", "website": "http://www.rectra.in/", "rating": 4.6, "review_count": "", "latitude": 22.720886999999998, "longitude": 75.87351699999999, "maps_url": "https://www.google.com/maps/place/?q=place_id:0x396302bb86d03ddf:0x7202a9fbaa75df32"}, {"place_id": "0x3962fd380ebca3b3:0x9ccc6ea708a0fa2c", "name": "GraffersID - IT Staff Augmentation Company", "category": "Software company", "street": "816 Shekhar Central Palasia", "city": "Square", "phone": "07314915234", "website": "https://graffersid.com/?utm_source=Google+Organic&utm_medium=gmb&utm_campaign=home", "rating": 4.3, "review_count": "", "latitude": 22.7227168, "longitude": 75.8871544, "maps_url": "https://www.google.com/maps/place/?q=place_id:0x3962fd380ebca3b3:0x9ccc6ea708a0fa2c"}, {"place_id": "0x3962fd7f4f8baf87:0x598f75f3363bc558", "name": "Aimfortech - Software | SaaS | Web | E-Commerce Gaming App Development Company in India", "category": "Software company", "street": "103, Greater Kailash Road", "city": "above Nafees Restaurant", "phone": "07314066773", "website": "https://www.aimfortech.com/", "rating": 5, "review_count": "", "latitude": 22.7257765, "longitude": 75.8878778, "maps_url": "https://www.google.com/maps/place/?q=place_id:0x3962fd7f4f8baf87:0x598f75f3363bc558"}, {"place_id": "0x3962fdca477b911b:0xe313c8b4e0f60e8f", "name": "SEO Widers", "category": "Education center", "street": "Veda Business Park", "city": "128, Bhawarkua Main Rd", "phone": "09926108927", "website": "https://www.seo-widers.com/", "rating": 5, "review_count": "", "latitude": 22.6935503, "longitude": 75.86655019999999, "maps_url": "https://www.google.com/maps/place/?q=place_id:0x3962fdca477b911b:0xe313c8b4e0f60e8f"}, {"place_id": "0x3962fcfac1eaaaab:0x4e225b6d7fe920b7", "name": "Reinforce Software Solutions Pvt. Ltd.", "category": "Software company", "street": "Sai Ram Plaza", "city": "AB Rd", "phone": "07314263617", "website": "http://reinforcewebsol.in/", "rating": 4.5, "review_count": "", "latitude": 22.685712, "longitude": 75.85970499999999, "maps_url": "https://www.google.com/maps/place/?q=place_id:0x3962fcfac1eaaaab:0x4e225b6d7fe920b7"}, {"place_id": "0x3962fd8e8041936d:0xe24904d749d1f157", "name": "Indian Website Company", "category": "Software company", "street": "Flat No", "city": "Raj Palace", "phone": "09993737019", "website": "https://www.indianwebsitecompany.com/", "rating": 5, "review_count": "", "latitude": 22.6977105, "longitude": 75.8584336, "maps_url": "https://www.google.com/maps/place/?q=place_id:0x3962fd8e8041936d:0xe24904d749d1f157"}, {"place_id": "0x3962fc4b2a17fddd:0x82c2c4aa17215e61", "name": "Company Connect Consultancy", "category": "Training center", "street": "406", "city": "Bapu Nagar", "phone": "09691633901", "website": "http://companysconnects.com/", "rating": 4.7, "review_count": "", "latitude": 22.6949644, "longitude": 75.8665959, "maps_url": "https://www.google.com/maps/place/?q=place_id:0x3962fc4b2a17fddd:0x82c2c4aa17215e61"}, {"place_id": "0xa681a48ab295349:0x92f1a55ccb3858d7", "name": "Valac Digital | Best Digital Marketing Company", "category": "Website designer", "street": "shital nagar", "city": "near govind colony", "phone": "08815522917", "website": "http://aniricdigital.com/", "rating": 4.8, "review_count": "", "latitude": 22.717554399999997, "longitude": 75.8560454, "maps_url": "https://www.google.com/maps/place/?q=place_id:0xa681a48ab295349:0x92f1a55ccb3858d7"}, {"place_id": "0x3962fce4fee84e1f:0x9cb5925343f3b59f", "name": "FODUU", "category": "Software company", "street": "102 Flat no, Raj Palace,", "city": "Indrapuri Colony,", "phone": "08817304988", "website": "https://www.foduu.com/?utm_source=google-maps&utm_medium=gmb-listing&utm_campaign=google-business-listing", "rating": 4.1, "review_count": "", "latitude": 22.6885203, "longitude": 75.86672449999999, "maps_url": "https://www.google.com/maps/place/?q=place_id:0x3962fce4fee84e1f:0x9cb5925343f3b59f"}, {"place_id": "0x3962fdf80bee3ccb:0x687eaae2d2acdc7a", "name": "UltraModern Technologies Pvt. Ltd.", "category": "Software company", "street": "565, Sapna Sangeeta Rd", "city": "nearby axis bank", "phone": "08640089400", "website": "http://www.ultramoderntechnologies.com/", "rating": 5, "review_count": "", "latitude": 22.702948, "longitude": 75.8688236, "maps_url": "https://www.google.com/maps/place/?q=place_id:0x3962fdf80bee3ccb:0x687eaae2d2acdc7a"}, {"place_id": "0x3962fce37de1d219:0xf07af931ebceaafd", "name": "Jinpushp Infotech Indore || IT Company Indore || Website", "category": "Software company", "street": "Plot No 408,Saklecha Building", "city": "Amitesh Nagar, Krishi Mandi", "phone": "07566043133", "website": "https://jinpushpinfotech.com/", "rating": 4.9, "review_count": "", "latitude": 22.680349099999997, "longitude": 75.8519244, "maps_url": "https://www.google.com/maps/place/?q=place_id:0x3962fce37de1d219:0xf07af931ebceaafd"}, {"place_id": "0x67c417f355b74351:0xbc1a79e3cf3ac459", "name": "Opticode Solutions", "category": "Software company", "street": "", "city": "", "phone": "", "website": "https://opticode.co.in/", "rating": 4.9, "review_count": "", "latitude": 9.374110199999999, "longitude": -74.9524576, "maps_url": "https://www.google.com/maps/place/?q=place_id:0x67c417f355b74351:0xbc1a79e3cf3ac459"}, {"place_id": "0x3962fcfd2ac2d957:0x325642238b8c15f7", "name": "Virtual Support Business - Virtual Experts LLP", "category": "BPO Company", "street": "Office no 201-204", "city": "Sahil Siddhi Vinayak Complex", "phone": "09752734938", "website": "https://virtualsupportbusiness.com/", "rating": 4.9, "review_count": "", "latitude": 22.6980038, "longitude": 75.8651139, "maps_url": "https://www.google.com/maps/place/?q=place_id:0x3962fcfd2ac2d957:0x325642238b8c15f7"}, {"place_id": "0x3962fd3edbca24ed:0xc8f8fbba0fed0cc8", "name": "PROGRAMMERS POINT", "category": "Software Training Institute", "street": "1st Floor, GD Prime", "city": "Bhawarkua Main Rd", "phone": "07974250782", "website": "http://www.programmerspoint.in/", "rating": 4.5, "review_count": "", "latitude": 22.6953662, "longitude": 75.8663741, "maps_url": "https://www.google.com/maps/place/?q=place_id:0x3962fd3edbca24ed:0xc8f8fbba0fed0cc8"}, {"place_id": "0x3962fd2890984f83:0x9a9c5f3b37ea902f", "name": "Techco Infotech", "category": "Software company", "street": "4TH FLOOR", "city": "Shreevardhan Complex", "phone": "", "website": "https://techcoinfotech.com/", "rating": 5, "review_count": "", "latitude": 22.717686, "longitude": 75.87301699999999, "maps_url": "https://www.google.com/maps/place/?q=place_id:0x3962fd2890984f83:0x9a9c5f3b37ea902f"}, {"place_id": "0x3962fddf4d082a1d:0xb8ac2f0a7f8ef06e", "name": "AdClock Services Pvt. Ltd. - Digital Marketing Company", "category": "Website designer", "street": "73/47, Sapna Sangeeta Rd", "city": "Agrawal Nagar, Old Agarwal Nagar", "phone": "", "website": "https://adclock.in/", "rating": 5, "review_count": "", "latitude": 22.702041899999998, "longitude": 75.8723807, "maps_url": "https://www.google.com/maps/place/?q=place_id:0x3962fddf4d082a1d:0xb8ac2f0a7f8ef06e"}, {"place_id": "0x3962fda7e1818cb5:0xbf2d11d2829e12f2", "name": "Smashing Infolabs Pvt Ltd -Drupal Website Design, Mobile App & Software-Shopify Ecommerce Development Company Indore India", "category": "Software company", "street": "302, Atulya IT Park", "city": "Madhya Pradesh 452001", "phone": "07489434407", "website": "https://smashinginfolabs.com/", "rating": 5, "review_count": "", "latitude": 22.686809999999998, "longitude": 75.87146489999999, "maps_url": "https://www.google.com/maps/place/?q=place_id:0x3962fda7e1818cb5:0xbf2d11d2829e12f2"}, {"place_id": "0x3962fd8058ec9a45:0xdcdd2fd9021c60c4", "name": "Innosoft Group Pvt. Ltd", "category": "Software company", "street": "United spaces", "city": "10/C, Mahatma Gandhi Rd", "phone": "09589699997", "website": "https://innosoft-group.com/", "rating": 4.8, "review_count": "", "latitude": 22.7216208, "longitude": 75.8789106, "maps_url": "https://www.google.com/maps/place/?q=place_id:0x3962fd8058ec9a45:0xdcdd2fd9021c60c4"}, {"place_id": "0x39630290e555553f:0x3e3f56427ca41603", "name": "Software Company Indore Msorasys", "category": "Software company", "street": "6 radhika society , Scheme No 54", "city": "DDU Nagar, Sukhliya", "phone": "09630186161", "website": "", "rating": 5, "review_count": "", "latitude": 22.7615931, "longitude": 75.8692351, "maps_url": "https://www.google.com/maps/place/?q=place_id:0x39630290e555553f:0x3e3f56427ca41603"}, {"place_id": "0x812b55556fbdddf3:0x37a051c28a19caf4", "name": "TanmayiSoft - Website Design Company in Indore", "category": "Software company", "street": "Trade House", "city": "415", "phone": "", "website": "https://tanmayisoft.com/", "rating": 5, "review_count": "", "latitude": 22.7159305, "longitude": 75.8757761, "maps_url": "https://www.google.com/maps/place/?q=place_id:0x812b55556fbdddf3:0x37a051c28a19caf4"}, {"place_id": "0x3962fdff2fceeaa1:0x269a40cdd619a473", "name": "Logicweb Technology", "category": "Computer support and services", "street": "204,2nd floor", "city": "AB Rd", "phone": "", "website": "", "rating": 5, "review_count": "", "latitude": 22.6886546, "longitude": 75.8628136, "maps_url": "https://www.google.com/maps/place/?q=place_id:0x3962fdff2fceeaa1:0x269a40cdd619a473"}, {"place_id": "0x3962fce207f10061:0xe8234aa87cb88aad", "name": "Winlancer Technologies", "category": "Software company", "street": "619", "city": "Shekhar central", "phone": "09926372815", "website": "http://www.winlancers.com/", "rating": 4.6, "review_count": "", "latitude": 22.722727, "longitude": 75.88707099999999, "maps_url": "https://www.google.com/maps/place/?q=place_id:0x3962fce207f10061:0xe8234aa87cb88aad"}, {"place_id": "0x45987ea33699bf7:0x32ec8c65e2ace50e", "name": "Brandsetu Digital | Best Digital Marketing Agency | Digital Marketing Company | Indore, India", "category": "Marketing agency", "street": "Orange Business Park", "city": "Bhawarkua Main Rd", "phone": "06232363639", "website": "https://linktr.ee/brandsetudigital", "rating": 4.9, "review_count": "", "latitude": 22.694715, "longitude": 75.86617009999999, "maps_url": "https://www.google.com/maps/place/?q=place_id:0x45987ea33699bf7:0x32ec8c65e2ace50e"}, {"place_id": "0x3962fdb4c9f1bd5b:0x4b4dcdd123d7c2e3", "name": "P&P Infotech Applying Solutions", "category": "Software company", "street": "137, Gopur Square", "city": "Ahilya Nagar", "phone": "07049037000", "website": "http://www.pnpuniverse.com/", "rating": 4.1, "review_count": "", "latitude": 22.6833803, "longitude": 75.83069379999999, "maps_url": "https://www.google.com/maps/place/?q=place_id:0x3962fdb4c9f1bd5b:0x4b4dcdd123d7c2e3"}, {"place_id": "0x3962fd181e9da7b9:0xaf349f63cacd9d35", "name": "Techsysd IT Solution - Website Design & Mobile App Development Company", "category": "Software company", "street": "Sterling Tower", "city": "206, Mahatma Gandhi Rd", "phone": "08109032576", "website": "https://www.techsysd.com/", "rating": 4.9, "review_count": "", "latitude": 22.7229954, "longitude": 75.8840811, "maps_url": "https://www.google.com/maps/place/?q=place_id:0x3962fd181e9da7b9:0xaf349f63cacd9d35"}, {"place_id": "0x3962fce49f7844a3:0xd776bf9ccf05b9f1", "name": "Adiraj Global Private Limited", "category": "Import export company", "street": "158, Vishnupuri Annex", "city": "Bhawarkua Main Rd", "phone": "07879410344", "website": "", "rating": 5, "review_count": "", "latitude": 22.700098099999998, "longitude": 75.86340489999999, "maps_url": "https://www.google.com/maps/place/?q=place_id:0x3962fce49f7844a3:0xd776bf9ccf05b9f1"}, {"place_id": "0x3962fd1e08425cf3:0x5f6c4cc7b58a7f05", "name": "Gravity Infotech (CCTV Camera And Security Solution)", "category": "Security system supplier", "street": "F", "city": "28, Sapna Sangeeta Rd", "phone": "09111107450", "website": "https://gravity-infotech-cctv.grexa.site/", "rating": 4.5, "review_count": "", "latitude": 22.701881, "longitude": 75.8703592, "maps_url": "https://www.google.com/maps/place/?q=place_id:0x3962fd1e08425cf3:0x5f6c4cc7b58a7f05"}, {"place_id": "0x3962fd5db9398a17:0xab0423f2e098292a", "name": "Mitii Digital Media Pvt .Ltd. Company in Indore - Best Digital Marketing Company in Indore", "category": "Website designer", "street": "226, 2nd Floor", "city": "Milinda Manor Building", "phone": "09352301927", "website": "https://www.mitudigitalmedia.com/", "rating": 4.5, "review_count": "", "latitude": 22.7183214, "longitude": 75.872287, "maps_url": "https://www.google.com/maps/place/?q=place_id:0x3962fd5db9398a17:0xab0423f2e098292a"}, {"place_id": "0x3962fd51349f287b:0xb6a7c450b73b6cb7", "name": "Optimoz IT | Digital Marketing & Information Technology Agency", "category": "Software company", "street": "Yeshwant Niwas Rd", "city": "B Builders Colony, Builders Colony", "phone": "09111590731", "website": "http://www.optimozit.com/", "rating": 4.7, "review_count": "", "latitude": 22.723414899999998, "longitude": 75.8736607, "maps_url": "https://www.google.com/maps/place/?q=place_id:0x3962fd51349f287b:0xb6a7c450b73b6cb7"}, {"place_id": "0x3963029cb1d6af1f:0xcf1bea3e7e7a08bd", "name": "Engineer Master Solutions Pvt. Ltd. | Software Company | Website and Mobile app Development", "category": "Software company", "street": "276", "city": "behind Malhar Mega Mall", "phone": "07314980455", "website": "http://www.engineermaster.in/", "rating": 4.4, "review_count": "", "latitude": 22.745530499999997, "longitude": 75.89538809999999, "maps_url": "https://www.google.com/maps/place/?q=place_id:0x3963029cb1d6af1f:0xcf1bea3e7e7a08bd"}, {"place_id": "0x3962fdb24e943af9:0x4fe265bccbdb548e", "name": "Intelyhood Technologies Pvt Ltd", "category": "Software company", "street": "The View", "city": "305, Yeshwant Niwas Rd", "phone": "", "website": "http://www.intelyhood.com/", "rating": 4.1, "review_count": "", "latitude": 22.721748899999998, "longitude": 75.8737501, "maps_url": "https://www.google.com/maps/place/?q=place_id:0x3962fdb24e943af9:0x4fe265bccbdb548e"}, {"place_id": "0x3962fd3764aa9329:0x1b4b33c2f1557b93", "name": "Indore Technology Solutions", "category": "Software company", "street": "PVFQ+39X", "city": "Old Palasia Rd", "phone": "09407087049", "website": "http://indoretechnology.com/", "rating": 5, "review_count": "", "latitude": 22.7227252, "longitude": 75.8884757, "maps_url": "https://www.google.com/maps/place/?q=place_id:0x3962fd3764aa9329:0x1b4b33c2f1557b93"}, {"place_id": "0x3962fd16991ab199:0xcfc58539d56bb307", "name": "Make My House", "category": "Architecture firm", "street": "Block - A , 301", "city": "Corporate House", "phone": "07316803999", "website": "https://www.makemyhouse.com/", "rating": 4, "review_count": "", "latitude": 22.7172125, "longitude": 75.87177729999999, "maps_url": "https://www.google.com/maps/place/?q=place_id:0x3962fd16991ab199:0xcfc58539d56bb307"}, {"place_id": "0x3962fce9643647dd:0xc1ffcef90e9b429d", "name": "Crystal IT Park", "category": "Corporate office", "street": "MVPC+8WC", "city": "Indrapuri Colony, Davv Takshila Parisar", "phone": "", "website": "", "rating": 4.4, "review_count": "", "latitude": 22.685824, "longitude": 75.87226629999999, "maps_url": "https://www.google.com/maps/place/?q=place_id:0x3962fce9643647dd:0xc1ffcef90e9b429d"}, {"place_id": "0x3962fceefff1c439:0xb0fa7789cf76d47f", "name": "SSV Technologies", "category": "Software company", "street": "26, AB Rd, Scheme 54 PU4", "city": "Vijay Nagar", "phone": "09039063936", "website": "https://ssvtechnologies.in/", "rating": 4, "review_count": "", "latitude": 22.7454435, "longitude": 75.8965633, "maps_url": "https://www.google.com/maps/place/?q=place_id:0x3962fceefff1c439:0xb0fa7789cf76d47f"}, {"place_id": "0x39631dea26795013:0x7ae37c0186b13b60", "name": "Fovty Solutions | Website Development Company, Software Development Company, Mobile App Development Company in Indore", "category": "Software company", "street": "101, WA12, Gulab Bagh Scheme 94", "city": "Square", "phone": "09644888835", "website": "https://www.fovtysolutions.com/", "rating": 4.7, "review_count": "", "latitude": 22.7699031, "longitude": 75.9081957, "maps_url": "https://www.google.com/maps/place/?q=place_id:0x39631dea26795013:0x7ae37c0186b13b60"}, {"place_id": "0x3962fce00dab6609:0x4eb255304aefd4af", "name": "Webwiders Software Solutions", "category": "Website designer", "street": "Pukhraj Corporate", "city": "315", "phone": "07869213333", "website": "https://webwiders.com/", "rating": 4.6, "review_count": "", "latitude": 22.7004876, "longitude": 75.8759815, "maps_url": "https://www.google.com/maps/place/?q=place_id:0x3962fce00dab6609:0x4eb255304aefd4af"}, {"place_id": "0x3962fd5684f3ffff:0x70794951e809d186", "name": "Eminence Infotech", "category": "Software company", "street": "3rd Floor", "city": "AICTSL Campus", "phone": "07566514634", "website": "http://eminenceinfotech.com/", "rating": 4.2, "review_count": "", "latitude": 22.7143431, "longitude": 75.8842609, "maps_url": "https://www.google.com/maps/place/?q=place_id:0x3962fd5684f3ffff:0x70794951e809d186"}, {"place_id": "0x3962fce49a218fb3:0xa354048e434f11e0", "name": "Future Multimedia", "category": "Website designer", "street": "MVV8+VGV", "city": "114, Orange Business Park", "phone": "08817141264", "website": "https://futuremultimedia.in/", "rating": 4.8, "review_count": "", "latitude": 22.694709, "longitude": 75.8662185, "maps_url": "https://www.google.com/maps/place/?q=place_id:0x3962fce49a218fb3:0xa354048e434f11e0"}, {"place_id": "0x3962fd725f04cfdd:0x21fe795725afdb82", "name": "India Websoft - Website Design and Development Company", "category": "Software company", "street": "106", "city": "NRK BizPark", "phone": "09755907700", "website": "https://www.indiawebsoft.com/", "rating": 4.8, "review_count": "", "latitude": 22.745765499999997, "longitude": 75.89632329999999, "maps_url": "https://www.google.com/maps/place/?q=place_id:0x3962fd725f04cfdd:0x21fe795725afdb82"}, {"place_id": "0x3962fd5585e52bcd:0xcd2c629d477ae314", "name": "LAUREL IT", "category": "Software company", "street": "capital tower", "city": "312", "phone": "08839339068", "website": "https://laurelit.com/", "rating": 4.8, "review_count": "", "latitude": 22.702821399999998, "longitude": 75.87181389999999, "maps_url": "https://www.google.com/maps/place/?q=place_id:0x3962fd5585e52bcd:0xcd2c629d477ae314"}, {"place_id": "0x3962fda9638f76d3:0xf46aa7d34cc4b2a6", "name": "Blockchain & Mobile App Development Company - Virtual Height IT Services Pvt. Ltd.", "category": "Software company", "street": "Shekhar central", "city": "719, AB Rd", "phone": "09510987700", "website": "https://www.virtualheight.com/?utm_source=GBP&utm_medium=Organic", "rating": 4.5, "review_count": "", "latitude": 22.722727, "longitude": 75.88707099999999, "maps_url": "https://www.google.com/maps/place/?q=place_id:0x3962fda9638f76d3:0xf46aa7d34cc4b2a6"}, {"place_id": "0x3962fd146c529801:0xc4c603568388ca95", "name": "Technlogi IT Acumen Private Limited", "category": "Software company", "street": "12, Annapurna Rd", "city": "Model Town Colony, Revenue Colony, Sachidanand Nagar", "phone": "09425327566", "website": "http://www.technlogi.com/", "rating": 5, "review_count": "", "latitude": 22.7008358, "longitude": 75.8415311, "maps_url": "https://www.google.com/maps/place/?q=place_id:0x3962fd146c529801:0xc4c603568388ca95"}, {"place_id": "0x3962fcfaa753f05d:0x975c63c15cb23f0b", "name": "Universal Informatics", "category": "Software company", "street": "160/3, Pipliyarao, Bhawarkua, A.B. Road", "city": "Near Bholaram Ustad Marg, Opp I-Bus Stop & Ahuja TVS", "phone": "07314986251", "website": "http://www.universalinformatics.com/", "rating": 4.7, "review_count": "", "latitude": 22.688985199999998, "longitude": 75.8640743, "maps_url": "https://www.google.com/maps/place/?q=place_id:0x3962fcfaa753f05d:0x975c63c15cb23f0b"}, {"place_id": "0x3962fddc6fcb9745:0x135861c48067e00b", "name": "DigiHolic Infotech Pvt.Ltd", "category": "Software company", "street": "Office No.201", "city": "AB Rd", "phone": "09522345672", "website": "", "rating": 4.5, "review_count": "", "latitude": 22.6886546, "longitude": 75.8628136, "maps_url": "https://www.google.com/maps/place/?q=place_id:0x3962fddc6fcb9745:0x135861c48067e00b"}, {"place_id": "0x3962fd1c89a3c1ed:0xf9775d803900db60", "name": "Adonline Service digital marketing", "category": "Website designer", "street": "3,4, Anjali Plaza", "city": "near ICICI Bank & Bank Of Baroda", "phone": "08850803276", "website": "http://adonlineservice.com/", "rating": 4.9, "review_count": "", "latitude": 22.696397599999997, "longitude": 75.86613439999999, "maps_url": "https://www.google.com/maps/place/?q=place_id:0x3962fd1c89a3c1ed:0xf9775d803900db60"}, {"place_id": "0x3962e32b2894590f:0x4e73ebc1261cc50", "name": "TheRapidHire Private Limited - Software ,Website & Mobile App Development Company in India, USA", "category": "Software company", "street": "51", "city": "Electronic Complex, Pardesipura", "phone": "07313581354", "website": "https://www.therapidhire.com/", "rating": 3.5, "review_count": "", "latitude": 22.752822, "longitude": 75.867381, "maps_url": "https://www.google.com/maps/place/?q=place_id:0x3962e32b2894590f:0x4e73ebc1261cc50"}, {"place_id": "0x461cb2df2d0ef3d5:0x3b8b46af45360b08", "name": "Cloudnet Solutions", "category": "Software company", "street": "", "city": "", "phone": "06264917744", "website": "https://cloudnetsolutions.in/", "rating": 5, "review_count": "", "latitude": 21.0680074, "longitude": 82.7525294, "maps_url": "https://www.google.com/maps/place/?q=place_id:0x461cb2df2d0ef3d5:0x3b8b46af45360b08"}, {"place_id": "0x3962fd6188b57d47:0x26b0abd8515dc291", "name": "eWebWorld | Website & Mobile App Development Company in Indore", "category": "Website designer", "street": "Office number 504,505", "city": "Mahasagar Corporate", "phone": "09074976014", "website": "https://ewebworld.in/", "rating": 4.8, "review_count": "", "latitude": 22.718743399999997, "longitude": 75.8867485, "maps_url": "https://www.google.com/maps/place/?q=place_id:0x3962fd6188b57d47:0x26b0abd8515dc291"}, {"place_id": "0x3962fd5af24dba57:0x5f672a52c2ab1fc6", "name": "PSR AND COMPANY", "category": "Tax preparation service", "street": "SECOND FLOOR", "city": "S-83, Prince Yashwant Rd", "phone": "09144444275", "website": "", "rating": 4.9, "review_count": "", "latitude": 22.7169931, "longitude": 75.85564579999999, "maps_url": "https://www.google.com/maps/place/?q=place_id:0x3962fd5af24dba57:0x5f672a52c2ab1fc6"}, {"place_id": "0x3962fd91141818ad:0xa496e301e28e3226", "name": "Sion Data matics India Pvt. Ltd| Best IT Company In Madhya Pradesh", "category": "Software company", "street": "11,5", "city": "bano doctor compound", "phone": "07880136882", "website": "https://www.sdmipl.com/", "rating": 3.9, "review_count": "", "latitude": 22.7181933, "longitude": 75.87494319999999, "maps_url": "https://www.google.com/maps/place/?q=place_id:0x3962fd91141818ad:0xa496e301e28e3226"}, {"place_id": "0x39631d48ebdfd531:0xc93f23d4786a891b", "name": "DIGITECH India", "category": "Internet marketing service", "street": "City Center", "city": "405, Mahatma Gandhi Rd", "phone": "07898465722", "website": "https://www.digitechindia.co/", "rating": 4.7, "review_count": "", "latitude": 22.7210878, "longitude": 75.8743782, "maps_url": "https://www.google.com/maps/place/?q=place_id:0x39631d48ebdfd531:0xc93f23d4786a891b"}, {"place_id": "0x3962fd09e6aaa18f:0x633ce78b15e73371", "name": "Pushp Tea Company", "category": "Tea Manufacturer", "street": "122, Jawahar Marg Opposite Pipli Bazar Corner", "city": "Bombay Bazar", "phone": "09926913030", "website": "https://www.pushptea.com/", "rating": 4.9, "review_count": "", "latitude": 22.716091799999997, "longitude": 75.8537092, "maps_url": "https://www.google.com/maps/place/?q=place_id:0x3962fd09e6aaa18f:0x633ce78b15e73371"}, {"place_id": "0x396303297c7cf2ef:0x965300c0d82fac7c", "name": "IW Technocrats | IT Company", "category": "Software company", "street": "Corporate Park", "city": "816, Cliffton Park Rd", "phone": "", "website": "https://www.iwtechnocrats.in/", "rating": "", "review_count": "", "latitude": 22.763570599999998, "longitude": 75.8794769, "maps_url": "https://www.google.com/maps/place/?q=place_id:0x396303297c7cf2ef:0x965300c0d82fac7c"}, {"place_id": "0x3962e3d56c170eb1:0x876e329535a3531d", "name": "AG TECHNOLOGIES, Software Company in Indore", "category": "Software company", "street": "28, Shree Krishna Vihar Colony, Near Shree Chintaman Hanuman Mandir, Opp Malviya Petrol Pump, Radisson Square", "city": "Madhya Pradesh 452016", "phone": "", "website": "", "rating": 5, "review_count": "", "latitude": 22.744705999999997, "longitude": 75.910692, "maps_url": "https://www.google.com/maps/place/?q=place_id:0x3962e3d56c170eb1:0x876e329535a3531d"}, {"place_id": "0x3962fdadceaa9dd3:0xa9e1d4c6718d545", "name": "Webdunia", "category": "Corporate office", "street": "22, Normal School Rd", "city": "11 Bungalow Colony, Nai Duniya, Revenue Colony, Normal School Colony", "phone": "07314273310", "website": "", "rating": 4.2, "review_count": "", "latitude": 22.704304099999998, "longitude": 75.8436634, "maps_url": "https://www.google.com/maps/place/?q=place_id:0x3962fdadceaa9dd3:0xa9e1d4c6718d545"}, {"place_id": "0x3962fd6051e1fa61:0xea1ac49345f39345", "name": "Bluetech IT Services", "category": "Software company", "street": "", "city": "", "phone": "09893509996", "website": "https://www.bluetechitservices.com/", "rating": 4.6, "review_count": "", "latitude": 14.157641199999999, "longitude": -16.7424939, "maps_url": "https://www.google.com/maps/place/?q=place_id:0x3962fd6051e1fa61:0xea1ac49345f39345"}, {"place_id": "0x3962e39b92ff9d77:0xc79d3a2696ab1651", "name": "Mxpertz Infolabs - Transforming By Tech | Web & Mobile Development | UI/UX Design | Cloud Solutions | AI/ML Innovations", "category": "Software company", "street": "105", "city": "Captain C.S Naidu Arcade", "phone": "07314957900", "website": "https://www.mxpertz.com/", "rating": 3.9, "review_count": "", "latitude": 22.725223699999997, "longitude": 75.8902705, "maps_url": "https://www.google.com/maps/place/?q=place_id:0x3962e39b92ff9d77:0xc79d3a2696ab1651"}, {"place_id": "0x3962fdc3917dc839:0x770ab0ae980ea8b9", "name": "Web And Apps Villa Technology", "category": "Software company", "street": "1140, N\" Sector", "city": "Nandan Nagar, Chandan Nagar", "phone": "07869091140", "website": "", "rating": 5, "review_count": "", "latitude": 22.7116385, "longitude": 75.8220044, "maps_url": "https://www.google.com/maps/place/?q=place_id:0x3962fdc3917dc839:0x770ab0ae980ea8b9"}, {"place_id": "0x3962fd7be9357d4f:0xb9a7bbb603b98163", "name": "Inwizards Software Technology", "category": "Software company", "street": "603", "city": "Airen Heights", "phone": "09667584436", "website": "https://www.inwizards.com/", "rating": 4.7, "review_count": "", "latitude": 22.745121299999997, "longitude": 75.89222699999999, "maps_url": "https://www.google.com/maps/place/?q=place_id:0x3962fd7be9357d4f:0xb9a7bbb603b98163"}, {"place_id": "0x3962fd7dea444853:0xea04596ea128ce7e", "name": "Winrit Softwares", "category": "Software company", "street": "205, Fortune Business Center", "city": "near DAVV Indore", "phone": "08959881192", "website": "https://winrit.com/", "rating": 5, "review_count": "", "latitude": 22.715281299999997, "longitude": 75.8735633, "maps_url": "https://www.google.com/maps/place/?q=place_id:0x3962fd7dea444853:0xea04596ea128ce7e"}, {"place_id": "0x3962fd6972b545c5:0x6755a154329ca85d", "name": "KARAN NENWANI & ASSOCIATES, COMPANY", "category": "Legal services", "street": "539, 4Th Floor", "city": "Vikram Tower", "phone": "09039507554", "website": "", "rating": 5, "review_count": "", "latitude": 22.701151, "longitude": 75.8701878, "maps_url": "https://www.google.com/maps/place/?q=place_id:0x3962fd6972b545c5:0x6755a154329ca85d"}, {"place_id": "0x3962fd12d9348293:0xe46397556947c9a7", "name": "Bhagwati Trading Company", "category": "Industrial equipment supplier", "street": "B-4, Paththar Godown Rd", "city": "New Siyaganj", "phone": "09893605848", "website": "", "rating": 4.9, "review_count": "", "latitude": 22.723060399999998, "longitude": 75.8674353, "maps_url": "https://www.google.com/maps/place/?q=place_id:0x3962fd12d9348293:0xe46397556947c9a7"}, {"place_id": "0x3962fdcc6f2d6f87:0x9645b5e3f6ea6f04", "name": "ExpressTech Software Solutions Pvt Ltd", "category": "Software company", "street": "Office 311", "city": "Sai Ram Plaza", "phone": "07314992666", "website": "https://expresstechsoftwares.com/", "rating": 4, "review_count": "", "latitude": 22.685712, "longitude": 75.85970449999999, "maps_url": "https://www.google.com/maps/place/?q=place_id:0x3962fdcc6f2d6f87:0x9645b5e3f6ea6f04"}, {"place_id": "0x39631dca905683b1:0x639dea9e04dc929f", "name": "Appzeto", "category": "Website designer", "street": "Princess center, 5th Floor", "city": "New Palasia", "phone": "06375095971", "website": "https://www.appzeto.com/", "rating": 4.4, "review_count": "", "latitude": 22.729525, "longitude": 75.876305, "maps_url": "https://www.google.com/maps/place/?q=place_id:0x39631dca905683b1:0x639dea9e04dc929f"}, {"place_id": "0x3962fd2e084e51e5:0x57f13364602a37a3", "name": "Solar By Jain | Best Solar Company in Indore | Solar Installation in Indore", "category": "Solar Energy Company", "street": "2327 sector E, Sudama Nagar", "city": "Western Ring Rd", "phone": "09111716164", "website": "https://jainengineersllp.com/", "rating": 4.9, "review_count": "", "latitude": 22.6919962, "longitude": 75.8281911, "maps_url": "https://www.google.com/maps/place/?q=place_id:0x3962fd2e084e51e5:0x57f13364602a37a3"}, {"place_id": "0x3962fdb30b76917d:0xafe120a7d19399c5", "name": "Naresh Services company", "category": "Appliance repair service", "street": "193/B, Prajapat Nagar", "city": "Futi Kothi Square, Sudama Nagar", "phone": "09575077772", "website": "http://nareshservices.com/", "rating": 3.9, "review_count": "", "latitude": 22.6937788, "longitude": 75.8243782, "maps_url": "https://www.google.com/maps/place/?q=place_id:0x3962fdb30b76917d:0xafe120a7d19399c5"}, {"place_id": "0x3962fd26aaaaaaa9:0x6aa2c5b9e1bea45e", "name": "SK Computers", "category": "Computer training school", "street": "1st Floor ,GB TOWER, Bhanwar kuwan", "city": "12, Bhawarkua Main Rd", "phone": "", "website": "", "rating": 4.8, "review_count": "", "latitude": 22.6936915, "longitude": 75.86733389999999, "maps_url": "https://www.google.com/maps/place/?q=place_id:0x3962fd26aaaaaaa9:0x6aa2c5b9e1bea45e"}, {"place_id": "0x3963031c00643839:0x8e799c31760d97c9", "name": "Etcetera Technologies", "category": "Software company", "street": "Minal Shree Apartment", "city": "19", "phone": "", "website": "", "rating": 4.8, "review_count": "", "latitude": 22.732077099999998, "longitude": 75.87504489999999, "maps_url": "https://www.google.com/maps/place/?q=place_id:0x3963031c00643839:0x8e799c31760d97c9"}, {"place_id": "0x3962fd1e9ed3e039:0xaf03f9399f0ed1d3", "name": "Virendra And Company - Trademark for Quality", "category": "Lumber store", "street": "T.S 14 Navlakha Road Infront of Anaaz Mandi Gate Near", "city": "Sneh Nagar, Navlakha", "phone": "07722003364", "website": "", "rating": 4.8, "review_count": "", "latitude": 22.7061395, "longitude": 75.8695642, "maps_url": "https://www.google.com/maps/place/?q=place_id:0x3962fd1e9ed3e039:0xaf03f9399f0ed1d3"}, {"place_id": "0x3962fd0e44ac4eb1:0x6ed892c145f8d46d", "name": "Thakurji Trading Company - Best Pooja Samagri Store", "category": "Manufacturer", "street": "1, Jawahar Marg", "city": "near Aakash Namkeen", "phone": "", "website": "", "rating": 4.9, "review_count": "", "latitude": 22.7151928, "longitude": 75.86713929999999, "maps_url": "https://www.google.com/maps/place/?q=place_id:0x3962fd0e44ac4eb1:0x6ed892c145f8d46d"}, {"place_id": "0x3962ffaf3d6730e7:0x39b8424c26e5e4f3", "name": "Home First Finance Company", "category": "Loan agency", "street": "2nd Floor on", "city": "Plot no. 6 of, Airport Rd", "phone": "08770206294", "website": "https://www.homefirstindia.com/", "rating": 4.8, "review_count": "", "latitude": 22.724919099999997, "longitude": 75.8248349, "maps_url": "https://www.google.com/maps/place/?q=place_id:0x3962ffaf3d6730e7:0x39b8424c26e5e4f3"}, {"place_id": "0x20890d3a3dd7e915:0xf2d4aa73357f00b9", "name": "Thincodz IT Solution Indore | Software Development services| Mobile App Development | Website designing| IT Support services", "category": "Website designer", "street": "4th Floor, Industry House", "city": "Infront of decathlon", "phone": "09329579940", "website": "https://www.thincodz.com/", "rating": 5, "review_count": "", "latitude": 22.728397299999997, "longitude": 75.8878424, "maps_url": "https://www.google.com/maps/place/?q=place_id:0x20890d3a3dd7e915:0xf2d4aa73357f00b9"}, {"place_id": "0x3962fd0e0fffffff:0xab10d9f3a04fc802", "name": "Sureka Tea Trading Company - Wholesale & Retail Tea in Indore", "category": "Tea Wholesaler", "street": "38", "city": "Sureka House", "phone": "07999929396", "website": "", "rating": 4.9, "review_count": "", "latitude": 22.7161123, "longitude": 75.8664386, "maps_url": "https://www.google.com/maps/place/?q=place_id:0x3962fd0e0fffffff:0xab10d9f3a04fc802"}, {"place_id": "0x3962fdea9bbb4f01:0xc5e8dbac17fac69a", "name": "Nandanvan Tea - Sureka Trading Company", "category": "Tea Wholesaler", "street": "Siyaganj Main Rd", "city": "Siyaganj", "phone": "", "website": "", "rating": 5, "review_count": "", "latitude": 22.7161123, "longitude": 75.8664387, "maps_url": "https://www.google.com/maps/place/?q=place_id:0x3962fdea9bbb4f01:0xc5e8dbac17fac69a"}, {"place_id": "0x3962fdc86ae2925b:0xa86e705598058f26", "name": "Vaibhav Trading Company", "category": "Wholesaler", "street": "1071 scheme no. 71", "city": "Sector B, Gumasta Nagar, Scheme 71", "phone": "07566788866", "website": "", "rating": 5, "review_count": "", "latitude": 22.7028258, "longitude": 75.8339309, "maps_url": "https://www.google.com/maps/place/?q=place_id:0x3962fdc86ae2925b:0xa86e705598058f26"}, {"place_id": "0x39631dbb2049dd65:0xb667eb306f1b92c5", "name": "IT Company", "category": "Information services", "street": "Chikitsak Nagar", "city": "Indore, Madhya Pradesh 452010", "phone": "", "website": "", "rating": 2, "review_count": "", "latitude": 22.7569083, "longitude": 75.9056753, "maps_url": "https://www.google.com/maps/place/?q=place_id:0x39631dbb2049dd65:0xb667eb306f1b92c5"}, {"place_id": "0x3962fdc9447c2cad:0x4e40277a086704f3", "name": "Techie Online", "category": "Internet marketing service", "street": "53 C-1 Sector D , Scheme No 71 Indore", "city": "Indore, Madhya Pradesh 452009", "phone": "09516598292", "website": "", "rating": 4.7, "review_count": "", "latitude": 22.703989, "longitude": 75.82536549999999, "maps_url": "https://www.google.com/maps/place/?q=place_id:0x3962fdc9447c2cad:0x4e40277a086704f3"}, {"place_id": "0x3962fd165be1e02f:0x76e4b4ab83f584d3", "name": "Webygeeks Technologies Private Limited", "category": "Software company", "street": "LG-6B", "city": "Shalimar Corporate Centre", "phone": "", "website": "http://www.webygeeks.com/", "rating": 5, "review_count": "", "latitude": 22.717209999999998, "longitude": 75.87409199999999, "maps_url": "https://www.google.com/maps/place/?q=place_id:0x3962fd165be1e02f:0x76e4b4ab83f584d3"}, {"place_id": "0x39631d6ae4f42a97:0x83bc825e66f9983", "name": "Techwave IT Solutions Pvt Ltd | Software Development Company in Indore | Top IT Company in Indore | India", "category": "Software company", "street": "Bhopal Motors JCB", "city": "near Panchvati", "phone": "09009155444", "website": "http://techwaveitsolutions.com/", "rating": "", "review_count": "", "latitude": 22.792078399999998, "longitude": 75.90735409999999, "maps_url": "https://www.google.com/maps/place/?q=place_id:0x39631d6ae4f42a97:0x83bc825e66f9983"}, {"place_id": "0x3962e2c8b661e3cd:0xc761b7784b672eb2", "name": "Techiasm IT Company", "category": "Software company", "street": "near Bengali square", "city": "Ashish Nagar", "phone": "", "website": "", "rating": "", "review_count": "", "latitude": 22.7227757, "longitude": 75.9102118, "maps_url": "https://www.google.com/maps/place/?q=place_id:0x3962e2c8b661e3cd:0xc761b7784b672eb2"}]}