{"timestamp": 1773730343.4755979, "keyword": "IT company", "location": "delhi", "cell_idx": 224, "results": [{"place_id": "0x390ce3ecb114ad9b:0x831bb62ea721e15", "name": "\ud835\udc06\ud835\udc22\ud835\udc2d\ud835\udc32\ud835\udc2c\ud835\udc28\ud835\udc1f\ud835\udc2d\u00ae \ud835\udc13\ud835\udc1e\ud835\udc1c\ud835\udc21\ud835\udc27\ud835\udc28\ud835\udc25\ud835\udc28\ud835\udc20\ud835\udc22\ud835\udc1e\ud835\udc2c", "category": "Software company", "street": "Pocket-M, Chitranjan Park", "city": "Police Station", "phone": "09821150988", "website": "https://gitysoft.com/", "rating": 5, "review_count": "", "latitude": 28.5396921, "longitude": 77.24901009999999, "maps_url": "https://www.google.com/maps/place/?q=place_id:0x390ce3ecb114ad9b:0x831bb62ea721e15"}, {"place_id": "0x390ce346b90c0527:0xbac2f89c95b0d791", "name": "Oprezo India Private Limited", "category": "Software company", "street": "D Block", "city": "C R Park", "phone": "07599677307", "website": "https://www.oprezoindia.com/index.php", "rating": 5, "review_count": "", "latitude": 28.5377682, "longitude": 77.25274069999999, "maps_url": "https://www.google.com/maps/place/?q=place_id:0x390ce346b90c0527:0xbac2f89c95b0d791"}, {"place_id": "0x390cfd309eebed77:0xf47bee595f075e26", "name": "Asfera Technologies Private Limited | Dialer Software Company", "category": "Software company", "street": "59/1", "city": "Saroj Tower, Office No:- 15", "phone": "09066677770", "website": "https://www.asfera.in/", "rating": 4.6, "review_count": "", "latitude": 28.540130599999998, "longitude": 77.2619868, "maps_url": "https://www.google.com/maps/place/?q=place_id:0x390cfd309eebed77:0xf47bee595f075e26"}, {"place_id": "0x390ce1597b5509e5:0xfd8209b937b44d3c", "name": "IT Solutions India Private Limited", "category": "Software company", "street": "D-88/5", "city": "Pocket D, Okhla Phase I, Okhla Industrial Estate", "phone": "09810017429", "website": "https://www.itsipl.com/", "rating": 4.2, "review_count": "", "latitude": 28.520146, "longitude": 77.280431, "maps_url": "https://www.google.com/maps/place/?q=place_id:0x390ce1597b5509e5:0xfd8209b937b44d3c"}, {"place_id": "0x390ce3c153b89811:0xe7a279685777e9ca", "name": "IT Company", "category": "Automation company", "street": "A-14", "city": "near iskcon temple", "phone": "", "website": "http://www.opuswiz.com/", "rating": 3, "review_count": "", "latitude": 28.557167, "longitude": 77.25424819999999, "maps_url": "https://www.google.com/maps/place/?q=place_id:0x390ce3c153b89811:0xe7a279685777e9ca"}, {"place_id": "0x390ce3cfe91504eb:0x3c8b7fe3aa9e515d", "name": "Intec Infonet Pvt. Ltd", "category": "Software company", "street": "701, Manjusha Building, 57, Nehru Place, New Delhi 110019", "city": "New Delhi, Delhi 110019", "phone": "01146522400", "website": "https://intecinfonet.com/", "rating": 4.2, "review_count": "", "latitude": 28.543701, "longitude": 77.2524057, "maps_url": "https://www.google.com/maps/place/?q=place_id:0x390ce3cfe91504eb:0x3c8b7fe3aa9e515d"}, {"place_id": "0x390ce458d0000001:0xf2123bd299ec4501", "name": "IT Company India", "category": "Software company", "street": "D56", "city": "D Block, Sector 10", "phone": "09999244854", "website": "https://www.itcompanyindia.in/", "rating": 4.7, "review_count": "", "latitude": 28.589917699999997, "longitude": 77.3351153, "maps_url": "https://www.google.com/maps/place/?q=place_id:0x390ce458d0000001:0xf2123bd299ec4501"}, {"place_id": "0x390ce17fe586541d:0x425e234a344ee8b2", "name": "Trident Information Systems Pvt Ltd", "category": "Software company", "street": "M-31A, M Block Market", "city": "Block M, Greater Kailash II, Greater Kailash", "phone": "01129219927", "website": "https://www.tridentinfo.com/", "rating": 3.6, "review_count": "", "latitude": 28.5333558, "longitude": 77.2412192, "maps_url": "https://www.google.com/maps/place/?q=place_id:0x390ce17fe586541d:0x425e234a344ee8b2"}, {"place_id": "0x390ce3ef4d618fb3:0x540f4bc0338fc939", "name": "Fondos Technologies Pvt. Ltd.", "category": "Software company", "street": "H-23A (Basement", "city": "Block H, Kalkaji", "phone": "08000366997", "website": "https://www.fondostech.in/", "rating": 5, "review_count": "", "latitude": 28.540344599999997, "longitude": 77.2567364, "maps_url": "https://www.google.com/maps/place/?q=place_id:0x390ce3ef4d618fb3:0x540f4bc0338fc939"}, {"place_id": "0x390ce3da790a3cab:0xfd8f182a6e5d2b18", "name": "Image Infosystems Pvt. Ltd.", "category": "Software company", "street": "B-38, Hansraj Sethi Marg", "city": "Block B, Kalkaji", "phone": "01140536653", "website": "http://www.imageinfosystems.com/", "rating": 2.8, "review_count": "", "latitude": 28.5429967, "longitude": 77.2523138, "maps_url": "https://www.google.com/maps/place/?q=place_id:0x390ce3da790a3cab:0xfd8f182a6e5d2b18"}, {"place_id": "0x390ce24a87ca31a7:0x90833076be8cc23d", "name": "Zindagi Technologies Private Limited", "category": "Software company", "street": "301-302, 3rd Floor 40-41 Bakshi House", "city": "Nehru Place", "phone": "09773973971", "website": "http://www.zindagitech.com/", "rating": 4.4, "review_count": "", "latitude": 28.5490276, "longitude": 77.25120179999999, "maps_url": "https://www.google.com/maps/place/?q=place_id:0x390ce24a87ca31a7:0x90833076be8cc23d"}, {"place_id": "0x390ce1ce534cb1e5:0x39fe77c42bc52616", "name": "ITeSolution- Odoo ERP , Mobile/Web Application Development Software Company in Noida, Delhi NCR India.", "category": "Software company", "street": "RZ60/9", "city": "T/F, Tughlakabad Extension, Tughlakabad", "phone": "09889294124", "website": "https://www.itesolution.co.in/", "rating": 4.9, "review_count": "", "latitude": 28.520523899999997, "longitude": 77.2570535, "maps_url": "https://www.google.com/maps/place/?q=place_id:0x390ce1ce534cb1e5:0x39fe77c42bc52616"}, {"place_id": "0x390ce12403c61049:0x82f06cbb67d77b1a", "name": "Suraj Saxena - Web Developer", "category": "Website designer", "street": "Block H, Chittaranjan Park", "city": "New Delhi, Delhi 110019", "phone": "09310074393", "website": "https://surajsaxena.com/", "rating": 4.8, "review_count": "", "latitude": 28.5366409, "longitude": 77.25309949999999, "maps_url": "https://www.google.com/maps/place/?q=place_id:0x390ce12403c61049:0x82f06cbb67d77b1a"}, {"place_id": "0x390ce375ca8a51e9:0xea77412fff4553af", "name": "Developer Gen Pvt Ltd.", "category": "Computer support and services", "street": "Nehru Place", "city": "Netaji Subhash Rd", "phone": "", "website": "", "rating": "", "review_count": "", "latitude": 28.5366438, "longitude": 77.2539937, "maps_url": "https://www.google.com/maps/place/?q=place_id:0x390ce375ca8a51e9:0xea77412fff4553af"}, {"place_id": "0x390ce3cfe91504eb:0x55346c5c499223d7", "name": "CCS Computers Private Limited", "category": "Computer support and services", "street": "2nd-3rd Floor Skipper House", "city": "Nehru Place", "phone": "01126463959", "website": "http://www.ccscomputers.co.in/", "rating": 4, "review_count": "", "latitude": 28.550090599999997, "longitude": 77.2537834, "maps_url": "https://www.google.com/maps/place/?q=place_id:0x390ce3cfe91504eb:0x55346c5c499223d7"}, {"place_id": "0xb0d71559209a81d:0x7b1ee408d73d65a", "name": "AuditorsDesk", "category": "Software company", "street": "1668", "city": "Block I, Chittaranjan Park", "phone": "07807008807", "website": "https://auditorsdesk.in/", "rating": 4.8, "review_count": "", "latitude": 28.5369954, "longitude": 77.250395, "maps_url": "https://www.google.com/maps/place/?q=place_id:0xb0d71559209a81d:0x7b1ee408d73d65a"}, {"place_id": "0x390ce32fd1e71ad7:0x9465e55aa669a097", "name": "SARN", "category": "Computer support and services", "street": "D 707", "city": "Block D, Chittaranjan Park", "phone": "09911409222", "website": "http://sarn.in/", "rating": 5, "review_count": "", "latitude": 28.5376871, "longitude": 77.2538971, "maps_url": "https://www.google.com/maps/place/?q=place_id:0x390ce32fd1e71ad7:0x9465e55aa669a097"}, {"place_id": "0x390ce1a29bafb62b:0x7f4f843fe9a72bbb", "name": "Tech Guru It Solutions", "category": "Website designer", "street": "DD-35, LGF", "city": "Block DD, Kalkaji", "phone": "08800567676", "website": "https://techguru.co.in/", "rating": 4.3, "review_count": "", "latitude": 28.5441608, "longitude": 77.255817, "maps_url": "https://www.google.com/maps/place/?q=place_id:0x390ce1a29bafb62b:0x7f4f843fe9a72bbb"}, {"place_id": "0x390ce48bc947e0d1:0x5ab29850c7c0a63f", "name": "Stalwartsoft Technologies Private Limited", "category": "Software company", "street": "Near", "city": "K-34a, Balaji Stats", "phone": "", "website": "https://www.stalwartsoft.com/", "rating": 3, "review_count": "", "latitude": 28.540801799999997, "longitude": 77.2614612, "maps_url": "https://www.google.com/maps/place/?q=place_id:0x390ce48bc947e0d1:0x5ab29850c7c0a63f"}, {"place_id": "0x390ce25760ae61cf:0x2c2e6858f3630d53", "name": "LiberatedIT LLP", "category": "Software company", "street": "B 68 - A", "city": "Block B, Kalkaji", "phone": "01140073228", "website": "https://www.liberatedit.com/", "rating": 5, "review_count": "", "latitude": 28.5445571, "longitude": 77.2508533, "maps_url": "https://www.google.com/maps/place/?q=place_id:0x390ce25760ae61cf:0x2c2e6858f3630d53"}, {"place_id": "0x390ce25760ae61cf:0x2c2e6858f3630d53", "name": "LiberatedIT LLP", "category": "Software company", "street": "B 68 - A", "city": "Block B, Kalkaji", "phone": "01140073228", "website": "https://www.liberatedit.com/", "rating": 5, "review_count": "", "latitude": 28.5445571, "longitude": 77.2508533, "maps_url": "https://www.google.com/maps/place/?q=place_id:0x390ce25760ae61cf:0x2c2e6858f3630d53"}, {"place_id": "0x390ce3a840ea11c1:0xdf76e01fa07971ea", "name": "Camsol Advisory | Best Online CA Services in Delhi | Company Registration Services", "category": "Accounting firm", "street": "Basement, N Block", "city": "N-22, Guru Ravidas Marg", "phone": "09873895537", "website": "https://camsoladvisory.com/", "rating": 4.9, "review_count": "", "latitude": 28.537281, "longitude": 77.2591806, "maps_url": "https://www.google.com/maps/place/?q=place_id:0x390ce3a840ea11c1:0xdf76e01fa07971ea"}, {"place_id": "0x390ce3cc5e60bd43:0xe112a1a1d37ab262", "name": "IncNeeds - 360\u00b0 Digital Marketing, services Company in Delhi.", "category": "Website designer", "street": "LG Floor", "city": "PT-62/17", "phone": "09999091132", "website": "", "rating": 4.5, "review_count": "", "latitude": 28.544773199999998, "longitude": 77.25715029999999, "maps_url": "https://www.google.com/maps/place/?q=place_id:0x390ce3cc5e60bd43:0xe112a1a1d37ab262"}, {"place_id": "0x390ce3cb37bcf0c5:0xb3cdc183eb9daa6", "name": "Digitalanindia Technologies:--Website Designing Company in Delhi Ncr", "category": "Software company", "street": "161 First Floor, 02 Gali", "city": "near Gurudwara Baba Banda Singh Bahadur", "phone": "", "website": "https://www.digitalanindia.com/", "rating": 5, "review_count": "", "latitude": 28.5382563, "longitude": 77.2615859, "maps_url": "https://www.google.com/maps/place/?q=place_id:0x390ce3cb37bcf0c5:0xb3cdc183eb9daa6"}, {"place_id": "0x390ce7b0124e5573:0x2d2d91cd454af5e3", "name": "MAIN TECH SERVICES", "category": "Computer security service", "street": "First Floor", "city": "T-29", "phone": "", "website": "http://mts.org.in/", "rating": 5, "review_count": "", "latitude": 28.537706099999998, "longitude": 77.25269689999999, "maps_url": "https://www.google.com/maps/place/?q=place_id:0x390ce7b0124e5573:0x2d2d91cd454af5e3"}, {"place_id": "0x390ce20f2f7cb3cb:0x892dbf7a4809da44", "name": "Dev Solutions India", "category": "Executive search firm", "street": "E 931", "city": "Block E, Chittaranjan Park", "phone": "", "website": "http://www.devsolutionsindia.com/", "rating": 1.9, "review_count": "", "latitude": 28.537125, "longitude": 77.25583499999999, "maps_url": "https://www.google.com/maps/place/?q=place_id:0x390ce20f2f7cb3cb:0x892dbf7a4809da44"}, {"place_id": "0x390ce456aaaaaaab:0x6e4e087895622564", "name": "Klasiinn", "category": "Software company", "street": "E-506, Inder Mohan Bhardwaj Marg", "city": "Block E, Greater Kailash II, Greater Kailash", "phone": "07827882870", "website": "http://klasiinn.in/", "rating": 5, "review_count": "", "latitude": 28.5358657, "longitude": 77.2384798, "maps_url": "https://www.google.com/maps/place/?q=place_id:0x390ce456aaaaaaab:0x6e4e087895622564"}, {"place_id": "0x390ce32940acf629:0x8c0830a134428404", "name": "VeSure Technologies Private Limited", "category": "Computer service", "street": "Metro Parking Gate 2, Punj Sons Premises", "city": "Pibco Complex, Gate 3", "phone": "09319791129", "website": "https://www.vesuretech.com/", "rating": 4.5, "review_count": "", "latitude": 28.5440428, "longitude": 77.2632177, "maps_url": "https://www.google.com/maps/place/?q=place_id:0x390ce32940acf629:0x8c0830a134428404"}, {"place_id": "0x390ce3c577996141:0x6f0e309d0c4c2de1", "name": "Eagle Information Systems Pvt. Ltd.", "category": "Computer support and services", "street": "Madhuban Building", "city": "705", "phone": "09818188012", "website": "http://www.eagle.in/", "rating": 4.5, "review_count": "", "latitude": 28.5486501, "longitude": 77.2520914, "maps_url": "https://www.google.com/maps/place/?q=place_id:0x390ce3c577996141:0x6f0e309d0c4c2de1"}, {"place_id": "0x390ceff4374e0e67:0x7a3e15b641b77c8d", "name": "FindiBANKIT", "category": "Corporate office", "street": "7th Floor", "city": "708 - 711", "phone": "08142600000", "website": "http://www.bankit.in/", "rating": 4, "review_count": "", "latitude": 28.548461, "longitude": 77.2513416, "maps_url": "https://www.google.com/maps/place/?q=place_id:0x390ceff4374e0e67:0x7a3e15b641b77c8d"}, {"place_id": "0x390ce3ad1110066f:0x6b379fb5729821ac", "name": "Tssg-Tech", "category": "Website designer", "street": "Block B, Kalkaji", "city": "New Delhi, Delhi, 110019", "phone": "09599669486", "website": "https://tssgtech.info/", "rating": 5, "review_count": "", "latitude": 28.541919399999998, "longitude": 77.2523604, "maps_url": "https://www.google.com/maps/place/?q=place_id:0x390ce3ad1110066f:0x6b379fb5729821ac"}, {"place_id": "0x390ce3db95d863cf:0x123d54c64dea3a57", "name": "The IT house warehouse", "category": "Warehouse", "street": "N27", "city": "Block N, Chittaranjan Park", "phone": "", "website": "", "rating": 4.5, "review_count": "", "latitude": 28.5351476, "longitude": 77.24650419999999, "maps_url": "https://www.google.com/maps/place/?q=place_id:0x390ce3db95d863cf:0x123d54c64dea3a57"}, {"place_id": "0x390ce3c598407061:0xa2f861b330a8229c", "name": "Nexgen Techtronics Pvt Ltd", "category": "Computer service", "street": "109 A", "city": "49-50", "phone": "08588814701", "website": "http://www.ntpl.co.in/", "rating": 4.7, "review_count": "", "latitude": 28.549304499999998, "longitude": 77.2514264, "maps_url": "https://www.google.com/maps/place/?q=place_id:0x390ce3c598407061:0xa2f861b330a8229c"}, {"place_id": "0x390ce3d647f7d2d5:0x389ee7c78c3019f9", "name": "APPWRK IT Solutions- Bespoke Web & Mobile App Development Company I AI Powered Solutions", "category": "Software company", "street": "101, NH-19", "city": "CRRI, Ishwar Nagar, Okhla", "phone": "", "website": "https://appwrk.com/", "rating": 5, "review_count": "", "latitude": 28.5508191, "longitude": 77.2746251, "maps_url": "https://www.google.com/maps/place/?q=place_id:0x390ce3d647f7d2d5:0x389ee7c78c3019f9"}, {"place_id": "0x390cdda0937a36df:0x350a8716d5f40b92", "name": "VS Square Info Solutions", "category": "Computer support and services", "street": "Govardhan Building", "city": "Nehru Place", "phone": "09319173336", "website": "http://www.vssquareinfo.com/", "rating": 4.9, "review_count": "", "latitude": 28.5490526, "longitude": 77.251606, "maps_url": "https://www.google.com/maps/place/?q=place_id:0x390cdda0937a36df:0x350a8716d5f40b92"}, {"place_id": "0x390ce3dee867e47f:0x2234a36ecc0fa10c", "name": "Carrot Films", "category": "Film Production Company", "street": "G-1274, Ground Floor", "city": "Block G, Chittaranjan Park", "phone": "09810018837", "website": "http://www.carrotfilms.com/", "rating": 4.6, "review_count": "", "latitude": 28.5353149, "longitude": 77.2528607, "maps_url": "https://www.google.com/maps/place/?q=place_id:0x390ce3dee867e47f:0x2234a36ecc0fa10c"}, {"place_id": "0x390ce3f4522b50bd:0xf437b904cf7189b2", "name": "Tattva Creations Pvt. Ltd.", "category": "Marketing agency", "street": "D595, 2nd Floor", "city": "CR Park Main Rd", "phone": "09971496422", "website": "https://tattvacreations.com/", "rating": 4.7, "review_count": "", "latitude": 28.5383374, "longitude": 77.2547979, "maps_url": "https://www.google.com/maps/place/?q=place_id:0x390ce3f4522b50bd:0xf437b904cf7189b2"}, {"place_id": "0x390ce302c10ee85d:0x8fbd135b49129f13", "name": "Atraski Head Office", "category": "Marketing agency", "street": "LG", "city": "I-1773", "phone": "08448138426", "website": "https://atraski.com/", "rating": 5, "review_count": "", "latitude": 28.5387626, "longitude": 77.249771, "maps_url": "https://www.google.com/maps/place/?q=place_id:0x390ce302c10ee85d:0x8fbd135b49129f13"}, {"place_id": "0x390ce3ef4d9e1f59:0x9532be3a44c2af9c", "name": "Timeus Interactive Services Pvt Ltd", "category": "Software company", "street": "2nd Floor", "city": "8, Guru Ravidas Marg", "phone": "09811119864", "website": "https://timeus.in/", "rating": 3.6, "review_count": "", "latitude": 28.541337, "longitude": 77.2613284, "maps_url": "https://www.google.com/maps/place/?q=place_id:0x390ce3ef4d9e1f59:0x9532be3a44c2af9c"}, {"place_id": "0x390ce14e15555555:0x383d6eecb5ea5901", "name": "Rudram Market Development Services Pvt. Ltd", "category": "Event management company", "street": "First Floor", "city": "A-61/1", "phone": "01141834526", "website": "https://www.rudramindia.com/", "rating": 4.1, "review_count": "", "latitude": 28.538368799999997, "longitude": 77.2491929, "maps_url": "https://www.google.com/maps/place/?q=place_id:0x390ce14e15555555:0x383d6eecb5ea5901"}, {"place_id": "0x390ce1cda368b10f:0x178c89b3c20e7df6", "name": "Easy Company", "category": "Apartment building", "street": "1386", "city": "Block G, Chittaranjan Park", "phone": "", "website": "", "rating": 5, "review_count": "", "latitude": 28.534222399999997, "longitude": 77.250734, "maps_url": "https://www.google.com/maps/place/?q=place_id:0x390ce1cda368b10f:0x178c89b3c20e7df6"}, {"place_id": "0x390ce3cd7bcc6f35:0x7bb0795a17ef9892", "name": "The Kabir Company | Event Management & Artist Booking Delhi", "category": "Event management company", "street": "600", "city": "Block D, Chittaranjan Park", "phone": "09599599699", "website": "https://thekabircompany.com/", "rating": 4.9, "review_count": "", "latitude": 28.5380941, "longitude": 77.2554, "maps_url": "https://www.google.com/maps/place/?q=place_id:0x390ce3cd7bcc6f35:0x7bb0795a17ef9892"}, {"place_id": "0x390ce3d82638c87d:0x84ec7902a74bc08f", "name": "HP India Optical Media & Memory Company | Importer, Distributor, Dealer, Supplier | CD, DVD, Bluray, Pendrive, SSD, Writer", "category": "Computer Hardware Company", "street": "K20A", "city": "Kalkaji Extension, Kalkaji", "phone": "08750093366", "website": "http://hpopticalmedia.com/", "rating": 4.9, "review_count": "", "latitude": 28.5427657, "longitude": 77.2531463, "maps_url": "https://www.google.com/maps/place/?q=place_id:0x390ce3d82638c87d:0x84ec7902a74bc08f"}, {"place_id": "0x390ce3cfe91504eb:0xe64bdc5455c9daea", "name": "LDS Engineers Private Limited", "category": "Computer support and services", "street": "Devika Tower", "city": "1308A 6", "phone": "01126293430", "website": "http://www.ldsengineers.com/", "rating": 3.2, "review_count": "", "latitude": 28.54732, "longitude": 77.250349, "maps_url": "https://www.google.com/maps/place/?q=place_id:0x390ce3cfe91504eb:0xe64bdc5455c9daea"}, {"place_id": "0x390ce1f3680c0793:0x251c9beb1e8924ad", "name": "FSIndia - The Best Video Production Company", "category": "Video production service", "street": "192B/3, 2nd Floor", "city": "Govindpuri, Kalkaji", "phone": "09996910399", "website": "https://freelanceservicesindia.com/", "rating": 4.7, "review_count": "", "latitude": 28.536257799999998, "longitude": 77.2640229, "maps_url": "https://www.google.com/maps/place/?q=place_id:0x390ce1f3680c0793:0x251c9beb1e8924ad"}, {"place_id": "0x390ce30151cab509:0xee741f7a133f7d35", "name": "Entrox by ENERZON INDIA", "category": "Battery Manufacturer", "street": "703", "city": "Block D, Chittaranjan Park", "phone": "09415118934", "website": "", "rating": 4.8, "review_count": "", "latitude": 28.537347399999998, "longitude": 77.253992, "maps_url": "https://www.google.com/maps/place/?q=place_id:0x390ce30151cab509:0xee741f7a133f7d35"}, {"place_id": "0x2cf51d6937751b49:0xb5838015406bcbee", "name": "D'Markly | De Facto Marketing", "category": "Software company", "street": "J1/214, DDA Flats Govind Puri", "city": "Kalkaji", "phone": "07042528496", "website": "https://dmarkly.com/", "rating": 4.9, "review_count": "", "latitude": 28.526916099999998, "longitude": 77.256979, "maps_url": "https://www.google.com/maps/place/?q=place_id:0x2cf51d6937751b49:0xb5838015406bcbee"}, {"place_id": "0x390ce10972701b43:0x88fbfcfafdaf00f3", "name": "SearchingYard Group Corporate HQ", "category": "Software company", "street": "Tower 1st Floor, A", "city": "Nagpal Business", "phone": "", "website": "http://www.searchingyard.com/", "rating": 1.7, "review_count": "", "latitude": 28.538387699999998, "longitude": 77.27080029999999, "maps_url": "https://www.google.com/maps/place/?q=place_id:0x390ce10972701b43:0x88fbfcfafdaf00f3"}, {"place_id": "0x390ce1019914b74d:0x2e479c13c0611a12", "name": "Envisionsites", "category": "Website designer", "street": "1722", "city": "Block I, Chittaranjan Park", "phone": "08800276590", "website": "http://envisionsites.in/", "rating": 4.8, "review_count": "", "latitude": 28.53884, "longitude": 77.24938, "maps_url": "https://www.google.com/maps/place/?q=place_id:0x390ce1019914b74d:0x2e479c13c0611a12"}, {"place_id": "0x390ce1d096fe537f:0xb092b9ebcee0a685", "name": "Aptivix - Best Cyber Security Company in Delhi", "category": "Computer security service", "street": "H1", "city": "223, DDA Flats Rd", "phone": "", "website": "", "rating": 4, "review_count": "", "latitude": 28.533318599999998, "longitude": 77.2555854, "maps_url": "https://www.google.com/maps/place/?q=place_id:0x390ce1d096fe537f:0xb092b9ebcee0a685"}, {"place_id": "0x390ce12c464a4117:0x2d5c21d429972315", "name": "Media Solutions", "category": "Video production service", "street": "Block K 1, Chittaranjan Park", "city": "New Delhi, Delhi 110019", "phone": "01146072744", "website": "http://www.mediasolutionsindia.com/", "rating": 4.7, "review_count": "", "latitude": 28.5392752, "longitude": 77.2523629, "maps_url": "https://www.google.com/maps/place/?q=place_id:0x390ce12c464a4117:0x2d5c21d429972315"}]}