{"timestamp": 1773731501.0224779, "keyword": "IT company", "location": "delhi", "cell_idx": 486, "results": [{"place_id": "0x390ce21b8d636751:0xda2fa1d06a704eab", "name": "Prinknest Technology LLP", "category": "Software company", "street": "1st Floor", "city": "RZ 122 D, Plot No.1", "phone": "08076833804", "website": "https://prinknest.com/", "rating": 4.8, "review_count": "", "latitude": 28.606828, "longitude": 77.0816226, "maps_url": "https://www.google.com/maps/place/?q=place_id:0x390ce21b8d636751:0xda2fa1d06a704eab"}, {"place_id": "0x390d0328a549c17d:0x3b9e359999e2cd2f", "name": "Total IT Software Solutions", "category": "Software company", "street": "WZ-248, Plot No. 7, IInd Floor", "city": "Inder Puri", "phone": "09350515096", "website": "http://tiss.co.in/", "rating": 4.4, "review_count": "", "latitude": 28.6319838, "longitude": 77.14855709999999, "maps_url": "https://www.google.com/maps/place/?q=place_id:0x390d0328a549c17d:0x3b9e359999e2cd2f"}, {"place_id": "0x390ce458d0000001:0xf2123bd299ec4501", "name": "IT Company India", "category": "Software company", "street": "D56", "city": "D Block, Sector 10", "phone": "09999244854", "website": "https://www.itcompanyindia.in/", "rating": 4.7, "review_count": "", "latitude": 28.589917699999997, "longitude": 77.3351153, "maps_url": "https://www.google.com/maps/place/?q=place_id:0x390ce458d0000001:0xf2123bd299ec4501"}, {"place_id": "0x390d032491698165:0x99bdd1e49f0e5910", "name": "VK SOFTWARE AND SOLUTIONS", "category": "Software company", "street": "WZ-908, Naraina Ring Rd", "city": "Block CB, Naraina Village, Naraina", "phone": "08750148058", "website": "http://vksoftware.in/", "rating": 4.9, "review_count": "", "latitude": 28.6202006, "longitude": 77.1362825, "maps_url": "https://www.google.com/maps/place/?q=place_id:0x390d032491698165:0x99bdd1e49f0e5910"}, {"place_id": "0x2a72b8b69d7b6493:0x11251466d4d34cac", "name": "WebZonal IT Company", "category": "Website designer", "street": "Wz-258/2-3, D Block Rd", "city": "Khazan Basti, Nangal Raya, Janakpuri", "phone": "09811170903", "website": "http://webzonal.com/", "rating": 5, "review_count": "", "latitude": 28.6122102, "longitude": 77.11159549999999, "maps_url": "https://www.google.com/maps/place/?q=place_id:0x2a72b8b69d7b6493:0x11251466d4d34cac"}, {"place_id": "0x390ce3c153b89811:0xe7a279685777e9ca", "name": "IT Company", "category": "Automation company", "street": "A-14", "city": "near iskcon temple", "phone": "", "website": "http://www.opuswiz.com/", "rating": 3, "review_count": "", "latitude": 28.557167, "longitude": 77.25424819999999, "maps_url": "https://www.google.com/maps/place/?q=place_id:0x390ce3c153b89811:0xe7a279685777e9ca"}, {"place_id": "0x390d1ca8de94abb1:0xc070687f1d5f8558", "name": "Bita Infotech IT Solutions:: Website Designing & Development Company", "category": "Software company", "street": "Rz-31 B, Street No. 5", "city": "Block M, West Sagarpur, Sagar Pur", "phone": "08178256664", "website": "https://bitainfotech.com/", "rating": 4.7, "review_count": "", "latitude": 28.6056495, "longitude": 77.1012293, "maps_url": "https://www.google.com/maps/place/?q=place_id:0x390d1ca8de94abb1:0xc070687f1d5f8558"}, {"place_id": "0x390d0306a5205339:0xc8417239bcfe9f11", "name": "RSS INFOTECH PVT.LTD", "category": "Software company", "street": "1st floor, Didar Complex", "city": "6 DLE Industrial Area office no -128,129", "phone": "09953134732", "website": "https://www.rssindia.com/", "rating": 4.5, "review_count": "", "latitude": 28.656828299999997, "longitude": 77.1425177, "maps_url": "https://www.google.com/maps/place/?q=place_id:0x390d0306a5205339:0xc8417239bcfe9f11"}, {"place_id": "0x390ce1597b5509e5:0xfd8209b937b44d3c", "name": "IT Solutions India Private Limited", "category": "Software company", "street": "D-88/5", "city": "Pocket D, Okhla Phase I, Okhla Industrial Estate", "phone": "09810017429", "website": "https://www.itsipl.com/", "rating": 4.2, "review_count": "", "latitude": 28.520146, "longitude": 77.280431, "maps_url": "https://www.google.com/maps/place/?q=place_id:0x390ce1597b5509e5:0xfd8209b937b44d3c"}, {"place_id": "0x390d1dc539fc39dd:0xa8d421a9d22cb256", "name": "India best website development company", "category": "Software company", "street": "RZ74, RZ Rd", "city": "Hans Park, Block RZ, Sagarpur East, Sagar Pur", "phone": "", "website": "https://techbuddy31.co.in/", "rating": 5, "review_count": "", "latitude": 28.6054396, "longitude": 77.1082699, "maps_url": "https://www.google.com/maps/place/?q=place_id:0x390d1dc539fc39dd:0xa8d421a9d22cb256"}, {"place_id": "0x390d0338223caf13:0xb5db10bbbd5119ce", "name": "H&G IT Private Limited", "category": "Software company", "street": "B-138, First Floor", "city": "Mayapuri Industrial Area Phase I", "phone": "", "website": "", "rating": 4.3, "review_count": "", "latitude": 28.6274646, "longitude": 77.12720089999999, "maps_url": "https://www.google.com/maps/place/?q=place_id:0x390d0338223caf13:0xb5db10bbbd5119ce"}, {"place_id": "0x390d02994de5e515:0xd908bc03409a0d37", "name": "Himalayan IT Solutions | Best Website Designing Company in Delhi | SEO/Digital Marketing Company in Delhi NCR, India", "category": "Software company", "street": "61/4255, Padam Singh Rd", "city": "Block 29, Block 1, Regar Pura, Karol Bagh", "phone": "09899098509", "website": "http://www.himalayanitsolutions.com/", "rating": 3.9, "review_count": "", "latitude": 28.649673999999997, "longitude": 77.186599, "maps_url": "https://www.google.com/maps/place/?q=place_id:0x390d02994de5e515:0xd908bc03409a0d37"}, {"place_id": "0x390d013ca8ac1387:0x8a0db85b518267d5", "name": "NexGen Innovators", "category": "Software company", "street": "114B, 3rd floor, Dwarka Mor", "city": "New Delhi, Delhi 110059", "phone": "", "website": "https://www.nexgi.com/", "rating": 4.9, "review_count": "", "latitude": 28.618961, "longitude": 77.0322202, "maps_url": "https://www.google.com/maps/place/?q=place_id:0x390d013ca8ac1387:0x8a0db85b518267d5"}, {"place_id": "0x390d1ca9e50d176d:0x9986a01a4b66bca0", "name": "VUnify Technology Private Limited", "category": "Software company", "street": "WZ-13H, Aggarwal Sweets Rd", "city": "near New", "phone": "", "website": "https://vunify.in/", "rating": 4.8, "review_count": "", "latitude": 28.6079093, "longitude": 77.1023304, "maps_url": "https://www.google.com/maps/place/?q=place_id:0x390d1ca9e50d176d:0x9986a01a4b66bca0"}, {"place_id": "0x390d03adaef37299:0xd8b343093deaee7", "name": "Ruminate IT Solution | Best software company in Delhi NCR | IT Software company", "category": "Software company", "street": "C-64", "city": "Pocket B, Hari Nagar", "phone": "09625650376", "website": "https://www.ruminateitsolution.com/", "rating": 5, "review_count": "", "latitude": 28.628819, "longitude": 77.10428399999999, "maps_url": "https://www.google.com/maps/place/?q=place_id:0x390d03adaef37299:0xd8b343093deaee7"}, {"place_id": "0x390d1cac6aaaaaab:0x20e09e6dc5902ba9", "name": "Lumineux Informatik Technologies", "category": "Software company", "street": "Ground Floor shop", "city": "wz 227", "phone": "+17073482990", "website": "http://lumineuxinformatik.com/", "rating": 5, "review_count": "", "latitude": 28.6087477, "longitude": 77.1096829, "maps_url": "https://www.google.com/maps/place/?q=place_id:0x390d1cac6aaaaaab:0x20e09e6dc5902ba9"}, {"place_id": "0x390d1d86a4f12173:0x3a6b42ea6f4b8260", "name": "Softvanz Technologies Private Limited", "category": "Software company", "street": "Somdutt Chamber 1", "city": "BT-22/9", "phone": "", "website": "https://softvanz.com/", "rating": 5, "review_count": "", "latitude": 28.567948899999998, "longitude": 77.1889269, "maps_url": "https://www.google.com/maps/place/?q=place_id:0x390d1d86a4f12173:0x3a6b42ea6f4b8260"}, {"place_id": "0x390ce5fdcc79e755:0x309ce99251b84ef6", "name": "Optyminds IT Solutions - Top AI and IT company I Best Digital agency in Noida | Delhi NCR | India", "category": "Software company", "street": "1st Floor", "city": "B-70", "phone": "08929075975", "website": "https://optyminds.com/", "rating": 4.9, "review_count": "", "latitude": 28.584679599999998, "longitude": 77.3135042, "maps_url": "https://www.google.com/maps/place/?q=place_id:0x390ce5fdcc79e755:0x309ce99251b84ef6"}, {"place_id": "0x390d049f5674e4b5:0xd958160a9013b45e", "name": "BI InfoTech Pvt Ltd", "category": "Software company", "street": "12/4, Jail Rd", "city": "Prem Nagar, Janakpuri", "phone": "08766248464", "website": "https://www.biinfotech.com/", "rating": 4.5, "review_count": "", "latitude": 28.6357547, "longitude": 77.0950907, "maps_url": "https://www.google.com/maps/place/?q=place_id:0x390d049f5674e4b5:0xd958160a9013b45e"}, {"place_id": "0x390ce54a2ffa7a35:0xbc45f708bc311be9", "name": "MLM Software Company in Delhi | MLM Software Development Company in Delhi | India - SOFTKWIT", "category": "Software company", "street": "801B", "city": "Janakpuri District Center, Janakpuri", "phone": "08882925582", "website": "https://softkwit.in/mlm-software.php", "rating": 5, "review_count": "", "latitude": 28.630030599999998, "longitude": 77.0809543, "maps_url": "https://www.google.com/maps/place/?q=place_id:0x390ce54a2ffa7a35:0xbc45f708bc311be9"}, {"place_id": "0x390d1b0ad6565c37:0x9ee772d45ffed70d", "name": "IOTtech Softwares", "category": "Software company", "street": "First & Second Floor", "city": "Lucky Plaza", "phone": "08034798583", "website": "", "rating": 4.9, "review_count": "", "latitude": 28.5847981, "longitude": 77.07323199999999, "maps_url": "https://www.google.com/maps/place/?q=place_id:0x390d1b0ad6565c37:0x9ee772d45ffed70d"}, {"place_id": "0x390d1d9ce0eaada3:0xc5a1a0a2458099e3", "name": "CODENCREATIVE TECH PVT LTD", "category": "Software company", "street": "DDA Flat", "city": "RBI Officers Colony, Vasant Vihar", "phone": "09717047610", "website": "https://codencreative.com/", "rating": 4.9, "review_count": "", "latitude": 28.563302099999998, "longitude": 77.1519732, "maps_url": "https://www.google.com/maps/place/?q=place_id:0x390d1d9ce0eaada3:0xc5a1a0a2458099e3"}, {"place_id": "0x8be65278a5572b07:0x413ba8eb2bfa0ea6", "name": "Webcorewin Business Solution LLP | Top Website & Software Development Company in Delhi NCR", "category": "Software company", "street": "Metro Pillar Number 571", "city": "Second Floor", "phone": "09811382167", "website": "https://www.webcorewin.com/", "rating": 5, "review_count": "", "latitude": 28.6314446, "longitude": 77.0831694, "maps_url": "https://www.google.com/maps/place/?q=place_id:0x8be65278a5572b07:0x413ba8eb2bfa0ea6"}, {"place_id": "0x390d05f8ccacc973:0x96e03b9c34745e2", "name": "DDT SOFTWARE & ECOMM PVT LTD", "category": "Software company", "street": "331-B", "city": "C4B/331", "phone": "09810944806", "website": "https://toponsearch.com/", "rating": 4.4, "review_count": "", "latitude": 28.618974899999998, "longitude": 77.0913518, "maps_url": "https://www.google.com/maps/place/?q=place_id:0x390d05f8ccacc973:0x96e03b9c34745e2"}, {"place_id": "0x390d03300a33a431:0xf5f7f2c4f7e8ad90", "name": "Chhaya Infosystems", "category": "Software company", "street": "A 17 Basement Naraina vihar main road", "city": "chaudhary girdhari lal marg", "phone": "09811959469", "website": "", "rating": 4.4, "review_count": "", "latitude": 28.626713, "longitude": 77.13592799999999, "maps_url": "https://www.google.com/maps/place/?q=place_id:0x390d03300a33a431:0xf5f7f2c4f7e8ad90"}, {"place_id": "0x390d1daf5bbb6d71:0xd493e8d457a28388", "name": "DPM IT SOLUTIONS", "category": "Software company", "street": "2nd floor, madangiri", "city": "111, E-2", "phone": "09650413450", "website": "https://dpmitsolutions.com/", "rating": 5, "review_count": "", "latitude": 28.565620799999998, "longitude": 77.16005679999999, "maps_url": "https://www.google.com/maps/place/?q=place_id:0x390d1daf5bbb6d71:0xd493e8d457a28388"}, {"place_id": "0x390d035db734e16f:0x5bbaa03530e22b6a", "name": "V2S Infosystem", "category": "Software company", "street": "2/352, 2nd Floor Subhash Nagar FRONT SIDE", "city": "New Delhi, Delhi 110064", "phone": "08375012908", "website": "https://v2sinfosystem.com/", "rating": 4.8, "review_count": "", "latitude": 28.635632299999997, "longitude": 77.108601, "maps_url": "https://www.google.com/maps/place/?q=place_id:0x390d035db734e16f:0x5bbaa03530e22b6a"}, {"place_id": "0x390cfcacae4e5a67:0x961a9738d8ff3f7c", "name": "Need Infotech", "category": "Software company", "street": "110012", "city": "E-557", "phone": "08860808752", "website": "https://www.needinfotech.com/", "rating": 4.8, "review_count": "", "latitude": 28.631518, "longitude": 77.1436078, "maps_url": "https://www.google.com/maps/place/?q=place_id:0x390cfcacae4e5a67:0x961a9738d8ff3f7c"}, {"place_id": "0x390d1bb72bd328b1:0xd9425539dc10edb3", "name": "SOFT INDIA WEB SOFTWARE DEVELOPMENT PVT LTD", "category": "Software company", "street": "Ground Floor", "city": "A- 107", "phone": "09625503688", "website": "http://www.softindia.in/", "rating": 3.2, "review_count": "", "latitude": 28.587611, "longitude": 77.0704514, "maps_url": "https://www.google.com/maps/place/?q=place_id:0x390d1bb72bd328b1:0xd9425539dc10edb3"}, {"place_id": "0x390d04bf6a4fffff:0xcbc27b60a27e994", "name": "Amron Software Technologies Pvt. Ltd.", "category": "Software company", "street": "1105", "city": "Kirti Shikhar", "phone": "09015592666", "website": "https://amronsoftech.com/", "rating": 4.8, "review_count": "", "latitude": 28.629019399999997, "longitude": 77.08068449999999, "maps_url": "https://www.google.com/maps/place/?q=place_id:0x390d04bf6a4fffff:0xcbc27b60a27e994"}, {"place_id": "0x390d04a42f2b3e7b:0x35404d3b1a67431e", "name": "Softlink Systems", "category": "Software company", "street": "3RD FLOOR", "city": "C-164", "phone": "09810634438", "website": "http://www.softlinksystems.co.in/", "rating": 4.3, "review_count": "", "latitude": 28.6203471, "longitude": 77.12007969999999, "maps_url": "https://www.google.com/maps/place/?q=place_id:0x390d04a42f2b3e7b:0x35404d3b1a67431e"}, {"place_id": "0x390d029a60a72d25:0x45441d38cea092f1", "name": "Payroll Software Companies", "category": "Software company", "street": "4/28, Ground Floor", "city": "Saraswati Marg", "phone": "09711195490", "website": "", "rating": 4.3, "review_count": "", "latitude": 28.6484551, "longitude": 77.1875826, "maps_url": "https://www.google.com/maps/place/?q=place_id:0x390d029a60a72d25:0x45441d38cea092f1"}, {"place_id": "0x390d165555555555:0xf57c20f7d07d8fd1", "name": "Teckinfo Solutions Pvt Ltd", "category": "Software company", "street": "1/1 BA, 3rd Floor, Mohammadpur,", "city": "Bhikaji Cama Place", "phone": "01149605500", "website": "https://www.teckinfo.com/", "rating": 4.6, "review_count": "", "latitude": 28.566004099999997, "longitude": 77.187579, "maps_url": "https://www.google.com/maps/place/?q=place_id:0x390d165555555555:0xf57c20f7d07d8fd1"}, {"place_id": "0x390d036a16f841d9:0x9b91311b1453f4c0", "name": "Zon Tec Solutions", "category": "Software company", "street": "3rd Floor", "city": "302 - 302 A, West", "phone": "09599902185", "website": "https://zontecsolutions.com/", "rating": 4.1, "review_count": "", "latitude": 28.6382303, "longitude": 77.1205162, "maps_url": "https://www.google.com/maps/place/?q=place_id:0x390d036a16f841d9:0x9b91311b1453f4c0"}, {"place_id": "0x390d05713cbc05f9:0x29ec332097ea9861", "name": "Bluebyte It Solutions", "category": "Software company", "street": "MS-83", "city": "Block MS, Mohan Garden, Uttam Nagar", "phone": "08178838292", "website": "https://www.bluebyteitsolutions.com/", "rating": 5, "review_count": "", "latitude": 28.6289797, "longitude": 77.0335781, "maps_url": "https://www.google.com/maps/place/?q=place_id:0x390d05713cbc05f9:0x29ec332097ea9861"}, {"place_id": "0x390d0331f8fa9037:0xbf316ec71fe5896d", "name": "Web Development Company in South West Delhi - MSN Technologies", "category": "Software company", "street": "Mahatma Gandhi Rd", "city": "Block WZ, Naraina", "phone": "08800388071", "website": "http://www.msntechnologies.org/", "rating": 5, "review_count": "", "latitude": 28.621692, "longitude": 77.1363598, "maps_url": "https://www.google.com/maps/place/?q=place_id:0x390d0331f8fa9037:0xbf316ec71fe5896d"}, {"place_id": "0x390ce3ad10000061:0xeff7e6017a22cce7", "name": "Alpinesoft IT Solutions Authorized Google Workspace Reseller", "category": "Software company", "street": "162/9 Ist Floor, KIshangarh - Gaushala Marg", "city": "Lakhi Nath Kuti, Mehrauli, Vasant Kunj", "phone": "09999011157", "website": "https://www.alpinesoftit.com/", "rating": 4.3, "review_count": "", "latitude": 28.515394399999998, "longitude": 77.16460359999999, "maps_url": "https://www.google.com/maps/place/?q=place_id:0x390ce3ad10000061:0xeff7e6017a22cce7"}, {"place_id": "0x390d1b3ce3c8f855:0xee4a65138d454b3d", "name": "Aarti Web Technology", "category": "Software company", "street": "West Sagarpur, Dayal Park, Main Sagarpur, Sagar Pur", "city": "New Delhi, Delhi, 110046", "phone": "08882819003", "website": "http://aartitech.in/", "rating": 4.7, "review_count": "", "latitude": 28.605843699999998, "longitude": 77.0962301, "maps_url": "https://www.google.com/maps/place/?q=place_id:0x390d1b3ce3c8f855:0xee4a65138d454b3d"}, {"place_id": "0x390d0311d537942f:0x5fc0e277b0c34fc0", "name": "Indian Top Companies", "category": "Business to business service", "street": "Rama Rd", "city": "near Kirti Nagar, Industrial Area", "phone": "09587408451", "website": "https://www.indiantopcompanies.com/am/", "rating": 5, "review_count": "", "latitude": 28.6569078, "longitude": 77.1468873, "maps_url": "https://www.google.com/maps/place/?q=place_id:0x390d0311d537942f:0x5fc0e277b0c34fc0"}, {"place_id": "0x390d029cf3d42055:0x568de645f31e31dd", "name": "AI Micro Mind\u00aeTechnology", "category": "Software company", "street": "3rd Floor, 16/448", "city": "Block I, Building Number", "phone": "09818353030", "website": "http://micromind.in/", "rating": 4.8, "review_count": "", "latitude": 28.656936299999998, "longitude": 77.1817737, "maps_url": "https://www.google.com/maps/place/?q=place_id:0x390d029cf3d42055:0x568de645f31e31dd"}, {"place_id": "0x390ce26dc4d4ba2d:0x9486a6d620e379f9", "name": "Akal Information Systems Ltd.", "category": "Software company", "street": "Tower J, World Trade Center", "city": "103", "phone": "01146503545", "website": "https://www.akalinfo.com/", "rating": 3.9, "review_count": "", "latitude": 28.567935499999997, "longitude": 77.1923202, "maps_url": "https://www.google.com/maps/place/?q=place_id:0x390ce26dc4d4ba2d:0x9486a6d620e379f9"}, {"place_id": "0x390d03305c07c757:0x3bea1c82f109cab2", "name": "NSIC", "category": "Corporate office", "street": "326", "city": "CB-326, Ring Rd", "phone": "09897089899", "website": "http://www.nsic.co.in/", "rating": 4.1, "review_count": "", "latitude": 28.618138599999998, "longitude": 77.13632059999999, "maps_url": "https://www.google.com/maps/place/?q=place_id:0x390d03305c07c757:0x3bea1c82f109cab2"}, {"place_id": "0x390d046b34a557d1:0xf6c1b8839a2cbd9c", "name": "Pact Systems Private Limited", "category": "Software company", "street": "305-306, Third Floor, Dimension Vardhman Plaza, Rohtak Road,", "city": "Inder Encalve, Delhi 110087", "phone": "09711929711", "website": "http://www.pacts.in/", "rating": 4.4, "review_count": "", "latitude": 28.678994499999998, "longitude": 77.0837766, "maps_url": "https://www.google.com/maps/place/?q=place_id:0x390d046b34a557d1:0xf6c1b8839a2cbd9c"}, {"place_id": "0x390d1df0721e08c5:0x49d5fd4648a33c2d", "name": "Nibble Software | Website Design & Development | Travel Web API & CRM | SEO, SMO, Paid Ads, Amazon & Flipkart Marketing", "category": "Website designer", "street": "4th Floor", "city": "Moolchand Tower", "phone": "09971066697", "website": "https://www.nibblesoftware.com/", "rating": 4.8, "review_count": "", "latitude": 28.6000862, "longitude": 77.0818018, "maps_url": "https://www.google.com/maps/place/?q=place_id:0x390d1df0721e08c5:0x49d5fd4648a33c2d"}, {"place_id": "0x390ce45bcd61048f:0x5f6a5602f4155df7", "name": "JK Technosoft Limited", "category": "Software company", "street": "F", "city": "3", "phone": "01204606300", "website": "https://jktech.com/", "rating": 4.2, "review_count": "", "latitude": 28.5802509, "longitude": 77.31793329999999, "maps_url": "https://www.google.com/maps/place/?q=place_id:0x390ce45bcd61048f:0x5f6a5602f4155df7"}, {"place_id": "0x390d0348be373921:0xdab0e6afc72090d6", "name": "\ud835\udc16\ud835\udc1e\ud835\udc1b\ud835\udc24\ud835\udc1a\ud835\udc2b\ud835\udc2d \ud835\udc03\ud835\udc22\ud835\udc20\ud835\udc22\ud835\udc2d\ud835\udc1a\ud835\udc25 \ud835\udc0f\ud835\udc2f\ud835\udc2d. \ud835\udc0b\ud835\udc2d\ud835\udc1d", "category": "Website designer", "street": "2nd Floor", "city": "C-127", "phone": "09711110321", "website": "https://webkartindia.com/", "rating": 4.9, "review_count": "", "latitude": 28.628981399999997, "longitude": 77.1369867, "maps_url": "https://www.google.com/maps/place/?q=place_id:0x390d0348be373921:0xdab0e6afc72090d6"}, {"place_id": "0x390ce4575d275643:0x6374f0c539bcb978", "name": "Joon Corporation - Website Designing Company in Delhi", "category": "Website designer", "street": "814-15, 9th Floor", "city": "West End Mall", "phone": "08447696450", "website": "https://jooncorporation.com/", "rating": 4.4, "review_count": "", "latitude": 28.6300021, "longitude": 77.0797656, "maps_url": "https://www.google.com/maps/place/?q=place_id:0x390ce4575d275643:0x6374f0c539bcb978"}, {"place_id": "0x390d0331c8429b3d:0x6d904922071ab01", "name": "Go Houze Infra", "category": "Real Estate Builders & Construction Company", "street": "Gate no 2, metro", "city": "shop no. 2", "phone": "09810657474", "website": "http://www.gohouze.in/", "rating": 4.8, "review_count": "", "latitude": 28.6233366, "longitude": 77.1368616, "maps_url": "https://www.google.com/maps/place/?q=place_id:0x390d0331c8429b3d:0x6d904922071ab01"}, {"place_id": "0x390d0180d850ad91:0x310f92d3faf7aa32", "name": "Click IT Solution", "category": "Software company", "street": "2nd floor, Meenakshi Garden", "city": "113", "phone": "09818733195", "website": "https://clickitsolution.com/", "rating": 4.6, "review_count": "", "latitude": 28.6396417, "longitude": 77.1038289, "maps_url": "https://www.google.com/maps/place/?q=place_id:0x390d0180d850ad91:0x310f92d3faf7aa32"}, {"place_id": "0x390d1bf076ad40a5:0x6e54f7930154b26d", "name": "pNthaan: Technologies - Digital Marketing Company in Delhi - Social Media Marketing", "category": "Software company", "street": "D2/15, Dabri - Palam Rd", "city": "Vinod Puri, Block B 3, Vijay Enclave, Mahavir Enclave", "phone": "09810455309", "website": "https://pnthaan.com/", "rating": 4.9, "review_count": "", "latitude": 28.602663399999997, "longitude": 77.0801891, "maps_url": "https://www.google.com/maps/place/?q=place_id:0x390d1bf076ad40a5:0x6e54f7930154b26d"}, {"place_id": "0x390d04a6b086db01:0x61dd710dd30b9aae", "name": "Aps Web Hub - Website Desinging Company", "category": "Website designer", "street": "GA6, Mother Dairy Road", "city": "Shiv Nagar, Jail Road", "phone": "07838904326", "website": "http://www.apswebhub.com/", "rating": 4.9, "review_count": "", "latitude": 28.628489, "longitude": 77.0983706, "maps_url": "https://www.google.com/maps/place/?q=place_id:0x390d04a6b086db01:0x61dd710dd30b9aae"}, {"place_id": "0x390d1cad7521ef55:0xaa50cd44a9094aef", "name": "IndiaDataServices - #1 Reliable Data Entry, Product Upload, Data Mining, Catalog Processing, Data Extraction Provider Company", "category": "Data Entry Service Provider", "street": "WZ-340 Nangal Raya Near Lajwanti Garden Chowk", "city": "New Delhi, Delhi 110046", "phone": "01140347936", "website": "http://www.indiadataservices.com/", "rating": 4.9, "review_count": "", "latitude": 28.614197899999997, "longitude": 77.107978, "maps_url": "https://www.google.com/maps/place/?q=place_id:0x390d1cad7521ef55:0xaa50cd44a9094aef"}, {"place_id": "0x390cfd35391deb71:0xdbdd1388c7dc51b6", "name": "Jak Software Pvt Ltd", "category": "Software company", "street": "52 Janpath", "city": "New Delhi, Delhi 110001", "phone": "07827249056", "website": "http://www.jaksoftware.co.in/", "rating": 4.4, "review_count": "", "latitude": 28.627537999999998, "longitude": 77.21878989999999, "maps_url": "https://www.google.com/maps/place/?q=place_id:0x390cfd35391deb71:0xdbdd1388c7dc51b6"}, {"place_id": "0x390ce3db460cee5f:0x47a6e8d4aa56a40f", "name": "Injoria Technologies: Website, Custome Software, Mobile Apps Development company", "category": "Computer support and services", "street": "Second Floor", "city": "Pandav Nagar Complex", "phone": "09911177045", "website": "", "rating": 4.5, "review_count": "", "latitude": 28.6215884, "longitude": 77.2842872, "maps_url": "https://www.google.com/maps/place/?q=place_id:0x390ce3db460cee5f:0x47a6e8d4aa56a40f"}, {"place_id": "0x390d195c26bfa369:0x69bd8efd2e3a31fe", "name": "Radical Minds Technologies Pvt. Ltd.", "category": "BPO Company", "street": "368", "city": "Phase II, Udyog Vihar, Sector 20", "phone": "01244338366", "website": "http://www.radicalminds.in/", "rating": 4.2, "review_count": "", "latitude": 28.506335099999998, "longitude": 77.0877546, "maps_url": "https://www.google.com/maps/place/?q=place_id:0x390d195c26bfa369:0x69bd8efd2e3a31fe"}, {"place_id": "0x390d037f627bbd9b:0x31a49b3f2fe3ddbf", "name": "Control F Solutions", "category": "Computer support and services", "street": "3rd Floor", "city": "Backside of Shiv Naresh Sportswear Showroom", "phone": "09599786121", "website": "https://controlf.co.in/it-rental/", "rating": 4.9, "review_count": "", "latitude": 28.654606599999997, "longitude": 77.14817459999999, "maps_url": "https://www.google.com/maps/place/?q=place_id:0x390d037f627bbd9b:0x31a49b3f2fe3ddbf"}, {"place_id": "0x390d052784967271:0xaa74fbc78bf6ac24", "name": "Web Era Solutions", "category": "Website designer", "street": "Office No.716 ,7th Floor Vishwa Sadan Tower", "city": "Janakpuri West, Janakpuri District Center", "phone": "08448696471", "website": "https://weberasolutions.com/", "rating": 4.8, "review_count": "", "latitude": 28.629279999999998, "longitude": 77.0816023, "maps_url": "https://www.google.com/maps/place/?q=place_id:0x390d052784967271:0xaa74fbc78bf6ac24"}, {"place_id": "0xac577056c2b5ff3d:0xaf00253141553d04", "name": "Devnotam | IT Company", "category": "Internet marketing service", "street": "", "city": "", "phone": "", "website": "https://devnotam.com/", "rating": 5, "review_count": "", "latitude": 28.692404999999997, "longitude": 77.090042, "maps_url": "https://www.google.com/maps/place/?q=place_id:0xac577056c2b5ff3d:0xaf00253141553d04"}, {"place_id": "0x390d030268f754f3:0x161df7ca22e468b5", "name": "Aventure Corporate Solution", "category": "Software company", "street": "B1/639A, Fourth Floor", "city": "Block B1, Janakpuri", "phone": "08929898849", "website": "https://aventuresolution.com/", "rating": 4.3, "review_count": "", "latitude": 28.6324267, "longitude": 77.08569779999999, "maps_url": "https://www.google.com/maps/place/?q=place_id:0x390d030268f754f3:0x161df7ca22e468b5"}, {"place_id": "0x390d1baaff346a7b:0x1b774913c94bd822", "name": "Ontech Digital Technologies Pvt. Ltd.", "category": "Website designer", "street": "3rd floor", "city": "Shyam Kunj Tower", "phone": "08802377021", "website": "https://ontechdigital.com/", "rating": 5, "review_count": "", "latitude": 28.5994429, "longitude": 77.0819152, "maps_url": "https://www.google.com/maps/place/?q=place_id:0x390d1baaff346a7b:0x1b774913c94bd822"}, {"place_id": "0x390d046b34a557d1:0xf6c1b8839a2cbd9c", "name": "Pact Systems Private Limited", "category": "Software company", "street": "305-306, Third Floor, Dimension Vardhman Plaza, Rohtak Road,", "city": "Inder Encalve, Delhi 110087", "phone": "09711929711", "website": "http://www.pacts.in/", "rating": 4.4, "review_count": "", "latitude": 28.678994499999998, "longitude": 77.0837766, "maps_url": "https://www.google.com/maps/place/?q=place_id:0x390d046b34a557d1:0xf6c1b8839a2cbd9c"}, {"place_id": "0x390d011e517039e5:0xd7871aa892609a4c", "name": "Top #1 Website Company in delhi", "category": "Software company", "street": "P56H+9CP, Commercial Complex, Gopal Nagar, Model Town", "city": "near Akash Cinema", "phone": "", "website": "", "rating": 4.6, "review_count": "", "latitude": 28.7109375, "longitude": 77.1785625, "maps_url": "https://www.google.com/maps/place/?q=place_id:0x390d011e517039e5:0xd7871aa892609a4c"}, {"place_id": "0x390d1df0721e08c5:0x49d5fd4648a33c2d", "name": "Nibble Software | Website Design & Development | Travel Web API & CRM | SEO, SMO, Paid Ads, Amazon & Flipkart Marketing", "category": "Website designer", "street": "4th Floor", "city": "Moolchand Tower", "phone": "09971066697", "website": "https://www.nibblesoftware.com/", "rating": 4.8, "review_count": "", "latitude": 28.6000862, "longitude": 77.0818018, "maps_url": "https://www.google.com/maps/place/?q=place_id:0x390d1df0721e08c5:0x49d5fd4648a33c2d"}, {"place_id": "0x390ce45bcd61048f:0x5f6a5602f4155df7", "name": "JK Technosoft Limited", "category": "Software company", "street": "F", "city": "3", "phone": "01204606300", "website": "https://jktech.com/", "rating": 4.2, "review_count": "", "latitude": 28.5802509, "longitude": 77.31793329999999, "maps_url": "https://www.google.com/maps/place/?q=place_id:0x390ce45bcd61048f:0x5f6a5602f4155df7"}, {"place_id": "0x390d0348be373921:0xdab0e6afc72090d6", "name": "\ud835\udc16\ud835\udc1e\ud835\udc1b\ud835\udc24\ud835\udc1a\ud835\udc2b\ud835\udc2d \ud835\udc03\ud835\udc22\ud835\udc20\ud835\udc22\ud835\udc2d\ud835\udc1a\ud835\udc25 \ud835\udc0f\ud835\udc2f\ud835\udc2d. \ud835\udc0b\ud835\udc2d\ud835\udc1d", "category": "Website designer", "street": "2nd Floor", "city": "C-127", "phone": "09711110321", "website": "https://webkartindia.com/", "rating": 4.9, "review_count": "", "latitude": 28.628981399999997, "longitude": 77.1369867, "maps_url": "https://www.google.com/maps/place/?q=place_id:0x390d0348be373921:0xdab0e6afc72090d6"}, {"place_id": "0x390ce4575d275643:0x6374f0c539bcb978", "name": "Joon Corporation - Website Designing Company in Delhi", "category": "Website designer", "street": "814-15, 9th Floor", "city": "West End Mall", "phone": "08447696450", "website": "https://jooncorporation.com/", "rating": 4.4, "review_count": "", "latitude": 28.6300021, "longitude": 77.0797656, "maps_url": "https://www.google.com/maps/place/?q=place_id:0x390ce4575d275643:0x6374f0c539bcb978"}, {"place_id": "0x390d0331c8429b3d:0x6d904922071ab01", "name": "Go Houze Infra", "category": "Real Estate Builders & Construction Company", "street": "Gate no 2, metro", "city": "shop no. 2", "phone": "09810657474", "website": "http://www.gohouze.in/", "rating": 4.8, "review_count": "", "latitude": 28.6233366, "longitude": 77.1368616, "maps_url": "https://www.google.com/maps/place/?q=place_id:0x390d0331c8429b3d:0x6d904922071ab01"}, {"place_id": "0x390d0180d850ad91:0x310f92d3faf7aa32", "name": "Click IT Solution", "category": "Software company", "street": "2nd floor, Meenakshi Garden", "city": "113", "phone": "09818733195", "website": "https://clickitsolution.com/", "rating": 4.6, "review_count": "", "latitude": 28.6396417, "longitude": 77.1038289, "maps_url": "https://www.google.com/maps/place/?q=place_id:0x390d0180d850ad91:0x310f92d3faf7aa32"}, {"place_id": "0x390d1bf076ad40a5:0x6e54f7930154b26d", "name": "pNthaan: Technologies - Digital Marketing Company in Delhi - Social Media Marketing", "category": "Software company", "street": "D2/15, Dabri - Palam Rd", "city": "Vinod Puri, Block B 3, Vijay Enclave, Mahavir Enclave", "phone": "09810455309", "website": "https://pnthaan.com/", "rating": 4.9, "review_count": "", "latitude": 28.602663399999997, "longitude": 77.0801891, "maps_url": "https://www.google.com/maps/place/?q=place_id:0x390d1bf076ad40a5:0x6e54f7930154b26d"}, {"place_id": "0x390d04a6b086db01:0x61dd710dd30b9aae", "name": "Aps Web Hub - Website Desinging Company", "category": "Website designer", "street": "GA6, Mother Dairy Road", "city": "Shiv Nagar, Jail Road", "phone": "07838904326", "website": "http://www.apswebhub.com/", "rating": 4.9, "review_count": "", "latitude": 28.628489, "longitude": 77.0983706, "maps_url": "https://www.google.com/maps/place/?q=place_id:0x390d04a6b086db01:0x61dd710dd30b9aae"}, {"place_id": "0x390d1cad7521ef55:0xaa50cd44a9094aef", "name": "IndiaDataServices - #1 Reliable Data Entry, Product Upload, Data Mining, Catalog Processing, Data Extraction Provider Company", "category": "Data Entry Service Provider", "street": "WZ-340 Nangal Raya Near Lajwanti Garden Chowk", "city": "New Delhi, Delhi 110046", "phone": "01140347936", "website": "http://www.indiadataservices.com/", "rating": 4.9, "review_count": "", "latitude": 28.614197899999997, "longitude": 77.107978, "maps_url": "https://www.google.com/maps/place/?q=place_id:0x390d1cad7521ef55:0xaa50cd44a9094aef"}, {"place_id": "0x390cfd35391deb71:0xdbdd1388c7dc51b6", "name": "Jak Software Pvt Ltd", "category": "Software company", "street": "52 Janpath", "city": "New Delhi, Delhi 110001", "phone": "07827249056", "website": "http://www.jaksoftware.co.in/", "rating": 4.4, "review_count": "", "latitude": 28.627537999999998, "longitude": 77.21878989999999, "maps_url": "https://www.google.com/maps/place/?q=place_id:0x390cfd35391deb71:0xdbdd1388c7dc51b6"}, {"place_id": "0x390ce3db460cee5f:0x47a6e8d4aa56a40f", "name": "Injoria Technologies: Website, Custome Software, Mobile Apps Development company", "category": "Computer support and services", "street": "Second Floor", "city": "Pandav Nagar Complex", "phone": "09911177045", "website": "", "rating": 4.5, "review_count": "", "latitude": 28.6215884, "longitude": 77.2842872, "maps_url": "https://www.google.com/maps/place/?q=place_id:0x390ce3db460cee5f:0x47a6e8d4aa56a40f"}, {"place_id": "0x390d1b3f00d047f7:0x9b0acbc6decfed67", "name": "VBage Tech", "category": "Software company", "street": "WZ-330", "city": "Palam Village, Palam", "phone": "08383889042", "website": "https://www.vbagetech.com/", "rating": 4.5, "review_count": "", "latitude": 28.589986099999997, "longitude": 77.0768539, "maps_url": "https://www.google.com/maps/place/?q=place_id:0x390d1b3f00d047f7:0x9b0acbc6decfed67"}, {"place_id": "0x390d195c26bfa369:0x69bd8efd2e3a31fe", "name": "Radical Minds Technologies Pvt. Ltd.", "category": "BPO Company", "street": "368", "city": "Phase II, Udyog Vihar, Sector 20", "phone": "01244338366", "website": "http://www.radicalminds.in/", "rating": 4.2, "review_count": "", "latitude": 28.506335099999998, "longitude": 77.0877546, "maps_url": "https://www.google.com/maps/place/?q=place_id:0x390d195c26bfa369:0x69bd8efd2e3a31fe"}, {"place_id": "0x390d037f627bbd9b:0x31a49b3f2fe3ddbf", "name": "Control F Solutions", "category": "Computer support and services", "street": "3rd Floor", "city": "Backside of Shiv Naresh Sportswear Showroom", "phone": "09599786121", "website": "https://controlf.co.in/it-rental/", "rating": 4.9, "review_count": "", "latitude": 28.654606599999997, "longitude": 77.14817459999999, "maps_url": "https://www.google.com/maps/place/?q=place_id:0x390d037f627bbd9b:0x31a49b3f2fe3ddbf"}, {"place_id": "0x390d055ab880b807:0xcb5c025daa2b2795", "name": "Tech Web Mantra", "category": "Software company", "street": "B-77", "city": "near Dwarka Mor Metro Station", "phone": "09871521039", "website": "https://www.techwebmantra.com/", "rating": 5, "review_count": "", "latitude": 28.614187899999997, "longitude": 77.0362179, "maps_url": "https://www.google.com/maps/place/?q=place_id:0x390d055ab880b807:0xcb5c025daa2b2795"}, {"place_id": "0x390d052784967271:0xaa74fbc78bf6ac24", "name": "Web Era Solutions", "category": "Website designer", "street": "Office No.716 ,7th Floor Vishwa Sadan Tower", "city": "Janakpuri West, Janakpuri District Center", "phone": "08448696471", "website": "https://weberasolutions.com/", "rating": 4.8, "review_count": "", "latitude": 28.629279999999998, "longitude": 77.0816023, "maps_url": "https://www.google.com/maps/place/?q=place_id:0x390d052784967271:0xaa74fbc78bf6ac24"}, {"place_id": "0xac577056c2b5ff3d:0xaf00253141553d04", "name": "Devnotam | IT Company", "category": "Internet marketing service", "street": "", "city": "", "phone": "", "website": "https://devnotam.com/", "rating": 5, "review_count": "", "latitude": 28.692404999999997, "longitude": 77.090042, "maps_url": "https://www.google.com/maps/place/?q=place_id:0xac577056c2b5ff3d:0xaf00253141553d04"}, {"place_id": "0x390d030268f754f3:0x161df7ca22e468b5", "name": "Aventure Corporate Solution", "category": "Software company", "street": "B1/639A, Fourth Floor", "city": "Block B1, Janakpuri", "phone": "08929898849", "website": "https://aventuresolution.com/", "rating": 4.3, "review_count": "", "latitude": 28.6324267, "longitude": 77.08569779999999, "maps_url": "https://www.google.com/maps/place/?q=place_id:0x390d030268f754f3:0x161df7ca22e468b5"}, {"place_id": "0x390d03fd9307cd73:0x7a223a0902c6e0cd", "name": "Web Cloud Technology", "category": "Website designer", "street": "3A/74 W.E.A", "city": "Sat Nagar, Karol Bagh", "phone": "08882324811", "website": "https://webcloudtechnology.in/", "rating": 4.4, "review_count": "", "latitude": 28.6465632, "longitude": 77.1824149, "maps_url": "https://www.google.com/maps/place/?q=place_id:0x390d03fd9307cd73:0x7a223a0902c6e0cd"}, {"place_id": "0x4f6402c2da16ff95:0xd3b65b0e189f65b0", "name": "Radiant Technologies - E-commerce Website Development & Designing Company, Digital Marketing, Customized CRM", "category": "Software company", "street": "Second Floor", "city": "WZ 10B, Asalatpur Rd", "phone": "09999886194", "website": "https://techradiant.net/", "rating": 4.5, "review_count": "", "latitude": 28.6217926, "longitude": 77.0763157, "maps_url": "https://www.google.com/maps/place/?q=place_id:0x4f6402c2da16ff95:0xd3b65b0e189f65b0"}, {"place_id": "0x390cfb4bf15a6733:0xaf50e6f3c5fb7641", "name": "Digitals Daddy: Web & App Development Company", "category": "Software company", "street": "Metro Gate No. 2", "city": "Nearest Sikandarpur", "phone": "09818286609", "website": "https://www.digitalsdaddy.com/", "rating": 4.9, "review_count": "", "latitude": 28.4847884, "longitude": 77.0922192, "maps_url": "https://www.google.com/maps/place/?q=place_id:0x390cfb4bf15a6733:0xaf50e6f3c5fb7641"}, {"place_id": "0x390d02eb9de45597:0x772cc0459bd00b08", "name": "WebzPapa - SEO Company in Delhi I SEO Services Agency in Delhi", "category": "Website designer", "street": "Gate no 6", "city": "Building - O, 4th Floor, South Patel Nagar Near Patel Nagar Metro Station", "phone": "09953993944", "website": "https://webzpapa.com/seo-company-delhi.html", "rating": 4.7, "review_count": "", "latitude": 28.6450192, "longitude": 77.1688623, "maps_url": "https://www.google.com/maps/place/?q=place_id:0x390d02eb9de45597:0x772cc0459bd00b08"}, {"place_id": "0x390d032c2d3b3a8b:0xa11af28cfafccfc4", "name": "Ivolwe Technologies", "category": "Software company", "street": "", "city": "", "phone": "08888852364", "website": "", "rating": 5, "review_count": "", "latitude": 21.0680074, "longitude": 82.7525294, "maps_url": "https://www.google.com/maps/place/?q=place_id:0x390d032c2d3b3a8b:0xa11af28cfafccfc4"}, {"place_id": "0x390d1b0010fc2321:0x12e9154c815cf007", "name": "Prashant Dwivedi IT company", "category": "Warehouse", "street": "G3P5+GVC", "city": "Nayak Pura, Bijwasan", "phone": "", "website": "", "rating": "", "review_count": "", "latitude": 28.536316, "longitude": 77.059649, "maps_url": "https://www.google.com/maps/place/?q=place_id:0x390d1b0010fc2321:0x12e9154c815cf007"}, {"place_id": "0x390d1b80fb9da03d:0xd77ea97dd9a2aa4a", "name": "Nextwebi IT Solutions Pvt Ltd", "category": "Website designer", "street": "45, Street Number 2", "city": "Palam Extension, Sector 7 Dwarka, Dwarka", "phone": "08904240871", "website": "", "rating": 5, "review_count": "", "latitude": 28.5945388, "longitude": 77.0857647, "maps_url": "https://www.google.com/maps/place/?q=place_id:0x390d1b80fb9da03d:0xd77ea97dd9a2aa4a"}, {"place_id": "0x390d04baa7b0c615:0x2ad47d69d0088e39", "name": "Logical Canvas Private Limited", "category": "Software company", "street": "110-D First Floor", "city": "West", "phone": "09582422605", "website": "http://www.logicalcanvas.com/", "rating": 4.8, "review_count": "", "latitude": 28.629441, "longitude": 77.082135, "maps_url": "https://www.google.com/maps/place/?q=place_id:0x390d04baa7b0c615:0x2ad47d69d0088e39"}, {"place_id": "0x390d033b40000001:0xb482dab7f5cf34d", "name": "Germanium Technologies Limited", "category": "BPO Company", "street": "C-106/7", "city": "Industrial Area Phase I, Block C, Naraina Industrial Area Phase 1, Naraina", "phone": "01125807301", "website": "http://germaniumindia.com/", "rating": 4, "review_count": "", "latitude": 28.631273399999998, "longitude": 77.1355713, "maps_url": "https://www.google.com/maps/place/?q=place_id:0x390d033b40000001:0xb482dab7f5cf34d"}, {"place_id": "0x390d0527de034065:0xb334617a46f1040b", "name": "Crafttown Technology | Marketing | Branding | e-Commerce Company", "category": "E - Commerce Agency", "street": "Metro station", "city": "near Janakpuri East", "phone": "", "website": "https://crafttowntechnology.com/", "rating": 4.9, "review_count": "", "latitude": 28.622730699999998, "longitude": 77.0877653, "maps_url": "https://www.google.com/maps/place/?q=place_id:0x390d0527de034065:0xb334617a46f1040b"}, {"place_id": "0x390d032df923263f:0xc39fc7f9585eda2d", "name": "Vcsdata Online Services Pvt Ltd.", "category": "Business management consultant", "street": "WZ - 430 B First Floor", "city": "Naraina Village", "phone": "", "website": "https://www.vcsdata.com/", "rating": "", "review_count": "", "latitude": 28.6209931, "longitude": 77.1372331, "maps_url": "https://www.google.com/maps/place/?q=place_id:0x390d032df923263f:0xc39fc7f9585eda2d"}, {"place_id": "0x390d033a4f041a85:0xdc412e3b857d15fc", "name": "Technotherma (India) Pvt Ltd", "category": "Manufacturer", "street": "210, Mahatma Gandhi Rd", "city": "Block CB, Naraina Village, Naraina", "phone": "01125771257", "website": "http://www.technotherma.com/", "rating": 5, "review_count": "", "latitude": 28.625100999999997, "longitude": 77.13446499999999, "maps_url": "https://www.google.com/maps/place/?q=place_id:0x390d033a4f041a85:0xdc412e3b857d15fc"}, {"place_id": "0x390d02efaf79b961:0x413607f4cfba5420", "name": "Support Star Corporate Services Pvt. Ltd", "category": "Corporate office", "street": "Cottage No 19, Lower Ground Floor", "city": "West Patel Nagar, Patel Nagar", "phone": "07042627575", "website": "", "rating": 4.2, "review_count": "", "latitude": 28.6500426, "longitude": 77.1623192, "maps_url": "https://www.google.com/maps/place/?q=place_id:0x390d02efaf79b961:0x413607f4cfba5420"}, {"place_id": "0x390d03029a249235:0xc99a89423a1e5358", "name": "Labotek", "category": "Corporate office", "street": "4/25", "city": "Block 4, Kirti Nagar Industrial Area, Kirti Nagar", "phone": "01141426169", "website": "https://www.labotek.in/", "rating": 4.1, "review_count": "", "latitude": 28.6528273, "longitude": 77.147831, "maps_url": "https://www.google.com/maps/place/?q=place_id:0x390d03029a249235:0xc99a89423a1e5358"}, {"place_id": "0x390d03fd9307cd73:0x7a223a0902c6e0cd", "name": "Web Cloud Technology", "category": "Website designer", "street": "3A/74 W.E.A", "city": "Sat Nagar, Karol Bagh", "phone": "08882324811", "website": "https://webcloudtechnology.in/", "rating": 4.4, "review_count": "", "latitude": 28.6465632, "longitude": 77.1824149, "maps_url": "https://www.google.com/maps/place/?q=place_id:0x390d03fd9307cd73:0x7a223a0902c6e0cd"}, {"place_id": "0x4f6402c2da16ff95:0xd3b65b0e189f65b0", "name": "Radiant Technologies - E-commerce Website Development & Designing Company, Digital Marketing, Customized CRM", "category": "Software company", "street": "Second Floor", "city": "WZ 10B, Asalatpur Rd", "phone": "09999886194", "website": "https://techradiant.net/", "rating": 4.5, "review_count": "", "latitude": 28.6217926, "longitude": 77.0763157, "maps_url": "https://www.google.com/maps/place/?q=place_id:0x4f6402c2da16ff95:0xd3b65b0e189f65b0"}, {"place_id": "0x390cfb4bf15a6733:0xaf50e6f3c5fb7641", "name": "Digitals Daddy: Web & App Development Company", "category": "Software company", "street": "Metro Gate No. 2", "city": "Nearest Sikandarpur", "phone": "09818286609", "website": "https://www.digitalsdaddy.com/", "rating": 4.9, "review_count": "", "latitude": 28.4847884, "longitude": 77.0922192, "maps_url": "https://www.google.com/maps/place/?q=place_id:0x390cfb4bf15a6733:0xaf50e6f3c5fb7641"}, {"place_id": "0x390d02eb9de45597:0x772cc0459bd00b08", "name": "WebzPapa - SEO Company in Delhi I SEO Services Agency in Delhi", "category": "Website designer", "street": "Gate no 6", "city": "Building - O, 4th Floor, South Patel Nagar Near Patel Nagar Metro Station", "phone": "09953993944", "website": "https://webzpapa.com/seo-company-delhi.html", "rating": 4.7, "review_count": "", "latitude": 28.6450192, "longitude": 77.1688623, "maps_url": "https://www.google.com/maps/place/?q=place_id:0x390d02eb9de45597:0x772cc0459bd00b08"}, {"place_id": "0x390d032c2d3b3a8b:0xa11af28cfafccfc4", "name": "Ivolwe Technologies", "category": "Software company", "street": "", "city": "", "phone": "08888852364", "website": "", "rating": 5, "review_count": "", "latitude": 21.0680074, "longitude": 82.7525294, "maps_url": "https://www.google.com/maps/place/?q=place_id:0x390d032c2d3b3a8b:0xa11af28cfafccfc4"}, {"place_id": "0x390d1b0010fc2321:0x12e9154c815cf007", "name": "Prashant Dwivedi IT company", "category": "Warehouse", "street": "G3P5+GVC", "city": "Nayak Pura, Bijwasan", "phone": "", "website": "", "rating": "", "review_count": "", "latitude": 28.536316, "longitude": 77.059649, "maps_url": "https://www.google.com/maps/place/?q=place_id:0x390d1b0010fc2321:0x12e9154c815cf007"}, {"place_id": "0x390d0396a33c9c71:0x6a772a51fa6a5489", "name": "Grow Globally", "category": "Website designer", "street": "COMMUNITY CENTER", "city": "SECOND FLOOR GUPTA TOWER-1", "phone": "01144708564", "website": "http://growglobally.in/", "rating": 4.5, "review_count": "", "latitude": 28.6388358, "longitude": 77.0761923, "maps_url": "https://www.google.com/maps/place/?q=place_id:0x390d0396a33c9c71:0x6a772a51fa6a5489"}, {"place_id": "0x390d02ffb515f409:0x9a926f003224acee", "name": "Eraas International Delhi | PCD Pharma Franchise | WHO GMP Certified PCD Pharma Franchise Company", "category": "Pharmaceutical company", "street": "I-103", "city": "Block I, Kirti Nagar", "phone": "09818129750", "website": "https://www.eraasinternational.com/", "rating": 5, "review_count": "", "latitude": 28.6515496, "longitude": 77.1448142, "maps_url": "https://www.google.com/maps/place/?q=place_id:0x390d02ffb515f409:0x9a926f003224acee"}, {"place_id": "0x390d0300292e42c1:0x147d3cafc843c23d", "name": "MULTIVERSE SOLUTION PRIVATE LTD.", "category": "Corporate office", "street": "DSM 119-120", "city": "DLF Towers", "phone": "", "website": "https://multiversetech.com/", "rating": 5, "review_count": "", "latitude": 28.662896099999998, "longitude": 77.1531562, "maps_url": "https://www.google.com/maps/place/?q=place_id:0x390d0300292e42c1:0x147d3cafc843c23d"}, {"place_id": "0x390d0345e1db21b9:0x36f5817168b78e50", "name": "IRC Innovations", "category": "Electronics Company", "street": "B102/3", "city": "Industrial Area Phase I, Block C, Naraina Industrial Area Phase 1, Naraina", "phone": "09266514999", "website": "http://wowstores.in/", "rating": 4.2, "review_count": "", "latitude": 28.631273399999998, "longitude": 77.1355714, "maps_url": "https://www.google.com/maps/place/?q=place_id:0x390d0345e1db21b9:0x36f5817168b78e50"}, {"place_id": "0x390d04caefab7813:0x5c0ce1119a71f9cd", "name": "Universal Network of Infotech", "category": "Software company", "street": "WZ-61A/8A, Lane No 17, Vashist Park, Pankha Road, Janak Puri Institutional Area", "city": "25 Feet Rd", "phone": "01128526116", "website": "", "rating": "", "review_count": "", "latitude": 28.6125701, "longitude": 77.0776147, "maps_url": "https://www.google.com/maps/place/?q=place_id:0x390d04caefab7813:0x5c0ce1119a71f9cd"}, {"place_id": "0x390d1b80fb9da03d:0xd77ea97dd9a2aa4a", "name": "Nextwebi IT Solutions Pvt Ltd", "category": "Website designer", "street": "45, Street Number 2", "city": "Palam Extension, Sector 7 Dwarka, Dwarka", "phone": "08904240871", "website": "", "rating": 5, "review_count": "", "latitude": 28.5945388, "longitude": 77.0857647, "maps_url": "https://www.google.com/maps/place/?q=place_id:0x390d1b80fb9da03d:0xd77ea97dd9a2aa4a"}, {"place_id": "0x390d03a1f816a9a3:0xb3a11fbf3273e41a", "name": "Cyco ads", "category": "Software company", "street": "24/A 71 Road, Club Rd", "city": "Punjabi Bagh", "phone": "09971732071", "website": "http://cycoads.com/", "rating": 3.8, "review_count": "", "latitude": 28.6661179, "longitude": 77.12612539999999, "maps_url": "https://www.google.com/maps/place/?q=place_id:0x390d03a1f816a9a3:0xb3a11fbf3273e41a"}, {"place_id": "0x390d038badcb29a7:0x7e6f90669c5096d2", "name": "MEDIA DESIGNS - Best Corporate Film Makers in Delhi, NCR I India", "category": "Video production service", "street": "A", "city": "Block, Near PVR", "phone": "09811090090", "website": "https://www.mediandesigns.com/", "rating": 4.6, "review_count": "", "latitude": 28.633445799999997, "longitude": 77.13805119999999, "maps_url": "https://www.google.com/maps/place/?q=place_id:0x390d038badcb29a7:0x7e6f90669c5096d2"}, {"place_id": "0x390ce15795555555:0x9bb8a801d00d7573", "name": "DreamSoft Infotech - Website Development Company in India", "category": "Software company", "street": "A-75 Third Floor", "city": "A Block, Sector 5", "phone": "01204380622", "website": "https://dreamsoftinfotech.com/", "rating": 3.4, "review_count": "", "latitude": 28.591018899999998, "longitude": 77.32201529999999, "maps_url": "https://www.google.com/maps/place/?q=place_id:0x390ce15795555555:0x9bb8a801d00d7573"}, {"place_id": "0x390d03281871ef51:0x87d05ae5b85adc52", "name": "CRCIT INFOTECH PVT LTD", "category": "Software company", "street": "RZ B-4, Pankha Rd", "city": "opposite Janak Cinema Complex", "phone": "09599884630", "website": "", "rating": 4.9, "review_count": "", "latitude": 28.7321179, "longitude": 77.0297145, "maps_url": "https://www.google.com/maps/place/?q=place_id:0x390d03281871ef51:0x87d05ae5b85adc52"}, {"place_id": "0x3be7c21b5901e181:0x7fe794585addc1f6", "name": "Smartinfologiks - Software Development Company in India | IT Solutions", "category": "Software company", "street": "Hilton Center", "city": "514", "phone": "07400064691", "website": "https://www.smartinfologiks.com/", "rating": 4.6, "review_count": "", "latitude": 19.0139592, "longitude": 73.0382705, "maps_url": "https://www.google.com/maps/place/?q=place_id:0x3be7c21b5901e181:0x7fe794585addc1f6"}, {"place_id": "0x3bc2becdc35b6937:0x515ac559c349eee3", "name": "Thinkitive Technologies Private Limited", "category": "Software company", "street": "4th Floor", "city": "ABIL IMPERIAL COMMERCIAL SPACES", "phone": "08956467327", "website": "https://www.thinkitive.com/", "rating": 3.9, "review_count": "", "latitude": 18.5563888, "longitude": 73.7729748, "maps_url": "https://www.google.com/maps/place/?q=place_id:0x3bc2becdc35b6937:0x515ac559c349eee3"}, {"place_id": "0x390d0498e2f58521:0x1ab259bea2b6cfae", "name": "SAI Internet Marketing (India)", "category": "Website designer", "street": "2nd Floor, Commercial Complex", "city": "S-4 Unicom", "phone": "09999552353", "website": "https://www.saiinternetmarketing.com/", "rating": 4.6, "review_count": "", "latitude": 28.6291592, "longitude": 77.07780749999999, "maps_url": "https://www.google.com/maps/place/?q=place_id:0x390d0498e2f58521:0x1ab259bea2b6cfae"}, {"place_id": "0x390d04bf447aaaab:0xc9fc6fb41e7c6eb9", "name": "Web Bright Infra", "category": "Internet marketing service", "street": "DDA-2 Building", "city": "804", "phone": "08377007733", "website": "https://webbrightinfra.com/", "rating": 4.7, "review_count": "", "latitude": 28.6300907, "longitude": 77.0817272, "maps_url": "https://www.google.com/maps/place/?q=place_id:0x390d04bf447aaaab:0xc9fc6fb41e7c6eb9"}, {"place_id": "0x390d033b15557d19:0x4f2b294acd1333", "name": "Editone international", "category": "Digital printing service", "street": "Phase -1", "city": "A-47", "phone": "09873031063", "website": "https://www.editoneinternational.com/", "rating": 4.5, "review_count": "", "latitude": 28.6347822, "longitude": 77.1375298, "maps_url": "https://www.google.com/maps/place/?q=place_id:0x390d033b15557d19:0x4f2b294acd1333"}, {"place_id": "0x390d058ab757698b:0x3add85bfaab79547", "name": "Construction Company in Delhi", "category": "Real Estate Builders & Construction Company", "street": "Second Floor", "city": "J-Block", "phone": "07011527977", "website": "https://sites.google.com/view/sjconstructionindia", "rating": 5, "review_count": "", "latitude": 28.6434073, "longitude": 77.1000074, "maps_url": "https://www.google.com/maps/place/?q=place_id:0x390d058ab757698b:0x3add85bfaab79547"}, {"place_id": "0x390d04baa7b0c615:0x2ad47d69d0088e39", "name": "Logical Canvas Private Limited", "category": "Software company", "street": "110-D First Floor", "city": "West", "phone": "09582422605", "website": "http://www.logicalcanvas.com/", "rating": 4.8, "review_count": "", "latitude": 28.629441, "longitude": 77.082135, "maps_url": "https://www.google.com/maps/place/?q=place_id:0x390d04baa7b0c615:0x2ad47d69d0088e39"}, {"place_id": "0x390d030ef5c666a1:0x71befde9c11fc63f", "name": "Prestige Ties Manufacturing Company (R)(C) SINCE 1969", "category": "Manufacturer", "street": "B-127", "city": "opposite to Metro Pillar Number 350", "phone": "09968209209", "website": "http://www.prestigeties.in/", "rating": 4.9, "review_count": "", "latitude": 28.65272, "longitude": 77.13296, "maps_url": "https://www.google.com/maps/place/?q=place_id:0x390d030ef5c666a1:0x71befde9c11fc63f"}, {"place_id": "0x390d02f085021ff5:0x336836b61eb437b1", "name": "TILHAN & COMPANY", "category": "Accounting firm", "street": "T-235", "city": "A40, Hill Marg", "phone": "08826831110", "website": "", "rating": 5, "review_count": "", "latitude": 28.6557824, "longitude": 77.1606133, "maps_url": "https://www.google.com/maps/place/?q=place_id:0x390d02f085021ff5:0x336836b61eb437b1"}, {"place_id": "0x390d033b40000001:0xd4f1dfbeaba9f03a", "name": "Ajanta Food Products Company", "category": "Food products supplier", "street": "B-104/2", "city": "Phase - 1", "phone": "09311041736", "website": "http://www.ajantafoodproducts.com/", "rating": 4.7, "review_count": "", "latitude": 28.6322285, "longitude": 77.13367439999999, "maps_url": "https://www.google.com/maps/place/?q=place_id:0x390d033b40000001:0xd4f1dfbeaba9f03a"}, {"place_id": "0x390d0306b29bcce9:0xd4cf5fdb9acbc83e", "name": "Merino Consulting Services Limited", "category": "Engineering consultant", "street": "70, KLJ Complex, Moti Nagar,", "city": "Block C, Najafgarh Road Industrial Area", "phone": "01145068300", "website": "https://www.merinoservices.com/", "rating": 4.2, "review_count": "", "latitude": 28.6598014, "longitude": 77.1473929, "maps_url": "https://www.google.com/maps/place/?q=place_id:0x390d0306b29bcce9:0xd4cf5fdb9acbc83e"}, {"place_id": "0x390d1bb378fea377:0x6aec5aba720a0b26", "name": "CertHippo Solution Pvt. Ltd.", "category": "Educational testing service", "street": "RZ- 26 P/37", "city": "Gali Number 31A", "phone": "", "website": "https://certhippo.com/", "rating": 4.8, "review_count": "", "latitude": 28.596792299999997, "longitude": 77.0999558, "maps_url": "https://www.google.com/maps/place/?q=place_id:0x390d1bb378fea377:0x6aec5aba720a0b26"}, {"place_id": "0x390cfd35c8f89657:0xadbc7004661a9c74", "name": "Sterco Digitex Pvt Limited", "category": "Software company", "street": "2nd Floor", "city": "72, Janpath Rd", "phone": "01204857333", "website": "https://www.stercodigitex.com/", "rating": 4.1, "review_count": "", "latitude": 28.628133, "longitude": 77.21985099999999, "maps_url": "https://www.google.com/maps/place/?q=place_id:0x390cfd35c8f89657:0xadbc7004661a9c74"}, {"place_id": "0x390d05b89f2c2839:0x89e48f3fc9ab81ae", "name": "Complianto Consulting - Company registration, Trademark Registration, GST Registration In Delhi", "category": "Legal services", "street": "Ist floor", "city": "GN-9", "phone": "07827355027", "website": "http://www.compliantoconsulting.com/", "rating": 4.9, "review_count": "", "latitude": 28.6545924, "longitude": 77.1192568, "maps_url": "https://www.google.com/maps/place/?q=place_id:0x390d05b89f2c2839:0x89e48f3fc9ab81ae"}, {"place_id": "0x390d03f24afebb65:0x1c829a4760f3b9d7", "name": "AERRUS TRADING COMPANY", "category": "Investment company", "street": "Front side", "city": "A-124", "phone": "", "website": "https://www.instagram.com/aerrustrading?igsh=MWU2MW9sdWlsN3c4Yw==", "rating": 5, "review_count": "", "latitude": 28.6473478, "longitude": 77.13168759999999, "maps_url": "https://www.google.com/maps/place/?q=place_id:0x390d03f24afebb65:0x1c829a4760f3b9d7"}, {"place_id": "0x390d053a2359d897:0x7ade773a38d4c83d", "name": "Code Diffusion", "category": "Website designer", "street": "302 Dda Building No 5", "city": "Janakpuri District Center, Janakpuri", "phone": "07827114607", "website": "http://codediffusion.in/", "rating": 4.2, "review_count": "", "latitude": 28.630287799999998, "longitude": 77.0817637, "maps_url": "https://www.google.com/maps/place/?q=place_id:0x390d053a2359d897:0x7ade773a38d4c83d"}, {"place_id": "0x390d1beab5f939a5:0xd07351c1e71e3065", "name": "WEBSITE DESIGNING COMPANY IN DELHI Nipl", "category": "Software company", "street": "j block", "city": "Rz 92/211, Gali No. 8", "phone": "09136336466", "website": "", "rating": "", "review_count": "", "latitude": 28.601472899999997, "longitude": 77.0896984, "maps_url": "https://www.google.com/maps/place/?q=place_id:0x390d1beab5f939a5:0xd07351c1e71e3065"}, {"place_id": "0x390d033b40000001:0xb482dab7f5cf34d", "name": "Germanium Technologies Limited", "category": "BPO Company", "street": "C-106/7", "city": "Industrial Area Phase I, Block C, Naraina Industrial Area Phase 1, Naraina", "phone": "01125807301", "website": "http://germaniumindia.com/", "rating": 4, "review_count": "", "latitude": 28.631273399999998, "longitude": 77.1355713, "maps_url": "https://www.google.com/maps/place/?q=place_id:0x390d033b40000001:0xb482dab7f5cf34d"}, {"place_id": "0x390d0527de034065:0xb334617a46f1040b", "name": "Crafttown Technology | Marketing | Branding | e-Commerce Company", "category": "E - Commerce Agency", "street": "Metro station", "city": "near Janakpuri East", "phone": "", "website": "https://crafttowntechnology.com/", "rating": 4.9, "review_count": "", "latitude": 28.622730699999998, "longitude": 77.0877653, "maps_url": "https://www.google.com/maps/place/?q=place_id:0x390d0527de034065:0xb334617a46f1040b"}, {"place_id": "0x390d1b9d7c55f8d9:0xfca04ada599b2113", "name": "Best Software And Website Development Company", "category": "Software company", "street": "110059, Uttam Nagar", "city": "Block B, Bharat Vihar, Madhu Vihar", "phone": "08210512097", "website": "", "rating": 3, "review_count": "", "latitude": 28.6071529, "longitude": 77.0596844, "maps_url": "https://www.google.com/maps/place/?q=place_id:0x390d1b9d7c55f8d9:0xfca04ada599b2113"}, {"place_id": "0x390d032df923263f:0xc39fc7f9585eda2d", "name": "Vcsdata Online Services Pvt Ltd.", "category": "Business management consultant", "street": "WZ - 430 B First Floor", "city": "Naraina Village", "phone": "", "website": "https://www.vcsdata.com/", "rating": "", "review_count": "", "latitude": 28.6209931, "longitude": 77.1372331, "maps_url": "https://www.google.com/maps/place/?q=place_id:0x390d032df923263f:0xc39fc7f9585eda2d"}]}