{"timestamp": 1773733428.0900698, "keyword": "IT company", "location": "Indore", "cell_idx": 43, "results": [{"place_id": "0x3963179ba819d679:0x97d67928bba81e05", "name": "ITGeeks Technologies Pvt. Ltd.", "category": "Software company", "street": "ITGeeks Technologies Pvt. Ltd", "city": "02, Yamuna nagar", "phone": "09179880603", "website": "http://www.itgeeks.com/", "rating": 4.6, "review_count": "", "latitude": 22.9538781, "longitude": 76.03808699999999, "maps_url": "https://www.google.com/maps/place/?q=place_id:0x3963179ba819d679:0x97d67928bba81e05"}, {"place_id": "0x3962fd71266aaa83:0x82398caa17930a40", "name": "Octavian InfoTech LLP", "category": "Software company", "street": "A 41 Ayodhya Puri", "city": "Kodriya", "phone": "09977741168", "website": "https://www.octavianinfotech.com/", "rating": 5, "review_count": "", "latitude": 22.537258599999998, "longitude": 75.7726136, "maps_url": "https://www.google.com/maps/place/?q=place_id:0x3962fd71266aaa83:0x82398caa17930a40"}, {"place_id": "0x3963179ca584a047:0xba87fc574f813753", "name": "Xlligent Softwares Pvt Ltd", "category": "Software company", "street": "111", "city": "near front of DCB Bank", "phone": "06261900209", "website": "https://www.xlligent-softwares.com/", "rating": 4.9, "review_count": "", "latitude": 22.9666632, "longitude": 76.0492101, "maps_url": "https://www.google.com/maps/place/?q=place_id:0x3963179ca584a047:0xba87fc574f813753"}, {"place_id": "0x3963171787e17b59:0x307a92533e921d11", "name": "Edithtech Softwares", "category": "Software company", "street": "44", "city": "Shourya Complex", "phone": "09109260321", "website": "https://edithtechsoftwares.com/", "rating": 4.8, "review_count": "", "latitude": 22.9547074, "longitude": 76.0365456, "maps_url": "https://www.google.com/maps/place/?q=place_id:0x3963171787e17b59:0x307a92533e921d11"}, {"place_id": "0x390ce458d0000001:0xf2123bd299ec4501", "name": "IT Company India", "category": "Software company", "street": "D56", "city": "D Block, Sector 10", "phone": "09999244854", "website": "https://www.itcompanyindia.in/", "rating": 4.7, "review_count": "", "latitude": 28.589917699999997, "longitude": 77.3351153, "maps_url": "https://www.google.com/maps/place/?q=place_id:0x390ce458d0000001:0xf2123bd299ec4501"}, {"place_id": "0x39631772fb57fa4d:0x1aeaaccddfab1b64", "name": "ITWEBINFO", "category": "Software company", "street": "103", "city": "Shivaji Nagar, Moti Bunglow", "phone": "07582995555", "website": "http://itwebinfo.com/", "rating": 5, "review_count": "", "latitude": 22.9710605, "longitude": 76.0480532, "maps_url": "https://www.google.com/maps/place/?q=place_id:0x39631772fb57fa4d:0x1aeaaccddfab1b64"}, {"place_id": "0x3962e3d56c170eb1:0x876e329535a3531d", "name": "AG TECHNOLOGIES, Software Company in Indore", "category": "Software company", "street": "28, Shree Krishna Vihar Colony, Near Shree Chintaman Hanuman Mandir, Opp Malviya Petrol Pump, Radisson Square", "city": "Madhya Pradesh 452016", "phone": "", "website": "", "rating": 5, "review_count": "", "latitude": 22.744705999999997, "longitude": 75.910692, "maps_url": "https://www.google.com/maps/place/?q=place_id:0x3962e3d56c170eb1:0x876e329535a3531d"}, {"place_id": "0x3963178ff220a477:0x51910ecd6deaed53", "name": "Cyber Elite Pvt Ltd.", "category": "Software company", "street": "226 LIG", "city": "Jawahar Nagar, Gomti Nagar", "phone": "07089899090", "website": "https://cyberelite.in/", "rating": 4.2, "review_count": "", "latitude": 22.953131199999998, "longitude": 76.0426221, "maps_url": "https://www.google.com/maps/place/?q=place_id:0x3963178ff220a477:0x51910ecd6deaed53"}, {"place_id": "0x39631792ea7d9083:0xc90228718db1b1af", "name": "Sypnosis Technologies - IT Company.", "category": "Software company", "street": "2nd Floor", "city": "10", "phone": "09039239604", "website": "https://sypnosistechnologies.com/", "rating": "", "review_count": "", "latitude": 22.955443499999998, "longitude": 76.0369978, "maps_url": "https://www.google.com/maps/place/?q=place_id:0x39631792ea7d9083:0xc90228718db1b1af"}, {"place_id": "0x39631736a0f7d871:0xf0f334accf365a3a", "name": "Ayat infotech", "category": "Software company", "street": "51", "city": "Anand nagar, Itawa", "phone": "09589981295", "website": "http://ayatinfotech.com/", "rating": 5, "review_count": "", "latitude": 22.9726128, "longitude": 76.05058269999999, "maps_url": "https://www.google.com/maps/place/?q=place_id:0x39631736a0f7d871:0xf0f334accf365a3a"}, {"place_id": "0x3be7c21b5901e181:0x7fe794585addc1f6", "name": "Smartinfologiks - Software Development Company in India | IT Solutions", "category": "Software company", "street": "Hilton Center", "city": "514", "phone": "07400064691", "website": "https://www.smartinfologiks.com/", "rating": 4.6, "review_count": "", "latitude": 19.0139592, "longitude": 73.0382705, "maps_url": "https://www.google.com/maps/place/?q=place_id:0x3be7c21b5901e181:0x7fe794585addc1f6"}, {"place_id": "0x3963173c14b63e79:0x65b66e0752b01a8c", "name": "Techconqueror \u2013 Software & IT Services", "category": "Software company", "street": "528 EWS", "city": "Mukherjee Nagar, Anukul Nagar", "phone": "08982396663", "website": "https://techconqueror.com/", "rating": 4.9, "review_count": "", "latitude": 22.971609599999997, "longitude": 76.0386747, "maps_url": "https://www.google.com/maps/place/?q=place_id:0x3963173c14b63e79:0x65b66e0752b01a8c"}, {"place_id": "0x39630239f26f44ff:0x9990e42765534532", "name": "Hybrid Infotech Pvt Ltd", "category": "Software company", "street": "Forest colony, Shivaji Nagar, Moti Bunglow", "city": "Dewas, Madhya Pradesh 455001", "phone": "09993031042", "website": "http://hybridinfotech.com/", "rating": 5, "review_count": "", "latitude": 22.9662243, "longitude": 76.0484005, "maps_url": "https://www.google.com/maps/place/?q=place_id:0x39630239f26f44ff:0x9990e42765534532"}, {"place_id": "0x3bc2becdc35b6937:0x515ac559c349eee3", "name": "Thinkitive Technologies Private Limited", "category": "Software company", "street": "4th Floor", "city": "ABIL IMPERIAL COMMERCIAL SPACES", "phone": "08956467327", "website": "https://www.thinkitive.com/", "rating": 3.9, "review_count": "", "latitude": 18.5563888, "longitude": 73.7729748, "maps_url": "https://www.google.com/maps/place/?q=place_id:0x3bc2becdc35b6937:0x515ac559c349eee3"}, {"place_id": "0x3962e7120255878b:0xb42bc41f83831f1", "name": "Vaidik Ecosystems Pvt. Ltd.", "category": "Business management consultant", "street": "Srijan Ground Floor Crystal IT Park", "city": "Indore, Madhya Pradesh 452020", "phone": "09993987422", "website": "http://www.vaidikecosystems.com/", "rating": 5, "review_count": "", "latitude": 22.606925699999998, "longitude": 76.0215904, "maps_url": "https://www.google.com/maps/place/?q=place_id:0x3962e7120255878b:0xb42bc41f83831f1"}, {"place_id": "0x396317f6bce105ad:0x1b97ddd1edb96f8a", "name": "TechMac Digital Solutions", "category": "Software company", "street": "05 M.I.G, Ujjain Rd", "city": "near Water Tank", "phone": "08982878781", "website": "https://techmacdigital.com/", "rating": 4.7, "review_count": "", "latitude": 22.977732099999997, "longitude": 76.0322268, "maps_url": "https://www.google.com/maps/place/?q=place_id:0x396317f6bce105ad:0x1b97ddd1edb96f8a"}, {"place_id": "0x3962fb94fc28ce15:0x775c0704a9c3d320", "name": "intevest", "category": "Software company", "street": "", "city": "", "phone": "", "website": "", "rating": 5, "review_count": "", "latitude": 21.0680074, "longitude": 82.7525294, "maps_url": "https://www.google.com/maps/place/?q=place_id:0x3962fb94fc28ce15:0x775c0704a9c3d320"}, {"place_id": "0x396317d794e16759:0x4060a0afc2cc5781", "name": "Webniya Infotech", "category": "Software company", "street": "", "city": "", "phone": "", "website": "https://www.webniya.tech/", "rating": 5, "review_count": "", "latitude": 21.0680074, "longitude": 82.7525294, "maps_url": "https://www.google.com/maps/place/?q=place_id:0x396317d794e16759:0x4060a0afc2cc5781"}, {"place_id": "0x3962f9236d105caf:0xbbc3c9013b8d48dc", "name": "Compli-Tech - Startup Consultant | Company Registration | Website Designing | Ecommerce Website Development", "category": "Business management consultant", "street": "Malwa Complex", "city": "88", "phone": "09302151441", "website": "https://compli-tech.odoo.com/", "rating": "", "review_count": "", "latitude": 22.5676845, "longitude": 75.7600538, "maps_url": "https://www.google.com/maps/place/?q=place_id:0x3962f9236d105caf:0xbbc3c9013b8d48dc"}, {"place_id": "0x9b11f92b7f68547:0x586dbc90a7ad0040", "name": "Devonix Tech", "category": "Software company", "street": "", "city": "", "phone": "07747911593", "website": "https://devonixtech.netlify.app/", "rating": 5, "review_count": "", "latitude": 14.157641199999999, "longitude": 9.2565711, "maps_url": "https://www.google.com/maps/place/?q=place_id:0x9b11f92b7f68547:0x586dbc90a7ad0040"}, {"place_id": "0x39630239f26f44ff:0x9990e42765534532", "name": "Hybrid Infotech Pvt Ltd", "category": "Software company", "street": "Forest colony, Shivaji Nagar, Moti Bunglow", "city": "Dewas, Madhya Pradesh 455001", "phone": "09993031042", "website": "http://hybridinfotech.com/", "rating": 5, "review_count": "", "latitude": 22.9662243, "longitude": 76.0484005, "maps_url": "https://www.google.com/maps/place/?q=place_id:0x39630239f26f44ff:0x9990e42765534532"}, {"place_id": "0x3bc2becdc35b6937:0x515ac559c349eee3", "name": "Thinkitive Technologies Private Limited", "category": "Software company", "street": "4th Floor", "city": "ABIL IMPERIAL COMMERCIAL SPACES", "phone": "08956467327", "website": "https://www.thinkitive.com/", "rating": 3.9, "review_count": "", "latitude": 18.5563888, "longitude": 73.7729748, "maps_url": "https://www.google.com/maps/place/?q=place_id:0x3bc2becdc35b6937:0x515ac559c349eee3"}, {"place_id": "0x3963177f0bb72c01:0x7dc0fc1caf36fcb", "name": "Adroit Technosoft", "category": "Software company", "street": "2nd floor, sri sawariya complex", "city": "AB Rd", "phone": "09713000193", "website": "https://adroittechnosoft.in/", "rating": 4.3, "review_count": "", "latitude": 22.9666878, "longitude": 76.0494731, "maps_url": "https://www.google.com/maps/place/?q=place_id:0x3963177f0bb72c01:0x7dc0fc1caf36fcb"}, {"place_id": "0x3962e34a8fcd256d:0xb0153f4ca5a38996", "name": "Ruknovo InfoTech Solutions \u2013 Empowering Businesses with Smart IT Services", "category": "Software company", "street": "jaspal dhaba", "city": "Vaibhav luxmi nagar gali no. 5", "phone": "09617246882", "website": "https://ruknovo.vercel.app/", "rating": 4.4, "review_count": "", "latitude": 22.744614, "longitude": 75.9150983, "maps_url": "https://www.google.com/maps/place/?q=place_id:0x3962e34a8fcd256d:0xb0153f4ca5a38996"}, {"place_id": "0x3962e7120255878b:0xb42bc41f83831f1", "name": "Vaidik Ecosystems Pvt. Ltd.", "category": "Business management consultant", "street": "Srijan Ground Floor Crystal IT Park", "city": "Indore, Madhya Pradesh 452020", "phone": "09993987422", "website": "http://www.vaidikecosystems.com/", "rating": 5, "review_count": "", "latitude": 22.606925699999998, "longitude": 76.0215904, "maps_url": "https://www.google.com/maps/place/?q=place_id:0x3962e7120255878b:0xb42bc41f83831f1"}, {"place_id": "0x3962fb94fc28ce15:0x775c0704a9c3d320", "name": "intevest", "category": "Software company", "street": "", "city": "", "phone": "", "website": "", "rating": 5, "review_count": "", "latitude": 21.0680074, "longitude": 82.7525294, "maps_url": "https://www.google.com/maps/place/?q=place_id:0x3962fb94fc28ce15:0x775c0704a9c3d320"}, {"place_id": "0x396317d794e16759:0x4060a0afc2cc5781", "name": "Webniya Infotech", "category": "Software company", "street": "", "city": "", "phone": "", "website": "https://www.webniya.tech/", "rating": 5, "review_count": "", "latitude": 21.0680074, "longitude": 82.7525294, "maps_url": "https://www.google.com/maps/place/?q=place_id:0x396317d794e16759:0x4060a0afc2cc5781"}, {"place_id": "0x3962e1608c47b0a7:0xf1159c9a2c32f5a6", "name": "Shiv Software Solutions", "category": "Software company", "street": "Rendition square", "city": "Kanadiya, Khemana, Madhya Pradesh 452016", "phone": "", "website": "", "rating": "", "review_count": "", "latitude": 22.7375932, "longitude": 76.01598, "maps_url": "https://www.google.com/maps/place/?q=place_id:0x3962e1608c47b0a7:0xf1159c9a2c32f5a6"}, {"place_id": "0x3962f9236d105caf:0xbbc3c9013b8d48dc", "name": "Compli-Tech - Startup Consultant | Company Registration | Website Designing | Ecommerce Website Development", "category": "Business management consultant", "street": "Malwa Complex", "city": "88", "phone": "09302151441", "website": "https://compli-tech.odoo.com/", "rating": "", "review_count": "", "latitude": 22.5676845, "longitude": 75.7600538, "maps_url": "https://www.google.com/maps/place/?q=place_id:0x3962f9236d105caf:0xbbc3c9013b8d48dc"}, {"place_id": "0x39631b8c82b127c5:0xc8e8f0771c605a24", "name": "Shree Hari Digital Services Pvt. Ltd.", "category": "Software company", "street": "Vicitoria-City", "city": "Indore, Madhya Pradesh 453771", "phone": "", "website": "https://trackkhata.web.app/", "rating": "", "review_count": "", "latitude": 22.9168389, "longitude": 75.9147291, "maps_url": "https://www.google.com/maps/place/?q=place_id:0x39631b8c82b127c5:0xc8e8f0771c605a24"}, {"place_id": "0x396317edb498db2d:0x820ff94014864b5b", "name": "Active Now Tech", "category": "Software company", "street": "Mahalaxmi Nagar", "city": "09", "phone": "08839779337", "website": "https://activenow.in/", "rating": 5, "review_count": "", "latitude": 22.9575802, "longitude": 76.0409086, "maps_url": "https://www.google.com/maps/place/?q=place_id:0x396317edb498db2d:0x820ff94014864b5b"}, {"place_id": "0x9b11f92b7f68547:0x586dbc90a7ad0040", "name": "Devonix Tech", "category": "Software company", "street": "", "city": "", "phone": "07747911593", "website": "https://devonixtech.netlify.app/", "rating": 5, "review_count": "", "latitude": 14.157641199999999, "longitude": 9.2565711, "maps_url": "https://www.google.com/maps/place/?q=place_id:0x9b11f92b7f68547:0x586dbc90a7ad0040"}, {"place_id": "0x396297482015701b:0xcf1885d997644a71", "name": "Harioum photocopy And Computer center", "category": "Computer service", "street": "Narmda Marg", "city": "Khandwa Rd", "phone": "", "website": "", "rating": 5, "review_count": "", "latitude": 22.250663499999998, "longitude": 76.0393904, "maps_url": "https://www.google.com/maps/place/?q=place_id:0x396297482015701b:0xcf1885d997644a71"}, {"place_id": "0x3962977dd210c815:0x282bb0ed764d75cf", "name": "ANKIT COMPUTER'S", "category": "Computer store", "street": "Barwaha, Madhya Pradesh 451115", "city": "", "phone": "07999501316", "website": "", "rating": 5, "review_count": "", "latitude": 22.254970099999998, "longitude": 76.0365569, "maps_url": "https://www.google.com/maps/place/?q=place_id:0x3962977dd210c815:0x282bb0ed764d75cf"}, {"place_id": "0x2d1fb13b66f9b3b9:0xd8d6782015bc63e4", "name": "Dharmdesigner IT Services", "category": "Internet marketing service", "street": "Silver Park", "city": "Balaji Nagar", "phone": "08120348239", "website": "https://dharmdesigner.com/", "rating": 5, "review_count": "", "latitude": 22.947556799999997, "longitude": 76.05479059999999, "maps_url": "https://www.google.com/maps/place/?q=place_id:0x2d1fb13b66f9b3b9:0xd8d6782015bc63e4"}, {"place_id": "0x3962fbd2b703c63f:0xaf48efad30e5a4eb", "name": "Manish Shukla - Software Company", "category": "Software company", "street": "Anand Vihar", "city": "273, Morod - Machala Rd", "phone": "", "website": "", "rating": "", "review_count": "", "latitude": 22.6242706, "longitude": 75.8689638, "maps_url": "https://www.google.com/maps/place/?q=place_id:0x3962fbd2b703c63f:0xaf48efad30e5a4eb"}, {"place_id": "0x396317001c296b89:0x77e424e0e3ff58b2", "name": "CodeMines Infotech", "category": "Software company", "street": "145/A", "city": "Kalani Bagh, Gomti Nagar", "phone": "", "website": "https://codeminesinfotech.com/", "rating": "", "review_count": "", "latitude": 22.9580417, "longitude": 76.043036, "maps_url": "https://www.google.com/maps/place/?q=place_id:0x396317001c296b89:0x77e424e0e3ff58b2"}, {"place_id": "0x396296560da6ac61:0xdc5a0a6c2bab6498", "name": "Ali Computers", "category": "Computer service", "street": "89, M.G Road", "city": "Barwaha, Madhya Pradesh 451115", "phone": "", "website": "", "rating": 3.6, "review_count": "", "latitude": 22.256282, "longitude": 76.040432, "maps_url": "https://www.google.com/maps/place/?q=place_id:0x396296560da6ac61:0xdc5a0a6c2bab6498"}, {"place_id": "0x3963195684ca1f2d:0x616742ba66d094a3", "name": "Jadhav SoftTech", "category": "Software company", "street": "Balaji Dham", "city": "69", "phone": "", "website": "http://www.jadhavsofttech.com/", "rating": "", "review_count": "", "latitude": 22.9452684, "longitude": 76.0460969, "maps_url": "https://www.google.com/maps/place/?q=place_id:0x3963195684ca1f2d:0x616742ba66d094a3"}, {"place_id": "0x396317929f6eb6ff:0xd309788e3f800c63", "name": "Lumic technologies", "category": "Software company", "street": "28, Sardar Patel Marg", "city": "Sutar Bakhal, Old Town, Gomti Nagar", "phone": "07804920240", "website": "http://www.lumicsoft.com/", "rating": "", "review_count": "", "latitude": 22.9654703, "longitude": 76.0527128, "maps_url": "https://www.google.com/maps/place/?q=place_id:0x396317929f6eb6ff:0xd309788e3f800c63"}, {"place_id": "0x396317bd43c6cae9:0x93e7d2a1d33dd13f", "name": "Anahcra Infotech Private Limited", "category": "Marketing agency", "street": "81, Khari Bawadi Road", "city": "Old Town, Hanuman Bakhal", "phone": "07987071323", "website": "", "rating": 5, "review_count": "", "latitude": 22.9622605, "longitude": 76.0569897, "maps_url": "https://www.google.com/maps/place/?q=place_id:0x396317bd43c6cae9:0x93e7d2a1d33dd13f"}, {"place_id": "0x396297a5b3aaf8cf:0x91b55aa9290d0db8", "name": "RAMO", "category": "Software company", "street": "Ground Floor", "city": "Crystal IT Park", "phone": "09977696444", "website": "http://ramo.co.in/", "rating": "", "review_count": "", "latitude": 22.236003399999998, "longitude": 76.0469766, "maps_url": "https://www.google.com/maps/place/?q=place_id:0x396297a5b3aaf8cf:0x91b55aa9290d0db8"}]}