{"timestamp": 1773731442.9442613, "keyword": "IT company", "location": "delhi", "cell_idx": 395, "results": [{"place_id": "0x390ce2e52043e633:0x3ed44d79ea4bd91c", "name": "Wirecto", "category": "Software company", "street": "Triloki Colony", "city": "C-49", "phone": "09716670074", "website": "https://wirecto.app/", "rating": 5, "review_count": "", "latitude": 28.575404799999998, "longitude": 77.2250054, "maps_url": "https://www.google.com/maps/place/?q=place_id:0x390ce2e52043e633:0x3ed44d79ea4bd91c"}, {"place_id": "0x39f89c0fb3b411eb:0xbe473f977e9b7558", "name": "Kbeatech - Digital Solutions Company", "category": "Software company", "street": "1893, 1st Floor", "city": "Uday Chand Marg", "phone": "", "website": "https://kbeatech.in/", "rating": 4.9, "review_count": "", "latitude": 28.571338299999997, "longitude": 77.2228884, "maps_url": "https://www.google.com/maps/place/?q=place_id:0x39f89c0fb3b411eb:0xbe473f977e9b7558"}, {"place_id": "0x390ce3c153b89811:0xe7a279685777e9ca", "name": "IT Company", "category": "Automation company", "street": "A-14", "city": "near iskcon temple", "phone": "", "website": "http://www.opuswiz.com/", "rating": 3, "review_count": "", "latitude": 28.557167, "longitude": 77.25424819999999, "maps_url": "https://www.google.com/maps/place/?q=place_id:0x390ce3c153b89811:0xe7a279685777e9ca"}, {"place_id": "0x390ce458d0000001:0xf2123bd299ec4501", "name": "IT Company India", "category": "Software company", "street": "D56", "city": "D Block, Sector 10", "phone": "09999244854", "website": "https://www.itcompanyindia.in/", "rating": 4.7, "review_count": "", "latitude": 28.589917699999997, "longitude": 77.3351153, "maps_url": "https://www.google.com/maps/place/?q=place_id:0x390ce458d0000001:0xf2123bd299ec4501"}, {"place_id": "0x390ce25e81555555:0xf93f773552127f47", "name": "SANEKT SOFTWARE SOLUTION", "category": "Software company", "street": "Top floor", "city": "H 11", "phone": "01141589565", "website": "http://sanekt.com/", "rating": 5, "review_count": "", "latitude": 28.571361, "longitude": 77.221733, "maps_url": "https://www.google.com/maps/place/?q=place_id:0x390ce25e81555555:0xf93f773552127f47"}, {"place_id": "0x390ce1597b5509e5:0xfd8209b937b44d3c", "name": "IT Solutions India Private Limited", "category": "Software company", "street": "D-88/5", "city": "Pocket D, Okhla Phase I, Okhla Industrial Estate", "phone": "09810017429", "website": "https://www.itsipl.com/", "rating": 4.2, "review_count": "", "latitude": 28.520146, "longitude": 77.280431, "maps_url": "https://www.google.com/maps/place/?q=place_id:0x390ce1597b5509e5:0xfd8209b937b44d3c"}, {"place_id": "0x390ce3094f4a9af1:0xdc21c66946b829ad", "name": "BAUDHYANTRAM IT Solutions | Website Designing | Web Development | Software Company in Delhi", "category": "Software company", "street": "H82 2nd Floor", "city": "opposite Bengali Sweet Center", "phone": "07900899996", "website": "http://www.baudhyantram.in/", "rating": 4.8, "review_count": "", "latitude": 28.5695803, "longitude": 77.221047, "maps_url": "https://www.google.com/maps/place/?q=place_id:0x390ce3094f4a9af1:0xdc21c66946b829ad"}, {"place_id": "0x390ce3c7b85554e5:0x34e439c15e247631", "name": "HAUT IT Solutions Pvt. Ltd", "category": "Software company", "street": "390", "city": "Sant Nagar, East of Kailash", "phone": "09934753003", "website": "http://www.hautitsolutions.com/", "rating": 4.3, "review_count": "", "latitude": 28.554910099999997, "longitude": 77.25111249999999, "maps_url": "https://www.google.com/maps/place/?q=place_id:0x390ce3c7b85554e5:0x34e439c15e247631"}, {"place_id": "0x390ce38f903de9fd:0x60b75e3dc7d3fb1b", "name": "iTech Mission Private Limited (iTM)", "category": "Software company", "street": "4th Floor, Saira Tower", "city": "Gulmohar Commercial Complex", "phone": "", "website": "http://www.itechmission.org/", "rating": 5, "review_count": "", "latitude": 28.557895499999997, "longitude": 77.20812099999999, "maps_url": "https://www.google.com/maps/place/?q=place_id:0x390ce38f903de9fd:0x60b75e3dc7d3fb1b"}, {"place_id": "0x390d1d86a4f12173:0x3a6b42ea6f4b8260", "name": "Softvanz Technologies Private Limited", "category": "Software company", "street": "Somdutt Chamber 1", "city": "BT-22/9", "phone": "", "website": "https://softvanz.com/", "rating": 5, "review_count": "", "latitude": 28.567948899999998, "longitude": 77.1889269, "maps_url": "https://www.google.com/maps/place/?q=place_id:0x390d1d86a4f12173:0x3a6b42ea6f4b8260"}, {"place_id": "0x390ce3b48e27a563:0x4ec8ae3c524366b", "name": "iSOFT INDIA TECHNOLOGIES", "category": "Software company", "street": "E-168|169, Amar Colony, Lajpat Nagar", "city": "New Delhi, Delhi 110024", "phone": "09717978320", "website": "", "rating": 4.9, "review_count": "", "latitude": 28.5657368, "longitude": 77.23946029999999, "maps_url": "https://www.google.com/maps/place/?q=place_id:0x390ce3b48e27a563:0x4ec8ae3c524366b"}, {"place_id": "0x390ce35c9796f211:0xf946b6a7bd5de87", "name": "Mooze Tech Private Limited", "category": "Software company", "street": "S/F", "city": "Masjid Moth", "phone": "02143299690", "website": "https://www.moozetech.com/", "rating": 5, "review_count": "", "latitude": 28.5634527, "longitude": 77.2200486, "maps_url": "https://www.google.com/maps/place/?q=place_id:0x390ce35c9796f211:0xf946b6a7bd5de87"}, {"place_id": "0x390ce40fadd91f5f:0xa4f54ec4626d7b8b", "name": "Techpertz IT Solutions", "category": "Software company", "street": "2nd Floor", "city": "Aman Apartment", "phone": "09958894786", "website": "https://techpertz.com/", "rating": 5, "review_count": "", "latitude": 28.5527172, "longitude": 77.2979446, "maps_url": "https://www.google.com/maps/place/?q=place_id:0x390ce40fadd91f5f:0xa4f54ec4626d7b8b"}, {"place_id": "0x390ce3860c81c723:0xc5f50e43c0a86a3e", "name": "Nextr Technology", "category": "Software company", "street": "2nd Floor", "city": "1483/A-1", "phone": "09911751575", "website": "http://www.nextr.in/", "rating": 4.9, "review_count": "", "latitude": 28.574374, "longitude": 77.224284, "maps_url": "https://www.google.com/maps/place/?q=place_id:0x390ce3860c81c723:0xc5f50e43c0a86a3e"}, {"place_id": "0x390cfcac5aaaaaed:0xa20ab2e7b400180", "name": "\ud835\udc68\ud835\udc76 \ud835\udc7a\ud835\udc90\ud835\udc87\ud835\udc95\ud835\udc98\ud835\udc82\ud835\udc93\ud835\udc86 \ud835\udc7a\ud835\udc90\ud835\udc8d\ud835\udc96\ud835\udc95\ud835\udc8a\ud835\udc90\ud835\udc8f Website Designing company-website development company-product promotion and ERP development company", "category": "Software company", "street": "1B", "city": "S-505", "phone": "01142603444", "website": "https://aosoftwaresolution.com/", "rating": 4.8, "review_count": "", "latitude": 28.6287195, "longitude": 77.2766171, "maps_url": "https://www.google.com/maps/place/?q=place_id:0x390cfcac5aaaaaed:0xa20ab2e7b400180"}, {"place_id": "0x390ce5fdcc79e755:0x309ce99251b84ef6", "name": "Optyminds IT Solutions - Top AI and IT company I Best Digital agency in Noida | Delhi NCR | India", "category": "Software company", "street": "1st Floor", "city": "B-70", "phone": "08929075975", "website": "https://optyminds.com/", "rating": 4.9, "review_count": "", "latitude": 28.584679599999998, "longitude": 77.3135042, "maps_url": "https://www.google.com/maps/place/?q=place_id:0x390ce5fdcc79e755:0x309ce99251b84ef6"}, {"place_id": "0x390ce3512b42e945:0xe8ce9b06e1651251", "name": "Instant IT services - Best Hardware & Software Related Services", "category": "Software company", "street": "koli camp", "city": "69B", "phone": "09804836325", "website": "", "rating": 4.7, "review_count": "", "latitude": 28.5758728, "longitude": 77.2565554, "maps_url": "https://www.google.com/maps/place/?q=place_id:0x390ce3512b42e945:0xe8ce9b06e1651251"}, {"place_id": "0x390d02994de5e515:0xd908bc03409a0d37", "name": "Himalayan IT Solutions | Best Website Designing Company in Delhi | SEO/Digital Marketing Company in Delhi NCR, India", "category": "Software company", "street": "61/4255, Padam Singh Rd", "city": "Block 29, Block 1, Regar Pura, Karol Bagh", "phone": "09899098509", "website": "http://www.himalayanitsolutions.com/", "rating": 3.9, "review_count": "", "latitude": 28.649673999999997, "longitude": 77.186599, "maps_url": "https://www.google.com/maps/place/?q=place_id:0x390d02994de5e515:0xd908bc03409a0d37"}, {"place_id": "0x4ebf586dbe4d7c09:0x968455c83bf5226c", "name": "Anchor IT Solutions- App Development | Website Development | Digital Marketing", "category": "Software company", "street": "4", "city": "Vinoba Puri, Lajpat Nagar II, Lajpat Nagar", "phone": "07678658584", "website": "", "rating": 4.8, "review_count": "", "latitude": 28.566371399999998, "longitude": 77.2486924, "maps_url": "https://www.google.com/maps/place/?q=place_id:0x4ebf586dbe4d7c09:0x968455c83bf5226c"}, {"place_id": "0x390d165555555555:0xf57c20f7d07d8fd1", "name": "Teckinfo Solutions Pvt Ltd", "category": "Software company", "street": "1/1 BA, 3rd Floor, Mohammadpur,", "city": "Bhikaji Cama Place", "phone": "01149605500", "website": "https://www.teckinfo.com/", "rating": 4.6, "review_count": "", "latitude": 28.566004099999997, "longitude": 77.187579, "maps_url": "https://www.google.com/maps/place/?q=place_id:0x390d165555555555:0xf57c20f7d07d8fd1"}, {"place_id": "0x390ce3a1fa7275f1:0x2c792339bc369536", "name": "Ezeetech Solutions", "category": "Software company", "street": "149-A, 1st Floor", "city": "Baba House Complex", "phone": "01149901562", "website": "https://ezeetechonline.com/", "rating": 4.9, "review_count": "", "latitude": 28.576534199999998, "longitude": 77.26283029999999, "maps_url": "https://www.google.com/maps/place/?q=place_id:0x390ce3a1fa7275f1:0x2c792339bc369536"}, {"place_id": "0x390ce38e774eb0bf:0x2f5ed7313a2111d2", "name": "INSTAGEEKS SOFTWARE PRIVATE LIMITED - Certified Tally Partner", "category": "Software company", "street": "H-187/4 1st Floor", "city": "Kilokri, Maharani Bagh, Sunlight Colony", "phone": "09582510996", "website": "https://instageeks.in/", "rating": 4.9, "review_count": "", "latitude": 28.5769919, "longitude": 77.26242169999999, "maps_url": "https://www.google.com/maps/place/?q=place_id:0x390ce38e774eb0bf:0x2f5ed7313a2111d2"}, {"place_id": "0x390ce310ddbe6011:0x29e7c76ca87ea495", "name": "DigiTecholic Private Limited", "category": "Software company", "street": "1st Floor", "city": "H-11", "phone": "07700840888", "website": "https://www.digitecholic.com/", "rating": 5, "review_count": "", "latitude": 28.5713112, "longitude": 77.2219863, "maps_url": "https://www.google.com/maps/place/?q=place_id:0x390ce310ddbe6011:0x29e7c76ca87ea495"}, {"place_id": "0x390ce3a2021e9897:0x28bf52d36a7d0c19", "name": "It Softtech - Website Designing and Development Company in Delhi, India", "category": "Internet marketing service", "street": "149, Ring Rd", "city": "opp. Maharani Bagh", "phone": "09810056177", "website": "", "rating": 5, "review_count": "", "latitude": 28.5763395, "longitude": 77.2640869, "maps_url": "https://www.google.com/maps/place/?q=place_id:0x390ce3a2021e9897:0x28bf52d36a7d0c19"}, {"place_id": "0x2a72b8b69d7b6493:0x11251466d4d34cac", "name": "WebZonal IT Company", "category": "Website designer", "street": "Wz-258/2-3, D Block Rd", "city": "Khazan Basti, Nangal Raya, Janakpuri", "phone": "09811170903", "website": "http://webzonal.com/", "rating": 5, "review_count": "", "latitude": 28.6122102, "longitude": 77.11159549999999, "maps_url": "https://www.google.com/maps/place/?q=place_id:0x2a72b8b69d7b6493:0x11251466d4d34cac"}, {"place_id": "0x390ce307bcb22a5d:0x9ccc7b5165fafc25", "name": "EDGISS IT SERVICES INC.", "category": "Software company", "street": "40, Jangpura Rd", "city": "Bhogal", "phone": "07982001184", "website": "https://www.edgiss.in/", "rating": 5, "review_count": "", "latitude": 28.582393699999997, "longitude": 77.24992309999999, "maps_url": "https://www.google.com/maps/place/?q=place_id:0x390ce307bcb22a5d:0x9ccc7b5165fafc25"}, {"place_id": "0x390ce28db326509f:0xb310907f845bc3ee", "name": "Dauphin Travel Marketing Pvt. Ltd.", "category": "Corporate office", "street": "Tirupati Plaza", "city": "A-212-C/304, Street No. 1", "phone": "01165545430", "website": "http://www.dtmbazaar.com/about-us.html", "rating": 3.8, "review_count": "", "latitude": 28.585794, "longitude": 77.2137355, "maps_url": "https://www.google.com/maps/place/?q=place_id:0x390ce28db326509f:0xb310907f845bc3ee"}, {"place_id": "0x390ce3d606c913ef:0xd246bd5631eb2cad", "name": "Delvetech", "category": "Software company", "street": "87A/1, 3rd Floor, Opp. Block N-115, G.K-1, Near Moolchand Merto", "city": "Block B, Zamrudpur, Greater Kailash", "phone": "09873895154", "website": "http://www.delvetech.co.in/", "rating": 4.1, "review_count": "", "latitude": 28.5570597, "longitude": 77.2356981, "maps_url": "https://www.google.com/maps/place/?q=place_id:0x390ce3d606c913ef:0xd246bd5631eb2cad"}, {"place_id": "0x390ce26dc4d4ba2d:0x9486a6d620e379f9", "name": "Akal Information Systems Ltd.", "category": "Software company", "street": "Tower J, World Trade Center", "city": "103", "phone": "01146503545", "website": "https://www.akalinfo.com/", "rating": 3.9, "review_count": "", "latitude": 28.567935499999997, "longitude": 77.1923202, "maps_url": "https://www.google.com/maps/place/?q=place_id:0x390ce26dc4d4ba2d:0x9486a6d620e379f9"}, {"place_id": "0x390feda4c4f56aed:0x2277b287e38fc0ec", "name": "Dizivan IT Solutions Pvt Ltd- App Development & Digital Marketing Company", "category": "Software company", "street": "near Metro Station New Ashok Nagar", "city": "Block B, New Ashok Nagar", "phone": "09142092979", "website": "https://dizivan.com/", "rating": 5, "review_count": "", "latitude": 28.5891575, "longitude": 77.3020624, "maps_url": "https://www.google.com/maps/place/?q=place_id:0x390feda4c4f56aed:0x2277b287e38fc0ec"}, {"place_id": "0x390ce3b7c0000001:0x46ddd80ee502d937", "name": "Amtrak Technologies Private Limited", "category": "Computer support and services", "street": "6, Community Centre", "city": "East of Kailash", "phone": "01126448000", "website": "https://amtrak.co.in/", "rating": 4.4, "review_count": "", "latitude": 28.558434899999998, "longitude": 77.2463302, "maps_url": "https://www.google.com/maps/place/?q=place_id:0x390ce3b7c0000001:0x46ddd80ee502d937"}, {"place_id": "0x390ce242f9a4a027:0xb1f2b4656ab9d166", "name": "Metasoft IT Systems Pvt Ltd", "category": "Software company", "street": "South Extension Plaza 2", "city": "401 402, Guneet Kashyap Marg Rd", "phone": "09910975699", "website": "http://www.metasoft.co.in/", "rating": "", "review_count": "", "latitude": 28.5636208, "longitude": 77.2198183, "maps_url": "https://www.google.com/maps/place/?q=place_id:0x390ce242f9a4a027:0xb1f2b4656ab9d166"}, {"place_id": "0x390ce3c8e5555555:0xc908f703f65324ea", "name": "Vinayak Compserve Pvt.Ltd", "category": "Computer service", "street": "220", "city": "Sant Nagar, East of Kailash", "phone": "01126430397", "website": "https://vinayakit.com/", "rating": 3.7, "review_count": "", "latitude": 28.5536721, "longitude": 77.2494229, "maps_url": "https://www.google.com/maps/place/?q=place_id:0x390ce3c8e5555555:0xc908f703f65324ea"}, {"place_id": "0x390ce3932eaaaaab:0xb308d9aae0d93852", "name": "Al Hadaf Technologies\u2013 ERP, CRM, HRM, Hospital, School, Billing Software Development Company in Delhi NCR", "category": "Software company", "street": "96, Gate No-2", "city": "opp. Escort Hospital", "phone": "08586972994", "website": "https://www.alhadaftech.com/", "rating": 4.9, "review_count": "", "latitude": 28.5562397, "longitude": 77.2762099, "maps_url": "https://www.google.com/maps/place/?q=place_id:0x390ce3932eaaaaab:0xb308d9aae0d93852"}, {"place_id": "0x390ce226100110ef:0xe529d399458dbf03", "name": "First IT", "category": "Software company", "street": "S/F 776-A", "city": "Chirag Dilli", "phone": "", "website": "https://www.firstit.in/", "rating": 5, "review_count": "", "latitude": 28.5376318, "longitude": 77.2282863, "maps_url": "https://www.google.com/maps/place/?q=place_id:0x390ce226100110ef:0xe529d399458dbf03"}, {"place_id": "0x390ce3cdb2e04b7f:0x43ae7ffa83f63a5f", "name": "GIBS (Global IT Business Solutions)", "category": "Computer support and services", "street": "15A Basement", "city": "Golf Apartments", "phone": "09811226600", "website": "https://gibsit.com/", "rating": 4.9, "review_count": "", "latitude": 28.5991413, "longitude": 77.2288398, "maps_url": "https://www.google.com/maps/place/?q=place_id:0x390ce3cdb2e04b7f:0x43ae7ffa83f63a5f"}, {"place_id": "0x390ce3cfe91504eb:0x55346c5c499223d7", "name": "CCS Computers Private Limited", "category": "Computer support and services", "street": "2nd-3rd Floor Skipper House", "city": "Nehru Place", "phone": "01126463959", "website": "http://www.ccscomputers.co.in/", "rating": 4, "review_count": "", "latitude": 28.550090599999997, "longitude": 77.2537834, "maps_url": "https://www.google.com/maps/place/?q=place_id:0x390ce3cfe91504eb:0x55346c5c499223d7"}, {"place_id": "0x390ce30f4c4ed777:0x3a7c5e032ce51ce5", "name": "Appextech Software Solutions", "category": "Software company", "street": "Second Floor", "city": "Mohan Cooperative Industrial Estate", "phone": "09911432451", "website": "https://www.appextech.com/", "rating": 4.9, "review_count": "", "latitude": 28.502260099999997, "longitude": 77.28519, "maps_url": "https://www.google.com/maps/place/?q=place_id:0x390ce30f4c4ed777:0x3a7c5e032ce51ce5"}, {"place_id": "0x390ce370b849e701:0xf64d1240698480f2", "name": "Business Innovation Magazine | Best Global Business Magazine.", "category": "Media company", "street": "C-3/213", "city": "Lodi Colony", "phone": "", "website": "https://businessinnovationmagazine.com/", "rating": 4.8, "review_count": "", "latitude": 28.584767, "longitude": 77.218617, "maps_url": "https://www.google.com/maps/place/?q=place_id:0x390ce370b849e701:0xf64d1240698480f2"}, {"place_id": "0x390ce45bcd61048f:0x5f6a5602f4155df7", "name": "JK Technosoft Limited", "category": "Software company", "street": "F", "city": "3", "phone": "01204606300", "website": "https://jktech.com/", "rating": 4.2, "review_count": "", "latitude": 28.5802509, "longitude": 77.31793329999999, "maps_url": "https://www.google.com/maps/place/?q=place_id:0x390ce45bcd61048f:0x5f6a5602f4155df7"}, {"place_id": "0x390ce25e35e99b33:0xf443abe69b4e8fcc", "name": "Synapse Valuetech Private Limited", "category": "Software company", "street": "Lower Ground Floor", "city": "221", "phone": "01146628882", "website": "https://www.synapsevaluetech.com/", "rating": 4.3, "review_count": "", "latitude": 28.558165, "longitude": 77.2592385, "maps_url": "https://www.google.com/maps/place/?q=place_id:0x390ce25e35e99b33:0xf443abe69b4e8fcc"}, {"place_id": "0x390ce3db460cee5f:0x47a6e8d4aa56a40f", "name": "Injoria Technologies: Website, Custome Software, Mobile Apps Development company", "category": "Computer support and services", "street": "Second Floor", "city": "Pandav Nagar Complex", "phone": "09911177045", "website": "", "rating": 4.5, "review_count": "", "latitude": 28.6215884, "longitude": 77.2842872, "maps_url": "https://www.google.com/maps/place/?q=place_id:0x390ce3db460cee5f:0x47a6e8d4aa56a40f"}, {"place_id": "0x390cfd35391deb71:0xdbdd1388c7dc51b6", "name": "Jak Software Pvt Ltd", "category": "Software company", "street": "52 Janpath", "city": "New Delhi, Delhi 110001", "phone": "07827249056", "website": "http://www.jaksoftware.co.in/", "rating": 4.4, "review_count": "", "latitude": 28.627537999999998, "longitude": 77.21878989999999, "maps_url": "https://www.google.com/maps/place/?q=place_id:0x390cfd35391deb71:0xdbdd1388c7dc51b6"}, {"place_id": "0x390ce25ebe73cb59:0x10c38414ead34923", "name": "Apptians", "category": "Software company", "street": "1473", "city": "South Extension I, Wazir Nagar", "phone": "07042202435", "website": "https://apptians.com/", "rating": 4.9, "review_count": "", "latitude": 28.5710859, "longitude": 77.22483319999999, "maps_url": "https://www.google.com/maps/place/?q=place_id:0x390ce25ebe73cb59:0x10c38414ead34923"}, {"place_id": "0x390ce25c9d3321e7:0xe8ed876a155622cf", "name": "Corporate Professionals", "category": "Legal services", "street": "D", "city": "28", "phone": "01140622200", "website": "http://www.corporateprofessionals.com/", "rating": 4.4, "review_count": "", "latitude": 28.572223299999997, "longitude": 77.2203427, "maps_url": "https://www.google.com/maps/place/?q=place_id:0x390ce25c9d3321e7:0xe8ed876a155622cf"}, {"place_id": "0x390ce32f9d887bb3:0xbf4a979b5e75fb57", "name": "360Pano - Virtual Reality Company", "category": "Corporate office", "street": "Zen Coworks", "city": "C 585", "phone": "", "website": "https://www.360pano.in/", "rating": 5, "review_count": "", "latitude": 28.5676565, "longitude": 77.2279933, "maps_url": "https://www.google.com/maps/place/?q=place_id:0x390ce32f9d887bb3:0xbf4a979b5e75fb57"}, {"place_id": "0x390ce395b9b5b411:0x9057c3ba07156393", "name": "IntelliSmart Infrastructure Pvt. Ltd.", "category": "Corporate office", "street": "First Floor", "city": "Lodhi Rd", "phone": "01244710330", "website": "https://intellismartinfra.in/", "rating": 4.2, "review_count": "", "latitude": 28.586567, "longitude": 77.2307502, "maps_url": "https://www.google.com/maps/place/?q=place_id:0x390ce395b9b5b411:0x9057c3ba07156393"}, {"place_id": "0xd1516b679f60d2f:0x9458c47d907b59a8", "name": "MarkTech Company", "category": "Marketing agency", "street": "INA, Laxmi Bai Nagar", "city": "New Delhi, Delhi 110023", "phone": "08527880385", "website": "https://markteches.com/", "rating": 3.9, "review_count": "", "latitude": 28.5754463, "longitude": 77.2077127, "maps_url": "https://www.google.com/maps/place/?q=place_id:0xd1516b679f60d2f:0x9458c47d907b59a8"}, {"place_id": "0x390ce25eed6d7889:0x3cf712ee73646f8f", "name": "Corporate Professionals Capital Private Limited", "category": "Consultant", "street": "D38", "city": "South Extension I, Block D", "phone": "", "website": "http://www.corporatevaluations.in/", "rating": 4.3, "review_count": "", "latitude": 28.572256199999998, "longitude": 77.22110529999999, "maps_url": "https://www.google.com/maps/place/?q=place_id:0x390ce25eed6d7889:0x3cf712ee73646f8f"}, {"place_id": "0x390ce293a1d8d7cf:0xceb3a334eb476e7", "name": "Combine Company", "category": "Educational consultant", "street": "35 A, Prithvi Raj Road", "city": "New Delhi, Delhi 110003", "phone": "09810111169", "website": "https://bestfituniversities.com/", "rating": 4.4, "review_count": "", "latitude": 28.592962699999998, "longitude": 77.21440319999999, "maps_url": "https://www.google.com/maps/place/?q=place_id:0x390ce293a1d8d7cf:0xceb3a334eb476e7"}, {"place_id": "0x390ce28b0b6f3a3d:0xb890f21f273aad31", "name": "BHASKAR CYBER CAFE", "category": "Internet cafe", "street": "H6J8+HV7", "city": "NEAR KHALSA SCHOOL", "phone": "09250099435", "website": "", "rating": 4.5, "review_count": "", "latitude": 28.581423299999997, "longitude": 77.2171654, "maps_url": "https://www.google.com/maps/place/?q=place_id:0x390ce28b0b6f3a3d:0xb890f21f273aad31"}, {"place_id": "0x390ce23eeab015ab:0x92d6a7e8dbc46e1a", "name": "Odyssey Website Development Company", "category": "Website designer", "street": "B-59", "city": "Block B, Soami Nagar South, Soami Nagar", "phone": "09654486464", "website": "http://odysseyin.com/?utm_source=GMB&utm_medium=Organic&utm_term=Odyssey&utm_content=Listing&utm_campaign=GMB1", "rating": 3.6, "review_count": "", "latitude": 28.541823599999997, "longitude": 77.2262008, "maps_url": "https://www.google.com/maps/place/?q=place_id:0x390ce23eeab015ab:0x92d6a7e8dbc46e1a"}, {"place_id": "0x390cfd355ca0fea9:0x1f2be0f1ef6dbdcf", "name": "Vayam Technologies Ltd.", "category": "Corporate office", "street": "Thapar House", "city": "124, Janpath Ln", "phone": "01147101200", "website": "https://www.vayamtech.com/", "rating": 3.8, "review_count": "", "latitude": 28.624508, "longitude": 77.21805499999999, "maps_url": "https://www.google.com/maps/place/?q=place_id:0x390cfd355ca0fea9:0x1f2be0f1ef6dbdcf"}, {"place_id": "0x390ce36a7e34fe59:0x1acced1d65a73707", "name": "i-softinc - Mobile App Development Company in Delhi", "category": "Software company", "street": "165 3rd Floor", "city": "Sarai Jullena, New Friends Colony", "phone": "08929570664", "website": "https://i-softinc.com/", "rating": 5, "review_count": "", "latitude": 28.5600456, "longitude": 77.2717803, "maps_url": "https://www.google.com/maps/place/?q=place_id:0x390ce36a7e34fe59:0x1acced1d65a73707"}, {"place_id": "0x390ce459e2a3a42f:0xdda2e042090c2c72", "name": "InfiCare Technologies Pvt. Ltd", "category": "Software company", "street": "D-92 Second/Third floor", "city": "Sector 2", "phone": "09711265591", "website": "http://www.inficaretech.com/", "rating": 3.9, "review_count": "", "latitude": 28.582936099999998, "longitude": 77.3175146, "maps_url": "https://www.google.com/maps/place/?q=place_id:0x390ce459e2a3a42f:0xdda2e042090c2c72"}, {"place_id": "0x390ce25f6e3d2b9d:0x57f3a0fc9725f59b", "name": "YATRA POINT TOURISM COMPANY INDIA", "category": "Travel agency", "street": "OFFICE NO-7", "city": "BULDING NO N-1, LGF", "phone": "08860016982", "website": "", "rating": 4.9, "review_count": "", "latitude": 28.574078, "longitude": 77.219089, "maps_url": "https://www.google.com/maps/place/?q=place_id:0x390ce25f6e3d2b9d:0x57f3a0fc9725f59b"}, {"place_id": "0x390ce36ef6889557:0x4e15c8277f815abd", "name": "Adikesh Consultancy Services - Real Estate & Liasoning", "category": "Real estate consultant", "street": "840, 2nd Floor", "city": "Civil Colony, Chirag Dilli", "phone": "09810083830", "website": "https://adikeshconsultancyservices.com/", "rating": 5, "review_count": "", "latitude": 28.5845399, "longitude": 77.2165184, "maps_url": "https://www.google.com/maps/place/?q=place_id:0x390ce36ef6889557:0x4e15c8277f815abd"}, {"place_id": "0x390ce39a24b89521:0x6e886c5e28fd05a9", "name": "Cloude Data Delhi | Best Cloud Service Provider company in India", "category": "Web hosting company", "street": "First Floor", "city": "A 212, Okhla Phase 3 Rd", "phone": "08882353612", "website": "https://cloudedata.com/", "rating": 4.4, "review_count": "", "latitude": 28.548515, "longitude": 77.2712834, "maps_url": "https://www.google.com/maps/place/?q=place_id:0x390ce39a24b89521:0x6e886c5e28fd05a9"}, {"place_id": "0xa6de249aeb27f9db:0xf6c735fea8f1e91b", "name": "Renderkix", "category": "Animation Studio", "street": "C-3, 383, Lodhi Rd", "city": "Block B 22, Complex, BK Dutt Colony", "phone": "", "website": "https://renderkix.artstation.com/", "rating": 5, "review_count": "", "latitude": 28.5811082, "longitude": 77.2208095, "maps_url": "https://www.google.com/maps/place/?q=place_id:0xa6de249aeb27f9db:0xf6c735fea8f1e91b"}, {"place_id": "0x390ce2f4552762b9:0xa1b3f1dafa790d1", "name": "Exquisite India Tour", "category": "Travel agency", "street": "Khanna Market", "city": "Lodhi Road", "phone": "09999292007", "website": "https://exquisiteindiatour.com/", "rating": 4.4, "review_count": "", "latitude": 28.580714999999998, "longitude": 77.220576, "maps_url": "https://www.google.com/maps/place/?q=place_id:0x390ce2f4552762b9:0xa1b3f1dafa790d1"}, {"place_id": "0x390ce39a3aaaaaef:0xca57821ce7ee09b0", "name": "Smart IT Technologies", "category": "Website designer", "street": "Saroj Sadan", "city": "100", "phone": "08840274824", "website": "https://smartittechnologies.com/", "rating": 5, "review_count": "", "latitude": 28.5697218, "longitude": 77.2680354, "maps_url": "https://www.google.com/maps/place/?q=place_id:0x390ce39a3aaaaaef:0xca57821ce7ee09b0"}, {"place_id": "0x390ce28b6d128acf:0xfaa9ea80413759c4", "name": "Sant Aniol India", "category": "Corporate office", "street": "81 C", "city": "Block C2, BK Dutt Colony", "phone": "", "website": "", "rating": 5, "review_count": "", "latitude": 28.581732, "longitude": 77.21546699999999, "maps_url": "https://www.google.com/maps/place/?q=place_id:0x390ce28b6d128acf:0xfaa9ea80413759c4"}, {"place_id": "0x390ce3fa7b53c451:0x4f251c67b98bcfa4", "name": "HRDS INDIA", "category": "Non-governmental organization", "street": "HRDS INDIA | Corporate Office", "city": "J11, Jor Bagh Rd", "phone": "", "website": "https://hrdsindia.org/", "rating": 4.5, "review_count": "", "latitude": 28.585306199999998, "longitude": 77.216651, "maps_url": "https://www.google.com/maps/place/?q=place_id:0x390ce3fa7b53c451:0x4f251c67b98bcfa4"}, {"place_id": "0x390cfd3237f2f5df:0x6cdb60c44fa89d02", "name": "Agriculture Insurance Company of India Limited", "category": "Corporate office", "street": "Office Block 1", "city": "Plate B & C, 5th Floor", "phone": "01124604444", "website": "https://www.aicofindia.com/", "rating": 4.3, "review_count": "", "latitude": 28.5697726, "longitude": 77.2126467, "maps_url": "https://www.google.com/maps/place/?q=place_id:0x390cfd3237f2f5df:0x6cdb60c44fa89d02"}, {"place_id": "0x390ce36c1d98aa3d:0xb5d6daeb4bfefb36", "name": "Computer \ufe0f& \ufe0f \ufe0f \ufe0f repairing networking", "category": "Computer service", "street": "Aliganj, Lodhi Rd", "city": "BK Dutt Colony", "phone": "", "website": "", "rating": 3, "review_count": "", "latitude": 28.5815651, "longitude": 77.2183617, "maps_url": "https://www.google.com/maps/place/?q=place_id:0x390ce36c1d98aa3d:0xb5d6daeb4bfefb36"}, {"place_id": "0x390ce2f0da6b0d6d:0x21b99cc61e344b43", "name": "Atelier Clout Media", "category": "Marketing agency", "street": "", "city": "", "phone": "08826925527", "website": "https://www.atelierclout.com/", "rating": 5, "review_count": "", "latitude": 21.0680074, "longitude": 82.7525294, "maps_url": "https://www.google.com/maps/place/?q=place_id:0x390ce2f0da6b0d6d:0x21b99cc61e344b43"}, {"place_id": "0x390ce3b5e9981665:0x6ed3916f90d5be3c", "name": "Netsoft Consulting Services", "category": "Information services", "street": "24, IInd Floor, Community Center, East Of Kailash", "city": "behind Sapna Cinema", "phone": "01145330000", "website": "https://netsoftit.com/contact-us/", "rating": 3.5, "review_count": "", "latitude": 28.5583678, "longitude": 77.24568579999999, "maps_url": "https://www.google.com/maps/place/?q=place_id:0x390ce3b5e9981665:0x6ed3916f90d5be3c"}, {"place_id": "0x390ce2f33b2737cb:0x77221a0b1ac308c9", "name": "Indira Paryavaran Bhawan", "category": "Environment office", "street": "166, Jor Bagh Rd", "city": "Block 17, Lodi Colony", "phone": "", "website": "http://moef.nic.in/", "rating": 4.5, "review_count": "", "latitude": 28.5852872, "longitude": 77.2182411, "maps_url": "https://www.google.com/maps/place/?q=place_id:0x390ce2f33b2737cb:0x77221a0b1ac308c9"}, {"place_id": "0x390ce450280f29cb:0xb1d67b5f14caaf66", "name": "L.B. Bonafide Private Limited", "category": "Cleaning Services", "street": "1513, Fourth Floor Wazir Nagar", "city": "opp. B1 Defence Colony", "phone": "09212241110", "website": "https://www.lbbonafide.com/", "rating": 4.3, "review_count": "", "latitude": 28.568518599999997, "longitude": 77.2253946, "maps_url": "https://www.google.com/maps/place/?q=place_id:0x390ce450280f29cb:0xb1d67b5f14caaf66"}, {"place_id": "0x390ce2f4818a6df7:0xe2f481e0ec5e9d1", "name": "SM Aircon Engineers", "category": "Air conditioning contractor", "street": "113, Khanna Market Rd", "city": "Block 23, Lodhi Road", "phone": "01124643939", "website": "http://www.smaircondition.com/", "rating": 4.5, "review_count": "", "latitude": 28.580127299999997, "longitude": 77.2210879, "maps_url": "https://www.google.com/maps/place/?q=place_id:0x390ce2f4818a6df7:0xe2f481e0ec5e9d1"}, {"place_id": "0x390ce32f7f91b893:0xf7c2be7eb729f502", "name": "Digital marketing Company, website Designing Company ( Logo Designing Company ) ( Online Marketplace )", "category": "Website designer", "street": "120-G", "city": "Hari Nagar Ashram", "phone": "08920138925", "website": "https://royalcruiselimos.com/", "rating": 5, "review_count": "", "latitude": 28.5718902, "longitude": 77.2559809, "maps_url": "https://www.google.com/maps/place/?q=place_id:0x390ce32f7f91b893:0xf7c2be7eb729f502"}, {"place_id": "0x390ce28dd518ce15:0xf4bf6146c82838d7", "name": "Air India Reservation Office", "category": "Airline ticket agency", "street": "Safdarjung Airport", "city": "Sri Aurobindo Marg", "phone": "18602331407", "website": "http://www.airindia.in/", "rating": 3.8, "review_count": "", "latitude": 28.585665199999998, "longitude": 77.2119288, "maps_url": "https://www.google.com/maps/place/?q=place_id:0x390ce28dd518ce15:0xf4bf6146c82838d7"}, {"place_id": "0x390ce3bbdc989cef:0x5ea7ab4823b331b1", "name": "Shaurya capital", "category": "Financial consultant", "street": "29, Lodhi Rd", "city": "Main Market, Block 13, Lodi Colony", "phone": "09810107933", "website": "https://shauryacapital.com/", "rating": 3.8, "review_count": "", "latitude": 28.5848019, "longitude": 77.2238888, "maps_url": "https://www.google.com/maps/place/?q=place_id:0x390ce3bbdc989cef:0x5ea7ab4823b331b1"}, {"place_id": "0x390d1d8baaaaaaab:0x81e02841f207d0f0", "name": "S SONY & COMPANY PVT. LTD", "category": "Real Estate Builders & Construction Company", "street": "G-4, ANUPAMA BUILDING II FLOOR", "city": "Hauz Khas", "phone": "01135002651", "website": "http://ssony.in/", "rating": 4.9, "review_count": "", "latitude": 28.5510508, "longitude": 77.2048471, "maps_url": "https://www.google.com/maps/place/?q=place_id:0x390d1d8baaaaaaab:0x81e02841f207d0f0"}, {"place_id": "0x390ce15795555555:0x9bb8a801d00d7573", "name": "DreamSoft Infotech - Website Development Company in India", "category": "Software company", "street": "A-75 Third Floor", "city": "A Block, Sector 5", "phone": "01204380622", "website": "https://dreamsoftinfotech.com/", "rating": 3.4, "review_count": "", "latitude": 28.591018899999998, "longitude": 77.32201529999999, "maps_url": "https://www.google.com/maps/place/?q=place_id:0x390ce15795555555:0x9bb8a801d00d7573"}, {"place_id": "0x390ce3fa30cb5c19:0xc2b9c3fe8db1dd54", "name": "KIREN SMART SERVICES", "category": "Software company", "street": "D-196, New", "city": "G/F, Lajpat Nagar I, Lajpat Nagar", "phone": "09873907360", "website": "https://kirensmartservices.com/", "rating": 4.1, "review_count": "", "latitude": 28.5785903, "longitude": 77.2423422, "maps_url": "https://www.google.com/maps/place/?q=place_id:0x390ce3fa30cb5c19:0xc2b9c3fe8db1dd54"}, {"place_id": "0x390ce300bfffffff:0xe1356f6e89808ee9", "name": "Skylark Elevator Company", "category": "Elevator Manufacturer", "street": "208, Defence Colony Flyover", "city": "Block M, Jungpura Extension, Market", "phone": "09953667500", "website": "https://www.skylarkelevator.com/", "rating": 2.6, "review_count": "", "latitude": 28.5801894, "longitude": 77.238514, "maps_url": "https://www.google.com/maps/place/?q=place_id:0x390ce300bfffffff:0xe1356f6e89808ee9"}, {"place_id": "0x390ce2f4f6eabd89:0x99ba42418e29e7cd", "name": "Ambey Goods Transport Company", "category": "Transportation service", "street": "39, Khanna Market Rd", "city": "BK Dutt Colony", "phone": "", "website": "", "rating": 2, "review_count": "", "latitude": 28.5815938, "longitude": 77.2201309, "maps_url": "https://www.google.com/maps/place/?q=place_id:0x390ce2f4f6eabd89:0x99ba42418e29e7cd"}, {"place_id": "0x390ce3083df185df:0xcff0bc07ace98fca", "name": "Dwitty & Company", "category": "Website designer", "street": "B-109", "city": "Block D, Jangpura B", "phone": "07011273521", "website": "", "rating": 5, "review_count": "", "latitude": 28.581945599999997, "longitude": 77.2534653, "maps_url": "https://www.google.com/maps/place/?q=place_id:0x390ce3083df185df:0xcff0bc07ace98fca"}, {"place_id": "0x390ce39d936b3e73:0x7322566a7104ffd3", "name": "Utsao - Corporate & Business Gifts", "category": "Corporate gift supplier", "street": "S/F1", "city": "Bhaskar Bhavan", "phone": "09289738874", "website": "https://utsao.com/", "rating": 4.7, "review_count": "", "latitude": 28.570666, "longitude": 77.2222604, "maps_url": "https://www.google.com/maps/place/?q=place_id:0x390ce39d936b3e73:0x7322566a7104ffd3"}, {"place_id": "0x390ce3044debc38d:0x2febb17c0d4c76f0", "name": "MAY & CO.", "category": "Beverage Store", "street": "1899-B", "city": "South Extension I, G/F, Kotla Mubarakpur", "phone": "07217834405", "website": "https://mayandco.in/", "rating": 4.3, "review_count": "", "latitude": 28.5716008, "longitude": 77.2217416, "maps_url": "https://www.google.com/maps/place/?q=place_id:0x390ce3044debc38d:0x2febb17c0d4c76f0"}, {"place_id": "0x390ce28b124941c1:0xf23d90c3b9c7c90e", "name": "V.P.A.S.International", "category": "Travel agency", "street": "B-164, Lodhi Rd", "city": "Block B3, BK Dutt Colony", "phone": "09891480070", "website": "https://travelfirstindia.com/", "rating": 4.7, "review_count": "", "latitude": 28.581365299999998, "longitude": 77.2155192, "maps_url": "https://www.google.com/maps/place/?q=place_id:0x390ce28b124941c1:0xf23d90c3b9c7c90e"}, {"place_id": "0x390ce39264475859:0xf85ca8d01ac8ccb1", "name": "Excitel Broadband", "category": "Internet service provider", "street": "No E169/171, Lodhi Rd", "city": "Block G, Police Colony, BK Dutt Colony", "phone": "01169657070", "website": "https://broadband-nearme.excitel.com/excitel-broadband-k-square-infotech-internet-service-provider-bk-dutt-colony-new-delhi-253908/Home?utm_source=locator&utm_medium=googleplaces", "rating": 2, "review_count": "", "latitude": 28.5809307, "longitude": 77.2147985, "maps_url": "https://www.google.com/maps/place/?q=place_id:0x390ce39264475859:0xf85ca8d01ac8ccb1"}, {"place_id": "0x390ce38584628fa7:0xe60393bef2046cce", "name": "EMKAY TRADING CO.", "category": "Real Estate Builders & Construction Company", "street": "A-46", "city": "South Extension I, Bapu Park, Kotla Mubarakpur", "phone": "", "website": "", "rating": 4.3, "review_count": "", "latitude": 28.5750176, "longitude": 77.2209108, "maps_url": "https://www.google.com/maps/place/?q=place_id:0x390ce38584628fa7:0xe60393bef2046cce"}, {"place_id": "0xaa124b0feff069db:0x74d6e5eed0f014ba", "name": "Radiant Sports and Adventure", "category": "Event management company", "street": "", "city": "", "phone": "07678623771", "website": "https://radiantsna.com/", "rating": 4.9, "review_count": "", "latitude": 21.0680074, "longitude": 82.7525294, "maps_url": "https://www.google.com/maps/place/?q=place_id:0xaa124b0feff069db:0x74d6e5eed0f014ba"}, {"place_id": "0x390ce2f3fe2e7653:0xc26d05a104937f90", "name": "Veer Sarvarkar Park", "category": "Park", "street": "H6MF+H7X", "city": "New", "phone": "", "website": "", "rating": 4.4, "review_count": "", "latitude": 28.5839794, "longitude": 77.2232337, "maps_url": "https://www.google.com/maps/place/?q=place_id:0x390ce2f3fe2e7653:0xc26d05a104937f90"}, {"place_id": "0x390cfd35c8f89657:0xadbc7004661a9c74", "name": "Sterco Digitex Pvt Limited", "category": "Software company", "street": "2nd Floor", "city": "72, Janpath Rd", "phone": "01204857333", "website": "https://www.stercodigitex.com/", "rating": 4.1, "review_count": "", "latitude": 28.628133, "longitude": 77.21985099999999, "maps_url": "https://www.google.com/maps/place/?q=place_id:0x390cfd35c8f89657:0xadbc7004661a9c74"}, {"place_id": "0x390ce35071aa88f7:0x6b1c5c0fde4cac28", "name": "CAAQ Consultancy - Company Registration & Compliance Consultant Delhi", "category": "Accounting firm", "street": "S/F", "city": "Bhaskar Bhavan", "phone": "", "website": "https://caaq.in/", "rating": 4.1, "review_count": "", "latitude": 28.570666, "longitude": 77.2222604, "maps_url": "https://www.google.com/maps/place/?q=place_id:0x390ce35071aa88f7:0x6b1c5c0fde4cac28"}, {"place_id": "0x390ce3c87abeddd9:0xa68500e49b658474", "name": "IT Magnum Opus", "category": "Computer support and services", "street": "P-31", "city": "Sriniwaspuri Extn, Block Q, Private Colony, Sri Niwaspuri", "phone": "", "website": "https://www.itmo.in/", "rating": 4.8, "review_count": "", "latitude": 28.5626805, "longitude": 77.2597913, "maps_url": "https://www.google.com/maps/place/?q=place_id:0x390ce3c87abeddd9:0xa68500e49b658474"}, {"place_id": "0x3bc2becdc35b6937:0x515ac559c349eee3", "name": "Thinkitive Technologies Private Limited", "category": "Software company", "street": "4th Floor", "city": "ABIL IMPERIAL COMMERCIAL SPACES", "phone": "08956467327", "website": "https://www.thinkitive.com/", "rating": 3.9, "review_count": "", "latitude": 18.5563888, "longitude": 73.7729748, "maps_url": "https://www.google.com/maps/place/?q=place_id:0x3bc2becdc35b6937:0x515ac559c349eee3"}, {"place_id": "0x3be7c21b5901e181:0x7fe794585addc1f6", "name": "Smartinfologiks - Software Development Company in India | IT Solutions", "category": "Software company", "street": "Hilton Center", "city": "514", "phone": "07400064691", "website": "https://www.smartinfologiks.com/", "rating": 4.6, "review_count": "", "latitude": 19.0139592, "longitude": 73.0382705, "maps_url": "https://www.google.com/maps/place/?q=place_id:0x3be7c21b5901e181:0x7fe794585addc1f6"}, {"place_id": "0x390ce25a6e900ce1:0x8196feb2ca463cb6", "name": "Whorv", "category": "Website designer", "street": "B -30", "city": "Block B, Defence Colony", "phone": "09811070747", "website": "http://whorv.com/", "rating": 4.9, "review_count": "", "latitude": 28.5708845, "longitude": 77.2282142, "maps_url": "https://www.google.com/maps/place/?q=place_id:0x390ce25a6e900ce1:0x8196feb2ca463cb6"}, {"place_id": "0x390ce2506aabd7cb:0x2573f2ecbb8e812b", "name": "Zen Co-Works Business Centre", "category": "Business center", "street": "C585, Chakrabarti Vithi Rd", "city": "Block C, Defence Colony", "phone": "01149887777", "website": "http://zencoworks.com/", "rating": 4.3, "review_count": "", "latitude": 28.5677122, "longitude": 77.2280076, "maps_url": "https://www.google.com/maps/place/?q=place_id:0x390ce2506aabd7cb:0x2573f2ecbb8e812b"}, {"place_id": "0x390ce25daac5c6a7:0x62251f1aeff47fc4", "name": "Nitin Mittal & Co.", "category": "Chartered accountant", "street": "C 21b", "city": "South Extension I, Block C", "phone": "09810147514", "website": "http://nmcindia.net/", "rating": 4.7, "review_count": "", "latitude": 28.572980899999997, "longitude": 77.2193036, "maps_url": "https://www.google.com/maps/place/?q=place_id:0x390ce25daac5c6a7:0x62251f1aeff47fc4"}, {"place_id": "0x390ce338ee036f5d:0xb1ebb7e9f0ddfaec", "name": "Lenskart.com at Khanna Market, New Delhi (First Lens Replacement Free)", "category": "Optician", "street": "Shop No", "city": "93, Khanna Market Rd", "phone": "08929443816", "website": "https://www.lenskart.com/stores/lenskart-com-Khanna-Market-Lodhi-Colony-New-Delhi-115083/Home", "rating": 4.9, "review_count": "", "latitude": 28.5845086, "longitude": 77.2203717, "maps_url": "https://www.google.com/maps/place/?q=place_id:0x390ce338ee036f5d:0xb1ebb7e9f0ddfaec"}, {"place_id": "0x390ce25afce1a1eb:0x112666ea8904950d", "name": "Jyoti Group", "category": "Foreign Trade Consultant", "street": "B-79", "city": "Block B, Defence Colony", "phone": "01124337662", "website": "http://www.jtcindia.com/", "rating": 3.8, "review_count": "", "latitude": 28.5692663, "longitude": 77.2263239, "maps_url": "https://www.google.com/maps/place/?q=place_id:0x390ce25afce1a1eb:0x112666ea8904950d"}, {"place_id": "0x390ce2f2a9f56591:0x8746c3ee1b5b3e3d", "name": "Armed Forces Welfare Organisation (AFWO)", "category": "Housing cooperative", "street": "J-23, Jor Bagh Rd", "city": "Block J2, BK Dutt Colony", "phone": "09643312033", "website": "http://www.afwo.in/", "rating": 4.6, "review_count": "", "latitude": 28.5853376, "longitude": 77.21707099999999, "maps_url": "https://www.google.com/maps/place/?q=place_id:0x390ce2f2a9f56591:0x8746c3ee1b5b3e3d"}, {"place_id": "0x390ce3af4ea577b7:0xfb5ac140902e998c", "name": "AGARWAL ANIL & COMPANY (TaxDarzee)", "category": "Chartered accountant", "street": "L", "city": "2", "phone": "09560004881", "website": "http://www.aacindia.in/", "rating": 5, "review_count": "", "latitude": 28.5671771, "longitude": 77.2222069, "maps_url": "https://www.google.com/maps/place/?q=place_id:0x390ce3af4ea577b7:0xfb5ac140902e998c"}, {"place_id": "0x390ce38e861c4db9:0x18b213538bbf2041", "name": "Corporate Gift by What A Shop - Corporate Gift Company in Delhi | Pharma & Events gift | Employee Joining Kit | Diwali Gifts", "category": "Corporate gift supplier", "street": "826", "city": "South Extension I, Arjun Nagar, Kotla Mubarakpur", "phone": "09990406003", "website": "https://www.whatashop.in/", "rating": 5, "review_count": "", "latitude": 28.5730045, "longitude": 77.2274676, "maps_url": "https://www.google.com/maps/place/?q=place_id:0x390ce38e861c4db9:0x18b213538bbf2041"}, {"place_id": "0x390ce31f8414d201:0xd94fa7c34d7873a2", "name": "Bhardwaj And Company (Steel Shuttering and Scaffolding Material Supplier)", "category": "Construction equipment supplier", "street": "85-A , Ground Floor", "city": "Bhardwaj Plaza", "phone": "09811109106", "website": "http://bhardwajandcompany.com/", "rating": 4.9, "review_count": "", "latitude": 28.557116399999998, "longitude": 77.23596979999999, "maps_url": "https://www.google.com/maps/place/?q=place_id:0x390ce31f8414d201:0xd94fa7c34d7873a2"}, {"place_id": "0x390ce35071aa88f7:0x6b1c5c0fde4cac28", "name": "CAAQ Consultancy - Company Registration & Compliance Consultant Delhi", "category": "Accounting firm", "street": "S/F", "city": "Bhaskar Bhavan", "phone": "", "website": "https://caaq.in/", "rating": 4.1, "review_count": "", "latitude": 28.570666, "longitude": 77.2222604, "maps_url": "https://www.google.com/maps/place/?q=place_id:0x390ce35071aa88f7:0x6b1c5c0fde4cac28"}, {"place_id": "0x390ce3c87abeddd9:0xa68500e49b658474", "name": "IT Magnum Opus", "category": "Computer support and services", "street": "P-31", "city": "Sriniwaspuri Extn, Block Q, Private Colony, Sri Niwaspuri", "phone": "", "website": "https://www.itmo.in/", "rating": 4.8, "review_count": "", "latitude": 28.5626805, "longitude": 77.2597913, "maps_url": "https://www.google.com/maps/place/?q=place_id:0x390ce3c87abeddd9:0xa68500e49b658474"}, {"place_id": "0x390ce25daac5c6a7:0x62251f1aeff47fc4", "name": "Nitin Mittal & Co.", "category": "Chartered accountant", "street": "C 21b", "city": "South Extension I, Block C", "phone": "09810147514", "website": "http://nmcindia.net/", "rating": 4.7, "review_count": "", "latitude": 28.572980899999997, "longitude": 77.2193036, "maps_url": "https://www.google.com/maps/place/?q=place_id:0x390ce25daac5c6a7:0x62251f1aeff47fc4"}, {"place_id": "0x390ce25afce1a1eb:0x112666ea8904950d", "name": "Jyoti Group", "category": "Foreign Trade Consultant", "street": "B-79", "city": "Block B, Defence Colony", "phone": "01124337662", "website": "http://www.jtcindia.com/", "rating": 3.8, "review_count": "", "latitude": 28.5692663, "longitude": 77.2263239, "maps_url": "https://www.google.com/maps/place/?q=place_id:0x390ce25afce1a1eb:0x112666ea8904950d"}, {"place_id": "0x390ce2506aabd7cb:0x2573f2ecbb8e812b", "name": "Zen Co-Works Business Centre", "category": "Business center", "street": "C585, Chakrabarti Vithi Rd", "city": "Block C, Defence Colony", "phone": "01149887777", "website": "http://zencoworks.com/", "rating": 4.3, "review_count": "", "latitude": 28.5677122, "longitude": 77.2280076, "maps_url": "https://www.google.com/maps/place/?q=place_id:0x390ce2506aabd7cb:0x2573f2ecbb8e812b"}, {"place_id": "0x390ce338ee036f5d:0xb1ebb7e9f0ddfaec", "name": "Lenskart.com at Khanna Market, New Delhi (First Lens Replacement Free)", "category": "Optician", "street": "Shop No", "city": "93, Khanna Market Rd", "phone": "08929443816", "website": "https://www.lenskart.com/stores/lenskart-com-Khanna-Market-Lodhi-Colony-New-Delhi-115083/Home", "rating": 4.9, "review_count": "", "latitude": 28.5845086, "longitude": 77.2203717, "maps_url": "https://www.google.com/maps/place/?q=place_id:0x390ce338ee036f5d:0xb1ebb7e9f0ddfaec"}, {"place_id": "0x390ce3af4ea577b7:0xfb5ac140902e998c", "name": "AGARWAL ANIL & COMPANY (TaxDarzee)", "category": "Chartered accountant", "street": "L", "city": "2", "phone": "09560004881", "website": "http://www.aacindia.in/", "rating": 5, "review_count": "", "latitude": 28.5671771, "longitude": 77.2222069, "maps_url": "https://www.google.com/maps/place/?q=place_id:0x390ce3af4ea577b7:0xfb5ac140902e998c"}, {"place_id": "0x390ce2f2a9f56591:0x8746c3ee1b5b3e3d", "name": "Armed Forces Welfare Organisation (AFWO)", "category": "Housing cooperative", "street": "J-23, Jor Bagh Rd", "city": "Block J2, BK Dutt Colony", "phone": "09643312033", "website": "http://www.afwo.in/", "rating": 4.6, "review_count": "", "latitude": 28.5853376, "longitude": 77.21707099999999, "maps_url": "https://www.google.com/maps/place/?q=place_id:0x390ce2f2a9f56591:0x8746c3ee1b5b3e3d"}, {"place_id": "0x390ce38e861c4db9:0x18b213538bbf2041", "name": "Corporate Gift by What A Shop - Corporate Gift Company in Delhi | Pharma & Events gift | Employee Joining Kit | Diwali Gifts", "category": "Corporate gift supplier", "street": "826", "city": "South Extension I, Arjun Nagar, Kotla Mubarakpur", "phone": "09990406003", "website": "https://www.whatashop.in/", "rating": 5, "review_count": "", "latitude": 28.5730045, "longitude": 77.2274676, "maps_url": "https://www.google.com/maps/place/?q=place_id:0x390ce38e861c4db9:0x18b213538bbf2041"}, {"place_id": "0x390ce31f8414d201:0xd94fa7c34d7873a2", "name": "Bhardwaj And Company (Steel Shuttering and Scaffolding Material Supplier)", "category": "Construction equipment supplier", "street": "85-A , Ground Floor", "city": "Bhardwaj Plaza", "phone": "09811109106", "website": "http://bhardwajandcompany.com/", "rating": 4.9, "review_count": "", "latitude": 28.557116399999998, "longitude": 77.23596979999999, "maps_url": "https://www.google.com/maps/place/?q=place_id:0x390ce31f8414d201:0xd94fa7c34d7873a2"}, {"place_id": "0x390ce2f1722cf835:0x985eecb6b5fbdccc", "name": "Bombay Shirt Company - Custom Shirts, T-Shirts & Clothing", "category": "Clothing store", "street": "42A", "city": "Khan Market, Rabindra Nagar", "phone": "07997715655", "website": "https://www.bombayshirts.com/?utm_source=google&utm_medium=google-my-business", "rating": 4.1, "review_count": "", "latitude": 28.6009073, "longitude": 77.2274046, "maps_url": "https://www.google.com/maps/place/?q=place_id:0x390ce2f1722cf835:0x985eecb6b5fbdccc"}, {"place_id": "0x390ce3343701a651:0x299b1351475892b", "name": "The Dance House Projekt", "category": "Dance company", "street": "14-820", "city": "Block 14, Lodi Colony", "phone": "", "website": "", "rating": 4.8, "review_count": "", "latitude": 28.5843892, "longitude": 77.2210152, "maps_url": "https://www.google.com/maps/place/?q=place_id:0x390ce3343701a651:0x299b1351475892b"}, {"place_id": "0x390ce383cbe684f9:0x6df322cd06395a6c", "name": "Level Up The Photo Video Company | Corporate & Healthcare Video Production | Photography & Live Streaming Services", "category": "Video production service", "street": "C - 546", "city": "Block C, Defence Colony", "phone": "09718979770", "website": "http://www.leveluppvc.com/", "rating": 5, "review_count": "", "latitude": 28.5670589, "longitude": 77.23005069999999, "maps_url": "https://www.google.com/maps/place/?q=place_id:0x390ce383cbe684f9:0x6df322cd06395a6c"}, {"place_id": "0x390ce3ca02c212bf:0x831590e44471eedc", "name": "SANKET GARG & COMPANY", "category": "Accounting firm", "street": "No. 10", "city": "216-B/1 Basement Gautam Nagar", "phone": "09810577298", "website": "http://casanketgargindia.co.in/", "rating": 5, "review_count": "", "latitude": 28.5607808, "longitude": 77.21212799999999, "maps_url": "https://www.google.com/maps/place/?q=place_id:0x390ce3ca02c212bf:0x831590e44471eedc"}, {"place_id": "0x390ce25a6e900ce1:0x8196feb2ca463cb6", "name": "Whorv", "category": "Website designer", "street": "B -30", "city": "Block B, Defence Colony", "phone": "09811070747", "website": "http://whorv.com/", "rating": 4.9, "review_count": "", "latitude": 28.5708845, "longitude": 77.2282142, "maps_url": "https://www.google.com/maps/place/?q=place_id:0x390ce25a6e900ce1:0x8196feb2ca463cb6"}, {"place_id": "0x44410b48618716b:0x7d0c5e38d0253ca9", "name": "WENGS SOLUTIONS LLP", "category": "Website designer", "street": "", "city": "", "phone": "09999537998", "website": "https://www.wengs.co.in/", "rating": 4.9, "review_count": "", "latitude": 13.4222866, "longitude": 142.1078416, "maps_url": "https://www.google.com/maps/place/?q=place_id:0x44410b48618716b:0x7d0c5e38d0253ca9"}, {"place_id": "0x390ce34e49b627ab:0xf91f8f0ac3105233", "name": "Sunder Watch Company", "category": "Watch store", "street": "Shop No. J-35B, Pushpa", "city": "Central Market, Lajpat Nagar II", "phone": "", "website": "", "rating": 4.9, "review_count": "", "latitude": 28.5690226, "longitude": 77.2436111, "maps_url": "https://www.google.com/maps/place/?q=place_id:0x390ce34e49b627ab:0xf91f8f0ac3105233"}, {"place_id": "0x390ce25cbfa79397:0x46a2dca7ef01e52c", "name": "VAPS & CO.", "category": "Accounting firm", "street": "C-42", "city": "South Extension II, Block C", "phone": "01141645051", "website": "http://vaps.co.in/", "rating": 5, "review_count": "", "latitude": 28.567705999999998, "longitude": 77.22196199999999, "maps_url": "https://www.google.com/maps/place/?q=place_id:0x390ce25cbfa79397:0x46a2dca7ef01e52c"}, {"place_id": "0x390ce2f15079f265:0x521c82a60738d601", "name": "Mittal Tea House", "category": "Tea store", "street": "Shop No", "city": "Block 8", "phone": "09667699111", "website": "", "rating": 4.4, "review_count": "", "latitude": 28.583634, "longitude": 77.223584, "maps_url": "https://www.google.com/maps/place/?q=place_id:0x390ce2f15079f265:0x521c82a60738d601"}, {"place_id": "0x390ce2efec2888ab:0xa2f142e5dcf49c07", "name": "DM Travels indiaTours", "category": "Travel agency", "street": "Lodhi Rd", "city": "Block F2, BK Dutt Colony", "phone": "", "website": "https://dmtravelindiatours.com/", "rating": 5, "review_count": "", "latitude": 28.583149499999998, "longitude": 77.2170498, "maps_url": "https://www.google.com/maps/place/?q=place_id:0x390ce2efec2888ab:0xa2f142e5dcf49c07"}, {"place_id": "0x390ce2f4cf2513d9:0x81160b08afd05934", "name": "Brilliant's Study Point", "category": "Tutoring service", "street": "D-9, Lodhi Rd", "city": "Block D1, BK Dutt Colony", "phone": "", "website": "", "rating": 5, "review_count": "", "latitude": 28.581460399999997, "longitude": 77.2174076, "maps_url": "https://www.google.com/maps/place/?q=place_id:0x390ce2f4cf2513d9:0x81160b08afd05934"}, {"place_id": "0x390ce3f652ec8153:0x19b358d98d88a1a6", "name": "Jagdish Studio", "category": "Photography studio", "street": "91, Khanna Market Rd", "city": "Lodi Colony", "phone": "09810049923", "website": "https://www.instagram.com/jagdishstudio/?hl=en", "rating": 3.9, "review_count": "", "latitude": 28.5845004, "longitude": 77.2203012, "maps_url": "https://www.google.com/maps/place/?q=place_id:0x390ce3f652ec8153:0x19b358d98d88a1a6"}, {"place_id": "0x390ce2678e559c9d:0xe05c2cbe40fc1fb3", "name": "Lall and Sethi", "category": "Law firm", "street": "D - 17", "city": "South Extension II, Block D", "phone": "01142899999", "website": "http://indiaip.com/", "rating": 4.4, "review_count": "", "latitude": 28.5679828, "longitude": 77.2172128, "maps_url": "https://www.google.com/maps/place/?q=place_id:0x390ce2678e559c9d:0xe05c2cbe40fc1fb3"}, {"place_id": "0x390cdc6f70fb5be5:0xa34888feda73528d", "name": "Pepper Designs", "category": "Website designer", "street": "House No 1, Ground Floor", "city": "Hauz Khas Village", "phone": "09811767560", "website": "https://www.pepper-designs.com/", "rating": 4.6, "review_count": "", "latitude": 28.555021999999997, "longitude": 77.19471399999999, "maps_url": "https://www.google.com/maps/place/?q=place_id:0x390cdc6f70fb5be5:0xa34888feda73528d"}, {"place_id": "0x390ce30ddaaf70e7:0x7b973f2d18edc8ae", "name": "Masstige Solutions - Website Design Company, Digital Marketing, SEO, PPC", "category": "Website designer", "street": "Block N", "city": "N-4", "phone": "", "website": "https://masstigesolutions.com/", "rating": 5, "review_count": "", "latitude": 28.571444699999997, "longitude": 77.22144159999999, "maps_url": "https://www.google.com/maps/place/?q=place_id:0x390ce30ddaaf70e7:0x7b973f2d18edc8ae"}, {"place_id": "0x390ce3c851487b1f:0xb893e768ca355a6c", "name": "Aditya V Agarwal & Company", "category": "Certified public accountant", "street": "First Floor 29", "city": "Community Center", "phone": "09873131781", "website": "", "rating": 5, "review_count": "", "latitude": 28.5586234, "longitude": 77.2455276, "maps_url": "https://www.google.com/maps/place/?q=place_id:0x390ce3c851487b1f:0xb893e768ca355a6c"}, {"place_id": "0x390ce2f9e7930b65:0x4d7cc3085b49d9f0", "name": "MultiCare Surgical Products Corporation", "category": "Medical Equipment Manufacturer", "street": "Tower No. 944", "city": "Arjun Nagar", "phone": "08068093681", "website": "http://www.multicaresurgical.com/", "rating": 3.8, "review_count": "", "latitude": 28.5737635, "longitude": 77.22831359999999, "maps_url": "https://www.google.com/maps/place/?q=place_id:0x390ce2f9e7930b65:0x4d7cc3085b49d9f0"}, {"place_id": "0x64dcf1a2ef2c9313:0x8cc770e79ecc3ae1", "name": "Vishnu Singh, Tour Guide in Delhi.", "category": "Tour agency", "street": "B 72", "city": "Block B2, BK Dutt Colony", "phone": "09643143132", "website": "http://www.tourguidevishnu.com/", "rating": 4.8, "review_count": "", "latitude": 28.5822669, "longitude": 77.2168676, "maps_url": "https://www.google.com/maps/place/?q=place_id:0x64dcf1a2ef2c9313:0x8cc770e79ecc3ae1"}, {"place_id": "0x390ce2f1599e5e3d:0x15aea808eef8685", "name": "DTDC", "category": "Courier service", "street": "No. 6, Ploof Main Market", "city": "near Punjab National Bank", "phone": "01124636613", "website": "http://dtdc.com/", "rating": 4.1, "review_count": "", "latitude": 28.583792, "longitude": 77.2231145, "maps_url": "https://www.google.com/maps/place/?q=place_id:0x390ce2f1599e5e3d:0x15aea808eef8685"}, {"place_id": "0x390ce32a4935cfb3:0x215c580033758e7b", "name": "Techsunware Private Limited", "category": "Software company", "street": "Sriniwaspuri Extn, Block L, Private Colony, Sri Niwaspuri", "city": "New Delhi, Delhi 110065", "phone": "", "website": "https://www.techsunware.com/", "rating": "", "review_count": "", "latitude": 28.563623999999997, "longitude": 77.25999379999999, "maps_url": "https://www.google.com/maps/place/?q=place_id:0x390ce32a4935cfb3:0x215c580033758e7b"}]}