{"timestamp": 1773735120.9540005, "keyword": "IT company", "location": "Indore", "cell_idx": 192, "results": [{"place_id": "0x3963179ba819d679:0x97d67928bba81e05", "name": "ITGeeks Technologies Pvt. Ltd.", "category": "Software company", "street": "ITGeeks Technologies Pvt. Ltd", "city": "02, Yamuna nagar", "phone": "09179880603", "website": "http://www.itgeeks.com/", "rating": 4.6, "review_count": "", "latitude": 22.9538781, "longitude": 76.03808699999999, "maps_url": "https://www.google.com/maps/place/?q=place_id:0x3963179ba819d679:0x97d67928bba81e05"}, {"place_id": "0x39633db45bfd17a9:0x4308fafcc8e3d7a5", "name": "Coram Chromewell India Pvt. Ltd", "category": "Manufacturer", "street": "108/1/2, Amarpura", "city": "Road", "phone": "08124023766", "website": "http://www.coramgroup.com/eng/News/CORAM-CHROMEWELL-INDIA-PVT.-LTD", "rating": 4.9, "review_count": "", "latitude": 22.9806036, "longitude": 76.1294152, "maps_url": "https://www.google.com/maps/place/?q=place_id:0x39633db45bfd17a9:0x4308fafcc8e3d7a5"}, {"place_id": "0x3963178ff220a477:0x1f25eae0f1ef5a7d", "name": "Himanshu Softtech", "category": "Software company", "street": "4-A , agroha nagar , AB road", "city": "Dewas, Madhya Pradesh 455001", "phone": "09425919122", "website": "http://www.himanshusofttech.com/", "rating": 4.7, "review_count": "", "latitude": 22.9619793, "longitude": 76.0464191, "maps_url": "https://www.google.com/maps/place/?q=place_id:0x3963178ff220a477:0x1f25eae0f1ef5a7d"}, {"place_id": "0x39631780e5eb3c53:0xfc15871ccdfd3ccb", "name": "PebblePot Technologies Private Limited", "category": "Software company", "street": "04 Harshal Manglik Bhawan", "city": "AB Rd", "phone": "07898661161", "website": "https://www.pebblepot.in/", "rating": 4.7, "review_count": "", "latitude": 22.966351799999998, "longitude": 76.0499313, "maps_url": "https://www.google.com/maps/place/?q=place_id:0x39631780e5eb3c53:0xfc15871ccdfd3ccb"}, {"place_id": "0x39631772fb57fa4d:0x1aeaaccddfab1b64", "name": "ITWEBINFO", "category": "Software company", "street": "103", "city": "Shivaji Nagar, Moti Bunglow", "phone": "07582995555", "website": "http://itwebinfo.com/", "rating": 5, "review_count": "", "latitude": 22.9710605, "longitude": 76.0480532, "maps_url": "https://www.google.com/maps/place/?q=place_id:0x39631772fb57fa4d:0x1aeaaccddfab1b64"}, {"place_id": "0x3963179ca584a047:0xba87fc574f813753", "name": "Xlligent Softwares Pvt Ltd", "category": "Software company", "street": "111", "city": "near front of DCB Bank", "phone": "06261900209", "website": "https://www.xlligent-softwares.com/", "rating": 4.9, "review_count": "", "latitude": 22.9666632, "longitude": 76.0492101, "maps_url": "https://www.google.com/maps/place/?q=place_id:0x3963179ca584a047:0xba87fc574f813753"}, {"place_id": "0x396302b379920c87:0xae77c7696c44f45c", "name": "JTG_TECHNOLAB", "category": "Software company", "street": "40, Karoli nagar", "city": "near Kela Mata temple", "phone": "07974666953", "website": "https://jtgtechnolab.com/", "rating": 5, "review_count": "", "latitude": 22.9583767, "longitude": 76.0352805, "maps_url": "https://www.google.com/maps/place/?q=place_id:0x396302b379920c87:0xae77c7696c44f45c"}, {"place_id": "0x39633cc859d66b57:0xa5314ac94ec16e0a", "name": "Mita India Pvt Ltd Dewas", "category": "Auto parts manufacturer", "street": "X592+MX5", "city": "Khatamba, Madhya Pradesh 455115", "phone": "09868656580", "website": "http://imo.im/", "rating": 4, "review_count": "", "latitude": 22.969127, "longitude": 76.152496, "maps_url": "https://www.google.com/maps/place/?q=place_id:0x39633cc859d66b57:0xa5314ac94ec16e0a"}, {"place_id": "0x396317226b2c42df:0x47098e396f961017", "name": "Expound Coderz Private Limited", "category": "Software company", "street": "267", "city": "Ram Nagar Extension, Mishrilal Nagar, Ganga Nagar", "phone": "07415752727", "website": "https://expoundcoderz.com/", "rating": 4.8, "review_count": "", "latitude": 22.9577816, "longitude": 76.0379663, "maps_url": "https://www.google.com/maps/place/?q=place_id:0x396317226b2c42df:0x47098e396f961017"}, {"place_id": "0x396317b120185c53:0x7cd8635d2217321", "name": "Sanoh India Private Limited", "category": "Automation company", "street": "Sti Sanoh India Ltd", "city": "\u0930\u094b\u0921 \u0938\u094d\u091f\u0940\u0932 \u091f\u094d\u092f\u0942\u092c \u0930\u094b\u0921", "phone": "", "website": "", "rating": 4.1, "review_count": "", "latitude": 22.989034999999998, "longitude": 76.0551809, "maps_url": "https://www.google.com/maps/place/?q=place_id:0x396317b120185c53:0x7cd8635d2217321"}, {"place_id": "0x396317db662392a1:0xf724452f8057917", "name": "Evolve WebInfo Pvt.Ltd.", "category": "Software company", "street": "2nd Floor, Dewas Central, 314", "city": "AB Rd", "phone": "09926877335", "website": "http://evolvewebinfo.in/", "rating": 4.9, "review_count": "", "latitude": 22.9566475, "longitude": 76.0369968, "maps_url": "https://www.google.com/maps/place/?q=place_id:0x396317db662392a1:0xf724452f8057917"}, {"place_id": "0x3963172b725b9649:0xca9958ddaa36af60", "name": "PixelNX", "category": "Software company", "street": "03", "city": "Bhartiya Grah Nirman Colony, Shivaji Nagar, Moti Bunglow", "phone": "09685829300", "website": "http://www.pixelnx.com/", "rating": 4.6, "review_count": "", "latitude": 22.967811299999997, "longitude": 76.0457447, "maps_url": "https://www.google.com/maps/place/?q=place_id:0x3963172b725b9649:0xca9958ddaa36af60"}, {"place_id": "0x396317c3b78fb617:0xcad69c162e743e9", "name": "Farflung Technologies Pvt ltd", "category": "Software company", "street": "3 A", "city": "Pachunkar Colony, Panchsheel Nagar", "phone": "", "website": "https://farflungtechnologies.com/", "rating": 5, "review_count": "", "latitude": 22.9624773, "longitude": 76.0426938, "maps_url": "https://www.google.com/maps/place/?q=place_id:0x396317c3b78fb617:0xcad69c162e743e9"}, {"place_id": "0x39632377885c3f4f:0x6832297a18ca0177", "name": "Mahakal Mp Online", "category": "Computer support and services", "street": "Rajoda", "city": "Dubul Choki Road", "phone": "08349975739", "website": "", "rating": 5, "review_count": "", "latitude": 22.945839, "longitude": 76.0939291, "maps_url": "https://www.google.com/maps/place/?q=place_id:0x39632377885c3f4f:0x6832297a18ca0177"}, {"place_id": "0x39633d3037096f77:0xc2faa50a9a4ce05", "name": "John Deere Dewas Works", "category": "Manufacturer", "street": "Indore - Bhopal Rd", "city": "Khatamba, Madhya Pradesh 455001", "phone": "18002095310", "website": "http://www.deere.co.in/", "rating": 4.5, "review_count": "", "latitude": 22.966046799999997, "longitude": 76.1191446, "maps_url": "https://www.google.com/maps/place/?q=place_id:0x39633d3037096f77:0xc2faa50a9a4ce05"}, {"place_id": "0x3963178ff220a477:0x51910ecd6deaed53", "name": "Cyber Elite Pvt Ltd.", "category": "Software company", "street": "226 LIG", "city": "Jawahar Nagar, Gomti Nagar", "phone": "07089899090", "website": "https://cyberelite.in/", "rating": 4.2, "review_count": "", "latitude": 22.953131199999998, "longitude": 76.0426221, "maps_url": "https://www.google.com/maps/place/?q=place_id:0x3963178ff220a477:0x51910ecd6deaed53"}, {"place_id": "0x3963177f0bb72c01:0x7dc0fc1caf36fcb", "name": "Adroit Technosoft", "category": "Software company", "street": "2nd floor, sri sawariya complex", "city": "AB Rd", "phone": "09713000193", "website": "https://adroittechnosoft.in/", "rating": 4.3, "review_count": "", "latitude": 22.9666878, "longitude": 76.0494731, "maps_url": "https://www.google.com/maps/place/?q=place_id:0x3963177f0bb72c01:0x7dc0fc1caf36fcb"}, {"place_id": "0x39631736a0f7d871:0xf0f334accf365a3a", "name": "Ayat infotech", "category": "Software company", "street": "51", "city": "Anand nagar, Itawa", "phone": "09589981295", "website": "http://ayatinfotech.com/", "rating": 5, "review_count": "", "latitude": 22.9726128, "longitude": 76.05058269999999, "maps_url": "https://www.google.com/maps/place/?q=place_id:0x39631736a0f7d871:0xf0f334accf365a3a"}, {"place_id": "0x39631792ea7d9083:0xc90228718db1b1af", "name": "Sypnosis Technologies - IT Company.", "category": "Software company", "street": "2nd Floor", "city": "10", "phone": "09039239604", "website": "https://sypnosistechnologies.com/", "rating": "", "review_count": "", "latitude": 22.955443499999998, "longitude": 76.0369978, "maps_url": "https://www.google.com/maps/place/?q=place_id:0x39631792ea7d9083:0xc90228718db1b1af"}, {"place_id": "0x3963171787e17b59:0x307a92533e921d11", "name": "Edithtech Softwares", "category": "Software company", "street": "44", "city": "Shourya Complex", "phone": "09109260321", "website": "https://edithtechsoftwares.com/", "rating": 4.8, "review_count": "", "latitude": 22.9547074, "longitude": 76.0365456, "maps_url": "https://www.google.com/maps/place/?q=place_id:0x3963171787e17b59:0x307a92533e921d11"}, {"place_id": "0x39631799f8c1f06d:0x3502fd7aa55ee5ed", "name": "Vatsalya Expert Solutions", "category": "Software company", "street": "bhosle colony, Vatsalya Bhawan", "city": "75", "phone": "08889993179", "website": "https://vatsalyaexpertsolutions.in/", "rating": 4.9, "review_count": "", "latitude": 22.9799872, "longitude": 76.0553815, "maps_url": "https://www.google.com/maps/place/?q=place_id:0x39631799f8c1f06d:0x3502fd7aa55ee5ed"}, {"place_id": "0x3963179aa37da85d:0x9ad74f985a500d01", "name": "Webstrot Technology", "category": "Software company", "street": "3rd Floor", "city": "Rathor Tower", "phone": "08827113366", "website": "https://www.webstrot.com/", "rating": 4.9, "review_count": "", "latitude": 22.960082, "longitude": 76.04385529999999, "maps_url": "https://www.google.com/maps/place/?q=place_id:0x3963179aa37da85d:0x9ad74f985a500d01"}, {"place_id": "0x39633d3037096f77:0xc2faa50a9a4ce05", "name": "John Deere Dewas Works", "category": "Manufacturer", "street": "Indore - Bhopal Rd", "city": "Khatamba, Madhya Pradesh 455001", "phone": "18002095310", "website": "http://www.deere.co.in/", "rating": 4.5, "review_count": "", "latitude": 22.966046799999997, "longitude": 76.1191446, "maps_url": "https://www.google.com/maps/place/?q=place_id:0x39633d3037096f77:0xc2faa50a9a4ce05"}, {"place_id": "0x396317fb8085a529:0x6218c068e21409af", "name": "Caplers Solutions Dewas", "category": "Software company", "street": "Station Rd", "city": "in front of 52 Dukaan", "phone": "07415119928", "website": "https://caplers.com/", "rating": 5, "review_count": "", "latitude": 22.9715527, "longitude": 76.0550499, "maps_url": "https://www.google.com/maps/place/?q=place_id:0x396317fb8085a529:0x6218c068e21409af"}, {"place_id": "0x3963173c14b63e79:0x65b66e0752b01a8c", "name": "Techconqueror \u2013 Software & IT Services", "category": "Software company", "street": "528 EWS", "city": "Mukherjee Nagar, Anukul Nagar", "phone": "08982396663", "website": "https://techconqueror.com/", "rating": 4.9, "review_count": "", "latitude": 22.971609599999997, "longitude": 76.0386747, "maps_url": "https://www.google.com/maps/place/?q=place_id:0x3963173c14b63e79:0x65b66e0752b01a8c"}, {"place_id": "0x39631781f7b0a2a7:0xe3e4f6269a463f9d", "name": "Hostihelp", "category": "Software company", "street": "237 SunCity 1", "city": "AB Rd", "phone": "09755688860", "website": "http://hostihelpservices.epizy.com/", "rating": 4.9, "review_count": "", "latitude": 22.9460408, "longitude": 76.02948649999999, "maps_url": "https://www.google.com/maps/place/?q=place_id:0x39631781f7b0a2a7:0xe3e4f6269a463f9d"}, {"place_id": "0x39631da0239602ff:0xa13448656bdbfa7a", "name": "Softsnare Technologies | IT Company | Software Company in Indore", "category": "Software company", "street": "R-353", "city": "Sector R, Mahalaxmi Nagar", "phone": "06264741175", "website": "http://www.softsnare.com/", "rating": 4.6, "review_count": "", "latitude": 22.758209299999997, "longitude": 75.9096251, "maps_url": "https://www.google.com/maps/place/?q=place_id:0x39631da0239602ff:0xa13448656bdbfa7a"}, {"place_id": "0x39631d62557ed507:0x5dc2b67a2ba7971a", "name": "Royal IT Service - IT Company in Indore", "category": "Software company", "street": "426 Scheme No. 114 Part 2", "city": "Anurag Nagar Ln", "phone": "09285192850", "website": "http://royalitservice.com/", "rating": 4.3, "review_count": "", "latitude": 22.7622528, "longitude": 75.9022899, "maps_url": "https://www.google.com/maps/place/?q=place_id:0x39631d62557ed507:0x5dc2b67a2ba7971a"}, {"place_id": "0x2d1fb13b66f9b3b9:0xd8d6782015bc63e4", "name": "Dharmdesigner IT Services", "category": "Internet marketing service", "street": "Silver Park", "city": "Balaji Nagar", "phone": "08120348239", "website": "https://dharmdesigner.com/", "rating": 5, "review_count": "", "latitude": 22.947556799999997, "longitude": 76.05479059999999, "maps_url": "https://www.google.com/maps/place/?q=place_id:0x2d1fb13b66f9b3b9:0xd8d6782015bc63e4"}, {"place_id": "0x39633cc859d66b57:0xa5314ac94ec16e0a", "name": "Mita India Pvt Ltd Dewas", "category": "Auto parts manufacturer", "street": "X592+MX5", "city": "Khatamba, Madhya Pradesh 455115", "phone": "09868656580", "website": "http://imo.im/", "rating": 4, "review_count": "", "latitude": 22.969127, "longitude": 76.152496, "maps_url": "https://www.google.com/maps/place/?q=place_id:0x39633cc859d66b57:0xa5314ac94ec16e0a"}, {"place_id": "0x3963179b47845d21:0x3c484352310d1dfd", "name": "Projection (Training & Placement Company)", "category": "Software Training Institute", "street": "05, Shayam Plaza, Patwardhan marg, Just", "city": "behind Grace Church", "phone": "09617569993", "website": "https://www.projectiononline.com/", "rating": 4.7, "review_count": "", "latitude": 22.967597899999998, "longitude": 76.050913, "maps_url": "https://www.google.com/maps/place/?q=place_id:0x3963179b47845d21:0x3c484352310d1dfd"}, {"place_id": "0x396317b120185c53:0x7cd8635d2217321", "name": "Sanoh India Private Limited", "category": "Automation company", "street": "Sti Sanoh India Ltd", "city": "\u0930\u094b\u0921 \u0938\u094d\u091f\u0940\u0932 \u091f\u094d\u092f\u0942\u092c \u0930\u094b\u0921", "phone": "", "website": "", "rating": 4.1, "review_count": "", "latitude": 22.989034999999998, "longitude": 76.0551809, "maps_url": "https://www.google.com/maps/place/?q=place_id:0x396317b120185c53:0x7cd8635d2217321"}, {"place_id": "0x3963179e5a662b61:0x1c73df34266e678a", "name": "Infybright Tech Solution", "category": "Computer support and services", "street": "145 A, AB Rd", "city": "Kalani Bagh, Gomti Nagar", "phone": "", "website": "http://infybright.com/", "rating": 5, "review_count": "", "latitude": 22.957948899999998, "longitude": 76.0431546, "maps_url": "https://www.google.com/maps/place/?q=place_id:0x3963179e5a662b61:0x1c73df34266e678a"}, {"place_id": "0x396317edb498db2d:0x820ff94014864b5b", "name": "Active Now Tech", "category": "Software company", "street": "Mahalaxmi Nagar", "city": "09", "phone": "08839779337", "website": "https://activenow.in/", "rating": 5, "review_count": "", "latitude": 22.9575802, "longitude": 76.0409086, "maps_url": "https://www.google.com/maps/place/?q=place_id:0x396317edb498db2d:0x820ff94014864b5b"}, {"place_id": "0x396317929f6eb6ff:0xd309788e3f800c63", "name": "Lumic technologies", "category": "Software company", "street": "28, Sardar Patel Marg", "city": "Sutar Bakhal, Old Town, Gomti Nagar", "phone": "07804920240", "website": "http://www.lumicsoft.com/", "rating": "", "review_count": "", "latitude": 22.9654703, "longitude": 76.0527128, "maps_url": "https://www.google.com/maps/place/?q=place_id:0x396317929f6eb6ff:0xd309788e3f800c63"}, {"place_id": "0x6cfaa7c055002bd5:0x9543a5812d93766", "name": "Updevix \u2013 Web & App Development Company", "category": "Software company", "street": "software Employment Ofiice", "city": "1st floor, Updevix \u2013 Web & App Development Company", "phone": "", "website": "https://www.updevix.com/", "rating": 5, "review_count": "", "latitude": 22.967655699999998, "longitude": 76.0543464, "maps_url": "https://www.google.com/maps/place/?q=place_id:0x6cfaa7c055002bd5:0x9543a5812d93766"}, {"place_id": "0x396317f6bce105ad:0x1b97ddd1edb96f8a", "name": "TechMac Digital Solutions", "category": "Software company", "street": "05 M.I.G, Ujjain Rd", "city": "near Water Tank", "phone": "08982878781", "website": "https://techmacdigital.com/", "rating": 4.7, "review_count": "", "latitude": 22.977732099999997, "longitude": 76.0322268, "maps_url": "https://www.google.com/maps/place/?q=place_id:0x396317f6bce105ad:0x1b97ddd1edb96f8a"}, {"place_id": "0x39633db45bfd17a9:0x4308fafcc8e3d7a5", "name": "Coram Chromewell India Pvt. Ltd", "category": "Manufacturer", "street": "108/1/2, Amarpura", "city": "Road", "phone": "08124023766", "website": "http://www.coramgroup.com/eng/News/CORAM-CHROMEWELL-INDIA-PVT.-LTD", "rating": 4.9, "review_count": "", "latitude": 22.9806036, "longitude": 76.1294152, "maps_url": "https://www.google.com/maps/place/?q=place_id:0x39633db45bfd17a9:0x4308fafcc8e3d7a5"}, {"place_id": "0x396317170221cccd:0xdc916aeffd9100ea", "name": "Webaashi Technologies", "category": "Software company", "street": "C 82, AB Rd", "city": "Kalani Bagh, Agroha Nagar, Gomti Nagar", "phone": "", "website": "http://webaashi.com/", "rating": 4.9, "review_count": "", "latitude": 22.9586091, "longitude": 76.0484482, "maps_url": "https://www.google.com/maps/place/?q=place_id:0x396317170221cccd:0xdc916aeffd9100ea"}, {"place_id": "0x3963179e783f3caf:0x370c4af9c04c7225", "name": "Satisfaction Web Solution Pvt. Ltd", "category": "Software company", "street": "146 Alkapuri", "city": "behind Shri Munisuvrat Swami Shwetambar Jain Mandir Dewas", "phone": "09826073695", "website": "http://www.satisfactionwebsolution.com/", "rating": 4.4, "review_count": "", "latitude": 22.967319, "longitude": 76.0412837, "maps_url": "https://www.google.com/maps/place/?q=place_id:0x3963179e783f3caf:0x370c4af9c04c7225"}, {"place_id": "0x39632377885c3f4f:0x6832297a18ca0177", "name": "Mahakal Mp Online", "category": "Computer support and services", "street": "Rajoda", "city": "Dubul Choki Road", "phone": "08349975739", "website": "", "rating": 5, "review_count": "", "latitude": 22.945839, "longitude": 76.0939291, "maps_url": "https://www.google.com/maps/place/?q=place_id:0x39632377885c3f4f:0x6832297a18ca0177"}, {"place_id": "0x396317d794e16759:0x4060a0afc2cc5781", "name": "Webniya Infotech", "category": "Software company", "street": "", "city": "", "phone": "", "website": "https://www.webniya.tech/", "rating": 5, "review_count": "", "latitude": 21.0680074, "longitude": 82.7525294, "maps_url": "https://www.google.com/maps/place/?q=place_id:0x396317d794e16759:0x4060a0afc2cc5781"}, {"place_id": "0x3962fdc27594b36f:0xf1f29e4d59089c17", "name": "Rubik Corner IT Services and Consultants", "category": "Website designer", "street": "5/1 Ramchandra Nagar Extension", "city": "Madhya Pradesh 455001", "phone": "09691665576", "website": "", "rating": 5, "review_count": "", "latitude": 22.945536999999998, "longitude": 76.0402613, "maps_url": "https://www.google.com/maps/place/?q=place_id:0x3962fdc27594b36f:0xf1f29e4d59089c17"}, {"place_id": "0x396317a894b7133b:0xde24d17f96ead3fe", "name": "Wintech Services", "category": "Computer store", "street": "56/7", "city": "near HIMALAY ACADEMY", "phone": "09165292226", "website": "", "rating": 5, "review_count": "", "latitude": 22.9718172, "longitude": 76.0634704, "maps_url": "https://www.google.com/maps/place/?q=place_id:0x396317a894b7133b:0xde24d17f96ead3fe"}, {"place_id": "0x3963172292e247df:0x5479d4cf7d398a04", "name": "Expert Solutions", "category": "Computer repair service", "street": "Vishram Bagh, Radhaganj, Itawa", "city": "Dewas, Madhya Pradesh 455001", "phone": "", "website": "", "rating": 5, "review_count": "", "latitude": 22.9723914, "longitude": 76.06552649999999, "maps_url": "https://www.google.com/maps/place/?q=place_id:0x3963172292e247df:0x5479d4cf7d398a04"}, {"place_id": "0x287cf0225a1c0f9:0x78c06e25e68f9246", "name": "Ivision Systech Private Limited", "category": "Design engineer", "street": "412", "city": "E.W.S., Mukherjee Nagar, Raja Ram Nagar", "phone": "08269897542", "website": "https://www.ivisionsystech.com/", "rating": 5, "review_count": "", "latitude": 22.9665379, "longitude": 76.0391159, "maps_url": "https://www.google.com/maps/place/?q=place_id:0x287cf0225a1c0f9:0x78c06e25e68f9246"}, {"place_id": "0x396318244daf11b5:0xc4a7dcfa7008013d", "name": "Bappa Creation India : Video Advertising Company", "category": "Video production service", "street": "Balgarh, balaji nagar, Industrial Area No.2, Dewas, Madhya Pradesh 455111", "city": "Dewas, Madhya Pradesh 455001", "phone": "08602895443", "website": "https://bappacreationindia.wixsite.com/bappacreationindia", "rating": 5, "review_count": "", "latitude": 22.9429922, "longitude": 76.05390899999999, "maps_url": "https://www.google.com/maps/place/?q=place_id:0x396318244daf11b5:0xc4a7dcfa7008013d"}, {"place_id": "0x3963170002e423fd:0x2845c60d9661c0f7", "name": "Adiyogi Enterprises", "category": "Computer service", "street": "Maina Shree Complex", "city": "AB Rd", "phone": "09926677787", "website": "", "rating": 5, "review_count": "", "latitude": 22.9637322, "longitude": 76.0473047, "maps_url": "https://www.google.com/maps/place/?q=place_id:0x3963170002e423fd:0x2845c60d9661c0f7"}, {"place_id": "0x390ce458d0000001:0xf2123bd299ec4501", "name": "IT Company India", "category": "Software company", "street": "D56", "city": "D Block, Sector 10", "phone": "09999244854", "website": "https://www.itcompanyindia.in/", "rating": 4.7, "review_count": "", "latitude": 28.589917699999997, "longitude": 77.3351153, "maps_url": "https://www.google.com/maps/place/?q=place_id:0x390ce458d0000001:0xf2123bd299ec4501"}, {"place_id": "0x396317bd43c6cae9:0x93e7d2a1d33dd13f", "name": "Anahcra Infotech Private Limited", "category": "Marketing agency", "street": "81, Khari Bawadi Road", "city": "Old Town, Hanuman Bakhal", "phone": "07987071323", "website": "", "rating": 5, "review_count": "", "latitude": 22.9622605, "longitude": 76.0569897, "maps_url": "https://www.google.com/maps/place/?q=place_id:0x396317bd43c6cae9:0x93e7d2a1d33dd13f"}, {"place_id": "0x396319e550167c0f:0xc21ae8f7a537ddd9", "name": "Win Infotech Software Solutions", "category": "Financial consultant", "street": "14", "city": "Labour Colony, Balaji Nagar", "phone": "09179298291", "website": "https://wininfotech.in/", "rating": 5, "review_count": "", "latitude": 22.947784, "longitude": 76.050197, "maps_url": "https://www.google.com/maps/place/?q=place_id:0x396319e550167c0f:0xc21ae8f7a537ddd9"}, {"place_id": "0x3963178b524cf207:0x2b3e34b5cdd6a9d9", "name": "Mahi Enterprises", "category": "Wholesaler", "street": "Lig Garden ke Pass", "city": "Mig 361, Maksi Rd", "phone": "08817535364", "website": "", "rating": 5, "review_count": "", "latitude": 22.9795241, "longitude": 76.0810394, "maps_url": "https://www.google.com/maps/place/?q=place_id:0x3963178b524cf207:0x2b3e34b5cdd6a9d9"}, {"place_id": "0x396317cb7c6c3d3b:0x9f2bbbfa9937c9b", "name": "SOMTARA Infotech", "category": "Software company", "street": "TARA KUNJ 205", "city": "opp. Escort Junior College", "phone": "", "website": "https://www.somtarainfotech.com/", "rating": "", "review_count": "", "latitude": 22.954623599999998, "longitude": 76.0349313, "maps_url": "https://www.google.com/maps/place/?q=place_id:0x396317cb7c6c3d3b:0x9f2bbbfa9937c9b"}, {"place_id": "0x396317ecbf2de493:0x39ce5d33425e9abc", "name": "MALWA WIRE MESH INDUSTRIES", "category": "Industrial equipment supplier", "street": "B No 2, Bhopal Square", "city": "Indore, Madhya Pradesh 455001", "phone": "08045816272", "website": "http://malwawiremesh.com/", "rating": 5, "review_count": "", "latitude": 22.9693556, "longitude": 76.1006724, "maps_url": "https://www.google.com/maps/place/?q=place_id:0x396317ecbf2de493:0x39ce5d33425e9abc"}, {"place_id": "0x3963178ffffffffd:0xcb341924a729e52", "name": "Giraffe Storage Solution", "category": "Manufacturer", "street": "B,C, D1&9E Industrial Area", "city": "10", "phone": "09993590431", "website": "https://www.giraffestorage.com/", "rating": 4.7, "review_count": "", "latitude": 22.9647808, "longitude": 76.04814449999999, "maps_url": "https://www.google.com/maps/place/?q=place_id:0x3963178ffffffffd:0xcb341924a729e52"}, {"place_id": "0x39631760ea8e7063:0xf4735262d06c8aac", "name": "Dhakad Electronics Bazar Dewas", "category": "Electronics wholesaler", "street": "gate no.2", "city": "12, Maxi Rd", "phone": "09977936369", "website": "", "rating": 4.6, "review_count": "", "latitude": 22.975841799999998, "longitude": 76.0706184, "maps_url": "https://www.google.com/maps/place/?q=place_id:0x39631760ea8e7063:0xf4735262d06c8aac"}, {"place_id": "0x396317e5385609fb:0x4ff0b2ab89cbfb2d", "name": "Gharge's Dewas Greens township", "category": "Home builder", "street": "X37G+HF2", "city": "Bhopal Highway", "phone": "09993434222", "website": "", "rating": 4.5, "review_count": "", "latitude": 22.9644089, "longitude": 76.07627719999999, "maps_url": "https://www.google.com/maps/place/?q=place_id:0x396317e5385609fb:0x4ff0b2ab89cbfb2d"}, {"place_id": "0x39631796513dfda3:0xd4a7e776cd41a720", "name": "Anki Group Packers and Movers Dewas", "category": "Packaging company", "street": "laxmi niwas, plot no. 186, near vyas flor mil karmachari colony,", "city": "Dewas, Madhya Pradesh 455001", "phone": "09111303233", "website": "http://ankigroup.com/packers-movers-dewas.html", "rating": 4.5, "review_count": "", "latitude": 22.971767999999997, "longitude": 76.054172, "maps_url": "https://www.google.com/maps/place/?q=place_id:0x39631796513dfda3:0xd4a7e776cd41a720"}, {"place_id": "0x3963194c0a91d77d:0xc0227c345ba30719", "name": "Gabriel India Limited", "category": "Corporate office", "street": "Industrial Area No.2", "city": "Dewas, Madhya Pradesh 455001", "phone": "", "website": "", "rating": 4.1, "review_count": "", "latitude": 22.929257399999997, "longitude": 76.0389397, "maps_url": "https://www.google.com/maps/place/?q=place_id:0x3963194c0a91d77d:0xc0227c345ba30719"}, {"place_id": "0x396323d083de3151:0x9c2e0f26db50caf5", "name": "Jan Sewa Kendr", "category": "Computer support and services", "street": "Shop No. 2 Megic Stend Kankund Kankund", "city": "Dewas, Madhya Pradesh 455001", "phone": "09770804882", "website": "", "rating": 4.8, "review_count": "", "latitude": 22.9405847, "longitude": 76.1500439, "maps_url": "https://www.google.com/maps/place/?q=place_id:0x396323d083de3151:0x9c2e0f26db50caf5"}, {"place_id": "0x396317d7b9fce5ed:0x76f34aad91692f9e", "name": "Cyber Veins", "category": "Software company", "street": "", "city": "", "phone": "08085747661", "website": "http://cyber-veins.in/", "rating": 5, "review_count": "", "latitude": 14.157641199999999, "longitude": -16.7424939, "maps_url": "https://www.google.com/maps/place/?q=place_id:0x396317d7b9fce5ed:0x76f34aad91692f9e"}, {"place_id": "0x39633d5482d598e5:0x550fc08f89d8928a", "name": "PAHLI CHAI", "category": "Tea store", "street": "Khatamba, Dewas, Madhya Pradesh 455001", "city": "", "phone": "09752446836", "website": "", "rating": 4.9, "review_count": "", "latitude": 22.9716128, "longitude": 76.1430809, "maps_url": "https://www.google.com/maps/place/?q=place_id:0x39633d5482d598e5:0x550fc08f89d8928a"}, {"place_id": "0x3962fd3f35699959:0x60a1ecf32851850a", "name": "Chapter247 Infotech", "category": "Software company", "street": "6th Floor", "city": "611-612-613", "phone": "07773077715", "website": "https://www.chapter247.com/", "rating": 3.8, "review_count": "", "latitude": 22.7592613, "longitude": 75.9238235, "maps_url": "https://www.google.com/maps/place/?q=place_id:0x3962fd3f35699959:0x60a1ecf32851850a"}, {"place_id": "0x396317cfe4c29833:0x103dfdf57d622231", "name": "Maa Chamunda Online Service", "category": "Computer support and services", "street": "K P College", "city": "02, Lakshmi Bai Marg", "phone": "09179309352", "website": "", "rating": 5, "review_count": "", "latitude": 22.966665199999998, "longitude": 76.0633962, "maps_url": "https://www.google.com/maps/place/?q=place_id:0x396317cfe4c29833:0x103dfdf57d622231"}, {"place_id": "0x396319e7b24e0b9d:0x3e56ec0df631cef1", "name": "Vippy Industries Limited", "category": "Food Processing Company", "street": "28, AB Rd", "city": "Industrial Area No. 1", "phone": "07272258545", "website": "http://www.vippysoya.com/", "rating": 3.8, "review_count": "", "latitude": 22.9384363, "longitude": 76.0143614, "maps_url": "https://www.google.com/maps/place/?q=place_id:0x396319e7b24e0b9d:0x3e56ec0df631cef1"}, {"place_id": "0x39633d232b05d905:0x3cfe6007222e2e2c", "name": "Poshan Aahar Plant Dewas", "category": "Corporate office", "street": "X4FW+H8W", "city": "Khatamba, Madhya Pradesh 455115", "phone": "", "website": "", "rating": 3.4, "review_count": "", "latitude": 22.973976999999998, "longitude": 76.145821, "maps_url": "https://www.google.com/maps/place/?q=place_id:0x39633d232b05d905:0x3cfe6007222e2e2c"}, {"place_id": "0x3963179b198afb39:0x746bcc2c170e99cd", "name": "Docxhub", "category": "Software company", "street": "5-A Kothi Road", "city": "opposite to khedapati International hotel", "phone": "08269034006", "website": "https://docxhub.in/", "rating": 4, "review_count": "", "latitude": 22.9655179, "longitude": 76.04609479999999, "maps_url": "https://www.google.com/maps/place/?q=place_id:0x3963179b198afb39:0x746bcc2c170e99cd"}, {"place_id": "0x396317f9797e9093:0xefa2085b2512e71d", "name": "Sai City", "category": "Housing development", "street": "Jail Rd", "city": "near Bhopal Bypass", "phone": "09425148357", "website": "", "rating": 4.2, "review_count": "", "latitude": 22.958267, "longitude": 76.0772477, "maps_url": "https://www.google.com/maps/place/?q=place_id:0x396317f9797e9093:0xefa2085b2512e71d"}, {"place_id": "0x39631783ab28463d:0x47360e8151298220", "name": "Malwas Axiom Build Tech pvt. Ltd.", "category": "Architect", "street": "malwa shenai Complex", "city": "630/13, AB Rd", "phone": "09179999337", "website": "", "rating": 4.8, "review_count": "", "latitude": 22.9581523, "longitude": 76.04200569999999, "maps_url": "https://www.google.com/maps/place/?q=place_id:0x39631783ab28463d:0x47360e8151298220"}, {"place_id": "0x3963170d63cf0f6b:0xa071a4f09875f22e", "name": "Punyai Group", "category": "Software company", "street": "", "city": "", "phone": "", "website": "http://bit.ly/2S6gV7Y", "rating": 5, "review_count": "", "latitude": 20.2162413, "longitude": 76.1931778, "maps_url": "https://www.google.com/maps/place/?q=place_id:0x3963170d63cf0f6b:0xa071a4f09875f22e"}, {"place_id": "0x396317b791f9f921:0xaa9d68312ca2f97b", "name": "Robopie Inc.", "category": "Research and product development", "street": "48/A", "city": "near The Guardian School", "phone": "09479561907", "website": "https://www.robopie.in/", "rating": "", "review_count": "", "latitude": 22.9586862, "longitude": 76.0394522, "maps_url": "https://www.google.com/maps/place/?q=place_id:0x396317b791f9f921:0xaa9d68312ca2f97b"}, {"place_id": "0x3be7c21b5901e181:0x7fe794585addc1f6", "name": "Smartinfologiks - Software Development Company in India | IT Solutions", "category": "Software company", "street": "Hilton Center", "city": "514", "phone": "07400064691", "website": "https://www.smartinfologiks.com/", "rating": 4.6, "review_count": "", "latitude": 19.0139592, "longitude": 73.0382705, "maps_url": "https://www.google.com/maps/place/?q=place_id:0x3be7c21b5901e181:0x7fe794585addc1f6"}, {"place_id": "0x396319e845555555:0x1b3842080da83c8a", "name": "Dewas Metal Sections Ltd.", "category": "Manufacturer", "street": "W2C5+HGF", "city": "AB Rd", "phone": "08435501485", "website": "https://www.dmsl.co.in/", "rating": 4.4, "review_count": "", "latitude": 22.9224118, "longitude": 76.0073221, "maps_url": "https://www.google.com/maps/place/?q=place_id:0x396319e845555555:0x1b3842080da83c8a"}, {"place_id": "0x39631708d5d6fd53:0x6cf93c0e550356c9", "name": "Sharda Associates Engineers and Architect", "category": "Corporate office", "street": "MR-3", "city": "67 Balaji Dham, Balgarh Rd", "phone": "09584292171", "website": "", "rating": 4.9, "review_count": "", "latitude": 22.9471267, "longitude": 76.0373015, "maps_url": "https://www.google.com/maps/place/?q=place_id:0x39631708d5d6fd53:0x6cf93c0e550356c9"}, {"place_id": "0x3bc2becdc35b6937:0x515ac559c349eee3", "name": "Thinkitive Technologies Private Limited", "category": "Software company", "street": "4th Floor", "city": "ABIL IMPERIAL COMMERCIAL SPACES", "phone": "08956467327", "website": "https://www.thinkitive.com/", "rating": 3.9, "review_count": "", "latitude": 18.5563888, "longitude": 73.7729748, "maps_url": "https://www.google.com/maps/place/?q=place_id:0x3bc2becdc35b6937:0x515ac559c349eee3"}, {"place_id": "0x396317b76aa38f8f:0x5a1609f29b950d47", "name": "SWAD SAMRIDDHI", "category": "Spices Wholesaler", "street": "69 MIG", "city": "Tulja Vihar, BNP Colony, Awas Nagar", "phone": "09172743747", "website": "https://www.swadsamriddhi.com/", "rating": 5, "review_count": "", "latitude": 22.9830471, "longitude": 76.0797649, "maps_url": "https://www.google.com/maps/place/?q=place_id:0x396317b76aa38f8f:0x5a1609f29b950d47"}, {"place_id": "0x3963179274bd5603:0x1791ca3248990f7", "name": "Anupriya Sadan", "category": "Housing complex", "street": "70 Green Valley Colony", "city": "Indore - Bhopal Rd", "phone": "", "website": "", "rating": 5, "review_count": "", "latitude": 22.9713104, "longitude": 76.0766769, "maps_url": "https://www.google.com/maps/place/?q=place_id:0x3963179274bd5603:0x1791ca3248990f7"}, {"place_id": "0x3963175fb797ee91:0x39506d826bb38c06", "name": "New Dewas", "category": "Housing complex", "street": "Santoshi Mata Mandir", "city": "New Dewas Rd", "phone": "", "website": "", "rating": 4, "review_count": "", "latitude": 22.9730199, "longitude": 76.0781234, "maps_url": "https://www.google.com/maps/place/?q=place_id:0x3963175fb797ee91:0x39506d826bb38c06"}, {"place_id": "0x396317904a94f707:0xc1d2b7473f420122", "name": "Ravi Electricals solar solutions", "category": "Solar Energy Company", "street": "Infront of rajmal pannalal shop", "city": "55, MG Rd", "phone": "09425047580", "website": "http://www.ravisolarenergy.in/", "rating": 4.7, "review_count": "", "latitude": 22.964137899999997, "longitude": 76.05348459999999, "maps_url": "https://www.google.com/maps/place/?q=place_id:0x396317904a94f707:0xc1d2b7473f420122"}, {"place_id": "0x396317a2a58edac5:0x79ed460c662aae59", "name": "Jayesh Chaurasiya IT COMPANY", "category": "Software company", "street": "X3H3+XX2", "city": "Bhonsley Colony, Adarsh Nagar, Itawa", "phone": "", "website": "", "rating": 5, "review_count": "", "latitude": 22.9798841, "longitude": 76.05489899999999, "maps_url": "https://www.google.com/maps/place/?q=place_id:0x396317a2a58edac5:0x79ed460c662aae59"}, {"place_id": "0x3963172bd349136d:0x1b734e3eb8f2ff47", "name": "Horizon Solar", "category": "Solar Energy Company", "street": "143", "city": "Ram Nagar Extension, Tilak Nagar, Ram Nagar", "phone": "07387378997", "website": "", "rating": 5, "review_count": "", "latitude": 22.9588827, "longitude": 76.04140269999999, "maps_url": "https://www.google.com/maps/place/?q=place_id:0x3963172bd349136d:0x1b734e3eb8f2ff47"}, {"place_id": "0x396317167a9035bb:0x253ed9b47e3f4ccf", "name": "Garnet Tools", "category": "Factory equipment supplier", "street": "2-D, Industrial Area", "city": "Ujjain Rd", "phone": "09827333191", "website": "http://www.garnetindia.com/", "rating": 4.4, "review_count": "", "latitude": 22.9745955, "longitude": 76.0464949, "maps_url": "https://www.google.com/maps/place/?q=place_id:0x396317167a9035bb:0x253ed9b47e3f4ccf"}, {"place_id": "0x3963179b199ebc09:0x19d986d195a033c1", "name": "Ntier Solutions", "category": "Software company", "street": "Daya Shree Complex", "city": "AB Rd", "phone": "09893776747", "website": "http://www.outputwebtech.com/", "rating": "", "review_count": "", "latitude": 22.960306499999998, "longitude": 76.0439695, "maps_url": "https://www.google.com/maps/place/?q=place_id:0x3963179b199ebc09:0x19d986d195a033c1"}, {"place_id": "0x3963170d479d8ed1:0xcc5765f7f7a00978", "name": "Surya Jyotish Kendra", "category": "Astrologer", "street": "Jamna nagar main road", "city": "near Rajput Dharmshala", "phone": "08085051305", "website": "https://suryajyotishkendra.com/", "rating": 5, "review_count": "", "latitude": 22.9881978, "longitude": 76.0813361, "maps_url": "https://www.google.com/maps/place/?q=place_id:0x3963170d479d8ed1:0xcc5765f7f7a00978"}, {"place_id": "0x396317becb467b3d:0xe1967e6a5b52b65f", "name": "Zeeshan Ahmed", "category": "Software company", "street": "37, Indira Nagar", "city": "BNP Rd", "phone": "", "website": "https://www.zeeshanahmed.in/", "rating": 3, "review_count": "", "latitude": 22.9803754, "longitude": 76.0583609, "maps_url": "https://www.google.com/maps/place/?q=place_id:0x396317becb467b3d:0xe1967e6a5b52b65f"}, {"place_id": "0x6b406bef7cd437b1:0x28334f0b498e4068", "name": "Triangle Solar Energy Dewas", "category": "Solar Energy Company", "street": "41B", "city": "Vikas Nagar, Ramchandra Nagar, Gomti Nagar", "phone": "09977667330", "website": "https://sites.google.com/view/triangleenterprises/home", "rating": 4.8, "review_count": "", "latitude": 22.9479908, "longitude": 76.038437, "maps_url": "https://www.google.com/maps/place/?q=place_id:0x6b406bef7cd437b1:0x28334f0b498e4068"}, {"place_id": "0x396317ec94f454d5:0xbbc91647b0fb7096", "name": "Ropeway Ticketing Centre", "category": "Corporate office", "street": "X397+5JX", "city": "Adarsh Nagar, Itawa", "phone": "", "website": "", "rating": 4, "review_count": "", "latitude": 22.9679959, "longitude": 76.0641167, "maps_url": "https://www.google.com/maps/place/?q=place_id:0x396317ec94f454d5:0xbbc91647b0fb7096"}, {"place_id": "0x39632349046e9461:0x6add4cb396096a54", "name": "Vishu photography", "category": "Photography studio", "street": "Rajoda", "city": "Dewas, Madhya Pradesh 455001", "phone": "", "website": "https://instagram.com/vishu_photography01?igshid=YmMyMTA2M2Y=", "rating": 5, "review_count": "", "latitude": 22.9442701, "longitude": 76.0944856, "maps_url": "https://www.google.com/maps/place/?q=place_id:0x39632349046e9461:0x6add4cb396096a54"}, {"place_id": "0x396317c2b2860a4f:0x9140a44a93d7f0e2", "name": "Bajrangbali Nagar", "category": "Housing society", "street": "Jamna Nagar Maxi Road", "city": "near, BNP Rd", "phone": "", "website": "", "rating": 4.1, "review_count": "", "latitude": 22.977089199999998, "longitude": 76.0738248, "maps_url": "https://www.google.com/maps/place/?q=place_id:0x396317c2b2860a4f:0x9140a44a93d7f0e2"}, {"place_id": "0x2f79a7935f63b1f5:0xbefe6cdecb3e70c", "name": "Varshita enterprises", "category": "Computer support and services", "street": "", "city": "", "phone": "", "website": "https://varshitaenterprises.netlify.app/", "rating": "", "review_count": "", "latitude": 20.637847999999998, "longitude": 78.2713989, "maps_url": "https://www.google.com/maps/place/?q=place_id:0x2f79a7935f63b1f5:0xbefe6cdecb3e70c"}, {"place_id": "0x39631dbb2049dd65:0xb667eb306f1b92c5", "name": "IT Company", "category": "Information services", "street": "Chikitsak Nagar", "city": "Indore, Madhya Pradesh 452010", "phone": "", "website": "", "rating": 2, "review_count": "", "latitude": 22.7569083, "longitude": 75.9056753, "maps_url": "https://www.google.com/maps/place/?q=place_id:0x39631dbb2049dd65:0xb667eb306f1b92c5"}, {"place_id": "0x809349dea9785ffd:0x2ed132381ec0aab", "name": "BuySellCompass It Software Company", "category": "Software Training Institute", "street": "", "city": "", "phone": "", "website": "", "rating": "", "review_count": "", "latitude": 21.0680074, "longitude": 82.7525294, "maps_url": "https://www.google.com/maps/place/?q=place_id:0x809349dea9785ffd:0x2ed132381ec0aab"}, {"place_id": "0x39631834933c0a2d:0x5e6c39bcf3857f7e", "name": "VE Commercial", "category": "Manufacturer", "street": "Police Colony, Industrial Area No. 3", "city": "Dewas, Madhya Pradesh 455001", "phone": "", "website": "http://www.vecv.in/", "rating": 4, "review_count": "", "latitude": 22.931657299999998, "longitude": 76.04093639999999, "maps_url": "https://www.google.com/maps/place/?q=place_id:0x39631834933c0a2d:0x5e6c39bcf3857f7e"}, {"place_id": "0x39631933b1def0dd:0xe962e366c5ab07b4", "name": "Sai Chhaya", "category": "Housing society", "street": "Dewas, Madhya Pradesh 455001", "city": "", "phone": "", "website": "", "rating": 4.9, "review_count": "", "latitude": 22.940187899999998, "longitude": 76.06061609999999, "maps_url": "https://www.google.com/maps/place/?q=place_id:0x39631933b1def0dd:0xe962e366c5ab07b4"}, {"place_id": "0x396322af9520004b:0xcd9517804d39f0cd", "name": "Indane - Rajoda Gramin Vitrak", "category": "Gas Agency", "street": "No 3, Barotha Road", "city": "Rajoda, Madhya Pradesh 455001", "phone": "09827314987", "website": "https://locator.iocl.com/indane/indane-rajoda-gramin-vitrak-gas-agency-rajoda-dewas-212300/Home?utm_source=locator&utm_medium=googleplaces", "rating": 4, "review_count": "", "latitude": 22.9469358, "longitude": 76.09815329999999, "maps_url": "https://www.google.com/maps/place/?q=place_id:0x396322af9520004b:0xcd9517804d39f0cd"}, {"place_id": "0x396319f659dad8f9:0xfebf479257a5399d", "name": "Eicher Dewas", "category": "Corporate office", "street": "W2JR+HFP", "city": "Vikas Nagar, Police Colony, Industrial Area No. 3", "phone": "", "website": "", "rating": 4, "review_count": "", "latitude": 22.9314617, "longitude": 76.041195, "maps_url": "https://www.google.com/maps/place/?q=place_id:0x396319f659dad8f9:0xfebf479257a5399d"}, {"place_id": "0x396317dbb4423033:0xe258fbe5dfcc04d3", "name": "Tractor Showroom", "category": "Tractor dealer", "street": "Dewas, Madhya Pradesh 455001", "city": "", "phone": "09926544255", "website": "https://www.swarajtractors.com/", "rating": 4, "review_count": "", "latitude": 22.984861199999997, "longitude": 76.0780877, "maps_url": "https://www.google.com/maps/place/?q=place_id:0x396317dbb4423033:0xe258fbe5dfcc04d3"}, {"place_id": "0x3963179a02c00e9d:0x654586692fd7e595", "name": "Taj Food's", "category": "Food Processing Company", "street": "Laxmi park", "city": "Shivaji Nagar, Moti Bunglow", "phone": "09893100770", "website": "", "rating": 4.9, "review_count": "", "latitude": 22.9685819, "longitude": 76.0503107, "maps_url": "https://www.google.com/maps/place/?q=place_id:0x3963179a02c00e9d:0x654586692fd7e595"}, {"place_id": "0x396317003bdb411d:0x3fe4cebc06bcf0ee", "name": "Raik Security", "category": "Security guard service", "street": "09, Station Rd", "city": "Shivom Estates, Itawa", "phone": "", "website": "http://www.raiksecurity.com/", "rating": 5, "review_count": "", "latitude": 22.974372799999998, "longitude": 76.0553868, "maps_url": "https://www.google.com/maps/place/?q=place_id:0x396317003bdb411d:0x3fe4cebc06bcf0ee"}, {"place_id": "0x396317933ecbefeb:0x89b446070afbb761", "name": "SATVIK ENTERPRISES", "category": "Solar hot water system supplier", "street": "120, AB Rd", "city": "Near Mataji Ki Pedi", "phone": "09827247961", "website": "", "rating": 4.4, "review_count": "", "latitude": 22.9673224, "longitude": 76.06144019999999, "maps_url": "https://www.google.com/maps/place/?q=place_id:0x396317933ecbefeb:0x89b446070afbb761"}, {"place_id": "0x6a8791b17a2ad1f3:0x3320f692d9651905", "name": "Pixxel fx", "category": "Software company", "street": "", "city": "", "phone": "", "website": "http://pixxelfx.com/", "rating": "", "review_count": "", "latitude": 22.0240832, "longitude": 153.1842336, "maps_url": "https://www.google.com/maps/place/?q=place_id:0x6a8791b17a2ad1f3:0x3320f692d9651905"}, {"place_id": "0x3963175dbfbef98b:0x5ddd1ccdfba37de0", "name": "Trushja Softech", "category": "Software company", "street": "in front of Sharda Mata Mandir", "city": "Chamunda Kunj Colony, Mishrilal Nagar, Ganga Nagar", "phone": "07771094445", "website": "http://trushjasoftech.in/", "rating": "", "review_count": "", "latitude": 22.9539071, "longitude": 76.0376828, "maps_url": "https://www.google.com/maps/place/?q=place_id:0x3963175dbfbef98b:0x5ddd1ccdfba37de0"}, {"place_id": "0x396317a49f3919dd:0x71cc474768e7fa4b", "name": "Kirloskar Brothers Limited", "category": "Manufacturer", "street": "X2HX+PHF", "city": "Station Rd", "phone": "07272227397", "website": "https://www.kirloskarpumps.com/", "rating": 4.1, "review_count": "", "latitude": 22.9793044, "longitude": 76.0489221, "maps_url": "https://www.google.com/maps/place/?q=place_id:0x396317a49f3919dd:0x71cc474768e7fa4b"}, {"place_id": "0x3963174941765967:0x32b5c56627b062af", "name": "Shiv Online & Finence", "category": "Computer support and services", "street": "132 Nahar Darwaja", "city": "Near K.P. College", "phone": "07697434864", "website": "", "rating": 5, "review_count": "", "latitude": 22.9668654, "longitude": 76.063512, "maps_url": "https://www.google.com/maps/place/?q=place_id:0x3963174941765967:0x32b5c56627b062af"}, {"place_id": "0x396317e9da02ca4f:0x29565715c0ed56e1", "name": "Shri Satguru Trading Co.", "category": "Supermarket", "street": "8", "city": "Jamna Nagar Maxi Rd", "phone": "09827061125", "website": "", "rating": 3.8, "review_count": "", "latitude": 22.975334999999998, "longitude": 76.0702562, "maps_url": "https://www.google.com/maps/place/?q=place_id:0x396317e9da02ca4f:0x29565715c0ed56e1"}, {"place_id": "0x3963178c45180d57:0x12d4efa96fae4e31", "name": "My Digital Hub | Digital Marketing Agency Dewas", "category": "Internet marketing service", "street": "3rd floor", "city": "11, AB Rd", "phone": "07440461569", "website": "", "rating": 4, "review_count": "", "latitude": 22.9599199, "longitude": 76.0435969, "maps_url": "https://www.google.com/maps/place/?q=place_id:0x3963178c45180d57:0x12d4efa96fae4e31"}]}