{"timestamp": 1773731447.6039574, "keyword": "IT company", "location": "delhi", "cell_idx": 408, "results": [{"place_id": "0x390ce21b8d636751:0xda2fa1d06a704eab", "name": "Prinknest Technology LLP", "category": "Software company", "street": "1st Floor", "city": "RZ 122 D, Plot No.1", "phone": "08076833804", "website": "https://prinknest.com/", "rating": 4.8, "review_count": "", "latitude": 28.606828, "longitude": 77.0816226, "maps_url": "https://www.google.com/maps/place/?q=place_id:0x390ce21b8d636751:0xda2fa1d06a704eab"}, {"place_id": "0x390d1ca8de94abb1:0xc070687f1d5f8558", "name": "Bita Infotech IT Solutions:: Website Designing & Development Company", "category": "Software company", "street": "Rz-31 B, Street No. 5", "city": "Block M, West Sagarpur, Sagar Pur", "phone": "08178256664", "website": "https://bitainfotech.com/", "rating": 4.7, "review_count": "", "latitude": 28.6056495, "longitude": 77.1012293, "maps_url": "https://www.google.com/maps/place/?q=place_id:0x390d1ca8de94abb1:0xc070687f1d5f8558"}, {"place_id": "0x2a72b8b69d7b6493:0x11251466d4d34cac", "name": "WebZonal IT Company", "category": "Website designer", "street": "Wz-258/2-3, D Block Rd", "city": "Khazan Basti, Nangal Raya, Janakpuri", "phone": "09811170903", "website": "http://webzonal.com/", "rating": 5, "review_count": "", "latitude": 28.6122102, "longitude": 77.11159549999999, "maps_url": "https://www.google.com/maps/place/?q=place_id:0x2a72b8b69d7b6493:0x11251466d4d34cac"}, {"place_id": "0x390ce458d0000001:0xf2123bd299ec4501", "name": "IT Company India", "category": "Software company", "street": "D56", "city": "D Block, Sector 10", "phone": "09999244854", "website": "https://www.itcompanyindia.in/", "rating": 4.7, "review_count": "", "latitude": 28.589917699999997, "longitude": 77.3351153, "maps_url": "https://www.google.com/maps/place/?q=place_id:0x390ce458d0000001:0xf2123bd299ec4501"}, {"place_id": "0x390d1dc539fc39dd:0xa8d421a9d22cb256", "name": "India best website development company", "category": "Software company", "street": "RZ74, RZ Rd", "city": "Hans Park, Block RZ, Sagarpur East, Sagar Pur", "phone": "", "website": "https://techbuddy31.co.in/", "rating": 5, "review_count": "", "latitude": 28.6054396, "longitude": 77.1082699, "maps_url": "https://www.google.com/maps/place/?q=place_id:0x390d1dc539fc39dd:0xa8d421a9d22cb256"}, {"place_id": "0x390d1ca9e50d176d:0x9986a01a4b66bca0", "name": "VUnify Technology Private Limited", "category": "Software company", "street": "WZ-13H, Aggarwal Sweets Rd", "city": "near New", "phone": "", "website": "https://vunify.in/", "rating": 4.8, "review_count": "", "latitude": 28.6079093, "longitude": 77.1023304, "maps_url": "https://www.google.com/maps/place/?q=place_id:0x390d1ca9e50d176d:0x9986a01a4b66bca0"}, {"place_id": "0x390d05269555559b:0xaf748702511aad35", "name": "Paramount Infosystem Pvt Ltd", "category": "Software company", "street": "B-9, Ground Floor", "city": "Block-B, Shankar Garden, Vikaspuri", "phone": "09555923888", "website": "https://www.paramountinfosystem.com/", "rating": 4.7, "review_count": "", "latitude": 28.628372799999998, "longitude": 77.07356589999999, "maps_url": "https://www.google.com/maps/place/?q=place_id:0x390d05269555559b:0xaf748702511aad35"}, {"place_id": "0x390ce3c153b89811:0xe7a279685777e9ca", "name": "IT Company", "category": "Automation company", "street": "A-14", "city": "near iskcon temple", "phone": "", "website": "http://www.opuswiz.com/", "rating": 3, "review_count": "", "latitude": 28.557167, "longitude": 77.25424819999999, "maps_url": "https://www.google.com/maps/place/?q=place_id:0x390ce3c153b89811:0xe7a279685777e9ca"}, {"place_id": "0x390d0328a549c17d:0x3b9e359999e2cd2f", "name": "Total IT Software Solutions", "category": "Software company", "street": "WZ-248, Plot No. 7, IInd Floor", "city": "Inder Puri", "phone": "09350515096", "website": "http://tiss.co.in/", "rating": 4.4, "review_count": "", "latitude": 28.6319838, "longitude": 77.14855709999999, "maps_url": "https://www.google.com/maps/place/?q=place_id:0x390d0328a549c17d:0x3b9e359999e2cd2f"}, {"place_id": "0x390d013ca8ac1387:0x8a0db85b518267d5", "name": "NexGen Innovators", "category": "Software company", "street": "114B, 3rd floor, Dwarka Mor", "city": "New Delhi, Delhi 110059", "phone": "", "website": "https://www.nexgi.com/", "rating": 4.9, "review_count": "", "latitude": 28.618961, "longitude": 77.0322202, "maps_url": "https://www.google.com/maps/place/?q=place_id:0x390d013ca8ac1387:0x8a0db85b518267d5"}, {"place_id": "0x390ce1597b5509e5:0xfd8209b937b44d3c", "name": "IT Solutions India Private Limited", "category": "Software company", "street": "D-88/5", "city": "Pocket D, Okhla Phase I, Okhla Industrial Estate", "phone": "09810017429", "website": "https://www.itsipl.com/", "rating": 4.2, "review_count": "", "latitude": 28.520146, "longitude": 77.280431, "maps_url": "https://www.google.com/maps/place/?q=place_id:0x390ce1597b5509e5:0xfd8209b937b44d3c"}, {"place_id": "0x390d1d5c94432f89:0xa51c140b229dcb9e", "name": "Link Infotech IT Solution", "category": "Repair service", "street": "S D Mandir", "city": "1/206/78", "phone": "09810288149", "website": "", "rating": 5, "review_count": "", "latitude": 28.593003399999997, "longitude": 77.12126409999999, "maps_url": "https://www.google.com/maps/place/?q=place_id:0x390d1d5c94432f89:0xa51c140b229dcb9e"}, {"place_id": "0x390d1b0ad6565c37:0x9ee772d45ffed70d", "name": "IOTtech Softwares", "category": "Software company", "street": "First & Second Floor", "city": "Lucky Plaza", "phone": "08034798583", "website": "", "rating": 4.9, "review_count": "", "latitude": 28.5847981, "longitude": 77.07323199999999, "maps_url": "https://www.google.com/maps/place/?q=place_id:0x390d1b0ad6565c37:0x9ee772d45ffed70d"}, {"place_id": "0x390d03adaef37299:0xd8b343093deaee7", "name": "Ruminate IT Solution | Best software company in Delhi NCR | IT Software company", "category": "Software company", "street": "C-64", "city": "Pocket B, Hari Nagar", "phone": "09625650376", "website": "https://www.ruminateitsolution.com/", "rating": 5, "review_count": "", "latitude": 28.628819, "longitude": 77.10428399999999, "maps_url": "https://www.google.com/maps/place/?q=place_id:0x390d03adaef37299:0xd8b343093deaee7"}, {"place_id": "0x390d1d9ce0eaada3:0xc5a1a0a2458099e3", "name": "CODENCREATIVE TECH PVT LTD", "category": "Software company", "street": "DDA Flat", "city": "RBI Officers Colony, Vasant Vihar", "phone": "09717047610", "website": "https://codencreative.com/", "rating": 4.9, "review_count": "", "latitude": 28.563302099999998, "longitude": 77.1519732, "maps_url": "https://www.google.com/maps/place/?q=place_id:0x390d1d9ce0eaada3:0xc5a1a0a2458099e3"}, {"place_id": "0x390d02994de5e515:0xd908bc03409a0d37", "name": "Himalayan IT Solutions | Best Website Designing Company in Delhi | SEO/Digital Marketing Company in Delhi NCR, India", "category": "Software company", "street": "61/4255, Padam Singh Rd", "city": "Block 29, Block 1, Regar Pura, Karol Bagh", "phone": "09899098509", "website": "http://www.himalayanitsolutions.com/", "rating": 3.9, "review_count": "", "latitude": 28.649673999999997, "longitude": 77.186599, "maps_url": "https://www.google.com/maps/place/?q=place_id:0x390d02994de5e515:0xd908bc03409a0d37"}, {"place_id": "0x390d1bb72bd328b1:0xd9425539dc10edb3", "name": "SOFT INDIA WEB SOFTWARE DEVELOPMENT PVT LTD", "category": "Software company", "street": "Ground Floor", "city": "A- 107", "phone": "09625503688", "website": "http://www.softindia.in/", "rating": 3.2, "review_count": "", "latitude": 28.587611, "longitude": 77.0704514, "maps_url": "https://www.google.com/maps/place/?q=place_id:0x390d1bb72bd328b1:0xd9425539dc10edb3"}, {"place_id": "0x390ce54a2ffa7a35:0xbc45f708bc311be9", "name": "MLM Software Company in Delhi | MLM Software Development Company in Delhi | India - SOFTKWIT", "category": "Software company", "street": "801B", "city": "Janakpuri District Center, Janakpuri", "phone": "08882925582", "website": "https://softkwit.in/mlm-software.php", "rating": 5, "review_count": "", "latitude": 28.630030599999998, "longitude": 77.0809543, "maps_url": "https://www.google.com/maps/place/?q=place_id:0x390ce54a2ffa7a35:0xbc45f708bc311be9"}, {"place_id": "0x390d0338223caf13:0xb5db10bbbd5119ce", "name": "H&G IT Private Limited", "category": "Software company", "street": "B-138, First Floor", "city": "Mayapuri Industrial Area Phase I", "phone": "", "website": "", "rating": 4.3, "review_count": "", "latitude": 28.6274646, "longitude": 77.12720089999999, "maps_url": "https://www.google.com/maps/place/?q=place_id:0x390d0338223caf13:0xb5db10bbbd5119ce"}, {"place_id": "0x390d1b3ce3c8f855:0xee4a65138d454b3d", "name": "Aarti Web Technology", "category": "Software company", "street": "West Sagarpur, Dayal Park, Main Sagarpur, Sagar Pur", "city": "New Delhi, Delhi, 110046", "phone": "08882819003", "website": "http://aartitech.in/", "rating": 4.7, "review_count": "", "latitude": 28.605843699999998, "longitude": 77.0962301, "maps_url": "https://www.google.com/maps/place/?q=place_id:0x390d1b3ce3c8f855:0xee4a65138d454b3d"}, {"place_id": "0x390d049f5674e4b5:0xd958160a9013b45e", "name": "BI InfoTech Pvt Ltd", "category": "Software company", "street": "12/4, Jail Rd", "city": "Prem Nagar, Janakpuri", "phone": "08766248464", "website": "https://www.biinfotech.com/", "rating": 4.5, "review_count": "", "latitude": 28.6357547, "longitude": 77.0950907, "maps_url": "https://www.google.com/maps/place/?q=place_id:0x390d049f5674e4b5:0xd958160a9013b45e"}, {"place_id": "0x8be65278a5572b07:0x413ba8eb2bfa0ea6", "name": "Webcorewin Business Solution LLP | Top Website & Software Development Company in Delhi NCR", "category": "Software company", "street": "Metro Pillar Number 571", "city": "Second Floor", "phone": "09811382167", "website": "https://www.webcorewin.com/", "rating": 5, "review_count": "", "latitude": 28.6314446, "longitude": 77.0831694, "maps_url": "https://www.google.com/maps/place/?q=place_id:0x8be65278a5572b07:0x413ba8eb2bfa0ea6"}, {"place_id": "0x390d1daf5bbb6d71:0xd493e8d457a28388", "name": "DPM IT SOLUTIONS", "category": "Software company", "street": "2nd floor, madangiri", "city": "111, E-2", "phone": "09650413450", "website": "https://dpmitsolutions.com/", "rating": 5, "review_count": "", "latitude": 28.565620799999998, "longitude": 77.16005679999999, "maps_url": "https://www.google.com/maps/place/?q=place_id:0x390d1daf5bbb6d71:0xd493e8d457a28388"}, {"place_id": "0x390cfcac5aaaaaed:0xa20ab2e7b400180", "name": "\ud835\udc68\ud835\udc76 \ud835\udc7a\ud835\udc90\ud835\udc87\ud835\udc95\ud835\udc98\ud835\udc82\ud835\udc93\ud835\udc86 \ud835\udc7a\ud835\udc90\ud835\udc8d\ud835\udc96\ud835\udc95\ud835\udc8a\ud835\udc90\ud835\udc8f Website Designing company-website development company-product promotion and ERP development company", "category": "Software company", "street": "1B", "city": "S-505", "phone": "01142603444", "website": "https://aosoftwaresolution.com/", "rating": 4.8, "review_count": "", "latitude": 28.6287195, "longitude": 77.2766171, "maps_url": "https://www.google.com/maps/place/?q=place_id:0x390cfcac5aaaaaed:0xa20ab2e7b400180"}, {"place_id": "0x390d1cbf2f5489a1:0xba505ba8477dd8ae", "name": "Deutech Computer Centre", "category": "Educational institution", "street": "1/166, Sadar Bazar", "city": "Sadar Bazar Rd", "phone": "09810481601", "website": "http://www.deutechonline.in/", "rating": 4.2, "review_count": "", "latitude": 28.594327099999997, "longitude": 77.12200469999999, "maps_url": "https://www.google.com/maps/place/?q=place_id:0x390d1cbf2f5489a1:0xba505ba8477dd8ae"}, {"place_id": "0x390d04bf6a4fffff:0xcbc27b60a27e994", "name": "Amron Software Technologies Pvt. Ltd.", "category": "Software company", "street": "1105", "city": "Kirti Shikhar", "phone": "09015592666", "website": "https://amronsoftech.com/", "rating": 4.8, "review_count": "", "latitude": 28.629019399999997, "longitude": 77.08068449999999, "maps_url": "https://www.google.com/maps/place/?q=place_id:0x390d04bf6a4fffff:0xcbc27b60a27e994"}, {"place_id": "0x390d035db734e16f:0x5bbaa03530e22b6a", "name": "V2S Infosystem", "category": "Software company", "street": "2/352, 2nd Floor Subhash Nagar FRONT SIDE", "city": "New Delhi, Delhi 110064", "phone": "08375012908", "website": "https://v2sinfosystem.com/", "rating": 4.8, "review_count": "", "latitude": 28.635632299999997, "longitude": 77.108601, "maps_url": "https://www.google.com/maps/place/?q=place_id:0x390d035db734e16f:0x5bbaa03530e22b6a"}, {"place_id": "0x390d0589b3928da3:0xaebdbe040a6da4d", "name": "HRD Technology & Services Pvt. Ltd.", "category": "Software company", "street": "106", "city": "DDA 2, Janakpuri District Center, Janakpuri", "phone": "09136312852", "website": "https://www.hrdtechnology.com/", "rating": 5, "review_count": "", "latitude": 28.6302992, "longitude": 77.0814394, "maps_url": "https://www.google.com/maps/place/?q=place_id:0x390d0589b3928da3:0xaebdbe040a6da4d"}, {"place_id": "0x390d058eebd4e349:0xe3540cff21ac1db4", "name": "Matrix Infotech Solution | Software Development Company in Delhi", "category": "Software company", "street": "3rd floor, Besmate Indian Bank, housing complex", "city": "Main Market", "phone": "08920817059", "website": "https://www.matrixinfotechsolution.com/", "rating": 5, "review_count": "", "latitude": 28.6165375, "longitude": 77.0282521, "maps_url": "https://www.google.com/maps/place/?q=place_id:0x390d058eebd4e349:0xe3540cff21ac1db4"}, {"place_id": "0x390d0390bfffffff:0xa1061df027587269", "name": "Softmore It Solutions", "category": "Website designer", "street": "A1 B8", "city": "Block A1B, Janakpuri", "phone": "09266474766", "website": "https://www.softmoreit.co.in/", "rating": 4.9, "review_count": "", "latitude": 28.623256899999998, "longitude": 77.07134169999999, "maps_url": "https://www.google.com/maps/place/?q=place_id:0x390d0390bfffffff:0xa1061df027587269"}, {"place_id": "0x29182cd90b477205:0xafbdc18388b8d100", "name": "Ananta Technology - IT Company", "category": "Web hosting company", "street": "RZB-214, Old Mehrauli Rd", "city": "Palam Colony, Part - I, Raj Nagar", "phone": "", "website": "https://anantatechnology.com/", "rating": 5, "review_count": "", "latitude": 28.584313899999998, "longitude": 77.0862543, "maps_url": "https://www.google.com/maps/place/?q=place_id:0x29182cd90b477205:0xafbdc18388b8d100"}, {"place_id": "0x390ce3ad10000061:0xeff7e6017a22cce7", "name": "Alpinesoft IT Solutions Authorized Google Workspace Reseller", "category": "Software company", "street": "162/9 Ist Floor, KIshangarh - Gaushala Marg", "city": "Lakhi Nath Kuti, Mehrauli, Vasant Kunj", "phone": "09999011157", "website": "https://www.alpinesoftit.com/", "rating": 4.3, "review_count": "", "latitude": 28.515394399999998, "longitude": 77.16460359999999, "maps_url": "https://www.google.com/maps/place/?q=place_id:0x390ce3ad10000061:0xeff7e6017a22cce7"}, {"place_id": "0x390d1b2c770a669b:0x503c852e7ddd24d8", "name": "Aadi Soft - IT Software Freelancing Unit", "category": "Computer support and services", "street": "R.Z.-14A", "city": "Geetanjali Park, West Sagarpur, Sagar Pur", "phone": "", "website": "https://inventory-appn.vercel.app/", "rating": 5, "review_count": "", "latitude": 28.6014701, "longitude": 77.0982746, "maps_url": "https://www.google.com/maps/place/?q=place_id:0x390d1b2c770a669b:0x503c852e7ddd24d8"}, {"place_id": "0x390d05713cbc05f9:0x29ec332097ea9861", "name": "Bluebyte It Solutions", "category": "Software company", "street": "MS-83", "city": "Block MS, Mohan Garden, Uttam Nagar", "phone": "08178838292", "website": "https://www.bluebyteitsolutions.com/", "rating": 5, "review_count": "", "latitude": 28.6289797, "longitude": 77.0335781, "maps_url": "https://www.google.com/maps/place/?q=place_id:0x390d05713cbc05f9:0x29ec332097ea9861"}, {"place_id": "0x2dac0064611a85f3:0xdc4d28765b4c9b5a", "name": "Nitai Technologies - Web Development Company In Delhi", "category": "Software company", "street": "Springhouse, B-1", "city": "639 A", "phone": "09211245458", "website": "https://nitaitechnologies.com/", "rating": 4.9, "review_count": "", "latitude": 28.632381499999997, "longitude": 77.0855062, "maps_url": "https://www.google.com/maps/place/?q=place_id:0x2dac0064611a85f3:0xdc4d28765b4c9b5a"}, {"place_id": "0x390d1be7f1a44f95:0x84524a5425f8930d", "name": "InfraDost Technologies Pvt Ltd.- Microsoft Adobe Corel Draw & Security Solution Provider", "category": "Software company", "street": "Gurgaon - Delhi Expy", "city": "Block B, Mahipalpur Village, Mahipalpur", "phone": "08287792542", "website": "http://www.infradost.com/", "rating": 4.6, "review_count": "", "latitude": 28.5485743, "longitude": 77.1264697, "maps_url": "https://www.google.com/maps/place/?q=place_id:0x390d1be7f1a44f95:0x84524a5425f8930d"}, {"place_id": "0x390d04a42f2b3e7b:0x35404d3b1a67431e", "name": "Softlink Systems", "category": "Software company", "street": "3RD FLOOR", "city": "C-164", "phone": "09810634438", "website": "http://www.softlinksystems.co.in/", "rating": 4.3, "review_count": "", "latitude": 28.6203471, "longitude": 77.12007969999999, "maps_url": "https://www.google.com/maps/place/?q=place_id:0x390d04a42f2b3e7b:0x35404d3b1a67431e"}, {"place_id": "0x390d04bf231d4979:0xa2cd2b7e8bfd68ff", "name": "TN Infotech Pvt. Ltd.", "category": "Computer support and services", "street": "E-594, FIRST FLOOR", "city": "Ramphal Chowk Rd", "phone": "09810782194", "website": "http://tninfotech.net/", "rating": 5, "review_count": "", "latitude": 28.585736699999998, "longitude": 77.0719481, "maps_url": "https://www.google.com/maps/place/?q=place_id:0x390d04bf231d4979:0xa2cd2b7e8bfd68ff"}, {"place_id": "0x390d05f6807aba3f:0x8d4dbf179623854a", "name": "Erp Software Company Delhi | Crm Software Development Company in Delhi", "category": "Software company", "street": "3 Floor", "city": "B-77", "phone": "09266518819", "website": "https://www.weblyticsinfotech.com/crm-software-in-delhi.php", "rating": 5, "review_count": "", "latitude": 28.6150725, "longitude": 77.0341376, "maps_url": "https://www.google.com/maps/place/?q=place_id:0x390d05f6807aba3f:0x8d4dbf179623854a"}, {"place_id": "0x390d1d3359ca0f03:0x3a6474b72a604fb", "name": "Surya Transport company and Relocation", "category": "Transportation service", "street": "ground floor", "city": "brar building", "phone": "", "website": "https://www.stcrelo.com/", "rating": 5, "review_count": "", "latitude": 28.591375799999998, "longitude": 77.1203701, "maps_url": "https://www.google.com/maps/place/?q=place_id:0x390d1d3359ca0f03:0x3a6474b72a604fb"}, {"place_id": "0x2dac0064611a85f3:0xdc4d28765b4c9b5a", "name": "Nitai Technologies - Web Development Company In Delhi", "category": "Software company", "street": "Springhouse, B-1", "city": "639 A", "phone": "09211245458", "website": "https://nitaitechnologies.com/", "rating": 4.9, "review_count": "", "latitude": 28.632381499999997, "longitude": 77.0855062, "maps_url": "https://www.google.com/maps/place/?q=place_id:0x2dac0064611a85f3:0xdc4d28765b4c9b5a"}, {"place_id": "0x390d1be7f1a44f95:0x84524a5425f8930d", "name": "InfraDost Technologies Pvt Ltd.- Microsoft Adobe Corel Draw & Security Solution Provider", "category": "Software company", "street": "Gurgaon - Delhi Expy", "city": "Block B, Mahipalpur Village, Mahipalpur", "phone": "08287792542", "website": "http://www.infradost.com/", "rating": 4.6, "review_count": "", "latitude": 28.5485743, "longitude": 77.1264697, "maps_url": "https://www.google.com/maps/place/?q=place_id:0x390d1be7f1a44f95:0x84524a5425f8930d"}, {"place_id": "0x390d04a42f2b3e7b:0x35404d3b1a67431e", "name": "Softlink Systems", "category": "Software company", "street": "3RD FLOOR", "city": "C-164", "phone": "09810634438", "website": "http://www.softlinksystems.co.in/", "rating": 4.3, "review_count": "", "latitude": 28.6203471, "longitude": 77.12007969999999, "maps_url": "https://www.google.com/maps/place/?q=place_id:0x390d04a42f2b3e7b:0x35404d3b1a67431e"}, {"place_id": "0x390d04bf231d4979:0xa2cd2b7e8bfd68ff", "name": "TN Infotech Pvt. Ltd.", "category": "Computer support and services", "street": "E-594, FIRST FLOOR", "city": "Ramphal Chowk Rd", "phone": "09810782194", "website": "http://tninfotech.net/", "rating": 5, "review_count": "", "latitude": 28.585736699999998, "longitude": 77.0719481, "maps_url": "https://www.google.com/maps/place/?q=place_id:0x390d04bf231d4979:0xa2cd2b7e8bfd68ff"}, {"place_id": "0x390d1d3359ca0f03:0x3a6474b72a604fb", "name": "Surya Transport company and Relocation", "category": "Transportation service", "street": "ground floor", "city": "brar building", "phone": "", "website": "https://www.stcrelo.com/", "rating": 5, "review_count": "", "latitude": 28.591375799999998, "longitude": 77.1203701, "maps_url": "https://www.google.com/maps/place/?q=place_id:0x390d1d3359ca0f03:0x3a6474b72a604fb"}, {"place_id": "0x390d05c8987801e5:0x128e04dce6c4cbc4", "name": "Matrix Infotech Solution | Software Development Company", "category": "Software company", "street": "j j", "city": "Dwarka Mor, Block WE, Mohan Garden, Razapur Khurd", "phone": "08920817059", "website": "http://www.matrixinfotechsolution.com/", "rating": 3.9, "review_count": "", "latitude": 28.637037, "longitude": 77.0291258, "maps_url": "https://www.google.com/maps/place/?q=place_id:0x390d05c8987801e5:0x128e04dce6c4cbc4"}, {"place_id": "0x390d03300a33a431:0xf5f7f2c4f7e8ad90", "name": "Chhaya Infosystems", "category": "Software company", "street": "A 17 Basement Naraina vihar main road", "city": "chaudhary girdhari lal marg", "phone": "09811959469", "website": "", "rating": 4.4, "review_count": "", "latitude": 28.626713, "longitude": 77.13592799999999, "maps_url": "https://www.google.com/maps/place/?q=place_id:0x390d03300a33a431:0xf5f7f2c4f7e8ad90"}, {"place_id": "0x390d1b2440000001:0x7b52a88f21fc0d82", "name": "DesignDot Technologies | #1 Best Website & App Development | Top Software & AIML Solutions Company in Delhi", "category": "Software company", "street": "RZ 1/13, 3RD FLOOR, Main Road Above HDFC Bank, Dwarka, Near Palam Metro Gate 2", "city": "New Delhi, Delhi 110077", "phone": "09999652812", "website": "https://www.designdot.co.in/", "rating": 5, "review_count": "", "latitude": 28.587238199999998, "longitude": 77.0850727, "maps_url": "https://www.google.com/maps/place/?q=place_id:0x390d1b2440000001:0x7b52a88f21fc0d82"}, {"place_id": "0x390d1bf076ad40a5:0x6e54f7930154b26d", "name": "pNthaan: Technologies - Digital Marketing Company in Delhi - Social Media Marketing", "category": "Software company", "street": "D2/15, Dabri - Palam Rd", "city": "Vinod Puri, Block B 3, Vijay Enclave, Mahavir Enclave", "phone": "09810455309", "website": "https://pnthaan.com/", "rating": 4.9, "review_count": "", "latitude": 28.602663399999997, "longitude": 77.0801891, "maps_url": "https://www.google.com/maps/place/?q=place_id:0x390d1bf076ad40a5:0x6e54f7930154b26d"}, {"place_id": "0x390d1df0721e08c5:0x49d5fd4648a33c2d", "name": "Nibble Software | Website Design & Development | Travel Web API & CRM | SEO, SMO, Paid Ads, Amazon & Flipkart Marketing", "category": "Website designer", "street": "4th Floor", "city": "Moolchand Tower", "phone": "09971066697", "website": "https://www.nibblesoftware.com/", "rating": 4.8, "review_count": "", "latitude": 28.6000862, "longitude": 77.0818018, "maps_url": "https://www.google.com/maps/place/?q=place_id:0x390d1df0721e08c5:0x49d5fd4648a33c2d"}, {"place_id": "0x20616dbf813c03ef:0xc8fd1ca47f902e9e", "name": "Bloatware IT Software Company | website Designing Company | Software Company | MLM |CRM | Android Apps", "category": "Software company", "street": "C1", "city": "Rama Park", "phone": "08920750797", "website": "https://bloatwareitsolutions.com/", "rating": 4.5, "review_count": "", "latitude": 28.621265599999997, "longitude": 77.0324943, "maps_url": "https://www.google.com/maps/place/?q=place_id:0x20616dbf813c03ef:0xc8fd1ca47f902e9e"}, {"place_id": "0x390d036a16f841d9:0x9b91311b1453f4c0", "name": "Zon Tec Solutions", "category": "Software company", "street": "3rd Floor", "city": "302 - 302 A, West", "phone": "09599902185", "website": "https://zontecsolutions.com/", "rating": 4.1, "review_count": "", "latitude": 28.6382303, "longitude": 77.1205162, "maps_url": "https://www.google.com/maps/place/?q=place_id:0x390d036a16f841d9:0x9b91311b1453f4c0"}, {"place_id": "0x390cfcacae4e5a67:0x961a9738d8ff3f7c", "name": "Need Infotech", "category": "Software company", "street": "110012", "city": "E-557", "phone": "08860808752", "website": "https://www.needinfotech.com/", "rating": 4.8, "review_count": "", "latitude": 28.631518, "longitude": 77.1436078, "maps_url": "https://www.google.com/maps/place/?q=place_id:0x390cfcacae4e5a67:0x961a9738d8ff3f7c"}, {"place_id": "0x390d1b6807b97c57:0xb6dc40e91d71681f", "name": "Algo2bots Infotech", "category": "Software company", "street": "WZ-291, Street Number 8", "city": "Sadh Nagar I, Sadh Nagar, Palam", "phone": "09911447760", "website": "http://algo2botsinfotech.com/", "rating": 5, "review_count": "", "latitude": 28.587672599999998, "longitude": 77.09199129999999, "maps_url": "https://www.google.com/maps/place/?q=place_id:0x390d1b6807b97c57:0xb6dc40e91d71681f"}, {"place_id": "0x390d1dd264947e1b:0x2952c77465ea441d", "name": "Airon Cash and Credit private limited", "category": "Car finance and loan company", "street": "1/185/8", "city": "opp. SBI ATM", "phone": "09310596439", "website": "", "rating": 4.5, "review_count": "", "latitude": 28.593595699999998, "longitude": 77.1214498, "maps_url": "https://www.google.com/maps/place/?q=place_id:0x390d1dd264947e1b:0x2952c77465ea441d"}, {"place_id": "0x390d051e7ddd1931:0x90aefcd9adf3fb48", "name": "It solutions 4 India", "category": "Computer support and services", "street": "tilak nagar 1/1 3 rd floor vishal mega mart", "city": "New Delhi, Delhi 110058", "phone": "09711347474", "website": "https://www.itsolution4india.com/", "rating": 4.1, "review_count": "", "latitude": 28.6353108, "longitude": 77.0928445, "maps_url": "https://www.google.com/maps/place/?q=place_id:0x390d051e7ddd1931:0x90aefcd9adf3fb48"}, {"place_id": "0x390d1b56cb173bd9:0x818bf2fa36e3d6a8", "name": "Travinto Technologies", "category": "Software company", "street": "RZ 49C, Gali No. 8A", "city": "Vashist Park, Sagar Pur", "phone": "", "website": "https://travinto.com/", "rating": 5, "review_count": "", "latitude": 28.608297999999998, "longitude": 77.1017762, "maps_url": "https://www.google.com/maps/place/?q=place_id:0x390d1b56cb173bd9:0x818bf2fa36e3d6a8"}, {"place_id": "0x390d1b0076c735ad:0x13551f319095520a", "name": "Aftab IT information technology", "category": "Computer Hardware Company", "street": "C58", "city": "D Block, Kapas Hera Estate", "phone": "", "website": "", "rating": 5, "review_count": "", "latitude": 28.5221669, "longitude": 77.08510989999999, "maps_url": "https://www.google.com/maps/place/?q=place_id:0x390d1b0076c735ad:0x13551f319095520a"}, {"place_id": "0x390ce4575d275643:0x6374f0c539bcb978", "name": "Joon Corporation - Website Designing Company in Delhi", "category": "Website designer", "street": "814-15, 9th Floor", "city": "West End Mall", "phone": "08447696450", "website": "https://jooncorporation.com/", "rating": 4.4, "review_count": "", "latitude": 28.6300021, "longitude": 77.0797656, "maps_url": "https://www.google.com/maps/place/?q=place_id:0x390ce4575d275643:0x6374f0c539bcb978"}, {"place_id": "0x390d1cbe08eb8973:0xb819a3cc74221d2f", "name": "Pranay Singhal & Company CA", "category": "Chartered accountant", "street": "Singhal building,", "city": "Sadar Bazar Rd", "phone": "09871109931", "website": "", "rating": 5, "review_count": "", "latitude": 28.5919265, "longitude": 77.1200001, "maps_url": "https://www.google.com/maps/place/?q=place_id:0x390d1cbe08eb8973:0xb819a3cc74221d2f"}, {"place_id": "0x390d05d445f3b1f9:0x7e3d03d10ec5ca89", "name": "Softlab Systems", "category": "Software company", "street": "C4F/208", "city": "Block C4A, Block C4F, Janakpuri", "phone": "09811128799", "website": "http://www.softlabsys.com/", "rating": 4.6, "review_count": "", "latitude": 28.6171388, "longitude": 77.09032979999999, "maps_url": "https://www.google.com/maps/place/?q=place_id:0x390d05d445f3b1f9:0x7e3d03d10ec5ca89"}, {"place_id": "0x390d05732b8aadc5:0xb1d8e34f25488bbf", "name": "Digiweb Experts - Website Designing Company in Janakpuri", "category": "Software company", "street": "212", "city": "Kirti Shikhar", "phone": "09540199079", "website": "https://digiwebexperts.in/", "rating": 4.9, "review_count": "", "latitude": 28.629204299999998, "longitude": 77.0805475, "maps_url": "https://www.google.com/maps/place/?q=place_id:0x390d05732b8aadc5:0xb1d8e34f25488bbf"}, {"place_id": "0x390ce24b3fffffff:0x9f587d89ba46604", "name": "Microchip Infotech Systems Private Limited", "category": "Software company", "street": "A 102", "city": "Amar Colony A Block, Block A, Lajpat Nagar 4, Lajpat Nagar", "phone": "01141324610", "website": "http://www.microchipindia.com/", "rating": 3.4, "review_count": "", "latitude": 28.561472499999997, "longitude": 77.2418012, "maps_url": "https://www.google.com/maps/place/?q=place_id:0x390ce24b3fffffff:0x9f587d89ba46604"}, {"place_id": "0x390d1cbe15b77355:0x98a374e5029c8aec", "name": "Kamal Enterprises", "category": "Corporate office", "street": "206/37, Sadar Bazaar", "city": "Sadar Bazaar", "phone": "09899280023", "website": "", "rating": 3.8, "review_count": "", "latitude": 28.5924294, "longitude": 77.12093589999999, "maps_url": "https://www.google.com/maps/place/?q=place_id:0x390d1cbe15b77355:0x98a374e5029c8aec"}, {"place_id": "0x390d1d2e3047f851:0x6813520d4eeca12b", "name": "Safe & Refreshing Travels All India", "category": "Travel agency", "street": "Shekhawati Lines, Delhi Cantonment", "city": "New Delhi, Delhi 110010", "phone": "07533937712", "website": "", "rating": 5, "review_count": "", "latitude": 28.5877765, "longitude": 77.1186828, "maps_url": "https://www.google.com/maps/place/?q=place_id:0x390d1d2e3047f851:0x6813520d4eeca12b"}, {"place_id": "0x390d1b80fb9da03d:0xd77ea97dd9a2aa4a", "name": "Nextwebi IT Solutions Pvt Ltd", "category": "Website designer", "street": "45, Street Number 2", "city": "Palam Extension, Sector 7 Dwarka, Dwarka", "phone": "08904240871", "website": "", "rating": 5, "review_count": "", "latitude": 28.5945388, "longitude": 77.0857647, "maps_url": "https://www.google.com/maps/place/?q=place_id:0x390d1b80fb9da03d:0xd77ea97dd9a2aa4a"}, {"place_id": "0x390d05645ab5e62b:0xd240ffde135445f4", "name": "Adjoint Infocom Private Limited", "category": "Website designer", "street": "Second Floor", "city": "WZ- 294", "phone": "", "website": "https://www.adjointinfocom.com/", "rating": 4.4, "review_count": "", "latitude": 28.6274493, "longitude": 77.1002505, "maps_url": "https://www.google.com/maps/place/?q=place_id:0x390d05645ab5e62b:0xd240ffde135445f4"}, {"place_id": "0x390d1c6bcfd37a51:0xe65828997af7f8dd", "name": "Ernst and Young Global Limited", "category": "Business management consultant", "street": "3rd & 6th Floor, Wing A & B Worldmark-1 Indira Gandhi International Airport Hospitality", "city": "Opp Holiday Inn", "phone": "", "website": "http://ey.com/", "rating": 4.6, "review_count": "", "latitude": 28.5504197, "longitude": 77.1220802, "maps_url": "https://www.google.com/maps/place/?q=place_id:0x390d1c6bcfd37a51:0xe65828997af7f8dd"}, {"place_id": "0x390d0348be373921:0xdab0e6afc72090d6", "name": "\ud835\udc16\ud835\udc1e\ud835\udc1b\ud835\udc24\ud835\udc1a\ud835\udc2b\ud835\udc2d \ud835\udc03\ud835\udc22\ud835\udc20\ud835\udc22\ud835\udc2d\ud835\udc1a\ud835\udc25 \ud835\udc0f\ud835\udc2f\ud835\udc2d. \ud835\udc0b\ud835\udc2d\ud835\udc1d", "category": "Website designer", "street": "2nd Floor", "city": "C-127", "phone": "09711110321", "website": "https://webkartindia.com/", "rating": 4.9, "review_count": "", "latitude": 28.628981399999997, "longitude": 77.1369867, "maps_url": "https://www.google.com/maps/place/?q=place_id:0x390d0348be373921:0xdab0e6afc72090d6"}, {"place_id": "0x4aae0663c3deca9b:0x4c38411d99fb6a76", "name": "Best Web India- Website Designing and Web Development Company", "category": "Website designer", "street": "D-25, Gali No.10", "city": "New Jankipuri, Uttam Nagar, Bindapur", "phone": "09318492254", "website": "https://www.bestwebindia.com/", "rating": 5, "review_count": "", "latitude": 28.6080206, "longitude": 77.07317429999999, "maps_url": "https://www.google.com/maps/place/?q=place_id:0x4aae0663c3deca9b:0x4c38411d99fb6a76"}, {"place_id": "0x4f6402c2da16ff95:0xd3b65b0e189f65b0", "name": "Radiant Technologies - E-commerce Website Development & Designing Company, Digital Marketing, Customized CRM", "category": "Software company", "street": "Second Floor", "city": "WZ 10B, Asalatpur Rd", "phone": "09999886194", "website": "https://techradiant.net/", "rating": 4.5, "review_count": "", "latitude": 28.6217926, "longitude": 77.0763157, "maps_url": "https://www.google.com/maps/place/?q=place_id:0x4f6402c2da16ff95:0xd3b65b0e189f65b0"}, {"place_id": "0x390d1cb91555557d:0x3e364c0b480e53cd", "name": "Darbar Traders", "category": "Electronics store", "street": "Shop No.1/206", "city": "40, Sadar Bazar Rd", "phone": "09560897716", "website": "", "rating": 3.4, "review_count": "", "latitude": 28.593074599999998, "longitude": 77.1212906, "maps_url": "https://www.google.com/maps/place/?q=place_id:0x390d1cb91555557d:0x3e364c0b480e53cd"}, {"place_id": "0x9f35c0bfac8af1b:0xc5702c4bcd1f9f3a", "name": "CrestPulse | Digital Marketing and Web Development Service Provider IT Company", "category": "Software company", "street": "", "city": "", "phone": "08920610393", "website": "http://crestpulse.in/", "rating": 4.5, "review_count": "", "latitude": 55.970947499999994, "longitude": -31.828454999999998, "maps_url": "https://www.google.com/maps/place/?q=place_id:0x9f35c0bfac8af1b:0xc5702c4bcd1f9f3a"}, {"place_id": "0x41d0a87c8f4afaf:0x24b53b7f7ad5bf06", "name": "Fox Beryl - Digital Marketing Company", "category": "Website designer", "street": "G-16/2 Street NO. 2 Raj nagar", "city": "Part-2, Palam", "phone": "08595869757", "website": "https://foxberyl.in/", "rating": 5, "review_count": "", "latitude": 28.585067199999997, "longitude": 77.0815736, "maps_url": "https://www.google.com/maps/place/?q=place_id:0x41d0a87c8f4afaf:0x24b53b7f7ad5bf06"}, {"place_id": "0x4cb4b55e45a08d4b:0x789ded35721a0d10", "name": "Ristlat | Best Website development Company in Delhi", "category": "Website designer", "street": "Rz 26p/22", "city": "Indra Park, Indira Park, Palam", "phone": "", "website": "https://ristlat.com/", "rating": 4.9, "review_count": "", "latitude": 28.595932599999998, "longitude": 77.0986175, "maps_url": "https://www.google.com/maps/place/?q=place_id:0x4cb4b55e45a08d4b:0x789ded35721a0d10"}, {"place_id": "0x390d04caefab7813:0x5c0ce1119a71f9cd", "name": "Universal Network of Infotech", "category": "Software company", "street": "WZ-61A/8A, Lane No 17, Vashist Park, Pankha Road, Janak Puri Institutional Area", "city": "25 Feet Rd", "phone": "01128526116", "website": "", "rating": "", "review_count": "", "latitude": 28.6125701, "longitude": 77.0776147, "maps_url": "https://www.google.com/maps/place/?q=place_id:0x390d04caefab7813:0x5c0ce1119a71f9cd"}, {"place_id": "0x390cfb4bf15a6733:0xaf50e6f3c5fb7641", "name": "Digitals Daddy: Web & App Development Company", "category": "Software company", "street": "Metro Gate No. 2", "city": "Nearest Sikandarpur", "phone": "09818286609", "website": "https://www.digitalsdaddy.com/", "rating": 4.9, "review_count": "", "latitude": 28.4847884, "longitude": 77.0922192, "maps_url": "https://www.google.com/maps/place/?q=place_id:0x390cfb4bf15a6733:0xaf50e6f3c5fb7641"}, {"place_id": "0x390d1bb378fea377:0x6aec5aba720a0b26", "name": "CertHippo Solution Pvt. Ltd.", "category": "Educational testing service", "street": "RZ- 26 P/37", "city": "Gali Number 31A", "phone": "", "website": "https://certhippo.com/", "rating": 4.8, "review_count": "", "latitude": 28.596792299999997, "longitude": 77.0999558, "maps_url": "https://www.google.com/maps/place/?q=place_id:0x390d1bb378fea377:0x6aec5aba720a0b26"}, {"place_id": "0x390d05c021c5643f:0x4c5794b17406c81c", "name": "Web2online Solutions - web designing and web development company in delhi, seo company delhi", "category": "Website designer", "street": "C 917", "city": "Block C, Sector 7 Dwarka, Dwarka", "phone": "08860303721", "website": "https://web2onlinesolutions.com/", "rating": 4.9, "review_count": "", "latitude": 28.585333499999997, "longitude": 77.0707252, "maps_url": "https://www.google.com/maps/place/?q=place_id:0x390d05c021c5643f:0x4c5794b17406c81c"}, {"place_id": "0x390d1b0010fc2321:0x12e9154c815cf007", "name": "Prashant Dwivedi IT company", "category": "Warehouse", "street": "G3P5+GVC", "city": "Nayak Pura, Bijwasan", "phone": "", "website": "", "rating": "", "review_count": "", "latitude": 28.536316, "longitude": 77.059649, "maps_url": "https://www.google.com/maps/place/?q=place_id:0x390d1b0010fc2321:0x12e9154c815cf007"}, {"place_id": "0x390cfea83f36661b:0x893715bf8766e4ee", "name": "IT Solution", "category": "Software company", "street": "P7CG+RPF", "city": "Mahalaxmi Vihar, Phase 7, Block A, Shiv Vihar, Karawal Nagar", "phone": "09818231784", "website": "", "rating": 5, "review_count": "", "latitude": 28.722054399999998, "longitude": 77.2768011, "maps_url": "https://www.google.com/maps/place/?q=place_id:0x390cfea83f36661b:0x893715bf8766e4ee"}, {"place_id": "0x390d1d2e3047f851:0x6813520d4eeca12b", "name": "Safe & Refreshing Travels All India", "category": "Travel agency", "street": "Shekhawati Lines, Delhi Cantonment", "city": "New Delhi, Delhi 110010", "phone": "07533937712", "website": "", "rating": 5, "review_count": "", "latitude": 28.5877765, "longitude": 77.1186828, "maps_url": "https://www.google.com/maps/place/?q=place_id:0x390d1d2e3047f851:0x6813520d4eeca12b"}, {"place_id": "0x390d1b80fb9da03d:0xd77ea97dd9a2aa4a", "name": "Nextwebi IT Solutions Pvt Ltd", "category": "Website designer", "street": "45, Street Number 2", "city": "Palam Extension, Sector 7 Dwarka, Dwarka", "phone": "08904240871", "website": "", "rating": 5, "review_count": "", "latitude": 28.5945388, "longitude": 77.0857647, "maps_url": "https://www.google.com/maps/place/?q=place_id:0x390d1b80fb9da03d:0xd77ea97dd9a2aa4a"}, {"place_id": "0x390d05645ab5e62b:0xd240ffde135445f4", "name": "Adjoint Infocom Private Limited", "category": "Website designer", "street": "Second Floor", "city": "WZ- 294", "phone": "", "website": "https://www.adjointinfocom.com/", "rating": 4.4, "review_count": "", "latitude": 28.6274493, "longitude": 77.1002505, "maps_url": "https://www.google.com/maps/place/?q=place_id:0x390d05645ab5e62b:0xd240ffde135445f4"}, {"place_id": "0x390d1c6bcfd37a51:0xe65828997af7f8dd", "name": "Ernst and Young Global Limited", "category": "Business management consultant", "street": "3rd & 6th Floor, Wing A & B Worldmark-1 Indira Gandhi International Airport Hospitality", "city": "Opp Holiday Inn", "phone": "", "website": "http://ey.com/", "rating": 4.6, "review_count": "", "latitude": 28.5504197, "longitude": 77.1220802, "maps_url": "https://www.google.com/maps/place/?q=place_id:0x390d1c6bcfd37a51:0xe65828997af7f8dd"}, {"place_id": "0x390d0348be373921:0xdab0e6afc72090d6", "name": "\ud835\udc16\ud835\udc1e\ud835\udc1b\ud835\udc24\ud835\udc1a\ud835\udc2b\ud835\udc2d \ud835\udc03\ud835\udc22\ud835\udc20\ud835\udc22\ud835\udc2d\ud835\udc1a\ud835\udc25 \ud835\udc0f\ud835\udc2f\ud835\udc2d. \ud835\udc0b\ud835\udc2d\ud835\udc1d", "category": "Website designer", "street": "2nd Floor", "city": "C-127", "phone": "09711110321", "website": "https://webkartindia.com/", "rating": 4.9, "review_count": "", "latitude": 28.628981399999997, "longitude": 77.1369867, "maps_url": "https://www.google.com/maps/place/?q=place_id:0x390d0348be373921:0xdab0e6afc72090d6"}, {"place_id": "0x4aae0663c3deca9b:0x4c38411d99fb6a76", "name": "Best Web India- Website Designing and Web Development Company", "category": "Website designer", "street": "D-25, Gali No.10", "city": "New Jankipuri, Uttam Nagar, Bindapur", "phone": "09318492254", "website": "https://www.bestwebindia.com/", "rating": 5, "review_count": "", "latitude": 28.6080206, "longitude": 77.07317429999999, "maps_url": "https://www.google.com/maps/place/?q=place_id:0x4aae0663c3deca9b:0x4c38411d99fb6a76"}, {"place_id": "0x4f6402c2da16ff95:0xd3b65b0e189f65b0", "name": "Radiant Technologies - E-commerce Website Development & Designing Company, Digital Marketing, Customized CRM", "category": "Software company", "street": "Second Floor", "city": "WZ 10B, Asalatpur Rd", "phone": "09999886194", "website": "https://techradiant.net/", "rating": 4.5, "review_count": "", "latitude": 28.6217926, "longitude": 77.0763157, "maps_url": "https://www.google.com/maps/place/?q=place_id:0x4f6402c2da16ff95:0xd3b65b0e189f65b0"}, {"place_id": "0x390d1cb91555557d:0x3e364c0b480e53cd", "name": "Darbar Traders", "category": "Electronics store", "street": "Shop No.1/206", "city": "40, Sadar Bazar Rd", "phone": "09560897716", "website": "", "rating": 3.4, "review_count": "", "latitude": 28.593074599999998, "longitude": 77.1212906, "maps_url": "https://www.google.com/maps/place/?q=place_id:0x390d1cb91555557d:0x3e364c0b480e53cd"}, {"place_id": "0x9f35c0bfac8af1b:0xc5702c4bcd1f9f3a", "name": "CrestPulse | Digital Marketing and Web Development Service Provider IT Company", "category": "Software company", "street": "", "city": "", "phone": "08920610393", "website": "http://crestpulse.in/", "rating": 4.5, "review_count": "", "latitude": 55.970947499999994, "longitude": -31.828454999999998, "maps_url": "https://www.google.com/maps/place/?q=place_id:0x9f35c0bfac8af1b:0xc5702c4bcd1f9f3a"}, {"place_id": "0x41d0a87c8f4afaf:0x24b53b7f7ad5bf06", "name": "Fox Beryl - Digital Marketing Company", "category": "Website designer", "street": "G-16/2 Street NO. 2 Raj nagar", "city": "Part-2, Palam", "phone": "08595869757", "website": "https://foxberyl.in/", "rating": 5, "review_count": "", "latitude": 28.585067199999997, "longitude": 77.0815736, "maps_url": "https://www.google.com/maps/place/?q=place_id:0x41d0a87c8f4afaf:0x24b53b7f7ad5bf06"}, {"place_id": "0x4cb4b55e45a08d4b:0x789ded35721a0d10", "name": "Ristlat | Best Website development Company in Delhi", "category": "Website designer", "street": "Rz 26p/22", "city": "Indra Park, Indira Park, Palam", "phone": "", "website": "https://ristlat.com/", "rating": 4.9, "review_count": "", "latitude": 28.595932599999998, "longitude": 77.0986175, "maps_url": "https://www.google.com/maps/place/?q=place_id:0x4cb4b55e45a08d4b:0x789ded35721a0d10"}, {"place_id": "0x390d04caefab7813:0x5c0ce1119a71f9cd", "name": "Universal Network of Infotech", "category": "Software company", "street": "WZ-61A/8A, Lane No 17, Vashist Park, Pankha Road, Janak Puri Institutional Area", "city": "25 Feet Rd", "phone": "01128526116", "website": "", "rating": "", "review_count": "", "latitude": 28.6125701, "longitude": 77.0776147, "maps_url": "https://www.google.com/maps/place/?q=place_id:0x390d04caefab7813:0x5c0ce1119a71f9cd"}, {"place_id": "0x390cfb4bf15a6733:0xaf50e6f3c5fb7641", "name": "Digitals Daddy: Web & App Development Company", "category": "Software company", "street": "Metro Gate No. 2", "city": "Nearest Sikandarpur", "phone": "09818286609", "website": "https://www.digitalsdaddy.com/", "rating": 4.9, "review_count": "", "latitude": 28.4847884, "longitude": 77.0922192, "maps_url": "https://www.google.com/maps/place/?q=place_id:0x390cfb4bf15a6733:0xaf50e6f3c5fb7641"}, {"place_id": "0x390d1bb378fea377:0x6aec5aba720a0b26", "name": "CertHippo Solution Pvt. Ltd.", "category": "Educational testing service", "street": "RZ- 26 P/37", "city": "Gali Number 31A", "phone": "", "website": "https://certhippo.com/", "rating": 4.8, "review_count": "", "latitude": 28.596792299999997, "longitude": 77.0999558, "maps_url": "https://www.google.com/maps/place/?q=place_id:0x390d1bb378fea377:0x6aec5aba720a0b26"}, {"place_id": "0x390d05c021c5643f:0x4c5794b17406c81c", "name": "Web2online Solutions - web designing and web development company in delhi, seo company delhi", "category": "Website designer", "street": "C 917", "city": "Block C, Sector 7 Dwarka, Dwarka", "phone": "08860303721", "website": "https://web2onlinesolutions.com/", "rating": 4.9, "review_count": "", "latitude": 28.585333499999997, "longitude": 77.0707252, "maps_url": "https://www.google.com/maps/place/?q=place_id:0x390d05c021c5643f:0x4c5794b17406c81c"}, {"place_id": "0x390d1b0010fc2321:0x12e9154c815cf007", "name": "Prashant Dwivedi IT company", "category": "Warehouse", "street": "G3P5+GVC", "city": "Nayak Pura, Bijwasan", "phone": "", "website": "", "rating": "", "review_count": "", "latitude": 28.536316, "longitude": 77.059649, "maps_url": "https://www.google.com/maps/place/?q=place_id:0x390d1b0010fc2321:0x12e9154c815cf007"}, {"place_id": "0x390d193c3a36e523:0xe68f8d2568faeaad", "name": "Espire Infolabs Pvt. Ltd.", "category": "Software company", "street": "486 & 487", "city": "Phase III, Udyog Vihar III, Sector 20", "phone": "01247173000", "website": "http://www.espire.com/", "rating": 4.1, "review_count": "", "latitude": 28.5119516, "longitude": 77.0899661, "maps_url": "https://www.google.com/maps/place/?q=place_id:0x390d193c3a36e523:0xe68f8d2568faeaad"}, {"place_id": "0x390d1b5c1f55d013:0xaa76eb0689976da9", "name": "Neetu Saini & Associates", "category": "Corporate office", "street": "670/B", "city": "Main Street Number 27", "phone": "", "website": "", "rating": 4.9, "review_count": "", "latitude": 28.593172499999998, "longitude": 77.0964163, "maps_url": "https://www.google.com/maps/place/?q=place_id:0x390d1b5c1f55d013:0xaa76eb0689976da9"}, {"place_id": "0x390d1b489dcdb0b5:0x5666dda01eb6646c", "name": "Indias Company", "category": "Home goods store", "street": "Rzd 3/203 gali no 9 Mahavir Enclave I, Mahavir Enclave Part 2, Mahavir Enclave", "city": "Nar, Dashrath Puri", "phone": "08299423838", "website": "http://www.gassafetydevice.in/", "rating": 4.7, "review_count": "", "latitude": 28.6002743, "longitude": 77.0832405, "maps_url": "https://www.google.com/maps/place/?q=place_id:0x390d1b489dcdb0b5:0x5666dda01eb6646c"}, {"place_id": "0x390d1b489dcdb0b5:0x5666dda01eb6646c", "name": "Indias Company", "category": "Home goods store", "street": "Rzd 3/203 gali no 9 Mahavir Enclave I, Mahavir Enclave Part 2, Mahavir Enclave", "city": "Nar, Dashrath Puri", "phone": "08299423838", "website": "http://www.gassafetydevice.in/", "rating": 4.7, "review_count": "", "latitude": 28.6002743, "longitude": 77.0832405, "maps_url": "https://www.google.com/maps/place/?q=place_id:0x390d1b489dcdb0b5:0x5666dda01eb6646c"}, {"place_id": "0x390d0537704ff493:0x1f2e76f7aa061ff", "name": "PRO & CO. Company Secretaries", "category": "Corporate office", "street": "K-29, First Floor", "city": "New Mahavir Nagar", "phone": "09643513394", "website": "http://www.cspro.in/", "rating": 5, "review_count": "", "latitude": 28.632689199999998, "longitude": 77.08373569999999, "maps_url": "https://www.google.com/maps/place/?q=place_id:0x390d0537704ff493:0x1f2e76f7aa061ff"}, {"place_id": "0x390d1bf0fb95bd17:0x81bb5023cd10b655", "name": "SHINE AND STANDARD SERVICES PVT. LTD.", "category": "Cleaning Services", "street": "1, Gali No. 11c", "city": "Kailash Puri, EXT", "phone": "", "website": "", "rating": 4.3, "review_count": "", "latitude": 28.598226099999998, "longitude": 77.0946841, "maps_url": "https://www.google.com/maps/place/?q=place_id:0x390d1bf0fb95bd17:0x81bb5023cd10b655"}, {"place_id": "0x390d0338eaaaaaab:0x9d30fbb7b7135c8a", "name": "Pearl Engineering Co.", "category": "Manufacturer", "street": "Block B, Mayapuri Industrial Area Phase I, Mayapuri", "city": "New Delhi, Delhi 110064", "phone": "", "website": "http://pearlengineeringco.com/", "rating": 4.6, "review_count": "", "latitude": 28.6249035, "longitude": 77.1225839, "maps_url": "https://www.google.com/maps/place/?q=place_id:0x390d0338eaaaaaab:0x9d30fbb7b7135c8a"}, {"place_id": "0x390d1de8fa5adc51:0x23e4995a0d8a3f9e", "name": "Vi - Vodafone Idea mini Store", "category": "Telecommunications service provider", "street": "1/206/1", "city": "near Gurudwara", "phone": "09971447777", "website": "https://stores.myvi.in/vi-vodafone-idea-mini-store-s-s-telecom-telecommunications-service-provider-delhi-cantonment-new-delhi-292389/Home?utm_source=locator&utm_medium=googleplaces", "rating": 4.8, "review_count": "", "latitude": 28.592351599999997, "longitude": 77.1207544, "maps_url": "https://www.google.com/maps/place/?q=place_id:0x390d1de8fa5adc51:0x23e4995a0d8a3f9e"}, {"place_id": "0x390d1b03afd847d1:0x3f8589776214e47b", "name": "Techbizz - IT Solutions", "category": "Software company", "street": "1st floor", "city": "Najafgarh Kapashera Rd", "phone": "08130622472", "website": "", "rating": 5, "review_count": "", "latitude": 28.5325596, "longitude": 77.0540195, "maps_url": "https://www.google.com/maps/place/?q=place_id:0x390d1b03afd847d1:0x3f8589776214e47b"}, {"place_id": "0x390d1cbe5d63c427:0x28a0434cf3a2f1f9", "name": "Awagaman Packers And Movers Pvt Ltd", "category": "Transportation service", "street": "1/209, Sadar Bazaar", "city": "New Sabzi Mandi, Delhi Cantonment", "phone": "09999677678", "website": "", "rating": 4.6, "review_count": "", "latitude": 28.5934873, "longitude": 77.1212054, "maps_url": "https://www.google.com/maps/place/?q=place_id:0x390d1cbe5d63c427:0x28a0434cf3a2f1f9"}, {"place_id": "0x872bc7701e23862b:0x1f4b0bd7dd5a10bc", "name": "Digimarksite | Digital Marketing, Web & App Development Company", "category": "Internet marketing service", "street": "71, Gali Number 2", "city": "Block A, Sitapuri Part 1, Bindapur", "phone": "", "website": "https://digimarksite.com/", "rating": 5, "review_count": "", "latitude": 28.6121411, "longitude": 77.0880411, "maps_url": "https://www.google.com/maps/place/?q=place_id:0x872bc7701e23862b:0x1f4b0bd7dd5a10bc"}, {"place_id": "0x390d1beab5f939a5:0xd07351c1e71e3065", "name": "WEBSITE DESIGNING COMPANY IN DELHI Nipl", "category": "Software company", "street": "j block", "city": "Rz 92/211, Gali No. 8", "phone": "09136336466", "website": "", "rating": "", "review_count": "", "latitude": 28.601472899999997, "longitude": 77.0896984, "maps_url": "https://www.google.com/maps/place/?q=place_id:0x390d1beab5f939a5:0xd07351c1e71e3065"}, {"place_id": "0x390d1b5c83984955:0xab519a2222070475", "name": "Vision Web India | Best Web Development & Digital Marketing Company In Delhi", "category": "Website designer", "street": "B 252, Palam Extension", "city": "Ramphal Chowk Rd", "phone": "09667719394", "website": "https://visionwebindia.com/", "rating": 5, "review_count": "", "latitude": 28.586551699999998, "longitude": 77.0690965, "maps_url": "https://www.google.com/maps/place/?q=place_id:0x390d1b5c83984955:0xab519a2222070475"}, {"place_id": "0x390d0498e2f58521:0x1ab259bea2b6cfae", "name": "SAI Internet Marketing (India)", "category": "Website designer", "street": "2nd Floor, Commercial Complex", "city": "S-4 Unicom", "phone": "09999552353", "website": "https://www.saiinternetmarketing.com/", "rating": 4.6, "review_count": "", "latitude": 28.6291592, "longitude": 77.07780749999999, "maps_url": "https://www.google.com/maps/place/?q=place_id:0x390d0498e2f58521:0x1ab259bea2b6cfae"}, {"place_id": "0x390d1d3d4769106b:0x63a818d02d8851eb", "name": "fab U Salon", "category": "Beauty Parlour", "street": "1/195/4", "city": "Piru Vihar, Sadar Bazaar, Delhi Cantonment", "phone": "09810977445", "website": "http://fabusalon.in/", "rating": 4.7, "review_count": "", "latitude": 28.5914805, "longitude": 77.120496, "maps_url": "https://www.google.com/maps/place/?q=place_id:0x390d1d3d4769106b:0x63a818d02d8851eb"}, {"place_id": "0x390d050709c6e41d:0x22308b5f853de9f5", "name": "Sky Web Sol", "category": "Website designer", "street": "Office No-819, 9th Floor", "city": "Westend Mall", "phone": "09717107250", "website": "http://skywebsol.com/", "rating": 4.9, "review_count": "", "latitude": 28.6297645, "longitude": 77.0797043, "maps_url": "https://www.google.com/maps/place/?q=place_id:0x390d050709c6e41d:0x22308b5f853de9f5"}, {"place_id": "0x390d04bf447aaaab:0xc9fc6fb41e7c6eb9", "name": "Web Bright Infra", "category": "Internet marketing service", "street": "DDA-2 Building", "city": "804", "phone": "08377007733", "website": "https://webbrightinfra.com/", "rating": 4.7, "review_count": "", "latitude": 28.6300907, "longitude": 77.0817272, "maps_url": "https://www.google.com/maps/place/?q=place_id:0x390d04bf447aaaab:0xc9fc6fb41e7c6eb9"}, {"place_id": "0x390d1d303f0ed007:0x34c91c5fb89d35e1", "name": "RK Narhaliya", "category": "Graphic designer", "street": "1/206/32", "city": "near S.D Mandir", "phone": "09911421161", "website": "https://www.behance.net/rknarhaliya", "rating": 5, "review_count": "", "latitude": 28.592443799999998, "longitude": 77.120899, "maps_url": "https://www.google.com/maps/place/?q=place_id:0x390d1d303f0ed007:0x34c91c5fb89d35e1"}, {"place_id": "0x390d1ca9c9c90bc5:0xefeda37c868fd4a1", "name": "E.m Solutions Enterprises", "category": "Sewage treatment plant", "street": "13 H, Street No. 5", "city": "West Sagarpur, Block RZA, Main Sagarpur, Sagar Pur", "phone": "09871178642", "website": "", "rating": 5, "review_count": "", "latitude": 28.6043833, "longitude": 77.10383809999999, "maps_url": "https://www.google.com/maps/place/?q=place_id:0x390d1ca9c9c90bc5:0xefeda37c868fd4a1"}, {"place_id": "0x390d1b1636772253:0x90fb52e5011143a6", "name": "Janus Global LLP", "category": "Computer support and services", "street": "D 459A, Ramphal Chowk Rd", "city": "Block D, Sector 7 Dwarka, Dwarka", "phone": "09999216234", "website": "https://janusglobal.in/", "rating": 5, "review_count": "", "latitude": 28.585091, "longitude": 77.06935159999999, "maps_url": "https://www.google.com/maps/place/?q=place_id:0x390d1b1636772253:0x90fb52e5011143a6"}, {"place_id": "0x390d1d8c3bc9c68d:0xf71204a70007ed24", "name": "Hitachi India Pvt. Ltd. & Hitachi Lift India Pvt Ltd", "category": "Manufacturer", "street": "H42C+6GH, Indira Gandhi International Airport", "city": "Tower B", "phone": "01140605252", "website": "http://www.hitachi.co.in/", "rating": 1.4, "review_count": "", "latitude": 28.550555499999998, "longitude": 77.1213703, "maps_url": "https://www.google.com/maps/place/?q=place_id:0x390d1d8c3bc9c68d:0xf71204a70007ed24"}, {"place_id": "0x390d03281871ef51:0x87d05ae5b85adc52", "name": "CRCIT INFOTECH PVT LTD", "category": "Software company", "street": "RZ B-4, Pankha Rd", "city": "opposite Janak Cinema Complex", "phone": "09599884630", "website": "", "rating": 4.9, "review_count": "", "latitude": 28.7321179, "longitude": 77.0297145, "maps_url": "https://www.google.com/maps/place/?q=place_id:0x390d03281871ef51:0x87d05ae5b85adc52"}, {"place_id": "0x390d1cbe0332d1bd:0x9aafde2c233c0fed", "name": "New Kerala Roadways", "category": "Transportation service", "street": "1/195/1, Brar Building", "city": "Sadar Bazaar, Delhi Cantonment", "phone": "09811557679", "website": "http://www.newkeralaroadways.in/", "rating": 4.3, "review_count": "", "latitude": 28.591383, "longitude": 77.1204695, "maps_url": "https://www.google.com/maps/place/?q=place_id:0x390d1cbe0332d1bd:0x9aafde2c233c0fed"}]}