[{"place_id": "ChIJO4sr49IDDTkRALZaeWsr-oI", "name": "Iraitech | Software Development Company", "street": "Central Square Complex 3, Unit No-1051, 1st Floor, Near Filmistan, DCM chowk, Bara Hindu Rao, Kishan Ganj, Delhi, 110006, India", "phone": "+91 81301 04108", "rating": "4.1", "review_count": "", "website": "https://www.iraitech.com/", "latitude": 28.6631951, "longitude": 77.20308639999999, "maps_url": "https://www.google.com/maps/search/?api=1&query=Iraitech%20%7C%20Software%20Development%20Company&query_place_id=ChIJO4sr49IDDTkRALZaeWsr-oI"}, {"place_id": "ChIJFeXlTZkCDTkRNw2aQAO8CNk", "name": "Himalayan IT Solutions | Best Website Designing Company in Delhi | SEO/Digital Marketing Company in Delhi NCR, India", "street": "61/4255, Padam Singh Rd, Block 29, Block 1, Regar Pura, Karol Bagh, Delhi, 110005, India", "phone": "+91 98990 98509", "rating": "3.9", "review_count": "", "website": "http://www.himalayanitsolutions.com/", "latitude": 28.649673999999997, "longitude": 77.186599, "maps_url": "https://www.google.com/maps/search/?api=1&query=Himalayan%20IT%20Solutions%20%7C%20Best%20Website%20Designing%20Company%20in%20Delhi%20%7C%20SEO/Digital%20Marketing%20Company%20in%20Delhi%20NCR%2C%20India&query_place_id=ChIJFeXlTZkCDTkRNw2aQAO8CNk"}, {"place_id": "ChIJA6KtL5kCDTkR7wFe_OSD2bE", "name": "Omniscient IT Solutions Pvt. Ltd", "street": "4, 28, Saraswati Marg, Block 15A, WEA, Karol Bagh, New Delhi, Delhi, 110005, India", "phone": "+91 98110 27310", "rating": "4.6", "review_count": "", "website": "https://www.omniscientitsolutions.com/", "latitude": 28.646959, "longitude": 77.1882229, "maps_url": "https://www.google.com/maps/search/?api=1&query=Omniscient%20IT%20Solutions%20Pvt.%20Ltd&query_place_id=ChIJA6KtL5kCDTkR7wFe_OSD2bE"}, {"place_id": "ChIJB6AZSUD9DDkRuApv-5TZXZg", "name": "MMI Softwares Pvt. Ltd.", "street": "B-A4, 9/54, Namdhari Chamber, Desh Bandhu Gupta Rd, Block 53, Karol Bagh, New Delhi, Delhi 110005, India", "phone": "+91 99714 76501", "rating": "4.6", "review_count": "", "website": "http://www.mmsoftwares.com/", "latitude": 28.6536804, "longitude": 77.1916753, "maps_url": "https://www.google.com/maps/search/?api=1&query=MMI%20Softwares%20Pvt.%20Ltd.&query_place_id=ChIJB6AZSUD9DDkRuApv-5TZXZg"}, {"place_id": "ChIJPR796sD9DDkRLo5M9V9l1nA", "name": "Binarysoft Technologies (We bring IT)", "street": "1st Floor, 1626/33, Block 27F, Naiwala, Karol Bagh, Delhi, 110005, India", "phone": "+91 92054 71661", "rating": "5", "review_count": "", "website": "http://www.binarysoft.com/", "latitude": 28.647633, "longitude": 77.19496199999999, "maps_url": "https://www.google.com/maps/search/?api=1&query=Binarysoft%20Technologies%20%28We%20bring%20IT%29&query_place_id=ChIJPR796sD9DDkRLo5M9V9l1nA"}, {"place_id": "ChIJVSDU85wCDTkR3TEe80XmjVY", "name": "AI Micro Mind®Technology", "street": "3rd Floor, 16/448, Block I, Building Number, Military Rd, Karol Bagh, New Delhi, Delhi, 110005, India", "phone": "+91 98183 53030", "rating": "4.8", "review_count": "", "website": "http://micromind.in/", "latitude": 28.656936299999998, "longitude": 77.1817737, "maps_url": "https://www.google.com/maps/search/?api=1&query=AI%20Micro%20Mind%C2%AETechnology&query_place_id=ChIJVSDU85wCDTkR3TEe80XmjVY"}, {"place_id": "ChIJ98MlAl8CDTkRQiw9zB220Lc", "name": "Akiko Sherman Infotech Pvt. Ltd.", "street": "2C/2, New Rohtak Rd, Block 2C, Karol Bagh, New Delhi, Delhi, 110005, India", "phone": "+91 11 4141 6847", "rating": "3.6", "review_count": "", "website": "https://www.shermanindia.com/", "latitude": 28.6607833, "longitude": 77.1874157, "maps_url": "https://www.google.com/maps/search/?api=1&query=Akiko%20Sherman%20Infotech%20Pvt.%20Ltd.&query_place_id=ChIJ98MlAl8CDTkRQiw9zB220Lc"}, {"place_id": "ChIJJS2nYJoCDTkR8ZKgzjgdREU", "name": "Payroll Software Companies", "street": "4/28, Ground Floor, Saraswati Marg, W.E.A, Karol Bagh, New Delhi, Delhi 110005, India", "phone": "+91 97111 95490", "rating": "4.3", "review_count": "", "website": "", "latitude": 28.6484551, "longitude": 77.1875826, "maps_url": "https://www.google.com/maps/search/?api=1&query=Payroll%20Software%20Companies&query_place_id=ChIJJS2nYJoCDTkR8ZKgzjgdREU"}, {"place_id": "ChIJuzZ3usj9DDkR5Q91Qz7GlDc", "name": "Busy Infotech Pvt. Ltd.", "street": "3, Rani Jhansi Rd, Block E 4, Jhandewalan Extension, Karol Bagh, New Delhi, Delhi 110055, India", "phone": "+91 11 4096 4096", "rating": "4.6", "review_count": "", "website": "https://busy.in/", "latitude": 28.6454408, "longitude": 77.2042627, "maps_url": "https://www.google.com/maps/search/?api=1&query=Busy%20Infotech%20Pvt.%20Ltd.&query_place_id=ChIJuzZ3usj9DDkR5Q91Qz7GlDc"}, {"place_id": "ChIJVdkZih79DDkR_dClCtK2ZkU", "name": "SoftGiant Technologies - Custom Software Development & Best eCommmerce Development Company in Delhi, India", "street": "T-1871 D, 2/F, Ashok Nagar Uppar Ridge Road Jhandewalan, Karol Bagh, New Delhi, Delhi 110055, India", "phone": "+91 85958 85110", "rating": "5", "review_count": "", "website": "http://www.softgianttech.com/", "latitude": 28.647350699999997, "longitude": 77.2016845, "maps_url": "https://www.google.com/maps/search/?api=1&query=SoftGiant%20Technologies%20-%20Custom%20Software%20Development%20%26%20Best%20eCommmerce%20Development%20Company%20in%20Delhi%2C%20India&query_place_id=ChIJVdkZih79DDkR_dClCtK2ZkU"}, {"place_id": "ChIJL4BtX1wdDTkRIiNTpELCuuM", "name": "Nobilitas Infotech Pvt. Ltd. - IT Solutions Company", "street": "Padma Tower II, 210, Rajendra Place, New Delhi, Delhi 110005, India", "phone": "+91 84483 84926", "rating": "5", "review_count": "", "website": "https://www.nobilitasinfotech.com/", "latitude": 28.6451836, "longitude": 77.1780375, "maps_url": "https://www.google.com/maps/search/?api=1&query=Nobilitas%20Infotech%20Pvt.%20Ltd.%20-%20IT%20Solutions%20Company&query_place_id=ChIJL4BtX1wdDTkRIiNTpELCuuM"}, {"place_id": "ChIJSy2Jhp4CDTkR_0QSNabY9kM", "name": "Digital Marketing Agency, Software Development Company, SEO Services Company in Delhi", "street": "3rd Floor, 16/448, Block - I, Building Number, Military Rd, Karol Bagh, New Delhi, Delhi 110005, India", "phone": "+91 98183 53030", "rating": "5", "review_count": "", "website": "https://www.micromind.in/", "latitude": 28.655144999999997, "longitude": 77.18114899999999, "maps_url": "https://www.google.com/maps/search/?api=1&query=Digital%20Marketing%20Agency%2C%20Software%20Development%20Company%2C%20SEO%20Services%20Company%20in%20Delhi&query_place_id=ChIJSy2Jhp4CDTkR_0QSNabY9kM"}, {"place_id": "ChIJtXMHQGj9DDkRRE43pKtyAYM", "name": "Dvayweb Consultancy Services Pvt. Ltd.", "street": "Rani Jhansi Rd, Block E 4, Jhandewalan Extension, Jhandewalan, New Delhi, Delhi 110055, India", "phone": "+91 98730 30060", "rating": "4.6", "review_count": "", "website": "https://dvayweb.com/", "latitude": 28.645454599999997, "longitude": 77.2042455, "maps_url": "https://www.google.com/maps/search/?api=1&query=Dvayweb%20Consultancy%20Services%20Pvt.%20Ltd.&query_place_id=ChIJtXMHQGj9DDkRRE43pKtyAYM"}, {"place_id": "ChIJFcSNihYDDTkRbgMQW7yRJA0", "name": "Global tech co.", "street": "SHOP NO-10942, 1, Gali No. 4, Karol Bagh West Extension Area, Block 5A, Sat Nagar, Karol Bagh, New Delhi, Delhi, 110005, India", "phone": "+91 88008 48513", "rating": "4.9", "review_count": "", "website": "https://globel-tech-co.grexa.site/", "latitude": 28.6486934, "longitude": 77.18451809999999, "maps_url": "https://www.google.com/maps/search/?api=1&query=Global%20tech%20co.&query_place_id=ChIJFcSNihYDDTkRbgMQW7yRJA0"}, {"place_id": "ChIJL955hJYCDTkREqQASrd_gPQ", "name": "Tick Softwares Ltd.", "street": "1207, Pragati Tower, 26, Prasad Nagar, Rajendra Place, New Delhi, Delhi, 110008, India", "phone": "+91 75330 16990", "rating": "4.5", "review_count": "", "website": "http://ticksoftwares.in/", "latitude": 28.645996, "longitude": 77.1773839, "maps_url": "https://www.google.com/maps/search/?api=1&query=Tick%20Softwares%20Ltd.&query_place_id=ChIJL955hJYCDTkREqQASrd_gPQ"}, {"place_id": "ChIJCdwjeUv9DDkRSs9WJ7tQaSY", "name": "Big Feathers Technology", "street": "8577, New Rohtak Rd, Ratan Nagar, Karol Bagh, Delhi, 110005, India", "phone": "+91 86907 20398", "rating": "4.9", "review_count": "", "website": "https://www.thebigfeathers.com/", "latitude": 28.657151, "longitude": 77.1959542, "maps_url": "https://www.google.com/maps/search/?api=1&query=Big%20Feathers%20Technology&query_place_id=ChIJCdwjeUv9DDkRSs9WJ7tQaSY"}, {"place_id": "ChIJs-qd8zMDDTkRI8WvMoIh69Y", "name": "Digitally Bird | Best eCommerce Website Design and Development company in Delhi, India", "street": "Block 29, 61/4255, Padam Singh Rd, Block 29, Block 11, Regar Pura, Karol Bagh, Delhi, 110005, India", "phone": "+91 97175 00603", "rating": "5", "review_count": "", "website": "https://www.digitallybird.com/", "latitude": 28.6497952, "longitude": 77.1873057, "maps_url": "https://www.google.com/maps/search/?api=1&query=Digitally%20Bird%20%7C%20Best%20eCommerce%20Website%20Design%20and%20Development%20company%20in%20Delhi%2C%20India&query_place_id=ChIJs-qd8zMDDTkRI8WvMoIh69Y"}, {"place_id": "ChIJEeEztHD9DDkR-3Ga-fthgow", "name": "Mobile Skin Software", "street": "47, Rani Jhansi Rd, Motia Khan, Jhandewalan, New Delhi, Delhi 110055, India", "phone": "+91 95552 63344", "rating": "4.7", "review_count": "", "website": "http://mobileskinsoftware.com/", "latitude": 28.649371199999997, "longitude": 77.2056171, "maps_url": "https://www.google.com/maps/search/?api=1&query=Mobile%20Skin%20Software&query_place_id=ChIJEeEztHD9DDkR-3Ga-fthgow"}, {"place_id": "ChIJ6fogp5QCDTkRX_8pAuL_gew", "name": "it company", "street": "Block 31/25, Block 31, East Patel Nagar, Patel Nagar, New Delhi, Delhi, 110008, India", "phone": "+91 98189 02645", "rating": "", "review_count": "", "website": "", "latitude": 28.6477211, "longitude": 77.1727298, "maps_url": "https://www.google.com/maps/search/?api=1&query=it%20company&query_place_id=ChIJ6fogp5QCDTkRX_8pAuL_gew"}, {"place_id": "ChIJve_HJ2b9DDkRzJphaUssbtE", "name": "Manu Info Solutions", "street": "51, Rani Jhansi Rd, Motia Khan, Paharganj, New Delhi, Delhi 110055, India", "phone": "+91 87001 32566", "rating": "5", "review_count": "", "website": "http://www.manuinfosolutions.com/", "latitude": 28.6490059, "longitude": 77.2058175, "maps_url": "https://www.google.com/maps/search/?api=1&query=Manu%20Info%20Solutions&query_place_id=ChIJve_HJ2b9DDkRzJphaUssbtE"}, {"place_id": "ChIJ____ewXiDDkRWkRWfPl6bfA", "name": "BNG Infotech Private Limited", "street": "509-511 Gagandeep Building, Rajendra Place, New Delhi, Delhi 110008, India", "phone": "+91 81006 41006", "rating": "4.4", "review_count": "", "website": "https://www.bng.co.in/", "latitude": 28.6439304, "longitude": 77.1772003, "maps_url": "https://www.google.com/maps/search/?api=1&query=BNG%20Infotech%20Private%20Limited&query_place_id=ChIJ____ewXiDDkRWkRWfPl6bfA"}, {"place_id": "ChIJK6kJh4EDDTkRbCZ0HSHv31c", "name": "Onlincer", "street": "", "phone": "", "rating": "5", "review_count": "", "website": "http://www.directappoint.com/", "latitude": 9.374110199999999, "longitude": -74.9524576, "maps_url": "https://www.google.com/maps/search/?api=1&query=Onlincer&query_place_id=ChIJK6kJh4EDDTkRbCZ0HSHv31c"}, {"place_id": "ChIJEZi4U8HjDDkRyul3V2h5ouc", "name": "IT Company", "street": "A-14, near iskcon temple, Block A, APB Garhi, Vasant Vihar, New Delhi, Delhi 110065, India", "phone": "", "rating": "3", "review_count": "", "website": "http://www.opuswiz.com/", "latitude": 28.557167, "longitude": 77.25424819999999, "maps_url": "https://www.google.com/maps/search/?api=1&query=IT%20Company&query_place_id=ChIJEZi4U8HjDDkRyul3V2h5ouc"}, {"place_id": "ChIJc80Hk_0DDTkRzeDGAgk6Ino", "name": "Web Cloud Technology", "street": "3A/74 W.E.A, Sat Nagar, Karol Bagh, New Delhi, Delhi 110005, India", "phone": "+91 88823 24811", "rating": "4.4", "review_count": "", "website": "https://webcloudtechnology.in/", "latitude": 28.6465632, "longitude": 77.1824149, "maps_url": "https://www.google.com/maps/search/?api=1&query=Web%20Cloud%20Technology&query_place_id=ChIJc80Hk_0DDTkRzeDGAgk6Ino"}, {"place_id": "ChIJ0Ql-EWL9DDkRWb24ujA3NdY", "name": "Web Design, Digital Marketing, Software & Mobile App Development.", "street": "", "phone": "", "rating": "3.7", "review_count": "", "website": "", "latitude": 28.692404999999997, "longitude": 77.090042, "maps_url": "https://www.google.com/maps/search/?api=1&query=Web%20Design%2C%20Digital%20Marketing%2C%20Software%20%26%20Mobile%20App%20Development.&query_place_id=ChIJ0Ql-EWL9DDkRWb24ujA3NdY"}, {"place_id": "ChIJy7DDiosDDTkRPkiXRAOvmGQ", "name": "FUTURE ENERGY", "street": "2C, 19, New Rohtak Rd, Block 57, Karol Bagh, New Delhi, Delhi, 110005, India", "phone": "+91 98719 67776", "rating": "4.7", "review_count": "", "website": "http://futureenergy.co.in/", "latitude": 28.6547368, "longitude": 77.1996736, "maps_url": "https://www.google.com/maps/search/?api=1&query=FUTURE%20ENERGY&query_place_id=ChIJy7DDiosDDTkRPkiXRAOvmGQ"}, {"place_id": "ChIJX9eDUEX9DDkRoR6efKRhUnw", "name": "Anu & Company", "street": "2nd Floor, 10703, Jhandewalan Rd, Nabi Karim, Paharganj, New Delhi, Delhi, 110055, India", "phone": "+91 87004 80022", "rating": "4.8", "review_count": "", "website": "https://anucompany.in/", "latitude": 28.651619699999998, "longitude": 77.2130291, "maps_url": "https://www.google.com/maps/search/?api=1&query=Anu%20%26%20Company&query_place_id=ChIJX9eDUEX9DDkRoR6efKRhUnw"}, {"place_id": "ChIJnSUGhMb9DDkR1RSiSe5bP8s", "name": "Scrrum Labs Private Limited", "street": "We-start co-working space, 2E/25, Jhandewalan Extension, Block E 2, Jhandewalan Extension, Karol Bagh, New Delhi, Delhi 110055, India", "phone": "+91 98999 29886", "rating": "4.7", "review_count": "", "website": "", "latitude": 28.6442767, "longitude": 77.2012045, "maps_url": "https://www.google.com/maps/search/?api=1&query=Scrrum%20Labs%20Private%20Limited&query_place_id=ChIJnSUGhMb9DDkR1RSiSe5bP8s"}, {"place_id": "ChIJE_4Tci0dyAYRsVXvsz3K03g", "name": "Asquare Consulting Group", "street": "2745, 2nd Floor, Gali Number 23, Beadonpura, Karol Bagh, Delhi, 110005, India", "phone": "+91 11 4654 2628", "rating": "4.8", "review_count": "", "website": "", "latitude": 28.6516213, "longitude": 77.1919178, "maps_url": "https://www.google.com/maps/search/?api=1&query=Asquare%20Consulting%20Group&query_place_id=ChIJE_4Tci0dyAYRsVXvsz3K03g"}, {"place_id": "ChIJ3165gUMCDTkRHl2xEz3JuJM", "name": "Beta Soft Technology", "street": "3933/18, Third Floor, Metro Station, near Kanhiya Nagar, opposite Metro Pillar 224, Kanhiya Nagar, Tri Nagar, Delhi, 110035, India", "phone": "+91 99991 83189", "rating": "4.4", "review_count": "", "website": "https://www.betasofttechnology.com/", "latitude": 28.678439299999997, "longitude": 77.1660351, "maps_url": "https://www.google.com/maps/search/?api=1&query=Beta%20Soft%20Technology&query_place_id=ChIJ3165gUMCDTkRHl2xEz3JuJM"}, {"place_id": "ChIJiwPCn1cDDTkRZReajY3KiX0", "name": "Appfinz Technologies", "street": "Nr Deep Chand Bandhu Hospital, B590 Ground Floor, Bunkar Colony, Phase 4, Ashok Vihar, New Delhi, Delhi 110052, India", "phone": "+91 83407 25097", "rating": "4.8", "review_count": "", "website": "https://www.appfinz.com/", "latitude": 28.682956299999997, "longitude": 77.17736959999999, "maps_url": "https://www.google.com/maps/search/?api=1&query=Appfinz%20Technologies&query_place_id=ChIJiwPCn1cDDTkRZReajY3KiX0"}, {"place_id": "ChIJV4blL5gCDTkRktgeIDWd3T8", "name": "Manning Consulting", "street": "", "phone": "+91 98112 22637", "rating": "4.8", "review_count": "", "website": "http://www.manningconsulting.in/", "latitude": 21.0680074, "longitude": 82.7525294, "maps_url": "https://www.google.com/maps/search/?api=1&query=Manning%20Consulting&query_place_id=ChIJV4blL5gCDTkRktgeIDWd3T8"}, {"place_id": "ChIJ51AtDZ0DDTkRF6QrEcB_6Ks", "name": "Renovision Automation Services Pvt.Ltd-karol bagh", "street": "16, 8, Arya Samaj Rd, Block 16, WEA, Karol Bagh, New Delhi, Delhi, 110005, India", "phone": "+91 93107 19624", "rating": "3.7", "review_count": "", "website": "http://www.raspl.com/", "latitude": 28.647336499999998, "longitude": 77.1937694, "maps_url": "https://www.google.com/maps/search/?api=1&query=Renovision%20Automation%20Services%20Pvt.Ltd-karol%20bagh&query_place_id=ChIJ51AtDZ0DDTkRF6QrEcB_6Ks"}, {"place_id": "ChIJ__8vhTQCDTkRUWfmHwih9g0", "name": "Wingify", "street": "KLJ TOWER, North, Netaji Subhash Place, Pitampura, Delhi, 110034, India", "phone": "+91 11 4764 0497", "rating": "4.4", "review_count": "", "website": "https://wingify.com/", "latitude": 28.6911475, "longitude": 77.1509423, "maps_url": "https://www.google.com/maps/search/?api=1&query=Wingify&query_place_id=ChIJ__8vhTQCDTkRUWfmHwih9g0"}, {"place_id": "ChIJz_pOD4b9DDkRXClfFZyE_r0", "name": "SJ Security Systems Pvt Ltd", "street": "2705/24, Second Floor, Bank St, Karol Bagh, New Delhi, Delhi 110005, India", "phone": "+91 99100 57500", "rating": "5", "review_count": "", "website": "https://www.sjsecurity.com/", "latitude": 28.6514208, "longitude": 77.1926269, "maps_url": "https://www.google.com/maps/search/?api=1&query=SJ%20Security%20Systems%20Pvt%20Ltd&query_place_id=ChIJz_pOD4b9DDkRXClfFZyE_r0"}, {"place_id": "ChIJn7nSjVwDDTkR51Q8Bq2XNg8", "name": "Oracle Logistics Pvt. Ltd.", "street": "3591, 10, Reghar Pura, Block 32, Krishna Nagar, Karol Bagh, New Delhi, Delhi, 110005, India", "phone": "+91 99993 43069", "rating": "5", "review_count": "", "website": "http://www.oraclelogistics.in/", "latitude": 28.6522811, "longitude": 77.1899086, "maps_url": "https://www.google.com/maps/search/?api=1&query=Oracle%20Logistics%20Pvt.%20Ltd.&query_place_id=ChIJn7nSjVwDDTkR51Q8Bq2XNg8"}, {"place_id": "ChIJvyvv6ZwCDTkRNT4IC05RZvQ", "name": "I M Enterprises", "street": "Namdhari Chambers, G-15, Desh Bandhu Gupta Rd, Block 56, Karol Bagh, New Delhi, Delhi, 110005, India", "phone": "+91 98100 14287", "rating": "4.4", "review_count": "", "website": "", "latitude": 28.653686099999998, "longitude": 77.19167139999999, "maps_url": "https://www.google.com/maps/search/?api=1&query=I%20M%20Enterprises&query_place_id=ChIJvyvv6ZwCDTkRNT4IC05RZvQ"}, {"place_id": "ChIJV1VVlS8BDTkRTf1pyX4xjSw", "name": "Gifts & Promotions International", "street": "10954, 1st Floor, Gali No. 5, Block 69D, Dori Walan, Karol Bagh, New Delhi, Delhi, 110005, India", "phone": "+91 78383 20714", "rating": "4.9", "review_count": "", "website": "https://www.allcorporategifts.com/", "latitude": 28.6563682, "longitude": 77.20081189999999, "maps_url": "https://www.google.com/maps/search/?api=1&query=Gifts%20%26%20Promotions%20International&query_place_id=ChIJV1VVlS8BDTkRTf1pyX4xjSw"}, {"place_id": "ChIJ0bY3rWj9DDkRH1uVjbIVfHc", "name": "Suntop Bags Manufacturer", "street": "8, MM Rani Jhansi Road, Motia Khan Industrial Area, Delhi, 110055, India", "phone": "+91 98059 66702", "rating": "5", "review_count": "", "website": "http://www.suntopbags.com/", "latitude": 28.6510714, "longitude": 77.206897, "maps_url": "https://www.google.com/maps/search/?api=1&query=Suntop%20Bags%20Manufacturer&query_place_id=ChIJ0bY3rWj9DDkRH1uVjbIVfHc"}, {"place_id": "ChIJf4qFUmP9DDkRVGIVYxUrxNE", "name": "T-Shirt Manufacturer Company India", "street": "T-180, kabristan Wali gali, near filmistan, Model Basti, Kishan Ganj, Delhi, 110005, India", "phone": "+91 81301 19564", "rating": "5", "review_count": "", "website": "https://tshirts.ashg.co.in/", "latitude": 28.6576466, "longitude": 77.2029697, "maps_url": "https://www.google.com/maps/search/?api=1&query=T-Shirt%20Manufacturer%20Company%20India&query_place_id=ChIJf4qFUmP9DDkRVGIVYxUrxNE"}, {"place_id": "ChIJXTn08c4DDTkRT9BnrXfAETU", "name": "Crocon", "street": "12A/39, 3rd Floor, Saraswati Marg, Block 4, WEA, Karol Bagh, New Delhi, Delhi, 110005, India", "phone": "+91 93153 81913", "rating": "5", "review_count": "", "website": "https://www.theindianhand.com/", "latitude": 28.6478666, "longitude": 77.1873458, "maps_url": "https://www.google.com/maps/search/?api=1&query=Crocon&query_place_id=ChIJXTn08c4DDTkRT9BnrXfAETU"}, {"place_id": "ChIJq6q2H5wCDTkRppYnUcFbRVo", "name": "Makpower Mobile Accessories Manufacturer Delhi", "street": "1st floor, 5/31, Block 5, WEA, Karol Bagh, New Delhi, Delhi, 110005, India", "phone": "+91 78279 76524", "rating": "4.6", "review_count": "", "website": "https://makpowerindia.com/", "latitude": 28.648004699999998, "longitude": 77.189694, "maps_url": "https://www.google.com/maps/search/?api=1&query=Makpower%20Mobile%20Accessories%20Manufacturer%20Delhi&query_place_id=ChIJq6q2H5wCDTkRppYnUcFbRVo"}, {"place_id": "ChIJp6_DJi39DDkRG-dNCC6XKh4", "name": "PageX Technology ®", "street": "Safar News Lane, Prem Nagar, Block 22, Shakti Nagar, Delhi, 110007, India", "phone": "+91 88826 73977", "rating": "5", "review_count": "", "website": "http://www.pagextechnology.com/", "latitude": 28.6806846, "longitude": 77.1989744, "maps_url": "https://www.google.com/maps/search/?api=1&query=PageX%20Technology%20%C2%AE&query_place_id=ChIJp6_DJi39DDkRG-dNCC6XKh4"}, {"place_id": "ChIJRS_wD6HkDDkRZooGNZdgPLg", "name": "Digital Marketing Services India - Online Marketing Agency Delhi", "street": "", "phone": "+91 98993 79529", "rating": "4.5", "review_count": "", "website": "https://digitalmarketingservicesindia.in/", "latitude": 14.157641199999999, "longitude": -71.6028869, "maps_url": "https://www.google.com/maps/search/?api=1&query=Digital%20Marketing%20Services%20India%20-%20Online%20Marketing%20Agency%20Delhi&query_place_id=ChIJRS_wD6HkDDkRZooGNZdgPLg"}, {"place_id": "ChIJO0SbjrQDDTkRRwJcoWg5-ik", "name": "Kohli & Co.", "street": "Prabhat Rd, Block 5C, Karol Bagh, New Delhi, Delhi, 110005, India", "phone": "+91 82877 35178", "rating": "5", "review_count": "", "website": "http://kohli-co.com/", "latitude": 28.660183699999997, "longitude": 77.1923794, "maps_url": "https://www.google.com/maps/search/?api=1&query=Kohli%20%26%20Co.&query_place_id=ChIJO0SbjrQDDTkRRwJcoWg5-ik"}, {"place_id": "ChIJEUwFoFYDDTkR42Q8r_BNo3c", "name": "Eagle ace clothing company", "street": "E-16/1176, Tank Rd, near saluja gali gurudwara, Block Number 6, Bapa Nagar, Karol Bagh, New Delhi, Delhi, 110005, India", "phone": "+91 85889 47125", "rating": "5", "review_count": "", "website": "", "latitude": 28.652067199999998, "longitude": 77.182383, "maps_url": "https://www.google.com/maps/search/?api=1&query=Eagle%20ace%20clothing%20company&query_place_id=ChIJEUwFoFYDDTkR42Q8r_BNo3c"}, {"place_id": "ChIJf_GPBmf9DDkR-EyK3aivCjA", "name": "ScanBulk Business Solution", "street": "176, 1st floor, Cycle Market, Block E 4, Jhandewalan Extension, Jhandewalan, New Delhi, Delhi 110055, India", "phone": "+91 88793 81599", "rating": "5", "review_count": "", "website": "http://www.scanbulk.co.in//", "latitude": 28.6461734, "longitude": 77.2033424, "maps_url": "https://www.google.com/maps/search/?api=1&query=ScanBulk%20Business%20Solution&query_place_id=ChIJf_GPBmf9DDkR-EyK3aivCjA"}, {"place_id": "ChIJE9NL9GD9DDkRaQa6HLygtd4", "name": "Vertex Fincorp Pvt Ltd", "street": "Number 3, Faiz Rd, Sewak Chember, Block 49A, Naiwala, Karol Bagh, New Delhi, Delhi, 110005, India", "phone": "", "rating": "4.8", "review_count": "", "website": "", "latitude": 28.648685399999998, "longitude": 77.19842109999999, "maps_url": "https://www.google.com/maps/search/?api=1&query=Vertex%20Fincorp%20Pvt%20Ltd&query_place_id=ChIJE9NL9GD9DDkRaQa6HLygtd4"}, {"place_id": "ChIJQU2gj2wDDTkRCtE4pycX5n0", "name": "MARS ACCESSORIES INDIA PRIVATE LIMITED", "street": "5/31, 3rd Floor, Saraswati Marg, Block 5, WEA, Karol Bagh, Delhi, 110005, India", "phone": "+91 87662 67369", "rating": "4.1", "review_count": "", "website": "https://muvit.in/", "latitude": 28.6477078, "longitude": 77.18925829999999, "maps_url": "https://www.google.com/maps/search/?api=1&query=MARS%20ACCESSORIES%20INDIA%20PRIVATE%20LIMITED&query_place_id=ChIJQU2gj2wDDTkRCtE4pycX5n0"}, {"place_id": "ChIJcesdOTX9DDkRtlHcx4gT3ds", "name": "Jak Software Pvt Ltd", "street": "52 Janpath, New Delhi, Delhi 110001, India", "phone": "+91 78272 49056", "rating": "4.4", "review_count": "", "website": "http://www.jaksoftware.co.in/", "latitude": 28.627537999999998, "longitude": 77.21878989999999, "maps_url": "https://www.google.com/maps/search/?api=1&query=Jak%20Software%20Pvt%20Ltd&query_place_id=ChIJcesdOTX9DDkRtlHcx4gT3ds"}, {"place_id": "ChIJUd11z2f9DDkRp1m0cxx_yIY", "name": "POLYTUF", "street": "208a second floor, Pal Mohan Plaza, Desh Bandhu Gupta Rd, Karol Bagh, New Delhi, Delhi 110005, India", "phone": "", "rating": "5", "review_count": "", "website": "https://www.polytuf.in/", "latitude": 28.651697, "longitude": 77.1951488, "maps_url": "https://www.google.com/maps/search/?api=1&query=POLYTUF&query_place_id=ChIJUd11z2f9DDkRp1m0cxx_yIY"}, {"place_id": "ChIJn3lmq6T9DDkRuJFJBZmXzf4", "name": "Shri Santoshi Trading | Best Trading & Manufacturing Company in Delhi", "street": "3719,Ground floor, Roshanara Road, Gali Kumharo Wali, near Metro Station Pulbangash, Delhi, 110007, India", "phone": "+91 81786 61637", "rating": "5", "review_count": "", "website": "http://www.shrisantoshitrading.com/", "latitude": 28.666397999999997, "longitude": 77.2073716, "maps_url": "https://www.google.com/maps/search/?api=1&query=Shri%20Santoshi%20Trading%20%7C%20Best%20Trading%20%26%20Manufacturing%20Company%20in%20Delhi&query_place_id=ChIJn3lmq6T9DDkRuJFJBZmXzf4"}, {"place_id": "ChIJDyqA4pwCDTkR4LNbv90XL60", "name": "SELECTIVE GLOBAL SEARCH PRIVATE LIMITED", "street": "5TH FLOOR, Padma Tower 1, Unit 501-504, Prasad Nagar, Rajendra Place, New Delhi, Delhi, 110005, India", "phone": "+91 70425 99002", "rating": "4.7", "review_count": "", "website": "http://www.selectiveglobalsearch.com/", "latitude": 28.6458129, "longitude": 77.1782757, "maps_url": "https://www.google.com/maps/search/?api=1&query=SELECTIVE%20GLOBAL%20SEARCH%20PRIVATE%20LIMITED&query_place_id=ChIJDyqA4pwCDTkR4LNbv90XL60"}, {"place_id": "ChIJO2arl2UCDTkRbIKRLu7iHis", "name": "The Unknown Company", "street": "Metro Station Shastri Nagar, E2-252, Back St, near Shastri Nagar, Block E2, Shastri Nagar, Delhi, 110052, India", "phone": "+91 99908 88661", "rating": "4", "review_count": "", "website": "", "latitude": 28.670400599999997, "longitude": 77.18097829999999, "maps_url": "https://www.google.com/maps/search/?api=1&query=The%20Unknown%20Company&query_place_id=ChIJO2arl2UCDTkRbIKRLu7iHis"}, {"place_id": "ChIJAQDAsHL9DDkRNglClOqAkEM", "name": "IBM TRADING COMPANY.... GOODLUCK HOUSEWARES", "street": "New Market, 5396/ A 1, gupta market gali, Rui Mandi, Sadar Bazaar, New Delhi, Delhi, 110006, India", "phone": "", "rating": "5", "review_count": "", "website": "", "latitude": 28.6598631, "longitude": 77.2149721, "maps_url": "https://www.google.com/maps/search/?api=1&query=IBM%20TRADING%20COMPANY....%20GOODLUCK%20HOUSEWARES&query_place_id=ChIJAQDAsHL9DDkRNglClOqAkEM"}, {"place_id": "ChIJrT7OXBYDDTkRWEyLIpDrXDE", "name": "Web Techno Expert", "street": "4, 28, Saraswati Marg, Block 12, WEA, Karol Bagh, Delhi, 110005, India", "phone": "+91 98107 44660", "rating": "5", "review_count": "", "website": "https://www.webtechnoexperts.com/", "latitude": 28.649784999999998, "longitude": 77.18861989999999, "maps_url": "https://www.google.com/maps/search/?api=1&query=Web%20Techno%20Expert&query_place_id=ChIJrT7OXBYDDTkRWEyLIpDrXDE"}, {"place_id": "ChIJUzCnx8kFDTkRzXhond83eM0", "name": "Bestal HR Pvt Ltd", "street": "Gopala Tower, 9J & 9G, opposite to NABARD Towers, Prasad Nagar, Rajendra Place, Delhi, 110008, India", "phone": "+91 99717 79076", "rating": "4.8", "review_count": "", "website": "https://bestalhr.com/", "latitude": 28.645955299999997, "longitude": 77.1774873, "maps_url": "https://www.google.com/maps/search/?api=1&query=Bestal%20HR%20Pvt%20Ltd&query_place_id=ChIJUzCnx8kFDTkRzXhond83eM0"}, {"place_id": "ChIJ__-_ygYDDTkRxM3tDYC0pJ8", "name": "Weblink.In Pvt. Ltd.", "street": "Metro Station Kirti Nagar, 33 & 33A, Rama Rd, near Kirti Nagar, Karampura Industrial Area, Najafgarh Road Industrial Area, New Delhi, Delhi, 110015, India", "phone": "+91 11 4142 8131", "rating": "4.4", "review_count": "", "website": "https://www.weblink.in/", "latitude": 28.6601586, "longitude": 77.1515378, "maps_url": "https://www.google.com/maps/search/?api=1&query=Weblink.In%20Pvt.%20Ltd.&query_place_id=ChIJ__-_ygYDDTkRxM3tDYC0pJ8"}, {"place_id": "ChIJ4_QbqvQDDTkRUV17EnOsFkk", "name": "QSpiders Delhi", "street": "No. 8/3, Part, Fourth Floor, Western Extn Karol Bagh Colony, Rajender Nagar Ward, Zone, Karol Bagh, New Delhi, Delhi 110005, India", "phone": "+91 89519 38997", "rating": "4.7", "review_count": "", "website": "https://qspiders.com/", "latitude": 28.645386499999997, "longitude": 77.1922999, "maps_url": "https://www.google.com/maps/search/?api=1&query=QSpiders%20Delhi&query_place_id=ChIJ4_QbqvQDDTkRUV17EnOsFkk"}, {"place_id": "ChIJo0TFU3r9DDkRpO6ZlBssh6U", "name": "Prismart Productions", "street": "S.K.Tower, 9988/B-1, Rohtak Rd, Railway Officers Colony, Sarai Rohilla, New Delhi, Delhi, 110005, India", "phone": "+91 85279 96328", "rating": "3.9", "review_count": "", "website": "https://www.prismartstudio.com/", "latitude": 28.663665299999998, "longitude": 77.1827789, "maps_url": "https://www.google.com/maps/search/?api=1&query=Prismart%20Productions&query_place_id=ChIJo0TFU3r9DDkRpO6ZlBssh6U"}, {"place_id": "ChIJE0TwoGj9DDkRkJq7i9GWxpE", "name": "Xfas Logistics Pvt. Ltd", "street": "75, 1st Floor, Rani Jhansi Rd, Motia Khan, Sadar Bazaar, Delhi, New Delhi, Delhi 110055, India", "phone": "+91 78100 02244", "rating": "2.6", "review_count": "", "website": "http://www.xfas.in/", "latitude": 28.649903, "longitude": 77.2062316, "maps_url": "https://www.google.com/maps/search/?api=1&query=Xfas%20Logistics%20Pvt.%20Ltd&query_place_id=ChIJE0TwoGj9DDkRkJq7i9GWxpE"}, {"place_id": "ChIJLSYpyUn9DDkR6qgeeusxh7s", "name": "SIGMA CORP INDIA", "street": "5554, Sadar Thana Rd, Basti Harphool Singh, Ahata Kidara, Sadar Bazaar, Delhi, 110006, India", "phone": "+91 76785 77494", "rating": "", "review_count": "", "website": "", "latitude": 28.6548746, "longitude": 77.2104634, "maps_url": "https://www.google.com/maps/search/?api=1&query=SIGMA%20CORP%20INDIA&query_place_id=ChIJLSYpyUn9DDkR6qgeeusxh7s"}, {"place_id": "ChIJASA3qYT9DDkR2YGTHKDXhow", "name": "Cutting Plotters", "street": "72, Rani Jhansi Rd, Block A, Mukharjee Market, Jhandewalan, New Delhi, Delhi 110055, India", "phone": "+91 11 4156 3389", "rating": "4.8", "review_count": "", "website": "https://cuttingplotters.in/", "latitude": 28.649752399999997, "longitude": 77.2048495, "maps_url": "https://www.google.com/maps/search/?api=1&query=Cutting%20Plotters&query_place_id=ChIJASA3qYT9DDkR2YGTHKDXhow"}, {"place_id": "ChIJ30pGziMTFgQRpUN9k_pVjjQ", "name": "Tech Variant - website design company in delhi & digital Marketing company in delhi", "street": "Gate Number 2, Mandi Metro Station, A-98, near by model town 3, Commercial Complex, Azadpur, Delhi, 110033, India", "phone": "", "rating": "4.7", "review_count": "", "website": "https://techvariant.in/", "latitude": 28.710400999999997, "longitude": 77.1783337, "maps_url": "https://www.google.com/maps/search/?api=1&query=Tech%20Variant%20-%20website%20design%20company%20in%20delhi%20%26%20digital%20Marketing%20company%20in%20delhi&query_place_id=ChIJ30pGziMTFgQRpUN9k_pVjjQ"}, {"place_id": "ChIJ8WEQONj9DDkRTD63j5K2KVI", "name": "Jai Sidhi Enterprises Pvt. Ltd.", "street": "Building No. 49, 3rd Floor, Rani Jhansi Rd, Bara Hindu Rao, Sadar Bazaar, New Delhi, Delhi, 110006, India", "phone": "+91 98116 54442", "rating": "4.4", "review_count": "", "website": "https://www.jaisidhienterprises.com/home-loan-1", "latitude": 28.662182899999998, "longitude": 77.20718269999999, "maps_url": "https://www.google.com/maps/search/?api=1&query=Jai%20Sidhi%20Enterprises%20Pvt.%20Ltd.&query_place_id=ChIJ8WEQONj9DDkRTD63j5K2KVI"}, {"place_id": "ChIJCa3hOGj9DDkRpRtdyEoes44", "name": "A S N & COMPANY, Chartered Accountants", "street": "A-209 RG, City Centre, DDA COMMUNITY CENTRE, A-305, A-306, Plot No 4, Desh Bandhu Gupta Rd, adjacent to Novotel Hotel, Paharganj, New Delhi, Delhi 110055, India", "phone": "+91 11 4356 2313", "rating": "4.7", "review_count": "", "website": "http://asnandco.com/", "latitude": 28.646611699999998, "longitude": 77.2077482, "maps_url": "https://www.google.com/maps/search/?api=1&query=A%20S%20N%20%26%20COMPANY%2C%20Chartered%20Accountants&query_place_id=ChIJCa3hOGj9DDkRpRtdyEoes44"}, {"place_id": "ChIJ_TDZd2MCDTkR0ZGLHcqDH58", "name": "J L Trading Company", "street": "2, +919891000561,E, 253, near ICICI Bank, Shastri Nagar, New Delhi, Delhi 110052, India", "phone": "+91 98910 00561", "rating": "4.5", "review_count": "", "website": "https://www.jltradingbuy.com/", "latitude": 28.6704732, "longitude": 77.1807499, "maps_url": "https://www.google.com/maps/search/?api=1&query=J%20L%20Trading%20Company&query_place_id=ChIJ_TDZd2MCDTkR0ZGLHcqDH58"}, {"place_id": "ChIJKbimZH39DDkRYbtIOIRUirU", "name": "Unayur marketing", "street": "M55V+2XJ, New Rohtak Rd, Block 67, Karol Bagh, New Delhi, Delhi, 110005, India", "phone": "+91 11 4950 4100", "rating": "3.4", "review_count": "", "website": "https://www.unayur.com/", "latitude": 28.6575983, "longitude": 77.1948822, "maps_url": "https://www.google.com/maps/search/?api=1&query=Unayur%20marketing&query_place_id=ChIJKbimZH39DDkRYbtIOIRUirU"}, {"place_id": "ChIJxQIck4MCDTkRKjv40Ly9L2c", "name": "Atiya Herbs", "street": "21B/6 Basement, New Rohtak Rd, near Liberty Cinema, Block 21 B, Dev Nagar, Karol Bagh, New Delhi, Delhi, 110005, India", "phone": "+91 11 4000 7716", "rating": "3.5", "review_count": "", "website": "http://www.atiyaherbs.com/", "latitude": 28.6598221, "longitude": 77.1885873, "maps_url": "https://www.google.com/maps/search/?api=1&query=Atiya%20Herbs&query_place_id=ChIJxQIck4MCDTkRKjv40Ly9L2c"}, {"place_id": "ChIJh9C6W7YDDTkR9ApRxlpbgGo", "name": "Greymoons | Website Design Company in Delhi, India | Graphic Design", "street": "Block 29, Padam Singh Rd, Block 4, Regar Pura, Karol Bagh, New Delhi, Delhi, 110005, India", "phone": "+91 98218 81394", "rating": "5", "review_count": "", "website": "http://www.greymoons.com/", "latitude": 28.6491804, "longitude": 77.1880655, "maps_url": "https://www.google.com/maps/search/?api=1&query=Greymoons%20%7C%20Website%20Design%20Company%20in%20Delhi%2C%20India%20%7C%20Graphic%20Design&query_place_id=ChIJh9C6W7YDDTkR9ApRxlpbgGo"}, {"place_id": "ChIJcZZw2GP9DDkRo45qdQn9XRs", "name": "BHAMBRI SOLAR PRIVATE LIMITED", "street": "794, Joshi Rd, Block A, Karol Bagh, New Delhi, Delhi, 110005, India", "phone": "+91 11 2354 1114", "rating": "3.8", "review_count": "", "website": "http://www.kingsunsolarproducts.com/", "latitude": 28.650143999999997, "longitude": 77.198095, "maps_url": "https://www.google.com/maps/search/?api=1&query=BHAMBRI%20SOLAR%20PRIVATE%20LIMITED&query_place_id=ChIJcZZw2GP9DDkRo45qdQn9XRs"}, {"place_id": "ChIJRayZC4UCDTkRDpiZOAvrdSg", "name": "S. C. Bhagat & Co.", "street": "53/6, Desh Bandhu Gupta Rd, Block 56, Karol Bagh, New Delhi, Delhi, 110005, India", "phone": "+91 11 4504 2945", "rating": "4.3", "review_count": "", "website": "https://www.scbc.co/", "latitude": 28.6534046, "longitude": 77.1917134, "maps_url": "https://www.google.com/maps/search/?api=1&query=S.%20C.%20Bhagat%20%26%20Co.&query_place_id=ChIJRayZC4UCDTkRDpiZOAvrdSg"}, {"place_id": "ChIJHy_mJJwCDTkRjjWBA338368", "name": "Lahore Watch Co.", "street": "Shop No. 112, Shop No. 112 113 Ghaffar Market, Block, 113, Ghaffar Market, Block 23, Beadonpura, Karol Bagh, New Delhi, Delhi 110005, India", "phone": "+91 99996 68166", "rating": "4.8", "review_count": "", "website": "http://lahorewatchco.com/", "latitude": 28.649777999999998, "longitude": 77.191687, "maps_url": "https://www.google.com/maps/search/?api=1&query=Lahore%20Watch%20Co.&query_place_id=ChIJHy_mJJwCDTkRjjWBA338368"}, {"place_id": "ChIJl0O_Kun9DDkRRG0USQH2Kuk", "name": "AHLAN TRADER COMPANY", "street": "AHLAN TRADER,BB-115,First Floor Bagrian Basti, Nabi Karim, Paharganj, New Delhi, Delhi 110055, India", "phone": "+91 70422 50150", "rating": "5", "review_count": "", "website": "", "latitude": 28.650358699999998, "longitude": 77.2149998, "maps_url": "https://www.google.com/maps/search/?api=1&query=AHLAN%20TRADER%20COMPANY&query_place_id=ChIJl0O_Kun9DDkRRG0USQH2Kuk"}, {"place_id": "ChIJ28mlS2b9DDkROhaHyIlBq8g", "name": "Anmol Enterprises", "street": "B 11, Block E, Jhandewalan Extension, Jhandewalan, New Delhi, Delhi 110055, India", "phone": "+91 11 4011 5176", "rating": "4.7", "review_count": "", "website": "https://anmolent.in/", "latitude": 28.647574, "longitude": 77.2049011, "maps_url": "https://www.google.com/maps/search/?api=1&query=Anmol%20Enterprises&query_place_id=ChIJ28mlS2b9DDkROhaHyIlBq8g"}, {"place_id": "ChIJAQAA3Hr9DDkRNScMmgzp7qI", "name": "Vanesa Cosmetics", "street": "P-3/107, Central square(DCM) complex, 108 20, Manoharlal Khurana Marg, Bara Hindu Rao, Kishan Ganj, New Delhi, Delhi, 110006, India", "phone": "+91 11 4010 5349", "rating": "4.5", "review_count": "", "website": "https://www.vanesacosmetics.com/", "latitude": 28.663045999999998, "longitude": 77.2028002, "maps_url": "https://www.google.com/maps/search/?api=1&query=Vanesa%20Cosmetics&query_place_id=ChIJAQAA3Hr9DDkRNScMmgzp7qI"}, {"place_id": "ChIJu2FNVYMCDTkRrZgy66SDvWM", "name": "S.D. Logistics Pvt.Ltd.", "street": "Block 51, P&T Quarters, Karol Bagh, New Delhi, Delhi, 110005, India", "phone": "+91 85954 24488", "rating": "", "review_count": "", "website": "", "latitude": 28.6550458, "longitude": 77.1888201, "maps_url": "https://www.google.com/maps/search/?api=1&query=S.D.%20Logistics%20Pvt.Ltd.&query_place_id=ChIJu2FNVYMCDTkRrZgy66SDvWM"}, {"place_id": "ChIJ1-nWQZ4CDTkR6IgbNef9w6Y", "name": "FURMATS", "street": "Pratap Chambers, 404, Gurudwara Rd, Block 25A, Naiwala, Karol Bagh, New Delhi, Delhi, 110005, India", "phone": "+91 11 3060 6000", "rating": "3.3", "review_count": "", "website": "https://furmats.com/", "latitude": 28.648244299999998, "longitude": 77.1928775, "maps_url": "https://www.google.com/maps/search/?api=1&query=FURMATS&query_place_id=ChIJ1-nWQZ4CDTkR6IgbNef9w6Y"}, {"place_id": "ChIJCcjFL6b9DDkRz4tayeg8xWE", "name": "Sai Raj Bag Company", "street": "Gali Zameer Wali, Nawabganj, Tis Hazari, New Delhi, Delhi, 110006, India", "phone": "", "rating": "5", "review_count": "", "website": "http://mybcard.co.in/PBcard1/?HiLike", "latitude": 28.664900399999997, "longitude": 77.21078729999999, "maps_url": "https://www.google.com/maps/search/?api=1&query=Sai%20Raj%20Bag%20Company&query_place_id=ChIJCcjFL6b9DDkRz4tayeg8xWE"}, {"place_id": "ChIJCef7XhT9DDkR3yHHC4Lofpg", "name": "Kalpurja Company", "street": "72, GB Road, Shradhanand Marg, Delhi 6, Chandni Chowk, Delhi, 110006, India", "phone": "", "rating": "4.5", "review_count": "", "website": "http://www.kalpurjacompany.com/", "latitude": 28.650322499999998, "longitude": 77.2209807, "maps_url": "https://www.google.com/maps/search/?api=1&query=Kalpurja%20Company&query_place_id=ChIJCef7XhT9DDkR3yHHC4Lofpg"}, {"place_id": "ChIJ_4BfnR8DDTkRFCoWp3KElfA", "name": "GREEN FUTURE PRIVATE LIMITED", "street": "507, 26, Rajendra Place, Delhi, 110008, India", "phone": "+91 98105 58695", "rating": "4.5", "review_count": "", "website": "http://www.greenfuturemill.com/", "latitude": 28.6458554, "longitude": 77.17758429999999, "maps_url": "https://www.google.com/maps/search/?api=1&query=GREEN%20FUTURE%20PRIVATE%20LIMITED&query_place_id=ChIJ_4BfnR8DDTkRFCoWp3KElfA"}, {"place_id": "ChIJueVC4pwCDTkRx7gXwTV7ImQ", "name": "VRL Logistics Ltd - Karol Bagh", "street": "794, Desh Bandhu Gupta Rd, Block 44Q, Beadonpura, Karol Bagh, Delhi, 110005, India", "phone": "+91 11 2355 0347", "rating": "3.5", "review_count": "", "website": "https://vrlgroup.in/vrl_logistics_service.aspx", "latitude": 28.6533181, "longitude": 77.1915456, "maps_url": "https://www.google.com/maps/search/?api=1&query=VRL%20Logistics%20Ltd%20-%20Karol%20Bagh&query_place_id=ChIJueVC4pwCDTkRx7gXwTV7ImQ"}, {"place_id": "ChIJCXUND2b9DDkRUKIg_QDxGEM", "name": "Delhi Modi Express Transport Co", "street": "25, Rani Jhansi Road, Ram Kumar Marg, Motia Khan, New Delhi, Delhi 110055, India", "phone": "+91 98112 06706", "rating": "4.2", "review_count": "", "website": "https://www.delhimodi.in/", "latitude": 28.652214299999997, "longitude": 77.2070894, "maps_url": "https://www.google.com/maps/search/?api=1&query=Delhi%20Modi%20Express%20Transport%20Co&query_place_id=ChIJCXUND2b9DDkRUKIg_QDxGEM"}, {"place_id": "ChIJ5XAX8V39DDkR4gQP6Af1-9E", "name": "Adio Brand Solutions : Digital Marketing Agency", "street": "2-E, Block E 3, Jhandewalan Extension, Jhandewalan, New Delhi, Delhi 110055, India", "phone": "+91 98995 66665", "rating": "5", "review_count": "", "website": "https://www.adiobrandsolutions.com/", "latitude": 28.6453027, "longitude": 77.2027925, "maps_url": "https://www.google.com/maps/search/?api=1&query=Adio%20Brand%20Solutions%20%3A%20Digital%20Marketing%20Agency&query_place_id=ChIJ5XAX8V39DDkR4gQP6Af1-9E"}, {"place_id": "ChIJjcZpn6UGDTkRPRUJ1Y8OFng", "name": "UniSpark Innovation", "street": "1st Floor, Unispark innovation Pvt. ltd, B-39, Middle Cir, Block B, Connaught Place, New Delhi, Delhi 110001, India", "phone": "+91 88600 77276", "rating": "5", "review_count": "", "website": "https://www.unisparkinnovation.com/", "latitude": 28.633904299999998, "longitude": 77.21771, "maps_url": "https://www.google.com/maps/search/?api=1&query=UniSpark%20Innovation&query_place_id=ChIJjcZpn6UGDTkRPRUJ1Y8OFng"}, {"place_id": "ChIJ3WUmhPwDDTkRNCsfiK-kD2g", "name": "Parana Tools", "street": "BUILDING 2745 3RD FLOOR, GAFFAR MARKET, Gali Number 23, Beadonpura, Karol Bagh, New Delhi, Delhi, 110005, India", "phone": "+91 87001 66499", "rating": "4.6", "review_count": "", "website": "http://www.paranatools.com/", "latitude": 28.6516409, "longitude": 77.1918793, "maps_url": "https://www.google.com/maps/search/?api=1&query=Parana%20Tools&query_place_id=ChIJ3WUmhPwDDTkRNCsfiK-kD2g"}, {"place_id": "ChIJO2tzUa2wTAARwJcWEKyw7FY", "name": "DNG WEB DEVELOPER - Website Development and Designing Company Delhi | App Development | Digital Marketing Company in Delhi", "street": "J6W7+475, Arya Nagar, Paharganj, New Delhi, Delhi 110055, India", "phone": "", "rating": "", "review_count": "", "website": "https://www.dngwebdeveloper.com/", "latitude": 28.6452545, "longitude": 77.2132341, "maps_url": "https://www.google.com/maps/search/?api=1&query=DNG%20WEB%20DEVELOPER%20-%20Website%20Development%20and%20Designing%20Company%20Delhi%20%7C%20App%20Development%20%7C%20Digital%20Marketing%20Company%20in%20Delhi&query_place_id=ChIJO2tzUa2wTAARwJcWEKyw7FY"}, {"place_id": "ChIJ-ZyFYBwDDTkRaKZ2ksfy0Yk", "name": "Nikhil Patel & Company", "street": "B-8, Patel Nagar, New Delhi, Delhi, 110008, India", "phone": "", "rating": "5", "review_count": "", "website": "", "latitude": 28.6617641, "longitude": 77.1793436, "maps_url": "https://www.google.com/maps/search/?api=1&query=Nikhil%20Patel%20%26%20Company&query_place_id=ChIJ-ZyFYBwDDTkRaKZ2ksfy0Yk"}, {"place_id": "ChIJnQI10ZsCDTkRXjjb4ejRUaE", "name": "Mobile Website Design & Development Company", "street": "Padam Singh Rd, Block 29, Block 1, Regar Pura, Karol Bagh, New Delhi, Delhi, 110005, India", "phone": "+91 99110 42000", "rating": "", "review_count": "", "website": "", "latitude": 28.649352999999998, "longitude": 77.1864001, "maps_url": "https://www.google.com/maps/search/?api=1&query=Mobile%20Website%20Design%20%26%20Development%20Company&query_place_id=ChIJnQI10ZsCDTkRXjjb4ejRUaE"}]