{"timestamp": 1773731442.467106, "keyword": "IT company", "location": "delhi", "cell_idx": 396, "results": [{"place_id": "0x390ce2e52043e633:0x3ed44d79ea4bd91c", "name": "Wirecto", "category": "Software company", "street": "Triloki Colony", "city": "C-49", "phone": "09716670074", "website": "https://wirecto.app/", "rating": 5, "review_count": "", "latitude": 28.575404799999998, "longitude": 77.2250054, "maps_url": "https://www.google.com/maps/place/?q=place_id:0x390ce2e52043e633:0x3ed44d79ea4bd91c"}, {"place_id": "0x390ce458d0000001:0xf2123bd299ec4501", "name": "IT Company India", "category": "Software company", "street": "D56", "city": "D Block, Sector 10", "phone": "09999244854", "website": "https://www.itcompanyindia.in/", "rating": 4.7, "review_count": "", "latitude": 28.589917699999997, "longitude": 77.3351153, "maps_url": "https://www.google.com/maps/place/?q=place_id:0x390ce458d0000001:0xf2123bd299ec4501"}, {"place_id": "0x390ce3c153b89811:0xe7a279685777e9ca", "name": "IT Company", "category": "Automation company", "street": "A-14", "city": "near iskcon temple", "phone": "", "website": "http://www.opuswiz.com/", "rating": 3, "review_count": "", "latitude": 28.557167, "longitude": 77.25424819999999, "maps_url": "https://www.google.com/maps/place/?q=place_id:0x390ce3c153b89811:0xe7a279685777e9ca"}, {"place_id": "0x39f89c0fb3b411eb:0xbe473f977e9b7558", "name": "Kbeatech - Digital Solutions Company", "category": "Software company", "street": "1893, 1st Floor", "city": "Uday Chand Marg", "phone": "", "website": "https://kbeatech.in/", "rating": 4.9, "review_count": "", "latitude": 28.571338299999997, "longitude": 77.2228884, "maps_url": "https://www.google.com/maps/place/?q=place_id:0x39f89c0fb3b411eb:0xbe473f977e9b7558"}, {"place_id": "0x390ce3448a4652e7:0x19e65fcfb4a4f898", "name": "VISIBLE INDIA MEDIA PRIVATE LIMITED", "category": "Software company", "street": "616, Lodhi Rd", "city": "near ICICI Bank NewDelhi-NBCC", "phone": "", "website": "", "rating": 5, "review_count": "", "latitude": 28.5889354, "longitude": 77.2309035, "maps_url": "https://www.google.com/maps/place/?q=place_id:0x390ce3448a4652e7:0x19e65fcfb4a4f898"}, {"place_id": "0x390ce1597b5509e5:0xfd8209b937b44d3c", "name": "IT Solutions India Private Limited", "category": "Software company", "street": "D-88/5", "city": "Pocket D, Okhla Phase I, Okhla Industrial Estate", "phone": "09810017429", "website": "https://www.itsipl.com/", "rating": 4.2, "review_count": "", "latitude": 28.520146, "longitude": 77.280431, "maps_url": "https://www.google.com/maps/place/?q=place_id:0x390ce1597b5509e5:0xfd8209b937b44d3c"}, {"place_id": "0x390ce3094f4a9af1:0xdc21c66946b829ad", "name": "BAUDHYANTRAM IT Solutions | Website Designing | Web Development | Software Company in Delhi", "category": "Software company", "street": "H82 2nd Floor", "city": "opposite Bengali Sweet Center", "phone": "07900899996", "website": "http://www.baudhyantram.in/", "rating": 4.8, "review_count": "", "latitude": 28.5695803, "longitude": 77.221047, "maps_url": "https://www.google.com/maps/place/?q=place_id:0x390ce3094f4a9af1:0xdc21c66946b829ad"}, {"place_id": "0x390ce3c7b85554e5:0x34e439c15e247631", "name": "HAUT IT Solutions Pvt. Ltd", "category": "Software company", "street": "390", "city": "Sant Nagar, East of Kailash", "phone": "09934753003", "website": "http://www.hautitsolutions.com/", "rating": 4.3, "review_count": "", "latitude": 28.554910099999997, "longitude": 77.25111249999999, "maps_url": "https://www.google.com/maps/place/?q=place_id:0x390ce3c7b85554e5:0x34e439c15e247631"}, {"place_id": "0x390ce25e81555555:0xf93f773552127f47", "name": "SANEKT SOFTWARE SOLUTION", "category": "Software company", "street": "Top floor", "city": "H 11", "phone": "01141589565", "website": "http://sanekt.com/", "rating": 5, "review_count": "", "latitude": 28.571361, "longitude": 77.221733, "maps_url": "https://www.google.com/maps/place/?q=place_id:0x390ce25e81555555:0xf93f773552127f47"}, {"place_id": "0x390ce3b48e27a563:0x4ec8ae3c524366b", "name": "iSOFT INDIA TECHNOLOGIES", "category": "Software company", "street": "E-168|169, Amar Colony, Lajpat Nagar", "city": "New Delhi, Delhi 110024", "phone": "09717978320", "website": "", "rating": 4.9, "review_count": "", "latitude": 28.5657368, "longitude": 77.23946029999999, "maps_url": "https://www.google.com/maps/place/?q=place_id:0x390ce3b48e27a563:0x4ec8ae3c524366b"}, {"place_id": "0x390ce5fdcc79e755:0x309ce99251b84ef6", "name": "Optyminds IT Solutions - Top AI and IT company I Best Digital agency in Noida | Delhi NCR | India", "category": "Software company", "street": "1st Floor", "city": "B-70", "phone": "08929075975", "website": "https://optyminds.com/", "rating": 4.9, "review_count": "", "latitude": 28.584679599999998, "longitude": 77.3135042, "maps_url": "https://www.google.com/maps/place/?q=place_id:0x390ce5fdcc79e755:0x309ce99251b84ef6"}, {"place_id": "0x390d1d86a4f12173:0x3a6b42ea6f4b8260", "name": "Softvanz Technologies Private Limited", "category": "Software company", "street": "Somdutt Chamber 1", "city": "BT-22/9", "phone": "", "website": "https://softvanz.com/", "rating": 5, "review_count": "", "latitude": 28.567948899999998, "longitude": 77.1889269, "maps_url": "https://www.google.com/maps/place/?q=place_id:0x390d1d86a4f12173:0x3a6b42ea6f4b8260"}, {"place_id": "0x390ce3860c81c723:0xc5f50e43c0a86a3e", "name": "Nextr Technology", "category": "Software company", "street": "2nd Floor", "city": "1483/A-1", "phone": "09911751575", "website": "http://www.nextr.in/", "rating": 4.9, "review_count": "", "latitude": 28.574374, "longitude": 77.224284, "maps_url": "https://www.google.com/maps/place/?q=place_id:0x390ce3860c81c723:0xc5f50e43c0a86a3e"}, {"place_id": "0x390ce3512b42e945:0xe8ce9b06e1651251", "name": "Instant IT services - Best Hardware & Software Related Services", "category": "Software company", "street": "koli camp", "city": "69B", "phone": "09804836325", "website": "", "rating": 4.7, "review_count": "", "latitude": 28.5758728, "longitude": 77.2565554, "maps_url": "https://www.google.com/maps/place/?q=place_id:0x390ce3512b42e945:0xe8ce9b06e1651251"}, {"place_id": "0x4ebf586dbe4d7c09:0x968455c83bf5226c", "name": "Anchor IT Solutions- App Development | Website Development | Digital Marketing", "category": "Software company", "street": "4", "city": "Vinoba Puri, Lajpat Nagar II, Lajpat Nagar", "phone": "07678658584", "website": "", "rating": 4.8, "review_count": "", "latitude": 28.566371399999998, "longitude": 77.2486924, "maps_url": "https://www.google.com/maps/place/?q=place_id:0x4ebf586dbe4d7c09:0x968455c83bf5226c"}, {"place_id": "0x390ce3a1fa7275f1:0x2c792339bc369536", "name": "Ezeetech Solutions", "category": "Software company", "street": "149-A, 1st Floor", "city": "Baba House Complex", "phone": "01149901562", "website": "https://ezeetechonline.com/", "rating": 4.9, "review_count": "", "latitude": 28.576534199999998, "longitude": 77.26283029999999, "maps_url": "https://www.google.com/maps/place/?q=place_id:0x390ce3a1fa7275f1:0x2c792339bc369536"}, {"place_id": "0x390d02994de5e515:0xd908bc03409a0d37", "name": "Himalayan IT Solutions | Best Website Designing Company in Delhi | SEO/Digital Marketing Company in Delhi NCR, India", "category": "Software company", "street": "61/4255, Padam Singh Rd", "city": "Block 29, Block 1, Regar Pura, Karol Bagh", "phone": "09899098509", "website": "http://www.himalayanitsolutions.com/", "rating": 3.9, "review_count": "", "latitude": 28.649673999999997, "longitude": 77.186599, "maps_url": "https://www.google.com/maps/place/?q=place_id:0x390d02994de5e515:0xd908bc03409a0d37"}, {"place_id": "0x390ce395b9b5b411:0x9057c3ba07156393", "name": "IntelliSmart Infrastructure Pvt. Ltd.", "category": "Corporate office", "street": "First Floor", "city": "Lodhi Rd", "phone": "01244710330", "website": "https://intellismartinfra.in/", "rating": 4.2, "review_count": "", "latitude": 28.586567, "longitude": 77.2307502, "maps_url": "https://www.google.com/maps/place/?q=place_id:0x390ce395b9b5b411:0x9057c3ba07156393"}, {"place_id": "0x390ce3a2021e9897:0x28bf52d36a7d0c19", "name": "It Softtech - Website Designing and Development Company in Delhi, India", "category": "Internet marketing service", "street": "149, Ring Rd", "city": "opp. Maharani Bagh", "phone": "09810056177", "website": "", "rating": 5, "review_count": "", "latitude": 28.5763395, "longitude": 77.2640869, "maps_url": "https://www.google.com/maps/place/?q=place_id:0x390ce3a2021e9897:0x28bf52d36a7d0c19"}, {"place_id": "0x390ce44609d8fd9b:0x9c680f27679610f6", "name": "Crestech Software", "category": "Software company", "street": "Plot No. D, Vyapar Marg", "city": "D Block, Sector 2", "phone": "08826666755", "website": "https://www.crestechsoftware.com/", "rating": 3.6, "review_count": "", "latitude": 28.5836924, "longitude": 77.3166213, "maps_url": "https://www.google.com/maps/place/?q=place_id:0x390ce44609d8fd9b:0x9c680f27679610f6"}, {"place_id": "0x390ce26dc4d4ba2d:0x9486a6d620e379f9", "name": "Akal Information Systems Ltd.", "category": "Software company", "street": "Tower J, World Trade Center", "city": "103", "phone": "01146503545", "website": "https://www.akalinfo.com/", "rating": 3.9, "review_count": "", "latitude": 28.567935499999997, "longitude": 77.1923202, "maps_url": "https://www.google.com/maps/place/?q=place_id:0x390ce26dc4d4ba2d:0x9486a6d620e379f9"}, {"place_id": "0x390ce25115555555:0xf9e9c5274d4eb8b1", "name": "Trinity Touch Pvt. Ltd - Corporate Office", "category": "Manufacturer", "street": "D-10", "city": "Block D, Defence Colony", "phone": "01171200900", "website": "https://www.trinitytouch.com/", "rating": 4, "review_count": "", "latitude": 28.5760464, "longitude": 77.2382319, "maps_url": "https://www.google.com/maps/place/?q=place_id:0x390ce25115555555:0xf9e9c5274d4eb8b1"}, {"place_id": "0x390cfcad2d191127:0x83c805201ec0a98e", "name": "IT Nucleus", "category": "Website designer", "street": "310, 3rd Floor, S-524, Aggarwal House Opp-Metro Pillar 27", "city": "School Block shakarpur, Laxmi Nagar", "phone": "01143001828", "website": "http://www.itnucleus.com/", "rating": 4.9, "review_count": "", "latitude": 28.629542599999997, "longitude": 77.2766257, "maps_url": "https://www.google.com/maps/place/?q=place_id:0x390cfcad2d191127:0x83c805201ec0a98e"}, {"place_id": "0x390ce3cfe91504eb:0x55346c5c499223d7", "name": "CCS Computers Private Limited", "category": "Computer support and services", "street": "2nd-3rd Floor Skipper House", "city": "Nehru Place", "phone": "01126463959", "website": "http://www.ccscomputers.co.in/", "rating": 4, "review_count": "", "latitude": 28.550090599999997, "longitude": 77.2537834, "maps_url": "https://www.google.com/maps/place/?q=place_id:0x390ce3cfe91504eb:0x55346c5c499223d7"}, {"place_id": "0x390ce45bcd61048f:0x5f6a5602f4155df7", "name": "JK Technosoft Limited", "category": "Software company", "street": "F", "city": "3", "phone": "01204606300", "website": "https://jktech.com/", "rating": 4.2, "review_count": "", "latitude": 28.5802509, "longitude": 77.31793329999999, "maps_url": "https://www.google.com/maps/place/?q=place_id:0x390ce45bcd61048f:0x5f6a5602f4155df7"}, {"place_id": "0x390ce30f4c4ed777:0x3a7c5e032ce51ce5", "name": "Appextech Software Solutions", "category": "Software company", "street": "Second Floor", "city": "Mohan Cooperative Industrial Estate", "phone": "09911432451", "website": "https://www.appextech.com/", "rating": 4.9, "review_count": "", "latitude": 28.502260099999997, "longitude": 77.28519, "maps_url": "https://www.google.com/maps/place/?q=place_id:0x390ce30f4c4ed777:0x3a7c5e032ce51ce5"}, {"place_id": "0x390ce25e35e99b33:0xf443abe69b4e8fcc", "name": "Synapse Valuetech Private Limited", "category": "Software company", "street": "Lower Ground Floor", "city": "221", "phone": "01146628882", "website": "https://www.synapsevaluetech.com/", "rating": 4.3, "review_count": "", "latitude": 28.558165, "longitude": 77.2592385, "maps_url": "https://www.google.com/maps/place/?q=place_id:0x390ce25e35e99b33:0xf443abe69b4e8fcc"}, {"place_id": "0x390ce3c50d455555:0x625e4cf2def0b6ac", "name": "Infonative Solutions Limited", "category": "Computer support and services", "street": "107, 108", "city": "DLF South Court", "phone": "08448141818", "website": "https://infonative.net/", "rating": 4.7, "review_count": "", "latitude": 28.5274255, "longitude": 77.2209031, "maps_url": "https://www.google.com/maps/place/?q=place_id:0x390ce3c50d455555:0x625e4cf2def0b6ac"}, {"place_id": "0x390cfd35391deb71:0xdbdd1388c7dc51b6", "name": "Jak Software Pvt Ltd", "category": "Software company", "street": "52 Janpath", "city": "New Delhi, Delhi 110001", "phone": "07827249056", "website": "http://www.jaksoftware.co.in/", "rating": 4.4, "review_count": "", "latitude": 28.627537999999998, "longitude": 77.21878989999999, "maps_url": "https://www.google.com/maps/place/?q=place_id:0x390cfd35391deb71:0xdbdd1388c7dc51b6"}, {"place_id": "0x390ce370b849e701:0xf64d1240698480f2", "name": "Business Innovation Magazine | Best Global Business Magazine.", "category": "Media company", "street": "C-3/213", "city": "Lodi Colony", "phone": "", "website": "https://businessinnovationmagazine.com/", "rating": 4.8, "review_count": "", "latitude": 28.584767, "longitude": 77.218617, "maps_url": "https://www.google.com/maps/place/?q=place_id:0x390ce370b849e701:0xf64d1240698480f2"}, {"place_id": "0x390ce3b4ef43469d:0xd3da1ec65f5511ec", "name": "Pointer Soft | Website Designing Company Delhi", "category": "Website designer", "street": "321", "city": "harinagar, ashram", "phone": "09958768130", "website": "http://www.pointersoft.in/", "rating": 4.6, "review_count": "", "latitude": 28.571133999999997, "longitude": 77.2796537, "maps_url": "https://www.google.com/maps/place/?q=place_id:0x390ce3b4ef43469d:0xd3da1ec65f5511ec"}, {"place_id": "0x390ce3ad9aaaaaab:0xcd1d6f28c3a14398", "name": "Team Building Pro - Corporate Team Building Company in Delhi NCR", "category": "Corporate office", "street": "1st-Floor", "city": "B-94", "phone": "09871030465", "website": "https://teambuildingpro.in/", "rating": 4.9, "review_count": "", "latitude": 28.5744208, "longitude": 77.23969579999999, "maps_url": "https://www.google.com/maps/place/?q=place_id:0x390ce3ad9aaaaaab:0xcd1d6f28c3a14398"}, {"place_id": "0x390ce25c9d3321e7:0xe8ed876a155622cf", "name": "Corporate Professionals", "category": "Legal services", "street": "D", "city": "28", "phone": "01140622200", "website": "http://www.corporateprofessionals.com/", "rating": 4.4, "review_count": "", "latitude": 28.572223299999997, "longitude": 77.2203427, "maps_url": "https://www.google.com/maps/place/?q=place_id:0x390ce25c9d3321e7:0xe8ed876a155622cf"}, {"place_id": "0x390ce3b28911a5e9:0x3b26ce22fdc2a721", "name": "Mac Apple Service Centre || Uco Computer Services", "category": "Computer repair service", "street": "Shop", "city": "C 108", "phone": "07217818671", "website": "http://www.ucocomputer.in/", "rating": 4.9, "review_count": "", "latitude": 28.5724071, "longitude": 77.2392563, "maps_url": "https://www.google.com/maps/place/?q=place_id:0x390ce3b28911a5e9:0x3b26ce22fdc2a721"}, {"place_id": "0x390ce44efef427e7:0x4d0a10522519f65e", "name": "Omnie Solutions (I) Pvt Ltd", "category": "Software company", "street": "D-108", "city": "Sector 2, D Block, Sector 2", "phone": "09266754671", "website": "https://www.omniesolutions.com/", "rating": 3.4, "review_count": "", "latitude": 28.583485, "longitude": 77.316155, "maps_url": "https://www.google.com/maps/place/?q=place_id:0x390ce44efef427e7:0x4d0a10522519f65e"}, {"place_id": "0x390ce3c577996141:0x6f0e309d0c4c2de1", "name": "Eagle Information Systems Pvt. Ltd.", "category": "Computer support and services", "street": "Madhuban Building", "city": "705", "phone": "09818188012", "website": "http://www.eagle.in/", "rating": 4.5, "review_count": "", "latitude": 28.5486501, "longitude": 77.2520914, "maps_url": "https://www.google.com/maps/place/?q=place_id:0x390ce3c577996141:0x6f0e309d0c4c2de1"}, {"place_id": "0x390ce25eed6d7889:0x3cf712ee73646f8f", "name": "Corporate Professionals Capital Private Limited", "category": "Consultant", "street": "D38", "city": "South Extension I, Block D", "phone": "", "website": "http://www.corporatevaluations.in/", "rating": 4.3, "review_count": "", "latitude": 28.572256199999998, "longitude": 77.22110529999999, "maps_url": "https://www.google.com/maps/place/?q=place_id:0x390ce25eed6d7889:0x3cf712ee73646f8f"}, {"place_id": "0x390ce23eeab015ab:0x92d6a7e8dbc46e1a", "name": "Odyssey Website Development Company", "category": "Website designer", "street": "B-59", "city": "Block B, Soami Nagar South, Soami Nagar", "phone": "09654486464", "website": "http://odysseyin.com/?utm_source=GMB&utm_medium=Organic&utm_term=Odyssey&utm_content=Listing&utm_campaign=GMB1", "rating": 3.6, "review_count": "", "latitude": 28.541823599999997, "longitude": 77.2262008, "maps_url": "https://www.google.com/maps/place/?q=place_id:0x390ce23eeab015ab:0x92d6a7e8dbc46e1a"}, {"place_id": "0x390ce38514ff8deb:0xf1ec270b68c4fac1", "name": "JSD Solutions", "category": "Website designer", "street": "Arjun Nagar", "city": "133, Bhishma Pitamah Marg", "phone": "08800091803", "website": "http://www.jsdsolutions.in/", "rating": "", "review_count": "", "latitude": 28.579337, "longitude": 77.2293986, "maps_url": "https://www.google.com/maps/place/?q=place_id:0x390ce38514ff8deb:0xf1ec270b68c4fac1"}, {"place_id": "0x390ce2fc6aaaaaab:0xf294e95a57094dba", "name": "Castrol India Limited", "category": "Manufacturer", "street": "5th Floor, East Tower Nbcc Place, Pragati Vihar, B P Marg, Kotla Mubarakpur", "city": "Kotla Mubarakpur", "phone": "01124365025", "website": "http://www.castrol.com/", "rating": 4.3, "review_count": "", "latitude": 28.586782799999998, "longitude": 77.2311509, "maps_url": "https://www.google.com/maps/place/?q=place_id:0x390ce2fc6aaaaaab:0xf294e95a57094dba"}, {"place_id": "0x390ce25c9d3321e7:0xe8ed876a155622cf", "name": "Corporate Professionals", "category": "Legal services", "street": "D", "city": "28", "phone": "01140622200", "website": "http://www.corporateprofessionals.com/", "rating": 4.4, "review_count": "", "latitude": 28.572223299999997, "longitude": 77.2203427, "maps_url": "https://www.google.com/maps/place/?q=place_id:0x390ce25c9d3321e7:0xe8ed876a155622cf"}, {"place_id": "0x390ce3b28911a5e9:0x3b26ce22fdc2a721", "name": "Mac Apple Service Centre || Uco Computer Services", "category": "Computer repair service", "street": "Shop", "city": "C 108", "phone": "07217818671", "website": "http://www.ucocomputer.in/", "rating": 4.9, "review_count": "", "latitude": 28.5724071, "longitude": 77.2392563, "maps_url": "https://www.google.com/maps/place/?q=place_id:0x390ce3b28911a5e9:0x3b26ce22fdc2a721"}, {"place_id": "0x390ce44efef427e7:0x4d0a10522519f65e", "name": "Omnie Solutions (I) Pvt Ltd", "category": "Software company", "street": "D-108", "city": "Sector 2, D Block, Sector 2", "phone": "09266754671", "website": "https://www.omniesolutions.com/", "rating": 3.4, "review_count": "", "latitude": 28.583485, "longitude": 77.316155, "maps_url": "https://www.google.com/maps/place/?q=place_id:0x390ce44efef427e7:0x4d0a10522519f65e"}, {"place_id": "0x390ce3c577996141:0x6f0e309d0c4c2de1", "name": "Eagle Information Systems Pvt. Ltd.", "category": "Computer support and services", "street": "Madhuban Building", "city": "705", "phone": "09818188012", "website": "http://www.eagle.in/", "rating": 4.5, "review_count": "", "latitude": 28.5486501, "longitude": 77.2520914, "maps_url": "https://www.google.com/maps/place/?q=place_id:0x390ce3c577996141:0x6f0e309d0c4c2de1"}, {"place_id": "0x390ce25eed6d7889:0x3cf712ee73646f8f", "name": "Corporate Professionals Capital Private Limited", "category": "Consultant", "street": "D38", "city": "South Extension I, Block D", "phone": "", "website": "http://www.corporatevaluations.in/", "rating": 4.3, "review_count": "", "latitude": 28.572256199999998, "longitude": 77.22110529999999, "maps_url": "https://www.google.com/maps/place/?q=place_id:0x390ce25eed6d7889:0x3cf712ee73646f8f"}, {"place_id": "0x390ce23eeab015ab:0x92d6a7e8dbc46e1a", "name": "Odyssey Website Development Company", "category": "Website designer", "street": "B-59", "city": "Block B, Soami Nagar South, Soami Nagar", "phone": "09654486464", "website": "http://odysseyin.com/?utm_source=GMB&utm_medium=Organic&utm_term=Odyssey&utm_content=Listing&utm_campaign=GMB1", "rating": 3.6, "review_count": "", "latitude": 28.541823599999997, "longitude": 77.2262008, "maps_url": "https://www.google.com/maps/place/?q=place_id:0x390ce23eeab015ab:0x92d6a7e8dbc46e1a"}, {"place_id": "0x390ce38514ff8deb:0xf1ec270b68c4fac1", "name": "JSD Solutions", "category": "Website designer", "street": "Arjun Nagar", "city": "133, Bhishma Pitamah Marg", "phone": "08800091803", "website": "http://www.jsdsolutions.in/", "rating": "", "review_count": "", "latitude": 28.579337, "longitude": 77.2293986, "maps_url": "https://www.google.com/maps/place/?q=place_id:0x390ce38514ff8deb:0xf1ec270b68c4fac1"}, {"place_id": "0x390ce2fc6aaaaaab:0xf294e95a57094dba", "name": "Castrol India Limited", "category": "Manufacturer", "street": "5th Floor, East Tower Nbcc Place, Pragati Vihar, B P Marg, Kotla Mubarakpur", "city": "Kotla Mubarakpur", "phone": "01124365025", "website": "http://www.castrol.com/", "rating": 4.3, "review_count": "", "latitude": 28.586782799999998, "longitude": 77.2311509, "maps_url": "https://www.google.com/maps/place/?q=place_id:0x390ce2fc6aaaaaab:0xf294e95a57094dba"}, {"place_id": "0x390ce3ad5f45af7b:0xf619bb8f1558c34", "name": "RAG Scores", "category": "Business management consultant", "street": "A-193", "city": "Block A, Defence Colony", "phone": "09873383242", "website": "https://ragscores.com/", "rating": 5, "review_count": "", "latitude": 28.5777158, "longitude": 77.23077339999999, "maps_url": "https://www.google.com/maps/place/?q=place_id:0x390ce3ad5f45af7b:0xf619bb8f1558c34"}, {"place_id": "0x390ce459e2a3a42f:0xdda2e042090c2c72", "name": "InfiCare Technologies Pvt. Ltd", "category": "Software company", "street": "D-92 Second/Third floor", "city": "Sector 2", "phone": "09711265591", "website": "http://www.inficaretech.com/", "rating": 3.9, "review_count": "", "latitude": 28.582936099999998, "longitude": 77.3175146, "maps_url": "https://www.google.com/maps/place/?q=place_id:0x390ce459e2a3a42f:0xdda2e042090c2c72"}, {"place_id": "0x390cfd355ca0fea9:0x1f2be0f1ef6dbdcf", "name": "Vayam Technologies Ltd.", "category": "Corporate office", "street": "Thapar House", "city": "124, Janpath Ln", "phone": "01147101200", "website": "https://www.vayamtech.com/", "rating": 3.8, "review_count": "", "latitude": 28.624508, "longitude": 77.21805499999999, "maps_url": "https://www.google.com/maps/place/?q=place_id:0x390cfd355ca0fea9:0x1f2be0f1ef6dbdcf"}, {"place_id": "0x390ce293a1d8d7cf:0xceb3a334eb476e7", "name": "Combine Company", "category": "Educational consultant", "street": "35 A, Prithvi Raj Road", "city": "New Delhi, Delhi 110003", "phone": "09810111169", "website": "https://bestfituniversities.com/", "rating": 4.4, "review_count": "", "latitude": 28.592962699999998, "longitude": 77.21440319999999, "maps_url": "https://www.google.com/maps/place/?q=place_id:0x390ce293a1d8d7cf:0xceb3a334eb476e7"}, {"place_id": "0x390ce25f6e3d2b9d:0x57f3a0fc9725f59b", "name": "YATRA POINT TOURISM COMPANY INDIA", "category": "Travel agency", "street": "OFFICE NO-7", "city": "BULDING NO N-1, LGF", "phone": "08860016982", "website": "", "rating": 4.9, "review_count": "", "latitude": 28.574078, "longitude": 77.219089, "maps_url": "https://www.google.com/maps/place/?q=place_id:0x390ce25f6e3d2b9d:0x57f3a0fc9725f59b"}, {"place_id": "0x390ce300bfffffff:0xe1356f6e89808ee9", "name": "Skylark Elevator Company", "category": "Elevator Manufacturer", "street": "208, Defence Colony Flyover", "city": "Block M, Jungpura Extension, Market", "phone": "09953667500", "website": "https://www.skylarkelevator.com/", "rating": 2.6, "review_count": "", "latitude": 28.5801894, "longitude": 77.238514, "maps_url": "https://www.google.com/maps/place/?q=place_id:0x390ce300bfffffff:0xe1356f6e89808ee9"}, {"place_id": "0x390d02913a73d7d3:0x4e29b34ca5ba65e9", "name": "Institute of Company Secretaries of India", "category": "Educational institution", "street": "ICSI HOUSE", "city": "22, Lodhi Rd", "phone": "01204522000", "website": "http://www.icsi.edu/", "rating": 4.4, "review_count": "", "latitude": 28.5888489, "longitude": 77.2282889, "maps_url": "https://www.google.com/maps/place/?q=place_id:0x390d02913a73d7d3:0x4e29b34ca5ba65e9"}, {"place_id": "0x390ce39a24b89521:0x6e886c5e28fd05a9", "name": "Cloude Data Delhi | Best Cloud Service Provider company in India", "category": "Web hosting company", "street": "First Floor", "city": "A 212, Okhla Phase 3 Rd", "phone": "08882353612", "website": "https://cloudedata.com/", "rating": 4.4, "review_count": "", "latitude": 28.548515, "longitude": 77.2712834, "maps_url": "https://www.google.com/maps/place/?q=place_id:0x390ce39a24b89521:0x6e886c5e28fd05a9"}, {"place_id": "0x390ce3fa30cb5c19:0xc2b9c3fe8db1dd54", "name": "KIREN SMART SERVICES", "category": "Software company", "street": "D-196, New", "city": "G/F, Lajpat Nagar I, Lajpat Nagar", "phone": "09873907360", "website": "https://kirensmartservices.com/", "rating": 4.1, "review_count": "", "latitude": 28.5785903, "longitude": 77.2423422, "maps_url": "https://www.google.com/maps/place/?q=place_id:0x390ce3fa30cb5c19:0xc2b9c3fe8db1dd54"}, {"place_id": "0x390ce31d66595dab:0x7df7f9ba1430554c", "name": "Balmer Lawrie & Co Ltd", "category": "Travel agency", "street": "Core 8, Ground Floor", "city": "SCOPE Complex", "phone": "01124360535", "website": "http://www.balmerlawrie.com/", "rating": 3.6, "review_count": "", "latitude": 28.586250999999997, "longitude": 77.237292, "maps_url": "https://www.google.com/maps/place/?q=place_id:0x390ce31d66595dab:0x7df7f9ba1430554c"}, {"place_id": "0x390ce39a3aaaaaef:0xca57821ce7ee09b0", "name": "Smart IT Technologies", "category": "Website designer", "street": "Saroj Sadan", "city": "100", "phone": "08840274824", "website": "https://smartittechnologies.com/", "rating": 5, "review_count": "", "latitude": 28.5697218, "longitude": 77.2680354, "maps_url": "https://www.google.com/maps/place/?q=place_id:0x390ce39a3aaaaaef:0xca57821ce7ee09b0"}, {"place_id": "0x390cdda0937a36df:0x350a8716d5f40b92", "name": "VS Square Info Solutions", "category": "Computer support and services", "street": "Govardhan Building", "city": "Nehru Place", "phone": "09319173336", "website": "http://www.vssquareinfo.com/", "rating": 4.9, "review_count": "", "latitude": 28.5490526, "longitude": 77.251606, "maps_url": "https://www.google.com/maps/place/?q=place_id:0x390cdda0937a36df:0x350a8716d5f40b92"}, {"place_id": "0xd1516b679f60d2f:0x9458c47d907b59a8", "name": "MarkTech Company", "category": "Marketing agency", "street": "INA, Laxmi Bai Nagar", "city": "New Delhi, Delhi 110023", "phone": "08527880385", "website": "https://markteches.com/", "rating": 3.9, "review_count": "", "latitude": 28.5754463, "longitude": 77.2077127, "maps_url": "https://www.google.com/maps/place/?q=place_id:0xd1516b679f60d2f:0x9458c47d907b59a8"}, {"place_id": "0x390ce256f85d3eb7:0xe90dc37adbced5d1", "name": "Legitquest - AI Legal Tech", "category": "Corporate office", "street": "A-149", "city": "Block A, Defence Colony", "phone": "01141717030", "website": "https://www.legitquest.com/", "rating": 3.6, "review_count": "", "latitude": 28.5759173, "longitude": 77.2323894, "maps_url": "https://www.google.com/maps/place/?q=place_id:0x390ce256f85d3eb7:0xe90dc37adbced5d1"}, {"place_id": "0x390ce32f7f91b893:0xf7c2be7eb729f502", "name": "Digital marketing Company, website Designing Company ( Logo Designing Company ) ( Online Marketplace )", "category": "Website designer", "street": "120-G", "city": "Hari Nagar Ashram", "phone": "08920138925", "website": "https://royalcruiselimos.com/", "rating": 5, "review_count": "", "latitude": 28.5718902, "longitude": 77.2559809, "maps_url": "https://www.google.com/maps/place/?q=place_id:0x390ce32f7f91b893:0xf7c2be7eb729f502"}, {"place_id": "0x390ce3b5e9981665:0x6ed3916f90d5be3c", "name": "Netsoft Consulting Services", "category": "Information services", "street": "24, IInd Floor, Community Center, East Of Kailash", "city": "behind Sapna Cinema", "phone": "01145330000", "website": "https://netsoftit.com/contact-us/", "rating": 3.5, "review_count": "", "latitude": 28.5583678, "longitude": 77.24568579999999, "maps_url": "https://www.google.com/maps/place/?q=place_id:0x390ce3b5e9981665:0x6ed3916f90d5be3c"}, {"place_id": "0x390ce2f4552762b9:0xa1b3f1dafa790d1", "name": "Exquisite India Tour", "category": "Travel agency", "street": "Khanna Market", "city": "Lodhi Road", "phone": "09999292007", "website": "https://exquisiteindiatour.com/", "rating": 4.4, "review_count": "", "latitude": 28.580714999999998, "longitude": 77.220576, "maps_url": "https://www.google.com/maps/place/?q=place_id:0x390ce2f4552762b9:0xa1b3f1dafa790d1"}, {"place_id": "0x390ce3083df185df:0xcff0bc07ace98fca", "name": "Dwitty & Company", "category": "Website designer", "street": "B-109", "city": "Block D, Jangpura B", "phone": "07011273521", "website": "", "rating": 5, "review_count": "", "latitude": 28.581945599999997, "longitude": 77.2534653, "maps_url": "https://www.google.com/maps/place/?q=place_id:0x390ce3083df185df:0xcff0bc07ace98fca"}, {"place_id": "0x390ce3bbdc989cef:0x5ea7ab4823b331b1", "name": "Shaurya capital", "category": "Financial consultant", "street": "29, Lodhi Rd", "city": "Main Market, Block 13, Lodi Colony", "phone": "09810107933", "website": "https://shauryacapital.com/", "rating": 3.8, "review_count": "", "latitude": 28.5848019, "longitude": 77.2238888, "maps_url": "https://www.google.com/maps/place/?q=place_id:0x390ce3bbdc989cef:0x5ea7ab4823b331b1"}, {"place_id": "0x390ce2f0da6b0d6d:0x21b99cc61e344b43", "name": "Atelier Clout Media", "category": "Marketing agency", "street": "", "city": "", "phone": "08826925527", "website": "https://www.atelierclout.com/", "rating": 5, "review_count": "", "latitude": 21.0680074, "longitude": 82.7525294, "maps_url": "https://www.google.com/maps/place/?q=place_id:0x390ce2f0da6b0d6d:0x21b99cc61e344b43"}, {"place_id": "0x390ce259f0c01ffd:0xeade1f7a85d34320", "name": "JBA Concrete Solution P.Ltd.", "category": "Corporate office", "street": "135, Bhishma Pitamah Marg", "city": "South Extension I, Arjun Nagar, Kotla Mubarakpur", "phone": "01141553830", "website": "http://www.jbaindia.com/", "rating": 4, "review_count": "", "latitude": 28.573305899999998, "longitude": 77.2281299, "maps_url": "https://www.google.com/maps/place/?q=place_id:0x390ce259f0c01ffd:0xeade1f7a85d34320"}, {"place_id": "0x390ce2f70fa8500d:0xfe620385033802f0", "name": "Doaba Luxury Travels (i) Pvt Ltd", "category": "Travel agency", "street": "#151", "city": "152", "phone": "09871969696", "website": "http://www.doabaluxury.com/", "rating": 4.7, "review_count": "", "latitude": 28.581727299999997, "longitude": 77.227068, "maps_url": "https://www.google.com/maps/place/?q=place_id:0x390ce2f70fa8500d:0xfe620385033802f0"}, {"place_id": "0x390ce31d66595dab:0x125d368b0020f026", "name": "Modern Stage Service est. 1956", "category": "Event technology service", "street": "35, Lodhi Road, New Municipal Market", "city": "New Delhi, Delhi 110003", "phone": "01124619743", "website": "", "rating": 4.3, "review_count": "", "latitude": 28.581231, "longitude": 77.227266, "maps_url": "https://www.google.com/maps/place/?q=place_id:0x390ce31d66595dab:0x125d368b0020f026"}, {"place_id": "0x390ce2f4818a6df7:0xe2f481e0ec5e9d1", "name": "SM Aircon Engineers", "category": "Air conditioning contractor", "street": "113, Khanna Market Rd", "city": "Block 23, Lodhi Road", "phone": "01124643939", "website": "http://www.smaircondition.com/", "rating": 4.5, "review_count": "", "latitude": 28.580127299999997, "longitude": 77.2210879, "maps_url": "https://www.google.com/maps/place/?q=place_id:0x390ce2f4818a6df7:0xe2f481e0ec5e9d1"}, {"place_id": "0x390ce15795555555:0x9bb8a801d00d7573", "name": "DreamSoft Infotech - Website Development Company in India", "category": "Software company", "street": "A-75 Third Floor", "city": "A Block, Sector 5", "phone": "01204380622", "website": "https://dreamsoftinfotech.com/", "rating": 3.4, "review_count": "", "latitude": 28.591018899999998, "longitude": 77.32201529999999, "maps_url": "https://www.google.com/maps/place/?q=place_id:0x390ce15795555555:0x9bb8a801d00d7573"}, {"place_id": "0x390ce10972701b43:0x88fbfcfafdaf00f3", "name": "SearchingYard Group Corporate HQ", "category": "Software company", "street": "Tower 1st Floor, A", "city": "Nagpal Business", "phone": "", "website": "http://www.searchingyard.com/", "rating": 1.7, "review_count": "", "latitude": 28.538387699999998, "longitude": 77.27080029999999, "maps_url": "https://www.google.com/maps/place/?q=place_id:0x390ce10972701b43:0x88fbfcfafdaf00f3"}, {"place_id": "0x390ce254bf57265b:0x505e0e887ce03175", "name": "Brand Visage Communications Pvt. Ltd.", "category": "Website designer", "street": "2nd & 3rd floor", "city": "A-120", "phone": "09717580410", "website": "https://brandvisage.com/", "rating": 4.5, "review_count": "", "latitude": 28.5742624, "longitude": 77.23923049999999, "maps_url": "https://www.google.com/maps/place/?q=place_id:0x390ce254bf57265b:0x505e0e887ce03175"}, {"place_id": "0x390ce39adc9e89d7:0xd85dae65ec208276", "name": "DENIM PROJECT", "category": "Custom tailor", "street": "78", "city": "Meharchand Market, Lodi Colony", "phone": "08527088678", "website": "", "rating": 5, "review_count": "", "latitude": 28.5842691, "longitude": 77.2267116, "maps_url": "https://www.google.com/maps/place/?q=place_id:0x390ce39adc9e89d7:0xd85dae65ec208276"}, {"place_id": "0x390ce39d936b3e73:0x7322566a7104ffd3", "name": "Utsao - Corporate & Business Gifts", "category": "Corporate gift supplier", "street": "S/F1", "city": "Bhaskar Bhavan", "phone": "09289738874", "website": "https://utsao.com/", "rating": 4.7, "review_count": "", "latitude": 28.570666, "longitude": 77.2222604, "maps_url": "https://www.google.com/maps/place/?q=place_id:0x390ce39d936b3e73:0x7322566a7104ffd3"}, {"place_id": "0x390ce2566c5b3a59:0xe1901f8ddec0ddc1", "name": "Access Legal Group: Top Law Firm in Delhi/NCR", "category": "Law firm", "street": "A-22", "city": "Block A, Defence Colony", "phone": "09868018764", "website": "http://www.accesslegalgroup.in/", "rating": 4.8, "review_count": "", "latitude": 28.577393299999997, "longitude": 77.2338096, "maps_url": "https://www.google.com/maps/place/?q=place_id:0x390ce2566c5b3a59:0xe1901f8ddec0ddc1"}, {"place_id": "0x390ce25bf3643f6d:0xf1699cfc4b71993d", "name": "Fireball Securitas | Security Guards Service | Top security services | Delhi India", "category": "Security guard service", "street": "1899, Uday Chand Marg", "city": "South Extension I, Kotla Mubarakpur", "phone": "08586977224", "website": "http://www.fireballindia.com/", "rating": 4.6, "review_count": "", "latitude": 28.5719329, "longitude": 77.221848, "maps_url": "https://www.google.com/maps/place/?q=place_id:0x390ce25bf3643f6d:0xf1699cfc4b71993d"}, {"place_id": "0x390ce31d14dc7051:0xc337a2120dd03c62", "name": "NBCC Bhawan", "category": "Real Estate Builders & Construction Company", "street": "H6RP+PMV", "city": "NBCC Bhawan", "phone": "01124367314", "website": "http://www.nbccindia.com/", "rating": 4.3, "review_count": "", "latitude": 28.5918663, "longitude": 77.23666999999999, "maps_url": "https://www.google.com/maps/place/?q=place_id:0x390ce31d14dc7051:0xc337a2120dd03c62"}, {"place_id": "0x3bc2becdc35b6937:0x515ac559c349eee3", "name": "Thinkitive Technologies Private Limited", "category": "Software company", "street": "4th Floor", "city": "ABIL IMPERIAL COMMERCIAL SPACES", "phone": "08956467327", "website": "https://www.thinkitive.com/", "rating": 3.9, "review_count": "", "latitude": 18.5563888, "longitude": 73.7729748, "maps_url": "https://www.google.com/maps/place/?q=place_id:0x3bc2becdc35b6937:0x515ac559c349eee3"}, {"place_id": "0x390ce35071aa88f7:0x6b1c5c0fde4cac28", "name": "CAAQ Consultancy - Company Registration & Compliance Consultant Delhi", "category": "Accounting firm", "street": "S/F", "city": "Bhaskar Bhavan", "phone": "", "website": "https://caaq.in/", "rating": 4.1, "review_count": "", "latitude": 28.570666, "longitude": 77.2222604, "maps_url": "https://www.google.com/maps/place/?q=place_id:0x390ce35071aa88f7:0x6b1c5c0fde4cac28"}, {"place_id": "0x390cfd35c8f89657:0xadbc7004661a9c74", "name": "Sterco Digitex Pvt Limited", "category": "Software company", "street": "2nd Floor", "city": "72, Janpath Rd", "phone": "01204857333", "website": "https://www.stercodigitex.com/", "rating": 4.1, "review_count": "", "latitude": 28.628133, "longitude": 77.21985099999999, "maps_url": "https://www.google.com/maps/place/?q=place_id:0x390cfd35c8f89657:0xadbc7004661a9c74"}, {"place_id": "0x390ce33277bd4795:0xe2c11307e47c0d45", "name": "ate | altogether experimental | Glasshouse", "category": "Cafe", "street": "88a", "city": "Meharchand Market, Lodi Colony", "phone": "", "website": "https://www.experienceate.in/", "rating": 4.5, "review_count": "", "latitude": 28.584050899999998, "longitude": 77.2267347, "maps_url": "https://www.google.com/maps/place/?q=place_id:0x390ce33277bd4795:0xe2c11307e47c0d45"}, {"place_id": "0x390ce31f8414d201:0xd94fa7c34d7873a2", "name": "Bhardwaj And Company (Steel Shuttering and Scaffolding Material Supplier)", "category": "Construction equipment supplier", "street": "85-A , Ground Floor", "city": "Bhardwaj Plaza", "phone": "09811109106", "website": "http://bhardwajandcompany.com/", "rating": 4.9, "review_count": "", "latitude": 28.557116399999998, "longitude": 77.23596979999999, "maps_url": "https://www.google.com/maps/place/?q=place_id:0x390ce31f8414d201:0xd94fa7c34d7873a2"}, {"place_id": "0x390ce25daac5c6a7:0x62251f1aeff47fc4", "name": "Nitin Mittal & Co.", "category": "Chartered accountant", "street": "C 21b", "city": "South Extension I, Block C", "phone": "09810147514", "website": "http://nmcindia.net/", "rating": 4.7, "review_count": "", "latitude": 28.572980899999997, "longitude": 77.2193036, "maps_url": "https://www.google.com/maps/place/?q=place_id:0x390ce25daac5c6a7:0x62251f1aeff47fc4"}, {"place_id": "0x390ce38e861c4db9:0x18b213538bbf2041", "name": "Corporate Gift by What A Shop - Corporate Gift Company in Delhi | Pharma & Events gift | Employee Joining Kit | Diwali Gifts", "category": "Corporate gift supplier", "street": "826", "city": "South Extension I, Arjun Nagar, Kotla Mubarakpur", "phone": "09990406003", "website": "https://www.whatashop.in/", "rating": 5, "review_count": "", "latitude": 28.5730045, "longitude": 77.2274676, "maps_url": "https://www.google.com/maps/place/?q=place_id:0x390ce38e861c4db9:0x18b213538bbf2041"}, {"place_id": "0x44410b48618716b:0x7d0c5e38d0253ca9", "name": "WENGS SOLUTIONS LLP", "category": "Website designer", "street": "", "city": "", "phone": "09999537998", "website": "https://www.wengs.co.in/", "rating": 4.9, "review_count": "", "latitude": 13.4222866, "longitude": 142.1078416, "maps_url": "https://www.google.com/maps/place/?q=place_id:0x44410b48618716b:0x7d0c5e38d0253ca9"}, {"place_id": "0x390ce383cbe684f9:0x6df322cd06395a6c", "name": "Level Up The Photo Video Company | Corporate & Healthcare Video Production | Photography & Live Streaming Services", "category": "Video production service", "street": "C - 546", "city": "Block C, Defence Colony", "phone": "09718979770", "website": "http://www.leveluppvc.com/", "rating": 5, "review_count": "", "latitude": 28.5670589, "longitude": 77.23005069999999, "maps_url": "https://www.google.com/maps/place/?q=place_id:0x390ce383cbe684f9:0x6df322cd06395a6c"}, {"place_id": "0x390ce34e49b627ab:0xf91f8f0ac3105233", "name": "Sunder Watch Company", "category": "Watch store", "street": "Shop No. J-35B, Pushpa", "city": "Central Market, Lajpat Nagar II", "phone": "", "website": "", "rating": 4.9, "review_count": "", "latitude": 28.5690226, "longitude": 77.2436111, "maps_url": "https://www.google.com/maps/place/?q=place_id:0x390ce34e49b627ab:0xf91f8f0ac3105233"}, {"place_id": "0x390ce1fb6c608877:0x254b4f46d3d3a13d", "name": "adivaha\u00ae -Travel Technology Company", "category": "Software company", "street": "E 252 1st Floor Sant Nagar, East Of Kailsh", "city": "New Delhi, Delhi 110065", "phone": "", "website": "https://www.adivaha.com/", "rating": 3, "review_count": "", "latitude": 28.555513899999998, "longitude": 77.2502335, "maps_url": "https://www.google.com/maps/place/?q=place_id:0x390ce1fb6c608877:0x254b4f46d3d3a13d"}, {"place_id": "0x390ce2f3e28bd12b:0x4019c3385a27b73f", "name": "Tres", "category": "European restaurant", "street": "23", "city": "Block 13, Lodi Colony", "phone": "08448699586", "website": "https://stores.lbf.co.in/store-pages/tres-lodi-colony-new-delhi", "rating": 4.7, "review_count": "", "latitude": 28.584695699999997, "longitude": 77.2235066, "maps_url": "https://www.google.com/maps/place/?q=place_id:0x390ce2f3e28bd12b:0x4019c3385a27b73f"}, {"place_id": "0x390ce25760ae61cf:0x312ab5d94655b0b7", "name": "SPN Legal", "category": "Law firm", "street": "177, A Block", "city": "Block A, Defence Colony", "phone": "01149800000", "website": "https://www.spnlegal.com/", "rating": 4.5, "review_count": "", "latitude": 28.577032799999998, "longitude": 77.2315587, "maps_url": "https://www.google.com/maps/place/?q=place_id:0x390ce25760ae61cf:0x312ab5d94655b0b7"}, {"place_id": "0x390ce2f15079f265:0x521c82a60738d601", "name": "Mittal Tea House", "category": "Tea store", "street": "Shop No", "city": "Block 8", "phone": "09667699111", "website": "", "rating": 4.4, "review_count": "", "latitude": 28.583634, "longitude": 77.223584, "maps_url": "https://www.google.com/maps/place/?q=place_id:0x390ce2f15079f265:0x521c82a60738d601"}, {"place_id": "0x390ce3a534b6f62b:0xd1fffe5162d3d04d", "name": "N.K.Architects", "category": "Interior designer", "street": "Lodhi Road Quarters 171-190 Flats", "city": "C-396", "phone": "09643258584", "website": "http://nkarchitects.co.in/", "rating": 4.5, "review_count": "", "latitude": 28.5831834, "longitude": 77.2289969, "maps_url": "https://www.google.com/maps/place/?q=place_id:0x390ce3a534b6f62b:0xd1fffe5162d3d04d"}, {"place_id": "0x390ce2ee34abbacf:0x998906782909fd2b", "name": "Punjab Dyers and Drycleaners", "category": "Dry cleaner", "street": "Shop No 22, Old Municipal Double Storey Market", "city": "F-33, Lodhi Rd", "phone": "09891204229", "website": "", "rating": 4.4, "review_count": "", "latitude": 28.5808716, "longitude": 77.22720939999999, "maps_url": "https://www.google.com/maps/place/?q=place_id:0x390ce2ee34abbacf:0x998906782909fd2b"}, {"place_id": "0x390ce3ca02c212bf:0x831590e44471eedc", "name": "SANKET GARG & COMPANY", "category": "Accounting firm", "street": "No. 10", "city": "216-B/1 Basement Gautam Nagar", "phone": "09810577298", "website": "http://casanketgargindia.co.in/", "rating": 5, "review_count": "", "latitude": 28.5607808, "longitude": 77.21212799999999, "maps_url": "https://www.google.com/maps/place/?q=place_id:0x390ce3ca02c212bf:0x831590e44471eedc"}, {"place_id": "0x390ce3ad1110066f:0x6b379fb5729821ac", "name": "Tssg-Tech", "category": "Website designer", "street": "Block B, Kalkaji", "city": "New Delhi, Delhi, 110019", "phone": "09599669486", "website": "https://tssgtech.info/", "rating": 5, "review_count": "", "latitude": 28.541919399999998, "longitude": 77.2523604, "maps_url": "https://www.google.com/maps/place/?q=place_id:0x390ce3ad1110066f:0x6b379fb5729821ac"}, {"place_id": "0x390ce3d5ee90c35d:0xf7c3aa15159883b3", "name": "Weekend Yatra | Best Adventure Trekking Company | Adventure Travel", "category": "Tour operator", "street": "4th Floor", "city": "B 165", "phone": "08527508490", "website": "https://weekendyatra.in/", "rating": 5, "review_count": "", "latitude": 28.5595821, "longitude": 77.2562805, "maps_url": "https://www.google.com/maps/place/?q=place_id:0x390ce3d5ee90c35d:0xf7c3aa15159883b3"}, {"place_id": "0x390ce2fff3962db3:0x71cdfa46bd25c2b1", "name": "MCO Legals (Meharia & Company)", "category": "Law firm", "street": "Ground Floor", "city": "6A", "phone": "01141502006", "website": "https://www.mcolegals.in/", "rating": 4.2, "review_count": "", "latitude": 28.5798125, "longitude": 77.24037679999999, "maps_url": "https://www.google.com/maps/place/?q=place_id:0x390ce2fff3962db3:0x71cdfa46bd25c2b1"}, {"place_id": "0x390ce25760ae61cf:0x312ab5d94655b0b7", "name": "SPN Legal", "category": "Law firm", "street": "177, A Block", "city": "Block A, Defence Colony", "phone": "01149800000", "website": "https://www.spnlegal.com/", "rating": 4.5, "review_count": "", "latitude": 28.577032799999998, "longitude": 77.2315587, "maps_url": "https://www.google.com/maps/place/?q=place_id:0x390ce25760ae61cf:0x312ab5d94655b0b7"}, {"place_id": "0x390ce2f15079f265:0x521c82a60738d601", "name": "Mittal Tea House", "category": "Tea store", "street": "Shop No", "city": "Block 8", "phone": "09667699111", "website": "", "rating": 4.4, "review_count": "", "latitude": 28.583634, "longitude": 77.223584, "maps_url": "https://www.google.com/maps/place/?q=place_id:0x390ce2f15079f265:0x521c82a60738d601"}, {"place_id": "0x390ce3a534b6f62b:0xd1fffe5162d3d04d", "name": "N.K.Architects", "category": "Interior designer", "street": "Lodhi Road Quarters 171-190 Flats", "city": "C-396", "phone": "09643258584", "website": "http://nkarchitects.co.in/", "rating": 4.5, "review_count": "", "latitude": 28.5831834, "longitude": 77.2289969, "maps_url": "https://www.google.com/maps/place/?q=place_id:0x390ce3a534b6f62b:0xd1fffe5162d3d04d"}, {"place_id": "0x390ce2ee34abbacf:0x998906782909fd2b", "name": "Punjab Dyers and Drycleaners", "category": "Dry cleaner", "street": "Shop No 22, Old Municipal Double Storey Market", "city": "F-33, Lodhi Rd", "phone": "09891204229", "website": "", "rating": 4.4, "review_count": "", "latitude": 28.5808716, "longitude": 77.22720939999999, "maps_url": "https://www.google.com/maps/place/?q=place_id:0x390ce2ee34abbacf:0x998906782909fd2b"}, {"place_id": "0x390ce3ca02c212bf:0x831590e44471eedc", "name": "SANKET GARG & COMPANY", "category": "Accounting firm", "street": "No. 10", "city": "216-B/1 Basement Gautam Nagar", "phone": "09810577298", "website": "http://casanketgargindia.co.in/", "rating": 5, "review_count": "", "latitude": 28.5607808, "longitude": 77.21212799999999, "maps_url": "https://www.google.com/maps/place/?q=place_id:0x390ce3ca02c212bf:0x831590e44471eedc"}, {"place_id": "0x390ce3ad1110066f:0x6b379fb5729821ac", "name": "Tssg-Tech", "category": "Website designer", "street": "Block B, Kalkaji", "city": "New Delhi, Delhi, 110019", "phone": "09599669486", "website": "https://tssgtech.info/", "rating": 5, "review_count": "", "latitude": 28.541919399999998, "longitude": 77.2523604, "maps_url": "https://www.google.com/maps/place/?q=place_id:0x390ce3ad1110066f:0x6b379fb5729821ac"}, {"place_id": "0x390ce3d5ee90c35d:0xf7c3aa15159883b3", "name": "Weekend Yatra | Best Adventure Trekking Company | Adventure Travel", "category": "Tour operator", "street": "4th Floor", "city": "B 165", "phone": "08527508490", "website": "https://weekendyatra.in/", "rating": 5, "review_count": "", "latitude": 28.5595821, "longitude": 77.2562805, "maps_url": "https://www.google.com/maps/place/?q=place_id:0x390ce3d5ee90c35d:0xf7c3aa15159883b3"}, {"place_id": "0x390ce2fff3962db3:0x71cdfa46bd25c2b1", "name": "MCO Legals (Meharia & Company)", "category": "Law firm", "street": "Ground Floor", "city": "6A", "phone": "01141502006", "website": "https://www.mcolegals.in/", "rating": 4.2, "review_count": "", "latitude": 28.5798125, "longitude": 77.24037679999999, "maps_url": "https://www.google.com/maps/place/?q=place_id:0x390ce2fff3962db3:0x71cdfa46bd25c2b1"}, {"place_id": "0x390ce2f7254d1d29:0x74bb460f1a9d9a5f", "name": "softplayland", "category": "Playground equipment supplier", "street": "105", "city": "Meharchand Market, Lodi Colony", "phone": "09711529745", "website": "http://www.softplayland.co.in/", "rating": 5, "review_count": "", "latitude": 28.583349799999997, "longitude": 77.22685539999999, "maps_url": "https://www.google.com/maps/place/?q=place_id:0x390ce2f7254d1d29:0x74bb460f1a9d9a5f"}, {"place_id": "0x390ce340b27bc093:0xc927e8fe50cf47f5", "name": "Ghar point (A house renting company)", "category": "Real estate consultant", "street": "B 272", "city": "Block B, Greater Kailash I, Greater Kailash", "phone": "09599685158", "website": "", "rating": 4.8, "review_count": "", "latitude": 28.556379699999997, "longitude": 77.2326027, "maps_url": "https://www.google.com/maps/place/?q=place_id:0x390ce340b27bc093:0xc927e8fe50cf47f5"}, {"place_id": "0x390ce3aa5309bf0f:0xf61d60d6b749d331", "name": "Jupiter Administrative & Security Services", "category": "Security guard service", "street": "B-112", "city": "Block B, Lajpat Nagar I, Lajpat Nagar", "phone": "09953591638", "website": "https://www.jupitersecurity.in/", "rating": 3.5, "review_count": "", "latitude": 28.578349799999998, "longitude": 77.2406191, "maps_url": "https://www.google.com/maps/place/?q=place_id:0x390ce3aa5309bf0f:0xf61d60d6b749d331"}, {"place_id": "0x390ce303b0128359:0xcd7d9a06ceed8d57", "name": "YatraXpert", "category": "Travel agency", "street": "", "city": "", "phone": "08076245317", "website": "http://yatraxpert.com/", "rating": 4.9, "review_count": "", "latitude": 21.0680074, "longitude": 82.7525294, "maps_url": "https://www.google.com/maps/place/?q=place_id:0x390ce303b0128359:0xcd7d9a06ceed8d57"}, {"place_id": "0x390ce3c851487b1f:0xb893e768ca355a6c", "name": "Aditya V Agarwal & Company", "category": "Certified public accountant", "street": "First Floor 29", "city": "Community Center", "phone": "09873131781", "website": "", "rating": 5, "review_count": "", "latitude": 28.5586234, "longitude": 77.2455276, "maps_url": "https://www.google.com/maps/place/?q=place_id:0x390ce3c851487b1f:0xb893e768ca355a6c"}, {"place_id": "0xf0e44edd8f72905:0x1d247d24a767d13e", "name": "wavechem waterproofing company", "category": "Waterproofing service", "street": "i 97", "city": "Vikram Vihar, Lajpat Nagar 4, Lajpat Nagar", "phone": "", "website": "https://wchemwaterproofings.in/", "rating": 5, "review_count": "", "latitude": 28.5643164, "longitude": 77.2378322, "maps_url": "https://www.google.com/maps/place/?q=place_id:0xf0e44edd8f72905:0x1d247d24a767d13e"}, {"place_id": "0x390ce2f9e7930b65:0x4d7cc3085b49d9f0", "name": "MultiCare Surgical Products Corporation", "category": "Medical Equipment Manufacturer", "street": "Tower No. 944", "city": "Arjun Nagar", "phone": "08068093681", "website": "http://www.multicaresurgical.com/", "rating": 3.8, "review_count": "", "latitude": 28.5737635, "longitude": 77.22831359999999, "maps_url": "https://www.google.com/maps/place/?q=place_id:0x390ce2f9e7930b65:0x4d7cc3085b49d9f0"}, {"place_id": "0x390cdc6f70fb5be5:0xa34888feda73528d", "name": "Pepper Designs", "category": "Website designer", "street": "House No 1, Ground Floor", "city": "Hauz Khas Village", "phone": "09811767560", "website": "https://www.pepper-designs.com/", "rating": 4.6, "review_count": "", "latitude": 28.555021999999997, "longitude": 77.19471399999999, "maps_url": "https://www.google.com/maps/place/?q=place_id:0x390cdc6f70fb5be5:0xa34888feda73528d"}, {"place_id": "0x390ce34eb73efff7:0x4e84907e01a088f2", "name": "BIGI INFOSOLUTIONS", "category": "Manufacturer", "street": "Basement 51, 52 building", "city": "Cabin no. 1 Gedore house", "phone": "", "website": "", "rating": "", "review_count": "", "latitude": 28.5490526, "longitude": 77.251606, "maps_url": "https://www.google.com/maps/place/?q=place_id:0x390ce34eb73efff7:0x4e84907e01a088f2"}, {"place_id": "0x390ce3b9190dbb81:0xeb137d57529ade82", "name": "VR Telemarketers - Telemarketing Company in India", "category": "Telephone Marketing Agency", "street": "251, E Of Kailas Rd", "city": "B Block, East of Kailash", "phone": "09891057170", "website": "https://www.vrtelemarketers.com/", "rating": 4.8, "review_count": "", "latitude": 28.5615953, "longitude": 77.2562493, "maps_url": "https://www.google.com/maps/place/?q=place_id:0x390ce3b9190dbb81:0xeb137d57529ade82"}, {"place_id": "0x390ce2f1599e5e3d:0x15aea808eef8685", "name": "DTDC", "category": "Courier service", "street": "No. 6, Ploof Main Market", "city": "near Punjab National Bank", "phone": "01124636613", "website": "http://dtdc.com/", "rating": 4.1, "review_count": "", "latitude": 28.583792, "longitude": 77.2231145, "maps_url": "https://www.google.com/maps/place/?q=place_id:0x390ce2f1599e5e3d:0x15aea808eef8685"}, {"place_id": "0x390ce32a4935cfb3:0x215c580033758e7b", "name": "Techsunware Private Limited", "category": "Software company", "street": "Sriniwaspuri Extn, Block L, Private Colony, Sri Niwaspuri", "city": "New Delhi, Delhi 110065", "phone": "", "website": "https://www.techsunware.com/", "rating": "", "review_count": "", "latitude": 28.563623999999997, "longitude": 77.25999379999999, "maps_url": "https://www.google.com/maps/place/?q=place_id:0x390ce32a4935cfb3:0x215c580033758e7b"}, {"place_id": "0x390ce32a4935cfb3:0x215c580033758e7b", "name": "Techsunware Private Limited", "category": "Software company", "street": "Sriniwaspuri Extn, Block L, Private Colony, Sri Niwaspuri", "city": "New Delhi, Delhi 110065", "phone": "", "website": "https://www.techsunware.com/", "rating": "", "review_count": "", "latitude": 28.563623999999997, "longitude": 77.25999379999999, "maps_url": "https://www.google.com/maps/place/?q=place_id:0x390ce32a4935cfb3:0x215c580033758e7b"}]}