{"timestamp": 1773731425.331992, "keyword": "IT company", "location": "delhi", "cell_idx": 379, "results": [{"place_id": "0x390d1b691430a599:0x7a5c988a59f7f3e", "name": "Om Info Solutions", "category": "Computer consultant", "street": "H3MP+MJ9", "city": "Dada Chatriwala Marg", "phone": "09911216943", "website": "http://www.ominfosolutions.com/", "rating": 4.4, "review_count": "", "latitude": 28.5841525, "longitude": 77.0866076, "maps_url": "https://www.google.com/maps/place/?q=place_id:0x390d1b691430a599:0x7a5c988a59f7f3e"}, {"place_id": "0x390d1b2440000001:0x7b52a88f21fc0d82", "name": "DesignDot Technologies | #1 Best Website & App Development | Top Software & AIML Solutions Company in Delhi", "category": "Software company", "street": "RZ 1/13, 3RD FLOOR, Main Road Above HDFC Bank, Dwarka, Near Palam Metro Gate 2", "city": "New Delhi, Delhi 110077", "phone": "09999652812", "website": "https://www.designdot.co.in/", "rating": 5, "review_count": "", "latitude": 28.587238199999998, "longitude": 77.0850727, "maps_url": "https://www.google.com/maps/place/?q=place_id:0x390d1b2440000001:0x7b52a88f21fc0d82"}, {"place_id": "0x390d1b0ad6565c37:0x9ee772d45ffed70d", "name": "IOTtech Softwares", "category": "Software company", "street": "First & Second Floor", "city": "Lucky Plaza", "phone": "08034798583", "website": "", "rating": 4.9, "review_count": "", "latitude": 28.5847981, "longitude": 77.07323199999999, "maps_url": "https://www.google.com/maps/place/?q=place_id:0x390d1b0ad6565c37:0x9ee772d45ffed70d"}, {"place_id": "0x390d1b05f82470d3:0x627055a17c741b6e", "name": "Ananyaa IT Solutions", "category": "Computer service", "street": "DDA Park Rd", "city": "Block G, Block F, Raj Nagar II Extension, Palam", "phone": "08510013225", "website": "", "rating": 4.8, "review_count": "", "latitude": 28.580841099999997, "longitude": 77.0852864, "maps_url": "https://www.google.com/maps/place/?q=place_id:0x390d1b05f82470d3:0x627055a17c741b6e"}, {"place_id": "0x390d1b1fb85c71ed:0x1aa4ba2a08b02c1d", "name": "Tecmicra Solutions - Software, Website Development & Digital Marketing Company", "category": "Software company", "street": "Floor, D410", "city": "3rd", "phone": "07042387253", "website": "https://tecmicra.co.in/", "rating": 5, "review_count": "", "latitude": 28.5849324, "longitude": 77.071085, "maps_url": "https://www.google.com/maps/place/?q=place_id:0x390d1b1fb85c71ed:0x1aa4ba2a08b02c1d"}, {"place_id": "0xaea8e53515ad7975:0xa66c9fbf1130d17d", "name": "XpertNote Analytics", "category": "Software company", "street": "Gali No. 1, Rajnagar", "city": "Part-2, Palam", "phone": "08287883300", "website": "https://www.xpertnote.com/", "rating": 5, "review_count": "", "latitude": 28.5813615, "longitude": 77.08544169999999, "maps_url": "https://www.google.com/maps/place/?q=place_id:0xaea8e53515ad7975:0xa66c9fbf1130d17d"}, {"place_id": "0x390d1b3d620205b1:0xe21a1fe217f40c4", "name": "InFutive Technology Pvt Ltd.", "category": "Software company", "street": "C-Block", "city": "B - 282 Palam Extension", "phone": "08882283917", "website": "http://www.infutive.com/", "rating": 5, "review_count": "", "latitude": 28.5862752, "longitude": 77.0697868, "maps_url": "https://www.google.com/maps/place/?q=place_id:0x390d1b3d620205b1:0xe21a1fe217f40c4"}, {"place_id": "0x390d1ba4107bf805:0xd1a5810e1ba034bd", "name": "NDS TECH SOLUTIONS, Digital Marketing Agency in Delhi | India", "category": "Internet marketing service", "street": "RZ, H7, GALI NO 2 RAJ NAGAR", "city": "PART ||, Palam", "phone": "07652075397", "website": "https://ndstechsolutions.com/", "rating": 5, "review_count": "", "latitude": 28.585321099999998, "longitude": 77.08236339999999, "maps_url": "https://www.google.com/maps/place/?q=place_id:0x390d1ba4107bf805:0xd1a5810e1ba034bd"}, {"place_id": "0x390d013ca8ac1387:0x8a0db85b518267d5", "name": "NexGen Innovators", "category": "Software company", "street": "114B, 3rd floor, Dwarka Mor", "city": "New Delhi, Delhi 110059", "phone": "", "website": "https://www.nexgi.com/", "rating": 4.9, "review_count": "", "latitude": 28.618961, "longitude": 77.0322202, "maps_url": "https://www.google.com/maps/place/?q=place_id:0x390d013ca8ac1387:0x8a0db85b518267d5"}, {"place_id": "0x390d1bb72bd328b1:0xd9425539dc10edb3", "name": "SOFT INDIA WEB SOFTWARE DEVELOPMENT PVT LTD", "category": "Software company", "street": "Ground Floor", "city": "A- 107", "phone": "09625503688", "website": "http://www.softindia.in/", "rating": 3.2, "review_count": "", "latitude": 28.587611, "longitude": 77.0704514, "maps_url": "https://www.google.com/maps/place/?q=place_id:0x390d1bb72bd328b1:0xd9425539dc10edb3"}, {"place_id": "0x390d1b3360513b99:0xebad773570b34473", "name": "Digital Webster", "category": "Website designer", "street": "Rz 214 B", "city": "near Gurudwara Road", "phone": "09716674761", "website": "https://digitalwebster.in/", "rating": 4.6, "review_count": "", "latitude": 28.5826027, "longitude": 77.0855844, "maps_url": "https://www.google.com/maps/place/?q=place_id:0x390d1b3360513b99:0xebad773570b34473"}, {"place_id": "0x390d1c153a0323ff:0x48e3aad9be77d23c", "name": "Msinterface Technologies Pvt Ltd - Website Designer in Dwarka", "category": "Software company", "street": "Mahavir Enclave", "city": "Mahavir Enclave I, Sector 1 Dwarka, Dwarka", "phone": "09971787219", "website": "https://www.msinterface.in/", "rating": 5, "review_count": "", "latitude": 28.5961926, "longitude": 77.0823114, "maps_url": "https://www.google.com/maps/place/?q=place_id:0x390d1c153a0323ff:0x48e3aad9be77d23c"}, {"place_id": "0x390d05f1c70d0d6b:0x80d816e36f28618f", "name": "Katchin Tech Private Limited | Software Development Company in Delhi NCR", "category": "Software company", "street": "A-4", "city": "near skin decor", "phone": "07669005215", "website": "https://www.katchintech.com/", "rating": 5, "review_count": "", "latitude": 28.575834099999998, "longitude": 77.05139609999999, "maps_url": "https://www.google.com/maps/place/?q=place_id:0x390d05f1c70d0d6b:0x80d816e36f28618f"}, {"place_id": "0x390ce458d0000001:0xf2123bd299ec4501", "name": "IT Company India", "category": "Software company", "street": "D56", "city": "D Block, Sector 10", "phone": "09999244854", "website": "https://www.itcompanyindia.in/", "rating": 4.7, "review_count": "", "latitude": 28.589917699999997, "longitude": 77.3351153, "maps_url": "https://www.google.com/maps/place/?q=place_id:0x390ce458d0000001:0xf2123bd299ec4501"}, {"place_id": "0x390cfadbb7955555:0x317a554074048564", "name": "Webtech Search Group", "category": "Software company", "street": "", "city": "", "phone": "09212392181", "website": "https://www.webtechsearchgroup.com/", "rating": 4.6, "review_count": "", "latitude": 28.573310099999997, "longitude": 77.0450953, "maps_url": "https://www.google.com/maps/place/?q=place_id:0x390cfadbb7955555:0x317a554074048564"}, {"place_id": "0x29182cd90b477205:0xafbdc18388b8d100", "name": "Ananta Technology - IT Company", "category": "Web hosting company", "street": "RZB-214, Old Mehrauli Rd", "city": "Palam Colony, Part - I, Raj Nagar", "phone": "", "website": "https://anantatechnology.com/", "rating": 5, "review_count": "", "latitude": 28.584313899999998, "longitude": 77.0862543, "maps_url": "https://www.google.com/maps/place/?q=place_id:0x29182cd90b477205:0xafbdc18388b8d100"}, {"place_id": "0x390d053af4b9fae1:0xa955718786ea4c90", "name": "Efficient IT & Electronic Services Private Limited", "category": "Software company", "street": "1st floor", "city": "VV Plaza building", "phone": "08750042191", "website": "http://www.efficientindia.com/", "rating": 4.4, "review_count": "", "latitude": 28.6100702, "longitude": 77.03385709999999, "maps_url": "https://www.google.com/maps/place/?q=place_id:0x390d053af4b9fae1:0xa955718786ea4c90"}, {"place_id": "0x390d1b95c0282d51:0xa63e0ab9c2fe717d", "name": "Core Web Technology", "category": "Software company", "street": "RZF-906/22,B3,3rd Flooor, Netaji Shubhash Marg Rajnagar-II", "city": "near SBI", "phone": "09319919395", "website": "https://www.corewebtechnology.com/", "rating": 5, "review_count": "", "latitude": 28.5768757, "longitude": 77.0790449, "maps_url": "https://www.google.com/maps/place/?q=place_id:0x390d1b95c0282d51:0xa63e0ab9c2fe717d"}, {"place_id": "0x390d1bd6e86c9c67:0x3c73f38ea4242fa6", "name": "ReTechie: Best Refurbished Laptops Seller In India", "category": "E-commerce service", "street": "RZP 18-19", "city": "Palam Colony, Raj Nagar II Extension, Raj Nagar", "phone": "08178043830", "website": "http://retechie.com/", "rating": 4.7, "review_count": "", "latitude": 28.5847113, "longitude": 77.0828325, "maps_url": "https://www.google.com/maps/place/?q=place_id:0x390d1bd6e86c9c67:0x3c73f38ea4242fa6"}, {"place_id": "0x390d1da73a24973f:0xfcbd561b3e6e5b0b", "name": "Adsource IT Solutions", "category": "Software company", "street": "Metro Pilllar, metro station", "city": "Dwarka More", "phone": "", "website": "https://www.adsourceitsolutions.com/", "rating": 5, "review_count": "", "latitude": 28.619874, "longitude": 77.0310854, "maps_url": "https://www.google.com/maps/place/?q=place_id:0x390d1da73a24973f:0xfcbd561b3e6e5b0b"}, {"place_id": "0x390d1b68961519e3:0x43ac2e78c8cad742", "name": "Rajasthan Electronics", "category": "Computer store", "street": "WZ-428, Opp Pillor No. 61,", "city": "Rajnagar Part 1 , Palam Colony", "phone": "07042139221", "website": "", "rating": 4.1, "review_count": "", "latitude": 28.583884299999998, "longitude": 77.0899786, "maps_url": "https://www.google.com/maps/place/?q=place_id:0x390d1b68961519e3:0x43ac2e78c8cad742"}, {"place_id": "0x390d04ae48526021:0xfc8962573381adb3", "name": "Softonic Solution", "category": "Software company", "street": "Building A", "city": "Block A, 2nd Floor, Plot No. 11, 12, 16, 17 Palam Extension", "phone": "09990944381", "website": "", "rating": 4.9, "review_count": "", "latitude": 28.582297399999998, "longitude": 77.07083709999999, "maps_url": "https://www.google.com/maps/place/?q=place_id:0x390d04ae48526021:0xfc8962573381adb3"}, {"place_id": "0x390d1b6916313c57:0x1fbb4be25fcc989", "name": "Vikas Computer & Electronics Hub", "category": "Computer store", "street": "RZ-69/A", "city": "Old Mehrauli Rd", "phone": "09911235361", "website": "", "rating": 3.6, "review_count": "", "latitude": 28.583683299999997, "longitude": 77.0870398, "maps_url": "https://www.google.com/maps/place/?q=place_id:0x390d1b6916313c57:0x1fbb4be25fcc989"}, {"place_id": "0x390d1bca88129e1d:0xd567133d6a830d86", "name": "Jai Guruji Infotech", "category": "Computer support and services", "street": "Rz D118/50 Raj nagar", "city": "Part-2, Palam", "phone": "06202709104", "website": "", "rating": 3, "review_count": "", "latitude": 28.5837024, "longitude": 77.0856877, "maps_url": "https://www.google.com/maps/place/?q=place_id:0x390d1bca88129e1d:0xd567133d6a830d86"}, {"place_id": "0x390d1b3d95555591:0x43c9fe791aed7a0e", "name": "Acetech Information Systems Pvt. Ltd", "category": "Software company", "street": "Unit No. 469-470, Vegas Mall", "city": "Commercial Towers", "phone": "09650972345", "website": "http://www.acetechindia.com/", "rating": 4.4, "review_count": "", "latitude": 28.601454, "longitude": 77.0294002, "maps_url": "https://www.google.com/maps/place/?q=place_id:0x390d1b3d95555591:0x43c9fe791aed7a0e"}, {"place_id": "0x390d05cd2ace8d53:0xf82774e10e1ff47c", "name": "Quicky Technologies", "category": "Software company", "street": "3rd Floor", "city": "C-85, Rama Park Rd", "phone": "09899550472", "website": "https://www.quickytechnologies.com/", "rating": 5, "review_count": "", "latitude": 28.622149999999998, "longitude": 77.03673069999999, "maps_url": "https://www.google.com/maps/place/?q=place_id:0x390d05cd2ace8d53:0xf82774e10e1ff47c"}, {"place_id": "0x390d058eebd4e349:0xe3540cff21ac1db4", "name": "Matrix Infotech Solution | Software Development Company in Delhi", "category": "Software company", "street": "3rd floor, Besmate Indian Bank, housing complex", "city": "Main Market", "phone": "08920817059", "website": "https://www.matrixinfotechsolution.com/", "rating": 5, "review_count": "", "latitude": 28.6165375, "longitude": 77.0282521, "maps_url": "https://www.google.com/maps/place/?q=place_id:0x390d058eebd4e349:0xe3540cff21ac1db4"}, {"place_id": "0x390d1bb80cdf0beb:0x2469e4ceca971f27", "name": "VR Multiservices", "category": "Event management company", "street": "Rz - 243 /4c", "city": "Block J, Palam Colony, E-17, Raj Nagar", "phone": "", "website": "https://www.vrmultiservices.in/", "rating": 4.9, "review_count": "", "latitude": 28.5807963, "longitude": 77.0880176, "maps_url": "https://www.google.com/maps/place/?q=place_id:0x390d1bb80cdf0beb:0x2469e4ceca971f27"}, {"place_id": "0x390d1b5d3fffffff:0x6dd8c5ebd9f9518e", "name": "BluBrandz Technologies", "category": "Marketing agency", "street": "WZ-28 A, 2nd Floor", "city": "opposite Pillar-61", "phone": "09910024440", "website": "https://blubrandzglobal.in/", "rating": 5, "review_count": "", "latitude": 28.5846284, "longitude": 77.09069509999999, "maps_url": "https://www.google.com/maps/place/?q=place_id:0x390d1b5d3fffffff:0x6dd8c5ebd9f9518e"}, {"place_id": "0x3912a9824bd46bf3:0xd566e6a74e0db025", "name": "MY TAXATION", "category": "Tax consultant", "street": "Rz 364 B, gali no 2 ,near mamta bakery Raj nagar", "city": "Part-2, Palam", "phone": "07495013592", "website": "", "rating": 5, "review_count": "", "latitude": 28.5824087, "longitude": 77.0873283, "maps_url": "https://www.google.com/maps/place/?q=place_id:0x3912a9824bd46bf3:0xd566e6a74e0db025"}, {"place_id": "0x399957aca098d463:0xd57e18083f699474", "name": "Jugadu Digital Marketing - Best Seo Services in Delhi | Social Media Marketing Agency", "category": "Marketing agency", "street": "RZ-39/T, 1st Floor, Gali No 6, Raj Nagar", "city": "Part 1, Palam", "phone": "08381862637", "website": "https://jugadudigital.com/", "rating": 5, "review_count": "", "latitude": 28.585117399999998, "longitude": 77.0857225, "maps_url": "https://www.google.com/maps/place/?q=place_id:0x399957aca098d463:0xd57e18083f699474"}, {"place_id": "0x390d1b0019fc59ed:0xd960415c62c3d7a3", "name": "Ashateleworld", "category": "Electronics Company", "street": "Wz 112, main road", "city": "Indra Park, Palam Enclave, Sadh Nagar, Palam", "phone": "09999662023", "website": "", "rating": 5, "review_count": "", "latitude": 28.5849077, "longitude": 77.0902134, "maps_url": "https://www.google.com/maps/place/?q=place_id:0x390d1b0019fc59ed:0xd960415c62c3d7a3"}, {"place_id": "0x390d1b1bb4ffca7f:0x18dea7bf430e52b6", "name": "Jatin Saini", "category": "Website designer", "street": "RZ 364 B", "city": "Block D, Palam Colony, Raj Nagar II Extension, Palam", "phone": "09667859598", "website": "https://www.pixlrbazaar.com/", "rating": 4.9, "review_count": "", "latitude": 28.5825021, "longitude": 77.0871628, "maps_url": "https://www.google.com/maps/place/?q=place_id:0x390d1b1bb4ffca7f:0x18dea7bf430e52b6"}, {"place_id": "0x390d1b9313a31953:0x83ac535950976bc6", "name": "GO4WEB MEDIA PVT. LTD", "category": "Marketing agency", "street": "RZ 364 C", "city": "Palam Colony, Raj Nagar II Extension, Raj Nagar", "phone": "09801443206", "website": "https://www.go4webmedia.com/", "rating": 5, "review_count": "", "latitude": 28.5834242, "longitude": 77.08692769999999, "maps_url": "https://www.google.com/maps/place/?q=place_id:0x390d1b9313a31953:0x83ac535950976bc6"}, {"place_id": "0x390d05c8987801e5:0x128e04dce6c4cbc4", "name": "Matrix Infotech Solution | Software Development Company", "category": "Software company", "street": "j j", "city": "Dwarka Mor, Block WE, Mohan Garden, Razapur Khurd", "phone": "08920817059", "website": "http://www.matrixinfotechsolution.com/", "rating": 3.9, "review_count": "", "latitude": 28.637037, "longitude": 77.0291258, "maps_url": "https://www.google.com/maps/place/?q=place_id:0x390d05c8987801e5:0x128e04dce6c4cbc4"}, {"place_id": "0x390d1b8e5b6999a1:0x522ffbc2c7c23362", "name": "Techthastu Private Limited (Techthaastu)", "category": "Software company", "street": "Techthaastu Office, Pt. Mehru Marg, Outer Bharthal Firni road Bharthal Village", "city": "near Govt. Girls senior secondary School", "phone": "08383889042", "website": "https://www.techthaastu.com/", "rating": 5, "review_count": "", "latitude": 28.5403192, "longitude": 77.0524594, "maps_url": "https://www.google.com/maps/place/?q=place_id:0x390d1b8e5b6999a1:0x522ffbc2c7c23362"}, {"place_id": "0x390d1b689edb5655:0x6cad0ae4373127a2", "name": "Dada Dev Electronics", "category": "Electronics store", "street": "WZ-454, Main Road Opp. Pillar No. 61 Raj Nagar I, Raj Nagar New Delhi Delhi 110045", "city": "New Delhi, Delhi 110077", "phone": "09310155877", "website": "", "rating": 4.2, "review_count": "", "latitude": 28.584311699999997, "longitude": 77.0905381, "maps_url": "https://www.google.com/maps/place/?q=place_id:0x390d1b689edb5655:0x6cad0ae4373127a2"}, {"place_id": "0x20616dbf813c03ef:0xc8fd1ca47f902e9e", "name": "Bloatware IT Software Company | website Designing Company | Software Company | MLM |CRM | Android Apps", "category": "Software company", "street": "C1", "city": "Rama Park", "phone": "08920750797", "website": "https://bloatwareitsolutions.com/", "rating": 4.5, "review_count": "", "latitude": 28.621265599999997, "longitude": 77.0324943, "maps_url": "https://www.google.com/maps/place/?q=place_id:0x20616dbf813c03ef:0xc8fd1ca47f902e9e"}, {"place_id": "0x390d1b6886e532f9:0x7d5aa7253c60f86d", "name": "Vintage Relocations", "category": "Packaging company", "street": "Shop No G-5", "city": "ShyamJi Complex", "phone": "09811886942", "website": "http://vintagerelocate.com/", "rating": 4.6, "review_count": "", "latitude": 28.5851708, "longitude": 77.0904776, "maps_url": "https://www.google.com/maps/place/?q=place_id:0x390d1b6886e532f9:0x7d5aa7253c60f86d"}, {"place_id": "0x390d050d9e7ce6a3:0xa72607a5a8be6510", "name": "Shri Sai Tech Solutions", "category": "Software company", "street": "Pillar number 783", "city": "Metro Station Dwarka Mor A-109, Street No. 4", "phone": "07210868167", "website": "https://shrisaitechsolutions.com/", "rating": 4.3, "review_count": "", "latitude": 28.6189075, "longitude": 77.0333678, "maps_url": "https://www.google.com/maps/place/?q=place_id:0x390d050d9e7ce6a3:0xa72607a5a8be6510"}, {"place_id": "0x390d055ab880b807:0xcb5c025daa2b2795", "name": "Tech Web Mantra", "category": "Software company", "street": "B-77", "city": "near Dwarka Mor Metro Station", "phone": "09871521039", "website": "https://www.techwebmantra.com/", "rating": 5, "review_count": "", "latitude": 28.614187899999997, "longitude": 77.0362179, "maps_url": "https://www.google.com/maps/place/?q=place_id:0x390d055ab880b807:0xcb5c025daa2b2795"}, {"place_id": "0x390d1bf7b99f3135:0x7b59ef65ff972e2", "name": "XB Software Development Company", "category": "Software company", "street": "Goma Plaza", "city": "E-512, Ramphal Chowk Rd", "phone": "08802878718", "website": "", "rating": 5, "review_count": "", "latitude": 28.586331899999998, "longitude": 77.0716807, "maps_url": "https://www.google.com/maps/place/?q=place_id:0x390d1bf7b99f3135:0x7b59ef65ff972e2"}]}