[{"place_id": "ChIJuzZ3usj9DDkR5Q91Qz7GlDc", "name": "Busy Infotech Pvt. Ltd.", "street": "3, Rani Jhansi Rd, Block E 4, Jhandewalan Extension, Karol Bagh, New Delhi, Delhi 110055, India", "phone": "+91 11 4096 4096", "rating": "4.6", "review_count": "", "website": "https://busy.in/", "latitude": 28.6454408, "longitude": 77.2042627, "maps_url": "https://www.google.com/maps/search/?api=1&query=Busy%20Infotech%20Pvt.%20Ltd.&query_place_id=ChIJuzZ3usj9DDkR5Q91Qz7GlDc"}, {"place_id": "ChIJ3SnYD0L9DDkR6YIWpAySQ40", "name": "Exclogy Software Solutions Pvt. Ltd", "street": "1st Floor, 2972, Gali No. 2, Bazar Sangatrashan, Chuna Mandi, Paharganj, New Delhi, Delhi 110055, India", "phone": "+91 95601 95359", "rating": "4.9", "review_count": "", "website": "https://www.exclogy.com/", "latitude": 28.6454271, "longitude": 77.2106714, "maps_url": "https://www.google.com/maps/search/?api=1&query=Exclogy%20Software%20Solutions%20Pvt.%20Ltd&query_place_id=ChIJ3SnYD0L9DDkR6YIWpAySQ40"}, {"place_id": "ChIJawNzUUD9DDkR42Kwg7GvOcg", "name": "Techmixin technologies", "street": "3220, Gali school wali, Ratan Lal Market, Kaseru Walan, Paharganj, New Delhi, Delhi 110055, India", "phone": "+91 99589 44624", "rating": "4.7", "review_count": "", "website": "", "latitude": 28.643721499999998, "longitude": 77.2150881, "maps_url": "https://www.google.com/maps/search/?api=1&query=Techmixin%20technologies&query_place_id=ChIJawNzUUD9DDkR42Kwg7GvOcg"}, {"place_id": "ChIJO4sr49IDDTkRALZaeWsr-oI", "name": "Iraitech | Software Development Company", "street": "Central Square Complex 3, Unit No-1051, 1st Floor, Near Filmistan, DCM chowk, Bara Hindu Rao, Kishan Ganj, Delhi, 110006, India", "phone": "+91 81301 04108", "rating": "4.1", "review_count": "", "website": "https://www.iraitech.com/", "latitude": 28.6631951, "longitude": 77.20308639999999, "maps_url": "https://www.google.com/maps/search/?api=1&query=Iraitech%20%7C%20Software%20Development%20Company&query_place_id=ChIJO4sr49IDDTkRALZaeWsr-oI"}, {"place_id": "ChIJi8FJzWv9DDkRoDjsvkNPzZA", "name": "Ahlam Infotech", "street": "2044/6 Savitri Bhawan 3rd Floor Chuna Mandi, Pahar Ganj, Near R.K. Ashram, Metro, New Delhi, Delhi 110055, India", "phone": "+91 73037 86338", "rating": "5", "review_count": "", "website": "", "latitude": 28.6443251, "longitude": 77.2097529, "maps_url": "https://www.google.com/maps/search/?api=1&query=Ahlam%20Infotech&query_place_id=ChIJi8FJzWv9DDkRoDjsvkNPzZA"}, {"place_id": "ChIJ8bD3oe-1bTkRhQOwVrfg-vw", "name": "One Aim IT Solutions", "street": "2/41/2 , 1st Floor, Sadar Bazar , Moradabad Pahari ,TO.Delhi Cantt, Distt:, South West, New Delhi, Delhi 110006, India", "phone": "+91 89552 49714", "rating": "5", "review_count": "", "website": "https://theoneaim.in/", "latitude": 28.6580968, "longitude": 77.2124735, "maps_url": "https://www.google.com/maps/search/?api=1&query=One%20Aim%20IT%20Solutions&query_place_id=ChIJ8bD3oe-1bTkRhQOwVrfg-vw"}, {"place_id": "ChIJC3MN3zb9DDkR-JxtEG9cQg0", "name": "I. T. Solutions", "street": "Gate No. 8, A-6, 1st Floor, Inner Circle, Above Post office, near ICICI Bank, Bon Ton and Metro, Connaught Place, New Delhi, Delhi 110001, India", "phone": "+91 11 4152 3242", "rating": "4.9", "review_count": "", "website": "http://www.itsolutioncp.com/", "latitude": 28.6324367, "longitude": 77.2183441, "maps_url": "https://www.google.com/maps/search/?api=1&query=I.%20T.%20Solutions&query_place_id=ChIJC3MN3zb9DDkR-JxtEG9cQg0"}, {"place_id": "ChIJ6zoSY-L9DDkRIlfCY5v-3CU", "name": "Wsays", "street": "1324, Chowk Sangatrashan, Chuna Mandi, Paharganj, New Delhi, Delhi 110055, India", "phone": "+91 78384 65151", "rating": "4.3", "review_count": "", "website": "", "latitude": 28.6435422, "longitude": 77.2123831, "maps_url": "https://www.google.com/maps/search/?api=1&query=Wsays&query_place_id=ChIJ6zoSY-L9DDkRIlfCY5v-3CU"}, {"place_id": "ChIJFeXlTZkCDTkRNw2aQAO8CNk", "name": "Himalayan IT Solutions | Best Website Designing Company in Delhi | SEO/Digital Marketing Company in Delhi NCR, India", "street": "61/4255, Padam Singh Rd, Block 29, Block 1, Regar Pura, Karol Bagh, Delhi, 110005, India", "phone": "+91 98990 98509", "rating": "3.9", "review_count": "", "website": "http://www.himalayanitsolutions.com/", "latitude": 28.649673999999997, "longitude": 77.186599, "maps_url": "https://www.google.com/maps/search/?api=1&query=Himalayan%20IT%20Solutions%20%7C%20Best%20Website%20Designing%20Company%20in%20Delhi%20%7C%20SEO/Digital%20Marketing%20Company%20in%20Delhi%20NCR%2C%20India&query_place_id=ChIJFeXlTZkCDTkRNw2aQAO8CNk"}, {"place_id": "ChIJ_aNaucT9DDkRKOqFo_DqgsU", "name": "E-GLOBAL COMPUTECH", "street": "421 GALI, Chandi Wali Gali, Ratan Lal Market, Kaseru Walan, Paharganj, New Delhi, Delhi 110055, India", "phone": "", "rating": "5", "review_count": "", "website": "https://www.amazon.in/Mobile-Automobile-Accessories-E-GLOBAL-COMPUTECH/s?rh=n:1389406031,p_6:A38A92UQCK9C2", "latitude": 28.6415889, "longitude": 77.2142576, "maps_url": "https://www.google.com/maps/search/?api=1&query=E-GLOBAL%20COMPUTECH&query_place_id=ChIJ_aNaucT9DDkRKOqFo_DqgsU"}, {"place_id": "ChIJQ-qxICEZDTkRNH42jiaJ4ag", "name": "Sara Websolution", "street": "1873, Wazir Singh St, Chuna Mandi, Paharganj, New Delhi, Delhi 110055, India", "phone": "", "rating": "3.7", "review_count": "", "website": "", "latitude": 28.642563499999998, "longitude": 77.20974869999999, "maps_url": "https://www.google.com/maps/search/?api=1&query=Sara%20Websolution&query_place_id=ChIJQ-qxICEZDTkRNH42jiaJ4ag"}, {"place_id": "ChIJOcAnCMP9DDkRL6RxU0VYvC0", "name": "Flyten Fashion Brands Private Limited", "street": "3047 3rd Floor, Gali Number 1, Bazar Sangatrashan, Ratan Lal Market, Chuna Mandi, Paharganj, New Delhi, Delhi 110055, India", "phone": "+91 88472 15519", "rating": "4.8", "review_count": "", "website": "https://flyten.co.in/", "latitude": 28.6449255, "longitude": 77.212864, "maps_url": "https://www.google.com/maps/search/?api=1&query=Flyten%20Fashion%20Brands%20Private%20Limited&query_place_id=ChIJOcAnCMP9DDkRL6RxU0VYvC0"}, {"place_id": "ChIJVe_Hz0P9DDkRN5tnw6-cAMc", "name": "Kaiser Packers And Movers", "street": "3022/1, Ist Floor, Chuna Mandi, Paharganj, New Delhi, Delhi 110055, India", "phone": "+91 98718 97401", "rating": "4.6", "review_count": "", "website": "http://kaiserpackersmovers.com/", "latitude": 28.644954499999997, "longitude": 77.2117991, "maps_url": "https://www.google.com/maps/search/?api=1&query=Kaiser%20Packers%20And%20Movers&query_place_id=ChIJVe_Hz0P9DDkRN5tnw6-cAMc"}, {"place_id": "ChIJVVVVJUL9DDkRdQ6lOpBZGOU", "name": "Skycut India", "street": "first floor, 3034, Gali No. 2, near Hari Masid, Bazar Sangatrashan, Chuna Mandi, Paharganj, New Delhi, Delhi 110055, India", "phone": "+91 87507 77222", "rating": "4.8", "review_count": "", "website": "https://skycutindia.com/", "latitude": 28.6449693, "longitude": 77.2110816, "maps_url": "https://www.google.com/maps/search/?api=1&query=Skycut%20India&query_place_id=ChIJVVVVJUL9DDkRdQ6lOpBZGOU"}, {"place_id": "ChIJTygFZDD9DDkRQpB1-xTe2Uw", "name": "Tanya Enterprises India", "street": "first floor, shiv shakti mandir, 1982, Gali Number 9, near barat ghar, Chuna Mandi, Paharganj, New Delhi, Delhi 110055, India", "phone": "", "rating": "4.8", "review_count": "", "website": "https://tanyaenterprisesindia.com/", "latitude": 28.643518999999998, "longitude": 77.20952249999999, "maps_url": "https://www.google.com/maps/search/?api=1&query=Tanya%20Enterprises%20India&query_place_id=ChIJTygFZDD9DDkRQpB1-xTe2Uw"}, {"place_id": "ChIJpUHPw0D9DDkRKz9vA3Bk81Q", "name": "Choudhary & Co.", "street": "3357, Gali Hari Mandir, Ratan Lal Market, Kaseru Walan, Paharganj, New Delhi, Delhi 110055, India", "phone": "+91 98104 84703", "rating": "4.7", "review_count": "", "website": "", "latitude": 28.6433432, "longitude": 77.2145948, "maps_url": "https://www.google.com/maps/search/?api=1&query=Choudhary%20%26%20Co.&query_place_id=ChIJpUHPw0D9DDkRKz9vA3Bk81Q"}, {"place_id": "ChIJAZTkm0D9DDkRFfIfB92joo8", "name": "COLOURMATE DIGITAL", "street": "2940, Street Number 3, Bazar Sangatrashan, Chuna Mandi, Paharganj, New Delhi, Delhi 110055, India", "phone": "+91 11 4507 8355", "rating": "4.4", "review_count": "", "website": "https://colourmatedigital.com/#", "latitude": 28.644668, "longitude": 77.21165649999999, "maps_url": "https://www.google.com/maps/search/?api=1&query=COLOURMATE%20DIGITAL&query_place_id=ChIJAZTkm0D9DDkRFfIfB92joo8"}, {"place_id": "ChIJ94m9_p79DDkRvm7QiwcnZQ0", "name": "Abdullah Khan", "street": "shop no 1, Ratan Lal Market, Kaseru Walan, Paharganj, New Delhi, Delhi 110055, India", "phone": "+91 80761 21114", "rating": "5", "review_count": "", "website": "", "latitude": 28.6446407, "longitude": 77.2141139, "maps_url": "https://www.google.com/maps/search/?api=1&query=Abdullah%20Khan&query_place_id=ChIJ94m9_p79DDkRvm7QiwcnZQ0"}, {"place_id": "ChIJG6e6FkL9DDkR3hLkVsBv0pU", "name": "Rishabh Techno Solution", "street": "first floor, shiv shakti mandir, 1982, Gali No.8, near barat ghar, Chuna Mandi, Paharganj, New Delhi, Delhi 110055, India", "phone": "+91 92890 38889", "rating": "4.7", "review_count": "", "website": "http://www.laserworld.co.in/", "latitude": 28.643661599999998, "longitude": 77.2095384, "maps_url": "https://www.google.com/maps/search/?api=1&query=Rishabh%20Techno%20Solution&query_place_id=ChIJG6e6FkL9DDkR3hLkVsBv0pU"}, {"place_id": "ChIJ0eqZf3C4qIoReRo2HHMAZe4", "name": "Travelwiz Technologies", "street": "Bhagat, 2567/2603/1, Wazir Singh St, Bazar Sangatrashan, Chuna Mandi, Paharganj, New Delhi, Delhi 110055, India", "phone": "+91 88262 59115", "rating": "4.9", "review_count": "", "website": "", "latitude": 28.6430898, "longitude": 77.2116961, "maps_url": "https://www.google.com/maps/search/?api=1&query=Travelwiz%20Technologies&query_place_id=ChIJ0eqZf3C4qIoReRo2HHMAZe4"}, {"place_id": "ChIJ4_9QPFH9DDkRPmNOcTrTJ9s", "name": "Insearch Formulation Pvt. Ltd. - Pharma Contract | Third Party Manufacturing", "street": "1878 G/F, near Seeta Ram Batur, Chuna Mandi, Paharganj, New Delhi, Delhi 110055, India", "phone": "+91 99991 77993", "rating": "5", "review_count": "", "website": "https://insearchformulation.com/", "latitude": 28.642709099999998, "longitude": 77.2101414, "maps_url": "https://www.google.com/maps/search/?api=1&query=Insearch%20Formulation%20Pvt.%20Ltd.%20-%20Pharma%20Contract%20%7C%20Third%20Party%20Manufacturing&query_place_id=ChIJ4_9QPFH9DDkRPmNOcTrTJ9s"}, {"place_id": "ChIJy2z44zf9DDkR1xHFhKvePnQ", "name": "Goyal Computer", "street": "2753/6,7, Bazar Sangatrashan, Chuna Mandi, Paharganj, New Delhi, Delhi 110055, India", "phone": "+91 98710 35672", "rating": "1", "review_count": "", "website": "", "latitude": 28.6434729, "longitude": 77.2118804, "maps_url": "https://www.google.com/maps/search/?api=1&query=Goyal%20Computer&query_place_id=ChIJy2z44zf9DDkR1xHFhKvePnQ"}, {"place_id": "ChIJAZTkm0D9DDkRvd1-Qcw3jTY", "name": "Prayag Polymers Limited", "street": "Prayag Infinity House, B No. 2483-84, Nalwa St, Chuna Mandi, Paharganj, New Delhi, Delhi 110055, India", "phone": "+91 11 4124 6500", "rating": "4.2", "review_count": "", "website": "https://prayagindia.com/", "latitude": 28.641645699999998, "longitude": 77.2118174, "maps_url": "https://www.google.com/maps/search/?api=1&query=Prayag%20Polymers%20Limited&query_place_id=ChIJAZTkm0D9DDkRvd1-Qcw3jTY"}, {"place_id": "ChIJ48Zm1_P8DDkRFJuFgn5LWK4", "name": "Shri Tapodhani Aluminium Trading Company", "street": "Xv 2758, Street No. 6, near banke bihari mandir, Bazar Sangatrashan, Chuna Mandi, Paharganj, New Delhi, Delhi 110055, India", "phone": "+91 99110 87778", "rating": "4.8", "review_count": "", "website": "https://tapodhani.com/", "latitude": 28.6435481, "longitude": 77.21105469999999, "maps_url": "https://www.google.com/maps/search/?api=1&query=Shri%20Tapodhani%20Aluminium%20Trading%20Company&query_place_id=ChIJ48Zm1_P8DDkRFJuFgn5LWK4"}, {"place_id": "ChIJ8QReeJf9DDkRPq0o9ADQm2I", "name": "Abid Smart Solution", "street": "Smart Solution, LNJP Colony, Paharganj, New Delhi, Delhi 110055, India", "phone": "+91 98686 11505", "rating": "4.9", "review_count": "", "website": "", "latitude": 28.6425816, "longitude": 77.2109226, "maps_url": "https://www.google.com/maps/search/?api=1&query=Abid%20Smart%20Solution&query_place_id=ChIJ8QReeJf9DDkRPq0o9ADQm2I"}, {"place_id": "ChIJ__8_hET9DDkRcBmlpZ8dWQQ", "name": "IT Tech Solution", "street": "OBC Building, Near R.K. Ashram Metro Station, Gate No.-2, Pahar Ganj Main Market, New Delhi, Delhi 110001, India", "phone": "+91 93506 44652", "rating": "5", "review_count": "", "website": "", "latitude": 28.639267699999998, "longitude": 77.2084496, "maps_url": "https://www.google.com/maps/search/?api=1&query=IT%20Tech%20Solution&query_place_id=ChIJ__8_hET9DDkRcBmlpZ8dWQQ"}, {"place_id": "ChIJM9r7u0r9DDkRiUvt7zjjpRM", "name": "IT Executive vivek", "street": "22, Vijay Ghat, Raj Ghat, New Delhi, Delhi, 110006, India", "phone": "", "rating": "", "review_count": "", "website": "https://itexecuitive.com/", "latitude": 28.6584512, "longitude": 77.2449233, "maps_url": "https://www.google.com/maps/search/?api=1&query=IT%20Executive%20vivek&query_place_id=ChIJM9r7u0r9DDkRiUvt7zjjpRM"}]