{"timestamp": 1773731479.830082, "keyword": "IT company", "location": "delhi", "cell_idx": 451, "results": [{"place_id": "0x390d1cac8ab9cecd:0xd7bcebb4234f1869", "name": "Webcon IT Solutions P Limited- IT Audio Visual CCTV Expert", "category": "Corporate office", "street": "Gali Number 1, Madhu Vihar", "city": "176", "phone": "09971600569", "website": "", "rating": 4.5, "review_count": "", "latitude": 28.6009849, "longitude": 77.0663837, "maps_url": "https://www.google.com/maps/place/?q=place_id:0x390d1cac8ab9cecd:0xd7bcebb4234f1869"}, {"place_id": "0x390d1b1ca4e425b3:0x9b3661bb9aab2b7f", "name": "Blue Brain Technologies Private Limited", "category": "Software company", "street": "E-379, Gali", "city": "Street No. 76", "phone": "09999600773", "website": "http://bluebraintech.com/", "rating": 4.8, "review_count": "", "latitude": 28.604765999999998, "longitude": 77.0659045, "maps_url": "https://www.google.com/maps/place/?q=place_id:0x390d1b1ca4e425b3:0x9b3661bb9aab2b7f"}, {"place_id": "0x390d013ca8ac1387:0x8a0db85b518267d5", "name": "NexGen Innovators", "category": "Software company", "street": "114B, 3rd floor, Dwarka Mor", "city": "New Delhi, Delhi 110059", "phone": "", "website": "https://www.nexgi.com/", "rating": 4.9, "review_count": "", "latitude": 28.618961, "longitude": 77.0322202, "maps_url": "https://www.google.com/maps/place/?q=place_id:0x390d013ca8ac1387:0x8a0db85b518267d5"}, {"place_id": "0x390d1b2af86da741:0x6421f59b59a78426", "name": "Skillhubinfotech pvt ltd", "category": "Corporate office", "street": "Madhu Vihar", "city": "Delhi, New Delhi, Delhi 110059", "phone": "08210362746", "website": "https://skillhubinfotech.com/", "rating": 4.6, "review_count": "", "latitude": 28.603592199999998, "longitude": 77.06055529999999, "maps_url": "https://www.google.com/maps/place/?q=place_id:0x390d1b2af86da741:0x6421f59b59a78426"}, {"place_id": "0x390d04d370decd5d:0xd82806f679d631b7", "name": "CHERRY INFOTECH", "category": "Software company", "street": "160-161, Q-Extn", "city": "Uttam Vihar, Uttam Nagar", "phone": "08800110806", "website": "http://www.cherryinfotech.com/", "rating": 3.4, "review_count": "", "latitude": 28.6109226, "longitude": 77.0630848, "maps_url": "https://www.google.com/maps/place/?q=place_id:0x390d04d370decd5d:0xd82806f679d631b7"}, {"place_id": "0x390d054d244ad30f:0x3784c74184b34eda", "name": "Triyuga Soft Tech Pvt Ltd | IT Company in Delhi | Digital Marketing Company | Web Development Company", "category": "Software company", "street": "Wz-245/5d 1st Floor Main Najafgarh Road", "city": "West", "phone": "09267954524", "website": "https://www.triyugasofttech.com/", "rating": 4.4, "review_count": "", "latitude": 28.623697399999998, "longitude": 77.06208649999999, "maps_url": "https://www.google.com/maps/place/?q=place_id:0x390d054d244ad30f:0x3784c74184b34eda"}, {"place_id": "0x390d1bff0ef92f91:0x4b9ed452c05e39cc", "name": "WapKing Technologies", "category": "Website designer", "street": "First Floor, D209, Street No. 40", "city": "Main Rajapuri Rd", "phone": "07408730360", "website": "https://wapkingtechnologies.com/", "rating": 5, "review_count": "", "latitude": 28.6023842, "longitude": 77.0595421, "maps_url": "https://www.google.com/maps/place/?q=place_id:0x390d1bff0ef92f91:0x4b9ed452c05e39cc"}, {"place_id": "0x390d053af4b9fae1:0xa955718786ea4c90", "name": "Efficient IT & Electronic Services Private Limited", "category": "Software company", "street": "1st floor", "city": "VV Plaza building", "phone": "08750042191", "website": "http://www.efficientindia.com/", "rating": 4.4, "review_count": "", "latitude": 28.6100702, "longitude": 77.03385709999999, "maps_url": "https://www.google.com/maps/place/?q=place_id:0x390d053af4b9fae1:0xa955718786ea4c90"}, {"place_id": "0x390d054e1511cac5:0xbc09826e3bd3d216", "name": "Solutions point", "category": "Computer repair service", "street": "A 255B, madhu vihar", "city": "Street Number 10", "phone": "08800957595", "website": "https://solutionspoint2022.blogspot.com/", "rating": 4.9, "review_count": "", "latitude": 28.6030452, "longitude": 77.0654811, "maps_url": "https://www.google.com/maps/place/?q=place_id:0x390d054e1511cac5:0xbc09826e3bd3d216"}, {"place_id": "0x390d1bedde2c99bd:0x162fa54778df6fe", "name": "Omneelab Software Solutions Pvt Ltd", "category": "Software company", "street": "3rd Floor", "city": "LSC -2", "phone": "09958123820", "website": "https://www.omneelab.com/", "rating": 4.7, "review_count": "", "latitude": 28.5897889, "longitude": 77.06333149999999, "maps_url": "https://www.google.com/maps/place/?q=place_id:0x390d1bedde2c99bd:0x162fa54778df6fe"}, {"place_id": "0x390d1b2e3e454c3d:0x1f00bbefc62a4b30", "name": "Website Designing Company in India", "category": "Website designer", "street": "Gali No 32", "city": "Block T, Rajapuri, Uttam Nagar", "phone": "08800245633", "website": "https://webcareindia.com/", "rating": 4.9, "review_count": "", "latitude": 28.6053942, "longitude": 77.0586278, "maps_url": "https://www.google.com/maps/place/?q=place_id:0x390d1b2e3e454c3d:0x1f00bbefc62a4b30"}, {"place_id": "0x390d1b7729491f81:0xe0fce27ae3660f37", "name": "THE ELECTRONICS BOND", "category": "Electronics Company", "street": "D 240 2ND FLOOR MADHU VIHAR UTTAM NAGAR OPPO TO DWARKA", "city": "Sector 5", "phone": "", "website": "https://theelectronicsbond.com/", "rating": 4.9, "review_count": "", "latitude": 28.604184, "longitude": 77.0601389, "maps_url": "https://www.google.com/maps/place/?q=place_id:0x390d1b7729491f81:0xe0fce27ae3660f37"}, {"place_id": "0x390d1da73a24973f:0xfcbd561b3e6e5b0b", "name": "Adsource IT Solutions", "category": "Software company", "street": "Metro Pilllar, metro station", "city": "Dwarka More", "phone": "", "website": "https://www.adsourceitsolutions.com/", "rating": 5, "review_count": "", "latitude": 28.619874, "longitude": 77.0310854, "maps_url": "https://www.google.com/maps/place/?q=place_id:0x390d1da73a24973f:0xfcbd561b3e6e5b0b"}, {"place_id": "0x390d05f1eaeb1b01:0x4f45f419c4086e63", "name": "Asciitech Solution Pvt Ltd", "category": "Software company", "street": "152B, 3rd Floor Mudgal Complex", "city": "Bal Udhyan Rd", "phone": "", "website": "http://asciitechsolution.com/", "rating": 4.2, "review_count": "", "latitude": 28.6212336, "longitude": 77.057799, "maps_url": "https://www.google.com/maps/place/?q=place_id:0x390d05f1eaeb1b01:0x4f45f419c4086e63"}, {"place_id": "0x390d1b2a45580937:0x72496293e2be4153", "name": "WEBINTOSH TECHNOLOGIES", "category": "Event management company", "street": "Block J", "city": "PLOT NO-105-B, BACK SIDE GALI", "phone": "09591944111", "website": "", "rating": 5, "review_count": "", "latitude": 28.6044922, "longitude": 77.058635, "maps_url": "https://www.google.com/maps/place/?q=place_id:0x390d1b2a45580937:0x72496293e2be4153"}, {"place_id": "0x390d1b2980af343b:0xe67da149fe9a23fe", "name": "Ditsvision", "category": "Corporate office", "street": "Street Number 40", "city": "Block C, Dwarka", "phone": "08700734008", "website": "https://ditsvision.in/", "rating": 4.5, "review_count": "", "latitude": 28.602463999999998, "longitude": 77.05896779999999, "maps_url": "https://www.google.com/maps/place/?q=place_id:0x390d1b2980af343b:0xe67da149fe9a23fe"}, {"place_id": "0x390d1b2b8a9d0041:0xae0558c4b3e5a76f", "name": "Computer Tech Guru", "category": "Computer service", "street": "A1/92 near MRVM school sec-3 BRIDGE MADHU VIHAR", "city": "Road No. 201", "phone": "09873281717", "website": "", "rating": 4.9, "review_count": "", "latitude": 28.604345, "longitude": 77.06219349999999, "maps_url": "https://www.google.com/maps/place/?q=place_id:0x390d1b2b8a9d0041:0xae0558c4b3e5a76f"}, {"place_id": "0x390d05cd2ace8d53:0xf82774e10e1ff47c", "name": "Quicky Technologies", "category": "Software company", "street": "3rd Floor", "city": "C-85, Rama Park Rd", "phone": "09899550472", "website": "https://www.quickytechnologies.com/", "rating": 5, "review_count": "", "latitude": 28.622149999999998, "longitude": 77.03673069999999, "maps_url": "https://www.google.com/maps/place/?q=place_id:0x390d05cd2ace8d53:0xf82774e10e1ff47c"}, {"place_id": "0x390d05d963d99f53:0x91edee2f04d3bf7f", "name": "Qurilo Solutions Private Limited", "category": "Software company", "street": "Metro Station", "city": "Block-A, RZ-91/2, Second Floor, Main Mohan Garden Bus Stand", "phone": "07303684058", "website": "https://www.qurilo.com/", "rating": 4.8, "review_count": "", "latitude": 28.620371199999997, "longitude": 77.04135459999999, "maps_url": "https://www.google.com/maps/place/?q=place_id:0x390d05d963d99f53:0x91edee2f04d3bf7f"}, {"place_id": "0x390d1ac52bbcbce5:0x4ea2a1d7a36aaebb", "name": "SC INFOTECH PRIVATE LIMITED", "category": "Computer service", "street": "HN-107", "city": "Block C, SAINIK NAGAR", "phone": "09162301110", "website": "http://scinfotech.in/", "rating": 5, "review_count": "", "latitude": 28.6024811, "longitude": 77.06576729999999, "maps_url": "https://www.google.com/maps/place/?q=place_id:0x390d1ac52bbcbce5:0x4ea2a1d7a36aaebb"}, {"place_id": "0x390d1b2a45580937:0x72496293e2be4153", "name": "WEBINTOSH TECHNOLOGIES", "category": "Event management company", "street": "Block J", "city": "PLOT NO-105-B, BACK SIDE GALI", "phone": "09591944111", "website": "", "rating": 5, "review_count": "", "latitude": 28.6044922, "longitude": 77.058635, "maps_url": "https://www.google.com/maps/place/?q=place_id:0x390d1b2a45580937:0x72496293e2be4153"}, {"place_id": "0x390d1c153a0323ff:0x48e3aad9be77d23c", "name": "Msinterface Technologies Pvt Ltd - Website Designer in Dwarka", "category": "Software company", "street": "Mahavir Enclave", "city": "Mahavir Enclave I, Sector 1 Dwarka, Dwarka", "phone": "09971787219", "website": "https://www.msinterface.in/", "rating": 5, "review_count": "", "latitude": 28.5961926, "longitude": 77.0823114, "maps_url": "https://www.google.com/maps/place/?q=place_id:0x390d1c153a0323ff:0x48e3aad9be77d23c"}, {"place_id": "0x390ce458d0000001:0xf2123bd299ec4501", "name": "IT Company India", "category": "Software company", "street": "D56", "city": "D Block, Sector 10", "phone": "09999244854", "website": "https://www.itcompanyindia.in/", "rating": 4.7, "review_count": "", "latitude": 28.589917699999997, "longitude": 77.3351153, "maps_url": "https://www.google.com/maps/place/?q=place_id:0x390ce458d0000001:0xf2123bd299ec4501"}, {"place_id": "0x390d1b2b8a9d0041:0xae0558c4b3e5a76f", "name": "Computer Tech Guru", "category": "Computer service", "street": "A1/92 near MRVM school sec-3 BRIDGE MADHU VIHAR", "city": "Road No. 201", "phone": "09873281717", "website": "", "rating": 4.9, "review_count": "", "latitude": 28.604345, "longitude": 77.06219349999999, "maps_url": "https://www.google.com/maps/place/?q=place_id:0x390d1b2b8a9d0041:0xae0558c4b3e5a76f"}, {"place_id": "0x390d05d963d99f53:0x91edee2f04d3bf7f", "name": "Qurilo Solutions Private Limited", "category": "Software company", "street": "Metro Station", "city": "Block-A, RZ-91/2, Second Floor, Main Mohan Garden Bus Stand", "phone": "07303684058", "website": "https://www.qurilo.com/", "rating": 4.8, "review_count": "", "latitude": 28.620371199999997, "longitude": 77.04135459999999, "maps_url": "https://www.google.com/maps/place/?q=place_id:0x390d05d963d99f53:0x91edee2f04d3bf7f"}, {"place_id": "0x390d05cd2ace8d53:0xf82774e10e1ff47c", "name": "Quicky Technologies", "category": "Software company", "street": "3rd Floor", "city": "C-85, Rama Park Rd", "phone": "09899550472", "website": "https://www.quickytechnologies.com/", "rating": 5, "review_count": "", "latitude": 28.622149999999998, "longitude": 77.03673069999999, "maps_url": "https://www.google.com/maps/place/?q=place_id:0x390d05cd2ace8d53:0xf82774e10e1ff47c"}, {"place_id": "0x8ace583f4f849005:0x8e2302d49a3d0d32", "name": "GLOBAL TECHNOLOGY (GT) CONNECT", "category": "Software company", "street": "metro exit gate", "city": "B-77, First Floor, Sewak Park", "phone": "09211458714", "website": "https://www.globaltechnologyconnect.com/", "rating": 5, "review_count": "", "latitude": 28.618889799999998, "longitude": 77.0509601, "maps_url": "https://www.google.com/maps/place/?q=place_id:0x8ace583f4f849005:0x8e2302d49a3d0d32"}, {"place_id": "0x2a72b8b69d7b6493:0x11251466d4d34cac", "name": "WebZonal IT Company", "category": "Website designer", "street": "Wz-258/2-3, D Block Rd", "city": "Khazan Basti, Nangal Raya, Janakpuri", "phone": "09811170903", "website": "http://webzonal.com/", "rating": 5, "review_count": "", "latitude": 28.6122102, "longitude": 77.11159549999999, "maps_url": "https://www.google.com/maps/place/?q=place_id:0x2a72b8b69d7b6493:0x11251466d4d34cac"}, {"place_id": "0x390d04d6aaaaaaab:0x6d2dd9b5b477e4e8", "name": "IT SOLUTIONS & SERVICES - Computer laptop CCTV and Digital Marketing Services", "category": "Computer service", "street": "B-2, Suraksha vihar", "city": "Vikas Nagar, Uttam Nagar", "phone": "08860403626", "website": "http://www.itssin.com/", "rating": 5, "review_count": "", "latitude": 28.6405785, "longitude": 77.0457845, "maps_url": "https://www.google.com/maps/place/?q=place_id:0x390d04d6aaaaaaab:0x6d2dd9b5b477e4e8"}, {"place_id": "0x390d1ac52bbcbce5:0x4ea2a1d7a36aaebb", "name": "SC INFOTECH PRIVATE LIMITED", "category": "Computer service", "street": "HN-107", "city": "Block C, SAINIK NAGAR", "phone": "09162301110", "website": "http://scinfotech.in/", "rating": 5, "review_count": "", "latitude": 28.6024811, "longitude": 77.06576729999999, "maps_url": "https://www.google.com/maps/place/?q=place_id:0x390d1ac52bbcbce5:0x4ea2a1d7a36aaebb"}, {"place_id": "0x390d058eebd4e349:0xe3540cff21ac1db4", "name": "Matrix Infotech Solution | Software Development Company in Delhi", "category": "Software company", "street": "3rd floor, Besmate Indian Bank, housing complex", "city": "Main Market", "phone": "08920817059", "website": "https://www.matrixinfotechsolution.com/", "rating": 5, "review_count": "", "latitude": 28.6165375, "longitude": 77.0282521, "maps_url": "https://www.google.com/maps/place/?q=place_id:0x390d058eebd4e349:0xe3540cff21ac1db4"}, {"place_id": "0x390d1b2980af343b:0xe67da149fe9a23fe", "name": "Ditsvision", "category": "Corporate office", "street": "Street Number 40", "city": "Block C, Dwarka", "phone": "08700734008", "website": "https://ditsvision.in/", "rating": 4.5, "review_count": "", "latitude": 28.602463999999998, "longitude": 77.05896779999999, "maps_url": "https://www.google.com/maps/place/?q=place_id:0x390d1b2980af343b:0xe67da149fe9a23fe"}, {"place_id": "0x390d05035d069c35:0x732c882d67fb79ce", "name": "Bizz Plus Solutions - Billing Software, Inventory Software , Restaurant Software In Delhi", "category": "Software company", "street": "A1/64B", "city": "Block D, Sewak Park, Dwarka", "phone": "09910480280", "website": "", "rating": 4.8, "review_count": "", "latitude": 28.6147715, "longitude": 77.0340168, "maps_url": "https://www.google.com/maps/place/?q=place_id:0x390d05035d069c35:0x732c882d67fb79ce"}, {"place_id": "0x390d04d2f6575abb:0xd5553781913e9a53", "name": "Espial Infotech", "category": "Software company", "street": "Uttam Vihar, Block B, Uttam Nagar, Bindapur", "city": "Delhi, 110059", "phone": "", "website": "http://espial.in/", "rating": 5, "review_count": "", "latitude": 28.611546399999998, "longitude": 77.06602269999999, "maps_url": "https://www.google.com/maps/place/?q=place_id:0x390d04d2f6575abb:0xd5553781913e9a53"}, {"place_id": "0x1467f6f60d47359b:0x3ea62ed571eb45a9", "name": "SPG Technologies", "category": "Software company", "street": "housing complex", "city": "D-89", "phone": "09990390197", "website": "http://www.spgtechnologies.com/", "rating": 4.8, "review_count": "", "latitude": 28.6236146, "longitude": 77.0261836, "maps_url": "https://www.google.com/maps/place/?q=place_id:0x1467f6f60d47359b:0x3ea62ed571eb45a9"}, {"place_id": "0x390d05713cbc05f9:0x29ec332097ea9861", "name": "Bluebyte It Solutions", "category": "Software company", "street": "MS-83", "city": "Block MS, Mohan Garden, Uttam Nagar", "phone": "08178838292", "website": "https://www.bluebyteitsolutions.com/", "rating": 5, "review_count": "", "latitude": 28.6289797, "longitude": 77.0335781, "maps_url": "https://www.google.com/maps/place/?q=place_id:0x390d05713cbc05f9:0x29ec332097ea9861"}, {"place_id": "0x390d05f6807aba3f:0x8d4dbf179623854a", "name": "Erp Software Company Delhi | Crm Software Development Company in Delhi", "category": "Software company", "street": "3 Floor", "city": "B-77", "phone": "09266518819", "website": "https://www.weblyticsinfotech.com/crm-software-in-delhi.php", "rating": 5, "review_count": "", "latitude": 28.6150725, "longitude": 77.0341376, "maps_url": "https://www.google.com/maps/place/?q=place_id:0x390d05f6807aba3f:0x8d4dbf179623854a"}, {"place_id": "0x390d05e1e22e3551:0xc247a3a4488411d2", "name": "Code Celsius IT Solutions LLP", "category": "Software company", "street": "4th Floor", "city": "A1/47", "phone": "09266957277", "website": "https://www.codecelsius.com/", "rating": 4.9, "review_count": "", "latitude": 28.6165134, "longitude": 77.0330232, "maps_url": "https://www.google.com/maps/place/?q=place_id:0x390d05e1e22e3551:0xc247a3a4488411d2"}, {"place_id": "0x390d1b3a3a871ce3:0x419882a5071ec08a", "name": "Pledgent Technologies Pvt. Ltd.", "category": "Software company", "street": "2nd Floor", "city": "C-53", "phone": "09717376057", "website": "http://www.pledgent.com/", "rating": 5, "review_count": "", "latitude": 28.596117999999997, "longitude": 77.0738697, "maps_url": "https://www.google.com/maps/place/?q=place_id:0x390d1b3a3a871ce3:0x419882a5071ec08a"}, {"place_id": "0x390d04d851299dfb:0xb7a8e7d74af22b59", "name": "Ravikesh IT Solutions", "category": "Computer repair service", "street": "Gali no 65", "city": "E 56, New", "phone": "08506827626", "website": "", "rating": 5, "review_count": "", "latitude": 28.6019215, "longitude": 77.0671911, "maps_url": "https://www.google.com/maps/place/?q=place_id:0x390d04d851299dfb:0xb7a8e7d74af22b59"}, {"place_id": "0x8f1069178017e329:0x8e55f45c66419ec3", "name": "ZionSoft Tech It Solution LLP", "category": "Software company", "street": "PLOT NO.C 92 and 93 A", "city": "Block C, Vishwas Park, Uttam Nagar", "phone": "08810456468", "website": "https://zionsoftit.com/", "rating": "", "review_count": "", "latitude": 28.610937, "longitude": 77.0568282, "maps_url": "https://www.google.com/maps/place/?q=place_id:0x8f1069178017e329:0x8e55f45c66419ec3"}, {"place_id": "0x390d052a1265bc33:0xd1f77384fcc24135", "name": "Grace Techno | Web Designing Company in Delhi | Web & Software Development Company in Delhi", "category": "Software company", "street": "First Floor", "city": "Building Burger King", "phone": "08595273503", "website": "https://gracetechno.online/", "rating": 5, "review_count": "", "latitude": 28.6198245, "longitude": 77.054174, "maps_url": "https://www.google.com/maps/place/?q=place_id:0x390d052a1265bc33:0xd1f77384fcc24135"}, {"place_id": "0x390d04cde28a3271:0x3c0f8f56c183a35b", "name": "Dwarka Computer Repair", "category": "Computer repair service", "street": "madhu vihar, Dwarka", "city": "New Delhi, Delhi, 110059", "phone": "08826179837", "website": "", "rating": 4.7, "review_count": "", "latitude": 28.6047107, "longitude": 77.0633819, "maps_url": "https://www.google.com/maps/place/?q=place_id:0x390d04cde28a3271:0x3c0f8f56c183a35b"}, {"place_id": "0x390d050d9e7ce6a3:0xa72607a5a8be6510", "name": "Shri Sai Tech Solutions", "category": "Software company", "street": "Pillar number 783", "city": "Metro Station Dwarka Mor A-109, Street No. 4", "phone": "07210868167", "website": "https://shrisaitechsolutions.com/", "rating": 4.3, "review_count": "", "latitude": 28.6189075, "longitude": 77.0333678, "maps_url": "https://www.google.com/maps/place/?q=place_id:0x390d050d9e7ce6a3:0xa72607a5a8be6510"}, {"place_id": "0x390d055ab880b807:0xcb5c025daa2b2795", "name": "Tech Web Mantra", "category": "Software company", "street": "B-77", "city": "near Dwarka Mor Metro Station", "phone": "09871521039", "website": "https://www.techwebmantra.com/", "rating": 5, "review_count": "", "latitude": 28.614187899999997, "longitude": 77.0362179, "maps_url": "https://www.google.com/maps/place/?q=place_id:0x390d055ab880b807:0xcb5c025daa2b2795"}, {"place_id": "0x20616dbf813c03ef:0xc8fd1ca47f902e9e", "name": "Bloatware IT Software Company | website Designing Company | Software Company | MLM |CRM | Android Apps", "category": "Software company", "street": "C1", "city": "Rama Park", "phone": "08920750797", "website": "https://bloatwareitsolutions.com/", "rating": 4.5, "review_count": "", "latitude": 28.621265599999997, "longitude": 77.0324943, "maps_url": "https://www.google.com/maps/place/?q=place_id:0x20616dbf813c03ef:0xc8fd1ca47f902e9e"}, {"place_id": "0x390d05c8987801e5:0x128e04dce6c4cbc4", "name": "Matrix Infotech Solution | Software Development Company", "category": "Software company", "street": "j j", "city": "Dwarka Mor, Block WE, Mohan Garden, Razapur Khurd", "phone": "08920817059", "website": "http://www.matrixinfotechsolution.com/", "rating": 3.9, "review_count": "", "latitude": 28.637037, "longitude": 77.0291258, "maps_url": "https://www.google.com/maps/place/?q=place_id:0x390d05c8987801e5:0x128e04dce6c4cbc4"}, {"place_id": "0x390d1df0721e08c5:0x49d5fd4648a33c2d", "name": "Nibble Software | Website Design & Development | Travel Web API & CRM | SEO, SMO, Paid Ads, Amazon & Flipkart Marketing", "category": "Website designer", "street": "4th Floor", "city": "Moolchand Tower", "phone": "09971066697", "website": "https://www.nibblesoftware.com/", "rating": 4.8, "review_count": "", "latitude": 28.6000862, "longitude": 77.0818018, "maps_url": "https://www.google.com/maps/place/?q=place_id:0x390d1df0721e08c5:0x49d5fd4648a33c2d"}, {"place_id": "0x390d1ba2fabc1417:0xb408ead9fdfe7a1a", "name": "Shri Gyanilal Computer", "category": "Computer repair service", "street": "Shop No", "city": "Akash hospital", "phone": "08800334338", "website": "http://wa.me/918800334338", "rating": 4.8, "review_count": "", "latitude": 28.6024162, "longitude": 77.06040899999999, "maps_url": "https://www.google.com/maps/place/?q=place_id:0x390d1ba2fabc1417:0xb408ead9fdfe7a1a"}, {"place_id": "0x390d0354b756f17d:0x778776e9fca2691e", "name": "Balaji Softwares Solutions PVT.LTD", "category": "Software company", "street": "Dwarka Mor Metro Station", "city": "Uttam Nagar", "phone": "09891331735", "website": "http://www.balajisolution.com/", "rating": 4.7, "review_count": "", "latitude": 28.6199227, "longitude": 77.0334532, "maps_url": "https://www.google.com/maps/place/?q=place_id:0x390d0354b756f17d:0x778776e9fca2691e"}, {"place_id": "0x390d1bfe9f9e81b7:0x63f5f87fa597a489", "name": "DRB Engineering co.", "category": "Real Estate Builders & Construction Company", "street": "208A, BANSAL WOODS GALLI NO 40", "city": "Main, Main Rajapuri Rd", "phone": "09289289341", "website": "https://dbenco.com/", "rating": 5, "review_count": "", "latitude": 28.602671299999997, "longitude": 77.05901539999999, "maps_url": "https://www.google.com/maps/place/?q=place_id:0x390d1bfe9f9e81b7:0x63f5f87fa597a489"}, {"place_id": "0x390d1bf001636c49:0x70ce0ac25fbf441", "name": "Touch India OPC Pvt. Ltd", "category": "Medical equipment supplier", "street": "C-36", "city": "Solanki Market, Block C, Madhu Vihar", "phone": "08010111345", "website": "", "rating": 5, "review_count": "", "latitude": 28.601997299999997, "longitude": 77.0649038, "maps_url": "https://www.google.com/maps/place/?q=place_id:0x390d1bf001636c49:0x70ce0ac25fbf441"}, {"place_id": "0x390d051a03edd741:0x3a4aeae7e53f9ac0", "name": "Abhirup Web Shringar", "category": "Corporate office", "street": "D-208A, Lane", "city": "No.40, Main Rajapuri Rd", "phone": "07011691402", "website": "http://www.webshringar.com/", "rating": 4.6, "review_count": "", "latitude": 28.6023467, "longitude": 77.0596486, "maps_url": "https://www.google.com/maps/place/?q=place_id:0x390d051a03edd741:0x3a4aeae7e53f9ac0"}, {"place_id": "0x390ce22cabb24c9b:0x529bd9528587b5d6", "name": "Aermec HVAC Engineering Company", "category": "Air conditioning contractor", "street": "K-1/36 First Floor", "city": "Nishant Garden", "phone": "09958924949", "website": "http://www.aermechvac.com/", "rating": 4.2, "review_count": "", "latitude": 28.6029049, "longitude": 77.0576815, "maps_url": "https://www.google.com/maps/place/?q=place_id:0x390ce22cabb24c9b:0x529bd9528587b5d6"}, {"place_id": "0x390d1b9d7c55f8d9:0xfca04ada599b2113", "name": "Best Software And Website Development Company", "category": "Software company", "street": "110059, Uttam Nagar", "city": "Block B, Bharat Vihar, Madhu Vihar", "phone": "08210512097", "website": "", "rating": 3, "review_count": "", "latitude": 28.6071529, "longitude": 77.0596844, "maps_url": "https://www.google.com/maps/place/?q=place_id:0x390d1b9d7c55f8d9:0xfca04ada599b2113"}, {"place_id": "0x390d1b1f0d6b0df1:0x84ec62421a968f84", "name": "JAIN COMPUTERS DWARKA", "category": "Computer service", "street": "BLOCK F, GROUND FLOOR, Hind Apartment", "city": "F 13", "phone": "09990555740", "website": "", "rating": 4.7, "review_count": "", "latitude": 28.6010335, "longitude": 77.0582807, "maps_url": "https://www.google.com/maps/place/?q=place_id:0x390d1b1f0d6b0df1:0x84ec62421a968f84"}, {"place_id": "0x390d05ef967e0c39:0x89317c84e545a9b8", "name": "Puneet Agrawal Software Developer", "category": "Software company", "street": "Flat No. 305, Aditya Homes, Street no. 1", "city": "Matiala Rd", "phone": "", "website": "", "rating": 5, "review_count": "", "latitude": 28.6156106, "longitude": 77.0478225, "maps_url": "https://www.google.com/maps/place/?q=place_id:0x390d05ef967e0c39:0x89317c84e545a9b8"}, {"place_id": "0x390d1b67de6942e3:0x60a750858bf2adae", "name": "Media Guys | Best Digital Marketing Agency in Delhi", "category": "Website designer", "street": "D-91, Street No-49 Mahavir Enclave 3", "city": "opposite Dwarka", "phone": "09582568350", "website": "https://www.mediaguys.in/", "rating": 4.3, "review_count": "", "latitude": 28.6057895, "longitude": 77.0666404, "maps_url": "https://www.google.com/maps/place/?q=place_id:0x390d1b67de6942e3:0x60a750858bf2adae"}, {"place_id": "0x390d1bbd3ef84c21:0x139b29c4ece5ce96", "name": "Kliff Career Hub", "category": "Training center", "street": "3rd floor, J-13, Street No - 40", "city": "Main, Main Rajapuri Rd", "phone": "09555608051", "website": "https://www.kliffcareerhub.com/", "rating": 4.8, "review_count": "", "latitude": 28.602673, "longitude": 77.05912289999999, "maps_url": "https://www.google.com/maps/place/?q=place_id:0x390d1bbd3ef84c21:0x139b29c4ece5ce96"}, {"place_id": "0x390d056bae9f5887:0xf1e742a385d21d57", "name": "Vaibhav Softech", "category": "Software company", "street": "Dwarka Mor", "city": "H No. 32 gram sabha First Floor Metro Pillar. 774", "phone": "07488774467", "website": "https://vaibhavsoftech.com/", "rating": 4.4, "review_count": "", "latitude": 28.6240554, "longitude": 77.0622583, "maps_url": "https://www.google.com/maps/place/?q=place_id:0x390d056bae9f5887:0xf1e742a385d21d57"}, {"place_id": "0x390d1b7792dadcb9:0xe04c850892a5c7ec", "name": "RADHEY SHYAM SHRI RADHA ONLINE SEVA", "category": "Computer support and services", "street": "Gali No -31", "city": "Main, Main Rajapuri Rd", "phone": "09873922835", "website": "", "rating": 5, "review_count": "", "latitude": 28.604851099999998, "longitude": 77.05847299999999, "maps_url": "https://www.google.com/maps/place/?q=place_id:0x390d1b7792dadcb9:0xe04c850892a5c7ec"}, {"place_id": "0x390d056f5a03b2cf:0x2cfb5843884d9779", "name": "Cybertize Technologies Pvt. Ltd.", "category": "Software company", "street": "4/1", "city": "Prem Nagar, Janakpuri", "phone": "08863913338", "website": "https://cybertizeweb.com/", "rating": 5, "review_count": "", "latitude": 28.635092999999998, "longitude": 77.09288959999999, "maps_url": "https://www.google.com/maps/place/?q=place_id:0x390d056f5a03b2cf:0x2cfb5843884d9779"}, {"place_id": "0x390d0574ce7c2491:0x8834523ffc4df0df", "name": "Jai Shri Balaji Build Pro Pvt. Ltd. (Since 2008)", "category": "Real Estate Builders & Construction Company", "street": "B-20 Street", "city": "5, Main Rajapuri Rd", "phone": "08851948135", "website": "", "rating": 4.9, "review_count": "", "latitude": 28.6025001, "longitude": 77.06028309999999, "maps_url": "https://www.google.com/maps/place/?q=place_id:0x390d0574ce7c2491:0x8834523ffc4df0df"}, {"place_id": "0x390d1b2bf61bb421:0xc953951bc570c04b", "name": "Shankar Dutt & Co.", "category": "Corporate office", "street": "A-1/121, Madhu Vihar, Uttam Nagar", "city": "Dwarka", "phone": "09716626420", "website": "https://cashankardutt.com/", "rating": 4.9, "review_count": "", "latitude": 28.603844499999997, "longitude": 77.0621711, "maps_url": "https://www.google.com/maps/place/?q=place_id:0x390d1b2bf61bb421:0xc953951bc570c04b"}, {"place_id": "0x390d1b295ee13751:0xfa26baffd0c93697", "name": "Friends Computer Zone", "category": "Computer support and services", "street": "D-100", "city": "Solanki Market, Uttam Nagar, Madhu Vihar", "phone": "09136373637", "website": "", "rating": 3.3, "review_count": "", "latitude": 28.602572, "longitude": 77.06098899999999, "maps_url": "https://www.google.com/maps/place/?q=place_id:0x390d1b295ee13751:0xfa26baffd0c93697"}, {"place_id": "0x390d1bfba1b47be5:0x5c22677824b7d05e", "name": "Grow Tech Vision", "category": "Computer support and services", "street": "Street Number 27", "city": "Block T, Rajapuri, Uttam Nagar", "phone": "06205057171", "website": "", "rating": 5, "review_count": "", "latitude": 28.605314099999998, "longitude": 77.0587024, "maps_url": "https://www.google.com/maps/place/?q=place_id:0x390d1bfba1b47be5:0x5c22677824b7d05e"}, {"place_id": "0x390d1b297d91d413:0xc873316433d0f5f8", "name": "Sun Security Services", "category": "Security guard service", "street": "D-207, Gali No-40, Madhu Vihar", "city": "Uttam Nagar", "phone": "09818775995", "website": "", "rating": 4.3, "review_count": "", "latitude": 28.6025279, "longitude": 77.05923489999999, "maps_url": "https://www.google.com/maps/place/?q=place_id:0x390d1b297d91d413:0xc873316433d0f5f8"}, {"place_id": "0x390d1b2dd676be05:0x59d75368899b0e6d", "name": "Singh Scientific Tech.", "category": "Corporate office", "street": "A-1/276, Street No. 6", "city": "Block D, Madhu Vihar", "phone": "09871727049", "website": "", "rating": 4.3, "review_count": "", "latitude": 28.6038198, "longitude": 77.065416, "maps_url": "https://www.google.com/maps/place/?q=place_id:0x390d1b2dd676be05:0x59d75368899b0e6d"}, {"place_id": "0x4f6402c2da16ff95:0xd3b65b0e189f65b0", "name": "Radiant Technologies - E-commerce Website Development & Designing Company, Digital Marketing, Customized CRM", "category": "Software company", "street": "Second Floor", "city": "WZ 10B, Asalatpur Rd", "phone": "09999886194", "website": "https://techradiant.net/", "rating": 4.5, "review_count": "", "latitude": 28.6217926, "longitude": 77.0763157, "maps_url": "https://www.google.com/maps/place/?q=place_id:0x4f6402c2da16ff95:0xd3b65b0e189f65b0"}, {"place_id": "0x390d1b2b0f6cc13b:0x1eb1b773cb1103e6", "name": "A.S.R cyber cafe", "category": "Computer store", "street": "C1/150", "city": "Block C, Madhu Vihar", "phone": "08527316995", "website": "", "rating": 5, "review_count": "", "latitude": 28.602348, "longitude": 77.0627861, "maps_url": "https://www.google.com/maps/place/?q=place_id:0x390d1b2b0f6cc13b:0x1eb1b773cb1103e6"}, {"place_id": "0x390d1b7571c1d0bf:0x80246090fb7af10d", "name": "Elite Computer Institute", "category": "Educational institution", "street": "first floor", "city": "D-234, Main Bharat Vihar Rd", "phone": "08447286799", "website": "https://www.theeliteinstitute.com/", "rating": 5, "review_count": "", "latitude": 28.602611699999997, "longitude": 77.06022159999999, "maps_url": "https://www.google.com/maps/place/?q=place_id:0x390d1b7571c1d0bf:0x80246090fb7af10d"}, {"place_id": "0x390d1b7c87b795dd:0xb3ac5bd4e5efefa3", "name": "RO SERVICE PARTH ENTERPRISES", "category": "Water purification company", "street": "Near street no. 33", "city": "Main Bharat Vihar Rd", "phone": "09311907611", "website": "", "rating": 5, "review_count": "", "latitude": 28.6037096, "longitude": 77.06040469999999, "maps_url": "https://www.google.com/maps/place/?q=place_id:0x390d1b7c87b795dd:0xb3ac5bd4e5efefa3"}, {"place_id": "0x390d1b29a4bd7e79:0x3f670e515b4cf4ae", "name": "VINAKA APPLICATION Pvt Ltd", "category": "Computer support and services", "street": "A5. Plot", "city": "13", "phone": "09911886020", "website": "http://urdreamlaptop.in/", "rating": "", "review_count": "", "latitude": 28.6005534, "longitude": 77.0586944, "maps_url": "https://www.google.com/maps/place/?q=place_id:0x390d1b29a4bd7e79:0x3f670e515b4cf4ae"}, {"place_id": "0x390d1b23d4bb79c3:0xef8f614ac1a7e1cd", "name": "The Inspiration Art - Video Production Company", "category": "Video production service", "street": "NEW G", "city": "PLOT NO 43, Gali No. 14", "phone": "08799725384", "website": "https://linktr.ee/tia_films", "rating": 4.9, "review_count": "", "latitude": 28.6058991, "longitude": 77.0547473, "maps_url": "https://www.google.com/maps/place/?q=place_id:0x390d1b23d4bb79c3:0xef8f614ac1a7e1cd"}, {"place_id": "0x390d1ba391eab491:0x44fedc7aeeb40ff2", "name": "Mohit event organiser", "category": "Event management company", "street": "3th floor, front side -G1 block", "city": "gali number 32", "phone": "09667168285", "website": "https://www.instagram.com/mohit_event_organiser_crackers?igsh=MWd6NGRtNHJibG56OA==", "rating": 4.9, "review_count": "", "latitude": 28.604887299999998, "longitude": 77.0585737, "maps_url": "https://www.google.com/maps/place/?q=place_id:0x390d1ba391eab491:0x44fedc7aeeb40ff2"}, {"place_id": "0x390d1b8a8efdb9f3:0x858812496279609d", "name": "Srivastava & Co.", "category": "Solar Energy Company", "street": "J", "city": "54, Street Number 38", "phone": "09818196870", "website": "https://srivastavasolargroup.com/", "rating": 5, "review_count": "", "latitude": 28.6031539, "longitude": 77.0591326, "maps_url": "https://www.google.com/maps/place/?q=place_id:0x390d1b8a8efdb9f3:0x858812496279609d"}, {"place_id": "0x390d05669b8d2edd:0x66446ecba892b452", "name": "Techedge Info Solutions", "category": "Software company", "street": "C-26", "city": "Hari Vihar, Sector 16A, Kakrola", "phone": "", "website": "http://www.techedgeinfo.com/", "rating": 5, "review_count": "", "latitude": 28.618256, "longitude": 77.0226217, "maps_url": "https://www.google.com/maps/place/?q=place_id:0x390d05669b8d2edd:0x66446ecba892b452"}, {"place_id": "0x890fe6bae5fbe77f:0x5bed6165bdabeff", "name": "Mind Manthan IT Solutions", "category": "Software company", "street": "A90", "city": "A Block, Sector 4", "phone": "", "website": "", "rating": 5, "review_count": "", "latitude": 28.578162, "longitude": 77.321079, "maps_url": "https://www.google.com/maps/place/?q=place_id:0x890fe6bae5fbe77f:0x5bed6165bdabeff"}, {"place_id": "0x390d1b5f4287d477:0x868caf331cab9ebe", "name": "VIJAY SALES - RAJAPURI", "category": "Electronics store", "street": "Plot No 6, Basement to 2nd Floor", "city": "Block A, Defence Enclave, Uttam Nagar", "phone": "01169037500", "website": "https://stores.vijaysales.com/vijay-sales-rajapuri-electronics-retail-and-repair-shop-uttam-nagar-new-delhi-281025/Home?utm_source=locator&utm_medium=googleplaces", "rating": 4.6, "review_count": "", "latitude": 28.600789499999998, "longitude": 77.0605834, "maps_url": "https://www.google.com/maps/place/?q=place_id:0x390d1b5f4287d477:0x868caf331cab9ebe"}, {"place_id": "0x7fbc95cdc04d491:0x240992bcf6bcfa7c", "name": "Axion Softech", "category": "Software company", "street": "", "city": "", "phone": "09817887826", "website": "https://axionsoftech.com/", "rating": 5, "review_count": "", "latitude": 21.0680074, "longitude": 82.7525294, "maps_url": "https://www.google.com/maps/place/?q=place_id:0x7fbc95cdc04d491:0x240992bcf6bcfa7c"}, {"place_id": "0x390d1bb5f9588bab:0xe2acc8b30031a1d5", "name": "Jobsflix Consultants pvt ltd", "category": "Employment agency", "street": "KHNO. 108/3/1 THIRD FLOOR", "city": "BLK-A", "phone": "06350457424", "website": "http://jobsflix.in/", "rating": 4.7, "review_count": "", "latitude": 28.604880299999998, "longitude": 77.0617721, "maps_url": "https://www.google.com/maps/place/?q=place_id:0x390d1bb5f9588bab:0xe2acc8b30031a1d5"}, {"place_id": "0x390d1b7a3f375627:0x47fc7cf76196d1bf", "name": "Iyana Infinity Services", "category": "Interior designer", "street": "37A, Street No. 38, Main Rajapuri Road, Uttam Nagar, New Delhi", "city": "Delhi, 110059", "phone": "09873942925", "website": "", "rating": 4.9, "review_count": "", "latitude": 28.6031665, "longitude": 77.05855509999999, "maps_url": "https://www.google.com/maps/place/?q=place_id:0x390d1b7a3f375627:0x47fc7cf76196d1bf"}, {"place_id": "0x390d1b2e5722b2fb:0x312d13e97a8f8f4b", "name": "Simplifyart", "category": "Kitchen furniture store", "street": "C-98", "city": "Sector 2 Dwarka, Dwarka", "phone": "09821791585", "website": "http://www.simplifyart.in/", "rating": 4.8, "review_count": "", "latitude": 28.6009133, "longitude": 77.06617899999999, "maps_url": "https://www.google.com/maps/place/?q=place_id:0x390d1b2e5722b2fb:0x312d13e97a8f8f4b"}, {"place_id": "0x390d04cde28a3271:0xf0a245adcf852a54", "name": "Anshi Creation", "category": "Manufacturer", "street": "C-1/101B, Madhu Vihar", "city": "Uttam Nagar", "phone": "09136865698", "website": "https://www.justdial.com/jdmart/Delhi/Anshi-Creation-Budh-Bazar-Uttam-Nagar/011PXX11-XX11-180202115527-J6W1_BZDET/catalogue", "rating": 5, "review_count": "", "latitude": 28.6016867, "longitude": 77.0635336, "maps_url": "https://www.google.com/maps/place/?q=place_id:0x390d04cde28a3271:0xf0a245adcf852a54"}, {"place_id": "0x390d1b73397b9567:0x94742a55590fa687", "name": "Burger & company", "category": "Restaurant", "street": "Street 30, Main Rajapuri Rd", "city": "Block C, Uttam Nagar", "phone": "", "website": "", "rating": 5, "review_count": "", "latitude": 28.604876599999997, "longitude": 77.058694, "maps_url": "https://www.google.com/maps/place/?q=place_id:0x390d1b73397b9567:0x94742a55590fa687"}, {"place_id": "0x390d1b9c98a86733:0x65d48c0b82970e02", "name": "Himanshu Enterprises(Walkie Talkie Supplier)", "category": "Telecommunications equipment supplier", "street": "J-81 Main Rajapuri Road Street No 37", "city": "110059", "phone": "08178849912", "website": "https://www.himanshuenterprise.co.in/", "rating": 4.8, "review_count": "", "latitude": 28.6030484, "longitude": 77.05856159999999, "maps_url": "https://www.google.com/maps/place/?q=place_id:0x390d1b9c98a86733:0x65d48c0b82970e02"}, {"place_id": "0x390d1bd9aa05ae7d:0x9d506afe181060f5", "name": "SMJ LIFTERS", "category": "Elevator service", "street": "H1", "city": "Street No-29", "phone": "08700563911", "website": "https://wa.me/918700563911", "rating": 4.6, "review_count": "", "latitude": 28.6049012, "longitude": 77.05921049999999, "maps_url": "https://www.google.com/maps/place/?q=place_id:0x390d1bd9aa05ae7d:0x9d506afe181060f5"}, {"place_id": "0x390d1b298074ebab:0x45d79a488c5ded96", "name": "Shri Sai Project", "category": "Home improvement store", "street": "J 14, Kh No 107/25/2/3 Gali", "city": "40, Main Rajapuri Rd", "phone": "09559171510", "website": "https://www.shrisaiprojects.com/", "rating": 4.6, "review_count": "", "latitude": 28.6024615, "longitude": 77.05922129999999, "maps_url": "https://www.google.com/maps/place/?q=place_id:0x390d1b298074ebab:0x45d79a488c5ded96"}, {"place_id": "0x390d1bed17f3b079:0xc425c17a0bbb15ec", "name": "Tag India Tours", "category": "Travel agency", "street": "Plot No - 09, First Floor", "city": "Main Rajapuri Rd", "phone": "", "website": "http://www.tagindiatours.com/", "rating": 4.7, "review_count": "", "latitude": 28.6021304, "longitude": 77.05881, "maps_url": "https://www.google.com/maps/place/?q=place_id:0x390d1bed17f3b079:0xc425c17a0bbb15ec"}, {"place_id": "0x390d1b86255345bf:0x6ddcd6430e1dc784", "name": "S.K SUVIDHA KENDRA", "category": "Computer support and services", "street": "D-141", "city": "Madhu Vihar", "phone": "09354615453", "website": "", "rating": 4.5, "review_count": "", "latitude": 28.6024274, "longitude": 77.0610849, "maps_url": "https://www.google.com/maps/place/?q=place_id:0x390d1b86255345bf:0x6ddcd6430e1dc784"}, {"place_id": "0x390d1bec78cd87d7:0xfbde13351f52463f", "name": "Hindi Gyan Hub", "category": "Website designer", "street": "", "city": "", "phone": "", "website": "", "rating": 5, "review_count": "", "latitude": 21.0680074, "longitude": 82.7525294, "maps_url": "https://www.google.com/maps/place/?q=place_id:0x390d1bec78cd87d7:0xfbde13351f52463f"}, {"place_id": "0x390d1b4ef9f20cb1:0x6d49557d98dee1f1", "name": "Care Tech AC P C B REEPAIR", "category": "Electronics store", "street": "A-1/80B, Gali No. 5", "city": "near DURGA MATA MANDER", "phone": "08076229666", "website": "", "rating": 4.7, "review_count": "", "latitude": 28.6041675, "longitude": 77.0622582, "maps_url": "https://www.google.com/maps/place/?q=place_id:0x390d1b4ef9f20cb1:0x6d49557d98dee1f1"}, {"place_id": "0x390d04d124db55c3:0x25491bb135059019", "name": "Bws Infotech It Company", "category": "Computer service", "street": "J387+J72", "city": "near Pal Dairy", "phone": "", "website": "", "rating": "", "review_count": "", "latitude": 28.616511, "longitude": 77.063146, "maps_url": "https://www.google.com/maps/place/?q=place_id:0x390d04d124db55c3:0x25491bb135059019"}, {"place_id": "0x390d1b2ba43c8e2f:0xf434bda81022fb2b", "name": "SPN Broadband", "category": "Business to business service", "street": "Jai Durga Bakery", "city": "197-B, Gali No. 29, Rangpuri", "phone": "09540983983", "website": "http://www.spnbroadband.com/", "rating": 4.8, "review_count": "", "latitude": 28.605008899999998, "longitude": 77.0602952, "maps_url": "https://www.google.com/maps/place/?q=place_id:0x390d1b2ba43c8e2f:0xf434bda81022fb2b"}, {"place_id": "0x390d1b2933aaa059:0x17eebada30000000", "name": "Vision Tree || 9289284433 || Best Optical Shop | Eye Checkup By Optometrist | Branded Specs | Contact Lens | Sector-3 Dwarka", "category": "Eye care center", "street": "D-112 Main", "city": "Solanki Market, Dwarka Sector-3, Madhu Vihar", "phone": "", "website": "http://visiontree.store/", "rating": 4.9, "review_count": "", "latitude": 28.601513399999998, "longitude": 77.0612246, "maps_url": "https://www.google.com/maps/place/?q=place_id:0x390d1b2933aaa059:0x17eebada30000000"}, {"place_id": "0x390d055a5463cc63:0x8742744c3d0cc683", "name": "ONFO Digitalways IT Services (P) Ltd.", "category": "Software company", "street": "Second Floor", "city": "A-100, Shivaji Marg", "phone": "09582238038", "website": "http://www.onfo.in/", "rating": 5, "review_count": "", "latitude": 28.6202777, "longitude": 77.0408601, "maps_url": "https://www.google.com/maps/place/?q=place_id:0x390d055a5463cc63:0x8742744c3d0cc683"}, {"place_id": "0x390d1b2c7795d7c7:0x6ff1bbdf2d7a8aa4", "name": "Ubn International", "category": "Courier service", "street": "B1/30, Madhu Vihar", "city": "Friday Market Road", "phone": "07678466546", "website": "https://www.ubninternationalexport.in/", "rating": 5, "review_count": "", "latitude": 28.6048112, "longitude": 77.0622673, "maps_url": "https://www.google.com/maps/place/?q=place_id:0x390d1b2c7795d7c7:0x6ff1bbdf2d7a8aa4"}, {"place_id": "0x390d1ba677202ac1:0x87a036480f4cfa36", "name": "Bella Event & Travels", "category": "Event management company", "street": "Shop No. 5", "city": "J Block", "phone": "09873800489", "website": "https://weblifeinfo.co/demo/users/BellaEvent/", "rating": 4.6, "review_count": "", "latitude": 28.602359, "longitude": 77.058657, "maps_url": "https://www.google.com/maps/place/?q=place_id:0x390d1ba677202ac1:0x87a036480f4cfa36"}, {"place_id": "0x390ce930a65e7c73:0xdc475868d3a4af82", "name": "Mudboxx Research", "category": "Market researcher", "street": "C", "city": "156", "phone": "08595018181", "website": "http://www.mudboxxresearch.in/", "rating": 4.6, "review_count": "", "latitude": 28.6041983, "longitude": 77.0686735, "maps_url": "https://www.google.com/maps/place/?q=place_id:0x390ce930a65e7c73:0xdc475868d3a4af82"}, {"place_id": "0x390d1b71a9b0d88f:0x945b7f8ed287f9be", "name": "NEAT & CLEAN DRYCLEANERS", "category": "Dry cleaner", "street": "ekta market", "city": "E- 347, Street No. 75", "phone": "09555047658", "website": "", "rating": 4.9, "review_count": "", "latitude": 28.6047516, "longitude": 77.06711399999999, "maps_url": "https://www.google.com/maps/place/?q=place_id:0x390d1b71a9b0d88f:0x945b7f8ed287f9be"}, {"place_id": "0x390d031c13f74eb9:0xab79b74d476a07", "name": "Muthoot FinCorp Gold Loan", "category": "Loan agency", "street": "64, Ground Floor", "city": "No. E16, Veer Bazar Rd", "phone": "09289048233", "website": "https://branches.muthootfincorp.com/muthoot-fincorp-gold-loan-dwarka-loan-agency-bindapur-new-delhi-115195/Home", "rating": 4.9, "review_count": "", "latitude": 28.601627399999998, "longitude": 77.0674238, "maps_url": "https://www.google.com/maps/place/?q=place_id:0x390d031c13f74eb9:0xab79b74d476a07"}, {"place_id": "0x390d1b295ab4d0d3:0x7dd530e869c267b5", "name": "SKY Tempo Service", "category": "Transportation service", "street": "D", "city": "50", "phone": "09717861223", "website": "http://www.skytemposervice.com/", "rating": 4.9, "review_count": "", "latitude": 28.601947, "longitude": 77.06140599999999, "maps_url": "https://www.google.com/maps/place/?q=place_id:0x390d1b295ab4d0d3:0x7dd530e869c267b5"}, {"place_id": "0x390d1b2e9c1d42f3:0xd91cbdba06b1513c", "name": "SAINI-INVESTMENT (RAJENDER SAINI Financial Planner)", "category": "Insurance agency", "street": "C-1/34", "city": "Gali Number 2", "phone": "09868907446", "website": "", "rating": 4.7, "review_count": "", "latitude": 28.602604, "longitude": 77.064005, "maps_url": "https://www.google.com/maps/place/?q=place_id:0x390d1b2e9c1d42f3:0xd91cbdba06b1513c"}, {"place_id": "0x390d1b2e63c61a51:0xaeec76874b4e5da7", "name": "ZraMex International", "category": "Courier service", "street": "Gali No 14, Madhu Vihar", "city": "Dwarka Sector-3, Uttam Nagar", "phone": "07529900064", "website": "http://www.zramex.com/", "rating": 4.6, "review_count": "", "latitude": 28.6013086, "longitude": 77.0649349, "maps_url": "https://www.google.com/maps/place/?q=place_id:0x390d1b2e63c61a51:0xaeec76874b4e5da7"}, {"place_id": "0x390d1b2ae2ecf647:0x501d2bcd64b3df42", "name": "Sunshine deep cleaning", "category": "Cleaning Services", "street": "E368 gali, Street No. 76", "city": "Mahavir Enclave Part 2, Mahavir Enclave Part 3, Madhu Vihar", "phone": "", "website": "https://sunshine-deep-cleaning.grexa.site/", "rating": 5, "review_count": "", "latitude": 28.605161499999998, "longitude": 77.06649929999999, "maps_url": "https://www.google.com/maps/place/?q=place_id:0x390d1b2ae2ecf647:0x501d2bcd64b3df42"}, {"place_id": "0x390d059f96a467bb:0xa76e570a1d58923f", "name": "Muscle Recovery", "category": "Store", "street": "No.107/15/1", "city": "Plot no.37, Main Rajapuri Rd", "phone": "07838002525", "website": "https://musclerecovery.in/", "rating": 4.9, "review_count": "", "latitude": 28.6031409, "longitude": 77.0585517, "maps_url": "https://www.google.com/maps/place/?q=place_id:0x390d059f96a467bb:0xa76e570a1d58923f"}, {"place_id": "0x390d0541ab855ef3:0x7db5739e07c60e70", "name": "Elegant Info Solutions", "category": "Software company", "street": "Dwarka Mor, Sainik Nagar, Vipin Garden, Nawada", "city": "Delhi, 110059", "phone": "09871115570", "website": "http://www.elegantinfosolutions.com/", "rating": 4.5, "review_count": "", "latitude": 28.625640699999998, "longitude": 77.03090089999999, "maps_url": "https://www.google.com/maps/place/?q=place_id:0x390d0541ab855ef3:0x7db5739e07c60e70"}, {"place_id": "0x390d1b2a20340651:0x51c945d94d911f0", "name": "Apollo Sales Corporation", "category": "", "street": "K-19 Chowk", "city": "Main, Main Rajapuri Rd", "phone": "08048040471", "website": "http://apolloelectronics.co.in/", "rating": 3.5, "review_count": "", "latitude": 28.602487, "longitude": 77.05795379999999, "maps_url": "https://www.google.com/maps/place/?q=place_id:0x390d1b2a20340651:0x51c945d94d911f0"}, {"place_id": "0x390d03281871ef51:0x87d05ae5b85adc52", "name": "CRCIT INFOTECH PVT LTD", "category": "Software company", "street": "RZ B-4, Pankha Rd", "city": "opposite Janak Cinema Complex", "phone": "09599884630", "website": "", "rating": 4.9, "review_count": "", "latitude": 28.7321179, "longitude": 77.0297145, "maps_url": "https://www.google.com/maps/place/?q=place_id:0x390d03281871ef51:0x87d05ae5b85adc52"}, {"place_id": "0x390d1b068288c7c9:0x9f98e009bdc1325d", "name": "Sajaawat.com", "category": "Event planner", "street": "madhu Vihar", "city": "C - 1/50, Bhagwan Parshuram Marg", "phone": "07838016171", "website": "https://www.instagram.com/sajaawat.com8?igsh=dG1lZm5ldHk1dHdr", "rating": 4.9, "review_count": "", "latitude": 28.6017311, "longitude": 77.06363739999999, "maps_url": "https://www.google.com/maps/place/?q=place_id:0x390d1b068288c7c9:0x9f98e009bdc1325d"}, {"place_id": "0x390d052784967271:0xf894886f4958550c", "name": "Wedding Photo Planet", "category": "Wedding photographer", "street": "3rd Floor", "city": "D-208A, Gali Number 40", "phone": "09990951995", "website": "https://www.weddingphotoplanet.com/", "rating": 4.7, "review_count": "", "latitude": 28.6023794, "longitude": 77.05960689999999, "maps_url": "https://www.google.com/maps/place/?q=place_id:0x390d052784967271:0xf894886f4958550c"}, {"place_id": "0x390d1b2bd171d661:0x1d8daac47bce843f", "name": "India Post office Franchise", "category": "Post office", "street": "J335+5VX", "city": "Block C, Madhu Vihar", "phone": "", "website": "", "rating": 2.8, "review_count": "", "latitude": 28.602994, "longitude": 77.0597423, "maps_url": "https://www.google.com/maps/place/?q=place_id:0x390d1b2bd171d661:0x1d8daac47bce843f"}, {"place_id": "0x390d1ba5cf71276d:0x34952e8044baf9b4", "name": "Blk pest control services", "category": "Pest control service", "street": "C-1-236 Madhu vihar", "city": "nr. Shiv mandir", "phone": "07053101808", "website": "", "rating": 4.8, "review_count": "", "latitude": 28.6019848, "longitude": 77.0639642, "maps_url": "https://www.google.com/maps/place/?q=place_id:0x390d1ba5cf71276d:0x34952e8044baf9b4"}, {"place_id": "0x64f2042b8da9e4cb:0x8a53884345e76e0b", "name": "SECZAP - Cyber Security & Digital Forensics | VAPT", "category": "Computer security service", "street": "", "city": "", "phone": "09368016106", "website": "https://seczap.com/", "rating": 5, "review_count": "", "latitude": 9.374110199999999, "longitude": -134.06014199999998, "maps_url": "https://www.google.com/maps/place/?q=place_id:0x64f2042b8da9e4cb:0x8a53884345e76e0b"}, {"place_id": "0x390d1b0b8b812f27:0x606c5d906e7b263", "name": "Gurbani Cosmetic", "category": "Cosmetics store", "street": "D101, Gali Number 40", "city": "Solanki Market, Block C, Madhu Vihar", "phone": "09560722380", "website": "https://www.instagram.com/gurbanicosmetic/", "rating": 4.7, "review_count": "", "latitude": 28.602337499999997, "longitude": 77.061363, "maps_url": "https://www.google.com/maps/place/?q=place_id:0x390d1b0b8b812f27:0x606c5d906e7b263"}, {"place_id": "0x390d1bd85a812843:0x6607655a9ace29b9", "name": "Ayush", "category": "Housing society", "street": "J337+JF8", "city": "Madhu Vihar", "phone": "", "website": "", "rating": 5, "review_count": "", "latitude": 28.6040259, "longitude": 77.063707, "maps_url": "https://www.google.com/maps/place/?q=place_id:0x390d1bd85a812843:0x6607655a9ace29b9"}, {"place_id": "0x390d1b80b0a36397:0x9edbacf125149caa", "name": "Rana AC House- Daikin, Voltas AC Dealer Delhi VRV, VRF, Cassette AC", "category": "Air conditioning store", "street": "K", "city": "1/9", "phone": "08700410149", "website": "https://ac-service-center.com/rana-ac-house/", "rating": 4.7, "review_count": "", "latitude": 28.6025313, "longitude": 77.05828, "maps_url": "https://www.google.com/maps/place/?q=place_id:0x390d1b80b0a36397:0x9edbacf125149caa"}, {"place_id": "0x390d1bb77f6e85a9:0xd9164561ab8e14da", "name": "C-143", "category": "Apartment building", "street": "C-143, Gali No. 7", "city": "Block D, Madhu Vihar", "phone": "", "website": "", "rating": 5, "review_count": "", "latitude": 28.602021099999998, "longitude": 77.0660101, "maps_url": "https://www.google.com/maps/place/?q=place_id:0x390d1bb77f6e85a9:0xd9164561ab8e14da"}, {"place_id": "0x390d1b3f9981ff39:0x8d29cd646820fda0", "name": "Rajesh Pg", "category": "Student housing center", "street": "33", "city": "near akash hospital", "phone": "", "website": "", "rating": 5, "review_count": "", "latitude": 28.6040714, "longitude": 77.0590145, "maps_url": "https://www.google.com/maps/place/?q=place_id:0x390d1b3f9981ff39:0x8d29cd646820fda0"}, {"place_id": "0x390d1b54c56f74c1:0x9b1701840aaf53af", "name": "ADVOCATE PUNEET SINGH & CO.", "category": "Lawyer", "street": "A501 Hind Apartments Plot 12", "city": "Sector 5, Dwarka", "phone": "", "website": "", "rating": 5, "review_count": "", "latitude": 28.6010335, "longitude": 77.0582807, "maps_url": "https://www.google.com/maps/place/?q=place_id:0x390d1b54c56f74c1:0x9b1701840aaf53af"}, {"place_id": "0x390d05a2df48f619:0x3728613f12d86a2c", "name": "AARK Event Company", "category": "Event planner", "street": "A-5, St No. 4", "city": "Vishwas Park Extn, Rajapuri, Uttam Nagar", "phone": "09911055547", "website": "https://www.instagram.com/aarkeventcompany?igsh=MXBvdGM2M21uenAzdg==", "rating": 5, "review_count": "", "latitude": 28.6095616, "longitude": 77.0586417, "maps_url": "https://www.google.com/maps/place/?q=place_id:0x390d05a2df48f619:0x3728613f12d86a2c"}, {"place_id": "0x3be7c21b5901e181:0x7fe794585addc1f6", "name": "Smartinfologiks - Software Development Company in India | IT Solutions", "category": "Software company", "street": "Hilton Center", "city": "514", "phone": "07400064691", "website": "https://www.smartinfologiks.com/", "rating": 4.6, "review_count": "", "latitude": 19.0139592, "longitude": 73.0382705, "maps_url": "https://www.google.com/maps/place/?q=place_id:0x3be7c21b5901e181:0x7fe794585addc1f6"}, {"place_id": "0x390d1b47a20711e3:0x451975e179334fe", "name": "Hans Electricals", "category": "Electrical supply store", "street": "D-16A, MAIN ROAD RAJA PURI", "city": "Uttam Nagar, Madhu Vihar", "phone": "09811886888", "website": "", "rating": 4.2, "review_count": "", "latitude": 28.6011904, "longitude": 77.0600286, "maps_url": "https://www.google.com/maps/place/?q=place_id:0x390d1b47a20711e3:0x451975e179334fe"}, {"place_id": "0x3bc2becdc35b6937:0x515ac559c349eee3", "name": "Thinkitive Technologies Private Limited", "category": "Software company", "street": "4th Floor", "city": "ABIL IMPERIAL COMMERCIAL SPACES", "phone": "08956467327", "website": "https://www.thinkitive.com/", "rating": 3.9, "review_count": "", "latitude": 18.5563888, "longitude": 73.7729748, "maps_url": "https://www.google.com/maps/place/?q=place_id:0x3bc2becdc35b6937:0x515ac559c349eee3"}, {"place_id": "0x390d1b04de614553:0xfd7022617ddb78cb", "name": "THE Home Tuition Dwarka (THT)", "category": "Private Tutor", "street": "J-111, Ground floor", "city": "Raja Puri, Uttam Nagar", "phone": "09319647541", "website": "https://delhi.homestuition.in/", "rating": 4.9, "review_count": "", "latitude": 28.603555099999998, "longitude": 77.0587718, "maps_url": "https://www.google.com/maps/place/?q=place_id:0x390d1b04de614553:0xfd7022617ddb78cb"}, {"place_id": "0x390d05f5a7c3936b:0x4a6e97f9da2b2d8c", "name": "Palakshi Preschool & Day Care", "category": "Preschool", "street": "D- 168/ 238, First Floor, Madhu Vihar", "city": "opp. Gali No. 38", "phone": "09821483628", "website": "https://www.palakshipreschool.com/", "rating": 4.6, "review_count": "", "latitude": 28.603127599999997, "longitude": 77.0603117, "maps_url": "https://www.google.com/maps/place/?q=place_id:0x390d05f5a7c3936b:0x4a6e97f9da2b2d8c"}, {"place_id": "0x390d1b67d048734f:0x331f8a13d1f4942a", "name": "T-Shirt Printing Shop by Unique Enterprises", "category": "Custom t-shirt store", "street": "E-411, Street No. 76", "city": "Mahavir Enclave Part 2, Mahavir Enclave Part 3, Uttam Nagar", "phone": "09315705611", "website": "https://customprintdelhi.ueniweb.com/", "rating": 4.9, "review_count": "", "latitude": 28.605131699999998, "longitude": 77.0660517, "maps_url": "https://www.google.com/maps/place/?q=place_id:0x390d1b67d048734f:0x331f8a13d1f4942a"}, {"place_id": "0x390d1bc2c34ddeef:0x9094780d4ac2133d", "name": "Startup E-Registration", "category": "Tax preparation service", "street": "", "city": "", "phone": "07011683080", "website": "", "rating": 5, "review_count": "", "latitude": 21.0680074, "longitude": 82.7525294, "maps_url": "https://www.google.com/maps/place/?q=place_id:0x390d1bc2c34ddeef:0x9094780d4ac2133d"}, {"place_id": "0x390d1bc3a08cc05f:0x360a54c146c2b58f", "name": "SKR & Company", "category": "Certified public accountant", "street": "44 Ground Floor Block", "city": "B-10, Sector 13 Main Rd", "phone": "09300200500", "website": "", "rating": 4.4, "review_count": "", "latitude": 28.599484999999998, "longitude": 77.066791, "maps_url": "https://www.google.com/maps/place/?q=place_id:0x390d1bc3a08cc05f:0x360a54c146c2b58f"}, {"place_id": "0x390d1b6b2aece8d1:0x9cb286c5e38b0740", "name": "VK PRODUCTION PHOTOS & FILMS", "category": "Photographer", "street": "Gali No. 38", "city": "59", "phone": "09210093328", "website": "", "rating": 5, "review_count": "", "latitude": 28.604191999999998, "longitude": 77.05950829999999, "maps_url": "https://www.google.com/maps/place/?q=place_id:0x390d1b6b2aece8d1:0x9cb286c5e38b0740"}, {"place_id": "0x390d1bd4de94363b:0x25dbfb99e99463bd", "name": "Hypro web", "category": "Web hosting company", "street": "J34H+R5F", "city": "Dwarkapuri Rd", "phone": "09968917175", "website": "https://hyproweb.com/", "rating": 4.9, "review_count": "", "latitude": 28.6070505, "longitude": 77.0779223, "maps_url": "https://www.google.com/maps/place/?q=place_id:0x390d1bd4de94363b:0x25dbfb99e99463bd"}, {"place_id": "0x127503d14d2f3cd:0x7105d8da9a088662", "name": "Modern Classic Interior Design", "category": "Interior designer", "street": "Ist Floor", "city": "D-14, Main Rajapuri Rd", "phone": "07453099706", "website": "https://www.modernclassicinterior.in/", "rating": 4.9, "review_count": "", "latitude": 28.6017056, "longitude": 77.0593289, "maps_url": "https://www.google.com/maps/place/?q=place_id:0x127503d14d2f3cd:0x7105d8da9a088662"}, {"place_id": "0x390d1b3b71adf90b:0x9fef90079d87400b", "name": "Tanishka Photography", "category": "Photography service", "street": "Tanishka Photography ,Dwarka Sec-3 A-66 Gali No 4, Madhu Vihar", "city": "Uttam Nagar", "phone": "09868602136", "website": "", "rating": 5, "review_count": "", "latitude": 28.604067399999998, "longitude": 77.0646269, "maps_url": "https://www.google.com/maps/place/?q=place_id:0x390d1b3b71adf90b:0x9fef90079d87400b"}, {"place_id": "0x390d1bb77a46708b:0x6d335ccd1b7ce2ab", "name": "Radhe Krishna Bhavan", "category": "Apartment building", "street": "A-222A", "city": "Bharat Vihar, Madhu Vihar", "phone": "", "website": "", "rating": 4.3, "review_count": "", "latitude": 28.6045967, "longitude": 77.0608578, "maps_url": "https://www.google.com/maps/place/?q=place_id:0x390d1bb77a46708b:0x6d335ccd1b7ce2ab"}, {"place_id": "0x390d1b7adcef3359:0xf3163af654c910ab", "name": "Wedding Clicker Studio", "category": "Wedding photographer", "street": "Gali. 37/B Bharat Vihar Rd Raja Puri", "city": "opp. Dwarka", "phone": "09891454035", "website": "https://weddingclickerstudio.com/", "rating": 4.7, "review_count": "", "latitude": 28.6036401, "longitude": 77.0603098, "maps_url": "https://www.google.com/maps/place/?q=place_id:0x390d1b7adcef3359:0xf3163af654c910ab"}, {"place_id": "0x390d1b2adac3a41d:0xe6caee7c10a2ea7c", "name": "Ambatch Universe", "category": "Internet marketing service", "street": "", "city": "", "phone": "", "website": "", "rating": "", "review_count": "", "latitude": 46.423669, "longitude": -129.9427086, "maps_url": "https://www.google.com/maps/place/?q=place_id:0x390d1b2adac3a41d:0xe6caee7c10a2ea7c"}, {"place_id": "0x390d1bf27eb009dd:0x7dfc255e875015db", "name": "Sikho Digital Marketing", "category": "Training center", "street": "", "city": "", "phone": "08800484840", "website": "http://www.sikhodigitalmarketing.com/", "rating": 5, "review_count": "", "latitude": 28.5951345, "longitude": 77.1770987, "maps_url": "https://www.google.com/maps/place/?q=place_id:0x390d1bf27eb009dd:0x7dfc255e875015db"}, {"place_id": "0x390d0527c15a0377:0xcc0a100b40fff40b", "name": "Sharma Tour And Travels", "category": "Taxi service", "street": "Bharat Vihar", "city": "A-176 F/F KH NO. 109/24/1 Gali Number 27", "phone": "09899004713", "website": "https://www.sharmacabzone.com/", "rating": 5, "review_count": "", "latitude": 28.6050652, "longitude": 77.0612407, "maps_url": "https://www.google.com/maps/place/?q=place_id:0x390d0527c15a0377:0xcc0a100b40fff40b"}, {"place_id": "0x390d1bcae4e59c0f:0xb821c9d28ed43e10", "name": "CCTV Camera Installation Service Delhi", "category": "Security service", "street": "", "city": "", "phone": "", "website": "", "rating": 5, "review_count": "", "latitude": 29.290406899999997, "longitude": 76.0389251, "maps_url": "https://www.google.com/maps/place/?q=place_id:0x390d1bcae4e59c0f:0xb821c9d28ed43e10"}, {"place_id": "0x390d1bd3558804a3:0x46e5c2c5e4ce20e0", "name": "Atumobile Private Limited - Electric Bikes Showroom in Delhi", "category": "Indian Motorcycle dealer", "street": "khasara number 107", "city": "Ground floor, plot number 8 and 9", "phone": "09063686837", "website": "https://atumobile.co/", "rating": 5, "review_count": "", "latitude": 28.6025818, "longitude": 77.0579008, "maps_url": "https://www.google.com/maps/place/?q=place_id:0x390d1bd3558804a3:0x46e5c2c5e4ce20e0"}, {"place_id": "0x390d1bd53a309a75:0xa632981ce803944f", "name": "Hot Basil", "category": "Delivery service", "street": "", "city": "", "phone": "08700563911", "website": "", "rating": 4.9, "review_count": "", "latitude": 28.5791565, "longitude": 77.04960659999999, "maps_url": "https://www.google.com/maps/place/?q=place_id:0x390d1bd53a309a75:0xa632981ce803944f"}, {"place_id": "0x390d1bd3ac499f0d:0x5ad073c6b16592a0", "name": "JMD ENTERPRISES", "category": "Computer support and services", "street": "", "city": "", "phone": "", "website": "", "rating": "", "review_count": "", "latitude": 21.0680074, "longitude": 82.7525294, "maps_url": "https://www.google.com/maps/place/?q=place_id:0x390d1bd3ac499f0d:0x5ad073c6b16592a0"}, {"place_id": "0x271e7979a1a9979f:0xad1289a9d363b6dd", "name": "A2M Services Pvt Ltd", "category": "Marketing agency", "street": "", "city": "", "phone": "", "website": "https://www.a2mservices.in/", "rating": "", "review_count": "", "latitude": 28.587393499999997, "longitude": 77.1975795, "maps_url": "https://www.google.com/maps/place/?q=place_id:0x271e7979a1a9979f:0xad1289a9d363b6dd"}, {"place_id": "0x294ac87d30c39f5:0x2a972f6289aa6f5d", "name": "Anuj - A Digital marketing Agency", "category": "Advertising agency", "street": "", "city": "", "phone": "09310377543", "website": "http://anuj.free.nf/", "rating": 5, "review_count": "", "latitude": 21.0680074, "longitude": 82.7525294, "maps_url": "https://www.google.com/maps/place/?q=place_id:0x294ac87d30c39f5:0x2a972f6289aa6f5d"}, {"place_id": "0x390d1bd0c8320e07:0x879d0a9b16f498ec", "name": "M/S JHA AND SONS ENTERPRISES", "category": "E-commerce service", "street": "H NO A-239", "city": "MADHU VIHAR, Uttam Nagar", "phone": "", "website": "", "rating": "", "review_count": "", "latitude": 28.604184, "longitude": 77.0601389, "maps_url": "https://www.google.com/maps/place/?q=place_id:0x390d1bd0c8320e07:0x879d0a9b16f498ec"}, {"place_id": "0x851078dce81875eb:0x166dadead6f2017e", "name": "Our Digital Solutions", "category": "Computer security service", "street": "", "city": "", "phone": "07053458101", "website": "https://www.oursolutionarchitect.com/", "rating": "", "review_count": "", "latitude": 21.0680074, "longitude": 82.7525294, "maps_url": "https://www.google.com/maps/place/?q=place_id:0x851078dce81875eb:0x166dadead6f2017e"}, {"place_id": "0x390d1b2bdbb409cb:0x728ec696b53d3818", "name": "Om Arts & Printers", "category": "Digital printing service", "street": "D-165, Bharat Vihar Road", "city": "Madhu Vihar, Opposite - Sector - 5 Dwarka", "phone": "09871514055", "website": "", "rating": 4, "review_count": "", "latitude": 28.603057, "longitude": 77.06030299999999, "maps_url": "https://www.google.com/maps/place/?q=place_id:0x390d1b2bdbb409cb:0x728ec696b53d3818"}, {"place_id": "0x390d1b3ff58e63dd:0x7c6f16aaa4eb57a0", "name": "Carholix", "category": "Car wash", "street": "C-193 G/F KH120/15/1/2 MADHU VIHAR , DWARKA", "city": "DABRI ROAD", "phone": "", "website": "https://sites.google.com/view/carholix/home", "rating": 5, "review_count": "", "latitude": 28.6005529, "longitude": 77.0653899, "maps_url": "https://www.google.com/maps/place/?q=place_id:0x390d1b3ff58e63dd:0x7c6f16aaa4eb57a0"}]}