[{"place_id": "ChIJzV9vXeUCDTkRbml51dcf9C4", "name": "Lanyard Company India", "street": "619, Main Bazaar Road, near Bara Tooti Chowk, Narain Market, Sadar Bazaar, New Delhi, Delhi, 110006, India", "phone": "+91 98119 37519", "rating": "4.9", "review_count": "", "website": "http://www.lanyard.co.in/", "latitude": 28.658199, "longitude": 77.2135385, "maps_url": "https://www.google.com/maps/search/?api=1&query=Lanyard%20Company%20India&query_place_id=ChIJzV9vXeUCDTkRbml51dcf9C4"}, {"place_id": "ChIJ9-p_gfEDDTkRjfK5cSlzKWM", "name": "Telvisio Solutions", "street": "8873/14B, 2nd Floor, Shidi Pura, Karol Bagh, New Delhi, Delhi 110005, India", "phone": "", "rating": "4.9", "review_count": "", "website": "https://www.telvisiosolutions.com/", "latitude": 28.656169, "longitude": 77.2022787, "maps_url": "https://www.google.com/maps/search/?api=1&query=Telvisio%20Solutions&query_place_id=ChIJ9-p_gfEDDTkRjfK5cSlzKWM"}, {"place_id": "ChIJO4sr49IDDTkRALZaeWsr-oI", "name": "Iraitech | Software Development Company", "street": "Central Square Complex 3, Unit No-1051, 1st Floor, Near Filmistan, DCM chowk, Bara Hindu Rao, Kishan Ganj, Delhi, 110006, India", "phone": "+91 81301 04108", "rating": "4.1", "review_count": "", "website": "https://www.iraitech.com/", "latitude": 28.6631951, "longitude": 77.20308639999999, "maps_url": "https://www.google.com/maps/search/?api=1&query=Iraitech%20%7C%20Software%20Development%20Company&query_place_id=ChIJO4sr49IDDTkRALZaeWsr-oI"}, {"place_id": "ChIJ8bD3oe-1bTkRhQOwVrfg-vw", "name": "One Aim IT Solutions", "street": "2/41/2 , 1st Floor, Sadar Bazar , Moradabad Pahari ,TO.Delhi Cantt, Distt:, South West, New Delhi, Delhi 110006, India", "phone": "+91 89552 49714", "rating": "5", "review_count": "", "website": "https://theoneaim.in/", "latitude": 28.6580968, "longitude": 77.2124735, "maps_url": "https://www.google.com/maps/search/?api=1&query=One%20Aim%20IT%20Solutions&query_place_id=ChIJ8bD3oe-1bTkRhQOwVrfg-vw"}, {"place_id": "ChIJNzRaf2T9DDkRPx69DX1Kb70", "name": "Ilkway Digital Company", "street": "217 Street 7, Joshi Rd, Block 16, Karol Bagh, New Delhi, Delhi, 110005, India", "phone": "+91 97111 15851", "rating": "4.9", "review_count": "", "website": "", "latitude": 28.653082299999998, "longitude": 77.20043059999999, "maps_url": "https://www.google.com/maps/search/?api=1&query=Ilkway%20Digital%20Company&query_place_id=ChIJNzRaf2T9DDkRPx69DX1Kb70"}, {"place_id": "ChIJQZpy1WT9DDkR8I56DgKSZY8", "name": "Madaan Pen Co.", "street": "8744, Ist Floor, Central, Sidipura, Karol Bagh, New Delhi, Delhi, 110005, India", "phone": "+91 98992 71727", "rating": "4", "review_count": "", "website": "", "latitude": 28.6562198, "longitude": 77.2031535, "maps_url": "https://www.google.com/maps/search/?api=1&query=Madaan%20Pen%20Co.&query_place_id=ChIJQZpy1WT9DDkR8I56DgKSZY8"}, {"place_id": "ChIJb5jN_Hr9DDkR0BjOu2rK6OY", "name": "UNIQUE ADD SYSTEMS", "street": "8358, 1st Floor, L.R House Model Basti, Maharaja Agrasem Marg, near Filmistan Cinema, New Delhi, Delhi 110006, India", "phone": "+91 99105 09674", "rating": "5", "review_count": "", "website": "", "latitude": 28.658334699999997, "longitude": 77.2043377, "maps_url": "https://www.google.com/maps/search/?api=1&query=UNIQUE%20ADD%20SYSTEMS&query_place_id=ChIJb5jN_Hr9DDkR0BjOu2rK6OY"}, {"place_id": "ChIJuWskegkDDTkRSafi6i1BF40", "name": "Whitevision OPC Private Limited", "street": "8840/14 Shidi Pura Raja lane, New Rohtak Rd, Karol Bagh, Delhi 110005, India", "phone": "+91 89296 96227", "rating": "4.9", "review_count": "", "website": "http://www.whitevision.org.in/", "latitude": 28.655195, "longitude": 77.20140479999999, "maps_url": "https://www.google.com/maps/search/?api=1&query=Whitevision%20OPC%20Private%20Limited&query_place_id=ChIJuWskegkDDTkRSafi6i1BF40"}, {"place_id": "ChIJx1ToU-T9DDkRcJ2byevE3CE", "name": "PreeDex Softwares LLP", "street": "Ground Floor, 5993, Nawab Rd, Basti Harphool Singh, Ahata Kidara, Sadar Bazaar, Delhi, 110006, India", "phone": "+91 99105 56876", "rating": "5", "review_count": "", "website": "http://www.preedex.com/", "latitude": 28.6560934, "longitude": 77.2102938, "maps_url": "https://www.google.com/maps/search/?api=1&query=PreeDex%20Softwares%20LLP&query_place_id=ChIJx1ToU-T9DDkRcJ2byevE3CE"}, {"place_id": "ChIJX6wveBH9DDkRdlgL1cJt1u8", "name": "MatrixEnterprises (Matrix e Store)", "street": "T-508, 2nd Floor, Chemlian Road, Md. Ismail Marg, near Fire Station Bullding, Sadar Bazaar, New Delhi, Delhi 110006, India", "phone": "+91 98918 64086", "rating": "4.6", "review_count": "", "website": "http://matrixestore.blogspot.com/2025/08/matrixestore-best-laptop-sale-service.html", "latitude": 28.656912199999997, "longitude": 77.20494, "maps_url": "https://www.google.com/maps/search/?api=1&query=MatrixEnterprises%20%28Matrix%20e%20Store%29&query_place_id=ChIJX6wveBH9DDkRdlgL1cJt1u8"}, {"place_id": "ChIJy7DDiosDDTkRPkiXRAOvmGQ", "name": "FUTURE ENERGY", "street": "2C, 19, New Rohtak Rd, Block 57, Karol Bagh, New Delhi, Delhi, 110005, India", "phone": "+91 98719 67776", "rating": "4.7", "review_count": "", "website": "http://futureenergy.co.in/", "latitude": 28.6547368, "longitude": 77.1996736, "maps_url": "https://www.google.com/maps/search/?api=1&query=FUTURE%20ENERGY&query_place_id=ChIJy7DDiosDDTkRPkiXRAOvmGQ"}, {"place_id": "ChIJAVT8KWX9DDkR8x-drnabzF8", "name": "Regal Enterprises", "street": "8744/4, Sidipura, Karol Bagh, New Delhi, Delhi, 110005, India", "phone": "+91 11 4567 8243", "rating": "4.3", "review_count": "", "website": "http://regalpaperproducts.com/", "latitude": 28.656124, "longitude": 77.2033702, "maps_url": "https://www.google.com/maps/search/?api=1&query=Regal%20Enterprises&query_place_id=ChIJAVT8KWX9DDkR8x-drnabzF8"}, {"place_id": "ChIJKxG8fhn9DDkRl9APQDrFRsc", "name": "Sharp Trading Co.", "street": "8733/14B, Sidipura, Karol Bagh, New Delhi, Delhi, 110005, India", "phone": "+91 88609 00921", "rating": "4.6", "review_count": "", "website": "http://www.indiamart.com/sharptradingco/", "latitude": 28.656406999999998, "longitude": 77.2028421, "maps_url": "https://www.google.com/maps/search/?api=1&query=Sharp%20Trading%20Co.&query_place_id=ChIJKxG8fhn9DDkRl9APQDrFRsc"}, {"place_id": "ChIJVVVVVRQCDTkRz7t2p8IYAkg", "name": "N. Kumar & Co", "street": "113, behind Filmistan Cinema, Model Basti, Delhi, New Delhi, Delhi 110006, India", "phone": "+91 98917 12501", "rating": "4.9", "review_count": "", "website": "https://nkumarlinen.com/", "latitude": 28.658096, "longitude": 77.2043853, "maps_url": "https://www.google.com/maps/search/?api=1&query=N.%20Kumar%20%26%20Co&query_place_id=ChIJVVVVVRQCDTkRz7t2p8IYAkg"}, {"place_id": "ChIJU427Z5b9DDkRyRJSrIGGDcc", "name": "Three brothers A Giftco Export Company", "street": "14B, 8905, Sidipura, Karol Bagh, New Delhi, Delhi, 110005, India", "phone": "+91 83839 60760", "rating": "5", "review_count": "", "website": "https://www.threebrothers.in/", "latitude": 28.6560879, "longitude": 77.2022466, "maps_url": "https://www.google.com/maps/search/?api=1&query=Three%20brothers%20A%20Giftco%20Export%20Company&query_place_id=ChIJU427Z5b9DDkRyRJSrIGGDcc"}, {"place_id": "ChIJpw78cODjDDkRAhGCVewrIA8", "name": "Wholesale Corporate Gifts - Corporate Gifting Company in Delhi | Corporate Gifts in Delhi", "street": "Fiestar , B-13 IN 82(Basement), Lane No.3, Main Joshi Road Abinash Mansion Compl, near Woodland showroom, Karol Bagh, New Delhi, Delhi 110005, India", "phone": "+91 99585 50999", "rating": "4.8", "review_count": "", "website": "http://www.fiestar.in/", "latitude": 28.6536354, "longitude": 77.200834, "maps_url": "https://www.google.com/maps/search/?api=1&query=Wholesale%20Corporate%20Gifts%20-%20Corporate%20Gifting%20Company%20in%20Delhi%20%7C%20Corporate%20Gifts%20in%20Delhi&query_place_id=ChIJpw78cODjDDkRAhGCVewrIA8"}, {"place_id": "ChIJp3px37T9DDkRAo_kRoKeOAs", "name": "Jain Wool Company", "street": "2nd Floor, Bartan Market, 533, Sadar Bazaar, Delhi, 110006, India", "phone": "+91 99994 44705", "rating": "4.9", "review_count": "", "website": "", "latitude": 28.6585105, "longitude": 77.21273049999999, "maps_url": "https://www.google.com/maps/search/?api=1&query=Jain%20Wool%20Company&query_place_id=ChIJp3px37T9DDkRAo_kRoKeOAs"}, {"place_id": "ChIJvyJOr079DDkR9ukceyLcuMQ", "name": "Manish plastics", "street": "8900/14b, Market, Sidipura, Karol Bagh, New Delhi, Delhi, 110005, India", "phone": "+91 84471 11370", "rating": "4.8", "review_count": "", "website": "http://www.manishplastics.com/", "latitude": 28.6563202, "longitude": 77.20218349999999, "maps_url": "https://www.google.com/maps/search/?api=1&query=Manish%20plastics&query_place_id=ChIJvyJOr079DDkR9ukceyLcuMQ"}, {"place_id": "ChIJB5o0B3L9DDkRrsWQdWJNUyA", "name": "Pk Lift Elevators", "street": "House Number 575, Ambedkar Dharamshala, Street No 2, Green Market, Pahari Dhiraj, Maidan Garhi, New Delhi, Delhi, 110006, India", "phone": "+91 99110 66870", "rating": "5", "review_count": "", "website": "https://www.pkliftelevators.co.in/", "latitude": 28.657377999999998, "longitude": 77.2121398, "maps_url": "https://www.google.com/maps/search/?api=1&query=Pk%20Lift%20Elevators&query_place_id=ChIJB5o0B3L9DDkRrsWQdWJNUyA"}, {"place_id": "ChIJLSYpyUn9DDkR6qgeeusxh7s", "name": "SIGMA CORP INDIA", "street": "5554, Sadar Thana Rd, Basti Harphool Singh, Ahata Kidara, Sadar Bazaar, Delhi, 110006, India", "phone": "+91 76785 77494", "rating": "", "review_count": "", "website": "", "latitude": 28.6548746, "longitude": 77.2104634, "maps_url": "https://www.google.com/maps/search/?api=1&query=SIGMA%20CORP%20INDIA&query_place_id=ChIJLSYpyUn9DDkR6qgeeusxh7s"}, {"place_id": "ChIJuyBnjmP9DDkRRLDNseKIcas", "name": "Alpha Advertising co.", "street": "Plot No 1, Abhinash Mansion, Main, Joshi Rd, Karol Bagh, New Delhi, Delhi 110005, India", "phone": "+91 98110 85386", "rating": "5", "review_count": "", "website": "https://www.alphaadvertising.co.in/", "latitude": 28.653791299999998, "longitude": 77.2010801, "maps_url": "https://www.google.com/maps/search/?api=1&query=Alpha%20Advertising%20co.&query_place_id=ChIJuyBnjmP9DDkRRLDNseKIcas"}, {"place_id": "ChIJf4qFUmP9DDkRVGIVYxUrxNE", "name": "T-Shirt Manufacturer Company India", "street": "T-180, kabristan Wali gali, near filmistan, Model Basti, Kishan Ganj, Delhi, 110005, India", "phone": "+91 81301 19564", "rating": "5", "review_count": "", "website": "https://tshirts.ashg.co.in/", "latitude": 28.6576466, "longitude": 77.2029697, "maps_url": "https://www.google.com/maps/search/?api=1&query=T-Shirt%20Manufacturer%20Company%20India&query_place_id=ChIJf4qFUmP9DDkRVGIVYxUrxNE"}, {"place_id": "ChIJpTU4Pdr9DDkRkrAixOTFuhg", "name": "Bag Manufacturers Delhi", "street": "Narain Market, Sadar Bazaar, New Delhi, Delhi, 110006, India", "phone": "", "rating": "5", "review_count": "", "website": "", "latitude": 28.6585105, "longitude": 77.21273049999999, "maps_url": "https://www.google.com/maps/search/?api=1&query=Bag%20Manufacturers%20Delhi&query_place_id=ChIJpTU4Pdr9DDkRkrAixOTFuhg"}, {"place_id": "ChIJ6750cE0uXIgRPpj00kno5DA", "name": "The IT Company", "street": "16 Emory Pl STE 100, Knoxville, TN 37917", "phone": "(865) 392-9200", "rating": "4.8", "review_count": "", "website": "https://theitcompany.com/?utm_source=google&utm_medium=organic&utm_campaign=Google+Business+Profile", "latitude": 35.974151899999995, "longitude": -83.922608, "maps_url": "https://www.google.com/maps/search/?api=1&query=The%20IT%20Company&query_place_id=ChIJ6750cE0uXIgRPpj00kno5DA"}, {"place_id": "ChIJ_z7XofL9DDkRY1Rp0_L7Xf0", "name": "M.A. DOCUMENTATIONS", "street": "7640, MUNSHI ABDUL RAHIM STRRET, Quresh Nagar, Sadar Bazaar, Delhi, 110006, India", "phone": "+91 85870 70565", "rating": "5", "review_count": "", "website": "", "latitude": 28.656781499999997, "longitude": 77.20961249999999, "maps_url": "https://www.google.com/maps/search/?api=1&query=M.A.%20DOCUMENTATIONS&query_place_id=ChIJ_z7XofL9DDkRY1Rp0_L7Xf0"}, {"place_id": "ChIJg19ahsr9DDkRS_S0zoqbo-8", "name": "MF WORLD INDUSTRIES", "street": "8131 Ground Floor, chimni mill, Gali No. 2, near filmistan, Bara Hindu Rao, Sadar Bazaar, Delhi, 110006, India", "phone": "+91 70115 22463", "rating": "5", "review_count": "", "website": "http://www.mfworldindustries.business.site/", "latitude": 28.6599787, "longitude": 77.2037484, "maps_url": "https://www.google.com/maps/search/?api=1&query=MF%20WORLD%20INDUSTRIES&query_place_id=ChIJg19ahsr9DDkRS_S0zoqbo-8"}, {"place_id": "ChIJY9AqDQD9DDkRLjFx8INIS80", "name": "URFA ENTERPRISES", "street": "6242, North Dr, Bara Hindu Rao, Sadar Bazaar, New Delhi, Delhi, 110006, India", "phone": "", "rating": "5", "review_count": "", "website": "", "latitude": 28.658534799999998, "longitude": 77.2076641, "maps_url": "https://www.google.com/maps/search/?api=1&query=URFA%20ENTERPRISES&query_place_id=ChIJY9AqDQD9DDkRLjFx8INIS80"}, {"place_id": "ChIJm-6KXMiAj4ARIOUJIrNg2ys", "name": "Intelligent Technical Solutions", "street": "5427 Telegraph Ave unit p, Oakland, CA 94609", "phone": "(415) 213-2285", "rating": "5", "review_count": "", "website": "https://www.itsasap.com/its-oakland", "latitude": 37.839716599999996, "longitude": -122.2623776, "maps_url": "https://www.google.com/maps/search/?api=1&query=Intelligent%20Technical%20Solutions&query_place_id=ChIJm-6KXMiAj4ARIOUJIrNg2ys"}, {"place_id": "ChIJczYqhA39DDkROQF7Uyu8sW4", "name": "SDA Digital Marketing Services", "street": "First Floor, 4837, Chowk, Ahata Kidara Rd, Bara Hindu Rao, Delhi, 110006, India", "phone": "+91 99105 58244", "rating": "4.9", "review_count": "", "website": "https://syeddanishali.com/", "latitude": 28.6593226, "longitude": 77.2067795, "maps_url": "https://www.google.com/maps/search/?api=1&query=SDA%20Digital%20Marketing%20Services&query_place_id=ChIJczYqhA39DDkROQF7Uyu8sW4"}, {"place_id": "ChIJM9r7u0r9DDkRiUvt7zjjpRM", "name": "IT Executive vivek", "street": "22, Vijay Ghat, Raj Ghat, New Delhi, Delhi, 110006, India", "phone": "", "rating": "", "review_count": "", "website": "https://itexecuitive.com/", "latitude": 28.6584512, "longitude": 77.2449233, "maps_url": "https://www.google.com/maps/search/?api=1&query=IT%20Executive%20vivek&query_place_id=ChIJM9r7u0r9DDkRiUvt7zjjpRM"}, {"place_id": "ChIJM2lrRAr9DDkRBGxfhUKxSW4", "name": "Matrix India Cap", "street": "8200, chimni mill, Bara Hindu Rao, Sadar Bazaar, Delhi, 110006, India", "phone": "", "rating": "5", "review_count": "", "website": "", "latitude": 28.659967599999998, "longitude": 77.2040401, "maps_url": "https://www.google.com/maps/search/?api=1&query=Matrix%20India%20Cap&query_place_id=ChIJM2lrRAr9DDkRBGxfhUKxSW4"}]