{"timestamp": 1773731472.464531, "keyword": "IT company", "location": "delhi", "cell_idx": 441, "results": [{"place_id": "0x390ce458d0000001:0xf2123bd299ec4501", "name": "IT Company India", "category": "Software company", "street": "D56", "city": "D Block, Sector 10", "phone": "09999244854", "website": "https://www.itcompanyindia.in/", "rating": 4.7, "review_count": "", "latitude": 28.589917699999997, "longitude": 77.3351153, "maps_url": "https://www.google.com/maps/place/?q=place_id:0x390ce458d0000001:0xf2123bd299ec4501"}, {"place_id": "0x46d12742e05e473:0x5264b13ac6fcef02", "name": "Info Tech India", "category": "Software company", "street": "KAILASH BUILDING", "city": "1212, KG Marg", "phone": "", "website": "https://infotechindia.in/", "rating": 5, "review_count": "", "latitude": 28.629473299999997, "longitude": 77.22220159999999, "maps_url": "https://www.google.com/maps/place/?q=place_id:0x46d12742e05e473:0x5264b13ac6fcef02"}, {"place_id": "0x390ce3c153b89811:0xe7a279685777e9ca", "name": "IT Company", "category": "Automation company", "street": "A-14", "city": "near iskcon temple", "phone": "", "website": "http://www.opuswiz.com/", "rating": 3, "review_count": "", "latitude": 28.557167, "longitude": 77.25424819999999, "maps_url": "https://www.google.com/maps/place/?q=place_id:0x390ce3c153b89811:0xe7a279685777e9ca"}, {"place_id": "0x390ce1597b5509e5:0xfd8209b937b44d3c", "name": "IT Solutions India Private Limited", "category": "Software company", "street": "D-88/5", "city": "Pocket D, Okhla Phase I, Okhla Industrial Estate", "phone": "09810017429", "website": "https://www.itsipl.com/", "rating": 4.2, "review_count": "", "latitude": 28.520146, "longitude": 77.280431, "maps_url": "https://www.google.com/maps/place/?q=place_id:0x390ce1597b5509e5:0xfd8209b937b44d3c"}, {"place_id": "0x390cfd36df0d730b:0xd425c6f106d9cf8", "name": "I. T. Solutions", "category": "Software company", "street": "Gate No. 8", "city": "A-6, 1st Floor, Inner Circle, Above Post office", "phone": "01141523242", "website": "http://www.itsolutioncp.com/", "rating": 4.9, "review_count": "", "latitude": 28.6324367, "longitude": 77.2183441, "maps_url": "https://www.google.com/maps/place/?q=place_id:0x390cfd36df0d730b:0xd425c6f106d9cf8"}, {"place_id": "0x390d03d2e32b8b3b:0x82fa2b6b795ab600", "name": "Iraitech | Software Development Company", "category": "Software company", "street": "Central Square Complex 3, Unit No-1051, 1st Floor, Near Filmistan, DCM chowk", "city": "Bara Hindu Rao, Kishan Ganj", "phone": "08130104108", "website": "https://www.iraitech.com/", "rating": 4.1, "review_count": "", "latitude": 28.6631951, "longitude": 77.20308639999999, "maps_url": "https://www.google.com/maps/place/?q=place_id:0x390d03d2e32b8b3b:0x82fa2b6b795ab600"}, {"place_id": "0x390d1d86a4f12173:0x3a6b42ea6f4b8260", "name": "Softvanz Technologies Private Limited", "category": "Software company", "street": "Somdutt Chamber 1", "city": "BT-22/9", "phone": "", "website": "https://softvanz.com/", "rating": 5, "review_count": "", "latitude": 28.567948899999998, "longitude": 77.1889269, "maps_url": "https://www.google.com/maps/place/?q=place_id:0x390d1d86a4f12173:0x3a6b42ea6f4b8260"}, {"place_id": "0x390d1d84709c66e7:0xb821a251a16fae09", "name": "IT Works @ Siyaram", "category": "Software company", "street": "404", "city": "BHIKAJI CAMA PLACE", "phone": "01143178782", "website": "http://www.garruda.co.in/", "rating": 4.8, "review_count": "", "latitude": 28.567508399999998, "longitude": 77.18817349999999, "maps_url": "https://www.google.com/maps/place/?q=place_id:0x390d1d84709c66e7:0xb821a251a16fae09"}, {"place_id": "0x390ce2e52043e633:0x3ed44d79ea4bd91c", "name": "Wirecto", "category": "Software company", "street": "Triloki Colony", "city": "C-49", "phone": "09716670074", "website": "https://wirecto.app/", "rating": 5, "review_count": "", "latitude": 28.575404799999998, "longitude": 77.2250054, "maps_url": "https://www.google.com/maps/place/?q=place_id:0x390ce2e52043e633:0x3ed44d79ea4bd91c"}, {"place_id": "0x390cfd4b1d3ba695:0xb16c2090d9df4e5c", "name": "Infocera IT", "category": "Software company", "street": "First Floor", "city": "Block-L", "phone": "", "website": "https://infocera.in/", "rating": 4.7, "review_count": "", "latitude": 28.634275499999998, "longitude": 77.2217273, "maps_url": "https://www.google.com/maps/place/?q=place_id:0x390cfd4b1d3ba695:0xb16c2090d9df4e5c"}, {"place_id": "0x390d02994de5e515:0xd908bc03409a0d37", "name": "Himalayan IT Solutions | Best Website Designing Company in Delhi | SEO/Digital Marketing Company in Delhi NCR, India", "category": "Software company", "street": "61/4255, Padam Singh Rd", "city": "Block 29, Block 1, Regar Pura, Karol Bagh", "phone": "09899098509", "website": "http://www.himalayanitsolutions.com/", "rating": 3.9, "review_count": "", "latitude": 28.649673999999997, "longitude": 77.186599, "maps_url": "https://www.google.com/maps/place/?q=place_id:0x390d02994de5e515:0xd908bc03409a0d37"}, {"place_id": "0x390cfd036e191a13:0x7161661be3c6477", "name": "Posistrength Software Solution Pvt.Ltd.", "category": "Software company", "street": "Workingdom,E-13/29, First Floor", "city": "Harsha Bhawan", "phone": "08983205821", "website": "https://www.posistrength.com/", "rating": 4.9, "review_count": "", "latitude": 28.6326204, "longitude": 77.22187869999999, "maps_url": "https://www.google.com/maps/place/?q=place_id:0x390cfd036e191a13:0x7161661be3c6477"}, {"place_id": "0x390cfcac5aaaaaed:0xa20ab2e7b400180", "name": "\ud835\udc68\ud835\udc76 \ud835\udc7a\ud835\udc90\ud835\udc87\ud835\udc95\ud835\udc98\ud835\udc82\ud835\udc93\ud835\udc86 \ud835\udc7a\ud835\udc90\ud835\udc8d\ud835\udc96\ud835\udc95\ud835\udc8a\ud835\udc90\ud835\udc8f Website Designing company-website development company-product promotion and ERP development company", "category": "Software company", "street": "1B", "city": "S-505", "phone": "01142603444", "website": "https://aosoftwaresolution.com/", "rating": 4.8, "review_count": "", "latitude": 28.6287195, "longitude": 77.2766171, "maps_url": "https://www.google.com/maps/place/?q=place_id:0x390cfcac5aaaaaed:0xa20ab2e7b400180"}, {"place_id": "0x390ce3c7b85554e5:0x34e439c15e247631", "name": "HAUT IT Solutions Pvt. Ltd", "category": "Software company", "street": "390", "city": "Sant Nagar, East of Kailash", "phone": "09934753003", "website": "http://www.hautitsolutions.com/", "rating": 4.3, "review_count": "", "latitude": 28.554910099999997, "longitude": 77.25111249999999, "maps_url": "https://www.google.com/maps/place/?q=place_id:0x390ce3c7b85554e5:0x34e439c15e247631"}, {"place_id": "0x390ce5fdcc79e755:0x309ce99251b84ef6", "name": "Optyminds IT Solutions - Top AI and IT company I Best Digital agency in Noida | Delhi NCR | India", "category": "Software company", "street": "1st Floor", "city": "B-70", "phone": "08929075975", "website": "https://optyminds.com/", "rating": 4.9, "review_count": "", "latitude": 28.584679599999998, "longitude": 77.3135042, "maps_url": "https://www.google.com/maps/place/?q=place_id:0x390ce5fdcc79e755:0x309ce99251b84ef6"}, {"place_id": "0x390cfd554ee63851:0xea2adb2e36e4ce16", "name": "Globe Alley Tech. - Software Development Company", "category": "Software company", "street": "J6JG+6RW", "city": "119", "phone": "09910710140", "website": "http://globealley.us/", "rating": 4.9, "review_count": "", "latitude": 28.6306084, "longitude": 77.22708829999999, "maps_url": "https://www.google.com/maps/place/?q=place_id:0x390cfd554ee63851:0xea2adb2e36e4ce16"}, {"place_id": "0x390ce40fadd91f5f:0xa4f54ec4626d7b8b", "name": "Techpertz IT Solutions", "category": "Software company", "street": "2nd Floor", "city": "Aman Apartment", "phone": "09958894786", "website": "https://techpertz.com/", "rating": 5, "review_count": "", "latitude": 28.5527172, "longitude": 77.2979446, "maps_url": "https://www.google.com/maps/place/?q=place_id:0x390ce40fadd91f5f:0xa4f54ec4626d7b8b"}, {"place_id": "0x2a72b8b69d7b6493:0x11251466d4d34cac", "name": "WebZonal IT Company", "category": "Website designer", "street": "Wz-258/2-3, D Block Rd", "city": "Khazan Basti, Nangal Raya, Janakpuri", "phone": "09811170903", "website": "http://webzonal.com/", "rating": 5, "review_count": "", "latitude": 28.6122102, "longitude": 77.11159549999999, "maps_url": "https://www.google.com/maps/place/?q=place_id:0x2a72b8b69d7b6493:0x11251466d4d34cac"}, {"place_id": "0x390d165555555555:0xf57c20f7d07d8fd1", "name": "Teckinfo Solutions Pvt Ltd", "category": "Software company", "street": "1/1 BA, 3rd Floor, Mohammadpur,", "city": "Bhikaji Cama Place", "phone": "01149605500", "website": "https://www.teckinfo.com/", "rating": 4.6, "review_count": "", "latitude": 28.566004099999997, "longitude": 77.187579, "maps_url": "https://www.google.com/maps/place/?q=place_id:0x390d165555555555:0xf57c20f7d07d8fd1"}, {"place_id": "0x390ce161ceec9d85:0x952e8b11295dfe85", "name": "HYBEC IT SOLUTION", "category": "Software company", "street": "National Small Industries Corporation", "city": "Block F, Okhla Phase III, Okhla Industrial Estate", "phone": "01149128591", "website": "http://www.hybecitsolutions.com/", "rating": 4.8, "review_count": "", "latitude": 28.5490569, "longitude": 77.2674236, "maps_url": "https://www.google.com/maps/place/?q=place_id:0x390ce161ceec9d85:0x952e8b11295dfe85"}, {"place_id": "0x390ce3094f4a9af1:0xdc21c66946b829ad", "name": "BAUDHYANTRAM IT Solutions | Website Designing | Web Development | Software Company in Delhi", "category": "Software company", "street": "H82 2nd Floor", "city": "opposite Bengali Sweet Center", "phone": "07900899996", "website": "http://www.baudhyantram.in/", "rating": 4.8, "review_count": "", "latitude": 28.5695803, "longitude": 77.221047, "maps_url": "https://www.google.com/maps/place/?q=place_id:0x390ce3094f4a9af1:0xdc21c66946b829ad"}, {"place_id": "0x390d1daf5bbb6d71:0xd493e8d457a28388", "name": "DPM IT SOLUTIONS", "category": "Software company", "street": "2nd floor, madangiri", "city": "111, E-2", "phone": "09650413450", "website": "https://dpmitsolutions.com/", "rating": 5, "review_count": "", "latitude": 28.565620799999998, "longitude": 77.16005679999999, "maps_url": "https://www.google.com/maps/place/?q=place_id:0x390d1daf5bbb6d71:0xd493e8d457a28388"}, {"place_id": "0x390d1d9ce0eaada3:0xc5a1a0a2458099e3", "name": "CODENCREATIVE TECH PVT LTD", "category": "Software company", "street": "DDA Flat", "city": "RBI Officers Colony, Vasant Vihar", "phone": "09717047610", "website": "https://codencreative.com/", "rating": 4.9, "review_count": "", "latitude": 28.563302099999998, "longitude": 77.1519732, "maps_url": "https://www.google.com/maps/place/?q=place_id:0x390d1d9ce0eaada3:0xc5a1a0a2458099e3"}, {"place_id": "0x390cfdc8ba7736bb:0x3794c63e43750fe5", "name": "Busy Infotech Pvt. Ltd.", "category": "Software company", "street": "3, Rani Jhansi Rd", "city": "Block E 4, Jhandewalan Extension, Karol Bagh", "phone": "01140964096", "website": "https://busy.in/", "rating": 4.6, "review_count": "", "latitude": 28.6454408, "longitude": 77.2042627, "maps_url": "https://www.google.com/maps/place/?q=place_id:0x390cfdc8ba7736bb:0x3794c63e43750fe5"}, {"place_id": "0x390ce1fb44618b65:0x8e06b2a6128352d1", "name": "Acropolis Infotech - Delhi Office", "category": "Software company", "street": "metro station gate", "city": "55, 2nd Floor, Lane 2", "phone": "09999876593", "website": "https://www.acropolisinfotech.com/", "rating": 4.6, "review_count": "", "latitude": 28.518907, "longitude": 77.2015435, "maps_url": "https://www.google.com/maps/place/?q=place_id:0x390ce1fb44618b65:0x8e06b2a6128352d1"}, {"place_id": "0x390d029a60a72d25:0x45441d38cea092f1", "name": "Payroll Software Companies", "category": "Software company", "street": "4/28, Ground Floor", "city": "Saraswati Marg", "phone": "09711195490", "website": "", "rating": 4.3, "review_count": "", "latitude": 28.6484551, "longitude": 77.1875826, "maps_url": "https://www.google.com/maps/place/?q=place_id:0x390d029a60a72d25:0x45441d38cea092f1"}, {"place_id": "0x390ce53481761be1:0x1aafac47f908e48e", "name": "SoftiCation Technology Pvt. Ltd.", "category": "Software company", "street": "Vipin Houese", "city": "A-20", "phone": "", "website": "https://www.softication.com/", "rating": 4.8, "review_count": "", "latitude": 28.636336399999998, "longitude": 77.284949, "maps_url": "https://www.google.com/maps/place/?q=place_id:0x390ce53481761be1:0x1aafac47f908e48e"}, {"place_id": "0x390ce3b48e27a563:0x4ec8ae3c524366b", "name": "iSOFT INDIA TECHNOLOGIES", "category": "Software company", "street": "E-168|169, Amar Colony, Lajpat Nagar", "city": "New Delhi, Delhi 110024", "phone": "09717978320", "website": "", "rating": 4.9, "review_count": "", "latitude": 28.5657368, "longitude": 77.23946029999999, "maps_url": "https://www.google.com/maps/place/?q=place_id:0x390ce3b48e27a563:0x4ec8ae3c524366b"}, {"place_id": "0x390ce25e81555555:0xf93f773552127f47", "name": "SANEKT SOFTWARE SOLUTION", "category": "Software company", "street": "Top floor", "city": "H 11", "phone": "01141589565", "website": "http://sanekt.com/", "rating": 5, "review_count": "", "latitude": 28.571361, "longitude": 77.221733, "maps_url": "https://www.google.com/maps/place/?q=place_id:0x390ce25e81555555:0xf93f773552127f47"}, {"place_id": "0x390cfd35391deb71:0xdbdd1388c7dc51b6", "name": "Jak Software Pvt Ltd", "category": "Software company", "street": "52 Janpath", "city": "New Delhi, Delhi 110001", "phone": "07827249056", "website": "http://www.jaksoftware.co.in/", "rating": 4.4, "review_count": "", "latitude": 28.627537999999998, "longitude": 77.21878989999999, "maps_url": "https://www.google.com/maps/place/?q=place_id:0x390cfd35391deb71:0xdbdd1388c7dc51b6"}, {"place_id": "0x390d03adaef37299:0xd8b343093deaee7", "name": "Ruminate IT Solution | Best software company in Delhi NCR | IT Software company", "category": "Software company", "street": "C-64", "city": "Pocket B, Hari Nagar", "phone": "09625650376", "website": "https://www.ruminateitsolution.com/", "rating": 5, "review_count": "", "latitude": 28.628819, "longitude": 77.10428399999999, "maps_url": "https://www.google.com/maps/place/?q=place_id:0x390d03adaef37299:0xd8b343093deaee7"}, {"place_id": "0x390cfd36664c4e63:0xcce34350707b204e", "name": "DataSlexIndia | On-Demand Software Development Company", "category": "Software company", "street": "210,211,212 BMC House, N1", "city": "Middle Cir", "phone": "01124845172", "website": "https://dataslexindia.com/", "rating": 5, "review_count": "", "latitude": 28.630570499999997, "longitude": 77.2198088, "maps_url": "https://www.google.com/maps/place/?q=place_id:0x390cfd36664c4e63:0xcce34350707b204e"}, {"place_id": "0x4ebf586dbe4d7c09:0x968455c83bf5226c", "name": "Anchor IT Solutions- App Development | Website Development | Digital Marketing", "category": "Software company", "street": "4", "city": "Vinoba Puri, Lajpat Nagar II, Lajpat Nagar", "phone": "07678658584", "website": "", "rating": 4.8, "review_count": "", "latitude": 28.566371399999998, "longitude": 77.2486924, "maps_url": "https://www.google.com/maps/place/?q=place_id:0x4ebf586dbe4d7c09:0x968455c83bf5226c"}, {"place_id": "0x390cfc7f7271ed19:0x6aff6965beeaba2e", "name": "Web Development Company in Delhi | EVG Software Solutions", "category": "Software company", "street": "D-247 / 4A", "city": "Mandawali", "phone": "09899996058", "website": "http://evgsoftware.in/", "rating": 4.3, "review_count": "", "latitude": 28.629258699999998, "longitude": 77.2900343, "maps_url": "https://www.google.com/maps/place/?q=place_id:0x390cfc7f7271ed19:0x6aff6965beeaba2e"}, {"place_id": "0x390ce44609d8fd9b:0x9c680f27679610f6", "name": "Crestech Software", "category": "Software company", "street": "Plot No. D, Vyapar Marg", "city": "D Block, Sector 2", "phone": "08826666755", "website": "https://www.crestechsoftware.com/", "rating": 3.6, "review_count": "", "latitude": 28.5836924, "longitude": 77.3166213, "maps_url": "https://www.google.com/maps/place/?q=place_id:0x390ce44609d8fd9b:0x9c680f27679610f6"}, {"place_id": "0x390ce3a1fa7275f1:0x2c792339bc369536", "name": "Ezeetech Solutions", "category": "Software company", "street": "149-A, 1st Floor", "city": "Baba House Complex", "phone": "01149901562", "website": "https://ezeetechonline.com/", "rating": 4.9, "review_count": "", "latitude": 28.576534199999998, "longitude": 77.26283029999999, "maps_url": "https://www.google.com/maps/place/?q=place_id:0x390ce3a1fa7275f1:0x2c792339bc369536"}, {"place_id": "0x390ce3512b42e945:0xe8ce9b06e1651251", "name": "Instant IT services - Best Hardware & Software Related Services", "category": "Software company", "street": "koli camp", "city": "69B", "phone": "09804836325", "website": "", "rating": 4.7, "review_count": "", "latitude": 28.5758728, "longitude": 77.2565554, "maps_url": "https://www.google.com/maps/place/?q=place_id:0x390ce3512b42e945:0xe8ce9b06e1651251"}, {"place_id": "0x390ce26dc4d4ba2d:0x9486a6d620e379f9", "name": "Akal Information Systems Ltd.", "category": "Software company", "street": "Tower J, World Trade Center", "city": "103", "phone": "01146503545", "website": "https://www.akalinfo.com/", "rating": 3.9, "review_count": "", "latitude": 28.567935499999997, "longitude": 77.1923202, "maps_url": "https://www.google.com/maps/place/?q=place_id:0x390ce26dc4d4ba2d:0x9486a6d620e379f9"}, {"place_id": "0x390ce3a2021e9897:0x28bf52d36a7d0c19", "name": "It Softtech - Website Designing and Development Company in Delhi, India", "category": "Internet marketing service", "street": "149, Ring Rd", "city": "opp. Maharani Bagh", "phone": "09810056177", "website": "", "rating": 5, "review_count": "", "latitude": 28.5763395, "longitude": 77.2640869, "maps_url": "https://www.google.com/maps/place/?q=place_id:0x390ce3a2021e9897:0x28bf52d36a7d0c19"}, {"place_id": "0x390ce3003fffffe3:0x1dd892a28603e769", "name": "Corporate Infotech Pvt Ltd.", "category": "Software company", "street": "E-81", "city": "E Block, Sector 6", "phone": "1800116474", "website": "https://cipl.org.in/", "rating": 4.4, "review_count": "", "latitude": 28.5937284, "longitude": 77.3206974, "maps_url": "https://www.google.com/maps/place/?q=place_id:0x390ce3003fffffe3:0x1dd892a28603e769"}, {"place_id": "0x390feda4c4f56aed:0x2277b287e38fc0ec", "name": "Dizivan IT Solutions Pvt Ltd- App Development & Digital Marketing Company", "category": "Software company", "street": "near Metro Station New Ashok Nagar", "city": "Block B, New Ashok Nagar", "phone": "09142092979", "website": "https://dizivan.com/", "rating": 5, "review_count": "", "latitude": 28.5891575, "longitude": 77.3020624, "maps_url": "https://www.google.com/maps/place/?q=place_id:0x390feda4c4f56aed:0x2277b287e38fc0ec"}, {"place_id": "0x390ce5930c12de01:0xca5c41ecbc6f94d0", "name": "Techasoft", "category": "Software company", "street": "Thokar No-5", "city": "K-108", "phone": "08884739988", "website": "https://www.techasoft.com/", "rating": 5, "review_count": "", "latitude": 28.552426999999998, "longitude": 77.2985145, "maps_url": "https://www.google.com/maps/place/?q=place_id:0x390ce5930c12de01:0xca5c41ecbc6f94d0"}, {"place_id": "0x390cfcab7a13fffd:0xce736528ad8b1e4b", "name": "Meta It Services Pvt. Ltd", "category": "Software company", "street": "102, 1st Floor, S-558, Dwarka Bhawan, School Block, Near By Anil Property, Shakarpur", "city": "Block A, Shakarpur", "phone": "08377908024", "website": "http://www.metaitservices.com/", "rating": 4.4, "review_count": "", "latitude": 28.628546399999998, "longitude": 77.277821, "maps_url": "https://www.google.com/maps/place/?q=place_id:0x390cfcab7a13fffd:0xce736528ad8b1e4b"}, {"place_id": "0x390d029cf3d42055:0x568de645f31e31dd", "name": "AI Micro Mind\u00aeTechnology", "category": "Software company", "street": "3rd Floor, 16/448", "city": "Block I, Building Number", "phone": "09818353030", "website": "http://micromind.in/", "rating": 4.8, "review_count": "", "latitude": 28.656936299999998, "longitude": 77.1817737, "maps_url": "https://www.google.com/maps/place/?q=place_id:0x390d029cf3d42055:0x568de645f31e31dd"}, {"place_id": "0x390cfcd5693382a9:0x7d163441e68be0fd", "name": "OCIO Technology", "category": "Software company", "street": "316, 3rd Floor", "city": "Pratap Bhawan", "phone": "09999220359", "website": "http://ociotechnology.com/", "rating": 4.9, "review_count": "", "latitude": 28.627443399999997, "longitude": 77.241478, "maps_url": "https://www.google.com/maps/place/?q=place_id:0x390cfcd5693382a9:0x7d163441e68be0fd"}, {"place_id": "0x390d1df079759d1f:0x8bfa70033f6c672a", "name": "NR Technoserve Pvt. Ltd.", "category": "Software company", "street": "133, Katwaria Sarai", "city": "Phase-2, Qutab Institutional Area", "phone": "07289096762", "website": "http://www.nrtechnoserve.co.in/", "rating": 4.4, "review_count": "", "latitude": 28.5413306, "longitude": 77.18495519999999, "maps_url": "https://www.google.com/maps/place/?q=place_id:0x390d1df079759d1f:0x8bfa70033f6c672a"}, {"place_id": "0x390ce3860c81c723:0xc5f50e43c0a86a3e", "name": "Nextr Technology", "category": "Software company", "street": "2nd Floor", "city": "1483/A-1", "phone": "09911751575", "website": "http://www.nextr.in/", "rating": 4.9, "review_count": "", "latitude": 28.574374, "longitude": 77.224284, "maps_url": "https://www.google.com/maps/place/?q=place_id:0x390ce3860c81c723:0xc5f50e43c0a86a3e"}, {"place_id": "0x390ce4f2fc4216a1:0x104c59100e2e337e", "name": "India IT Solutions", "category": "Software company", "street": "C-2, 207,New Ashok Nagar", "city": "Sector 7", "phone": "08802084788", "website": "", "rating": 4.5, "review_count": "", "latitude": 28.595324599999998, "longitude": 77.3118642, "maps_url": "https://www.google.com/maps/place/?q=place_id:0x390ce4f2fc4216a1:0x104c59100e2e337e"}, {"place_id": "0x390cfcad2d191127:0x83c805201ec0a98e", "name": "IT Nucleus", "category": "Website designer", "street": "310, 3rd Floor, S-524, Aggarwal House Opp-Metro Pillar 27", "city": "School Block shakarpur, Laxmi Nagar", "phone": "01143001828", "website": "http://www.itnucleus.com/", "rating": 4.9, "review_count": "", "latitude": 28.629542599999997, "longitude": 77.2766257, "maps_url": "https://www.google.com/maps/place/?q=place_id:0x390cfcad2d191127:0x83c805201ec0a98e"}, {"place_id": "0x390d029e86892d4b:0x43f6d8a6351244ff", "name": "Digital Marketing Agency, Software Development Company, SEO Services Company in Delhi", "category": "Software company", "street": "3rd Floor, 16/448", "city": "Block - I, Building Number", "phone": "09818353030", "website": "https://www.micromind.in/", "rating": 5, "review_count": "", "latitude": 28.655144999999997, "longitude": 77.18114899999999, "maps_url": "https://www.google.com/maps/place/?q=place_id:0x390d029e86892d4b:0x43f6d8a6351244ff"}, {"place_id": "0x390ce307bcb22a5d:0x9ccc7b5165fafc25", "name": "EDGISS IT SERVICES INC.", "category": "Software company", "street": "40, Jangpura Rd", "city": "Bhogal", "phone": "07982001184", "website": "https://www.edgiss.in/", "rating": 5, "review_count": "", "latitude": 28.582393699999997, "longitude": 77.24992309999999, "maps_url": "https://www.google.com/maps/place/?q=place_id:0x390ce307bcb22a5d:0x9ccc7b5165fafc25"}, {"place_id": "0x390ce226100110ef:0xe529d399458dbf03", "name": "First IT", "category": "Software company", "street": "S/F 776-A", "city": "Chirag Dilli", "phone": "", "website": "https://www.firstit.in/", "rating": 5, "review_count": "", "latitude": 28.5376318, "longitude": 77.2282863, "maps_url": "https://www.google.com/maps/place/?q=place_id:0x390ce226100110ef:0xe529d399458dbf03"}, {"place_id": "0x390cfdcc4be47a2d:0xbd6a23fa53037221", "name": "Web Players Technology- Website Designing Company in Central Delhi - Landing Page Designing Company in Delhi", "category": "Software company", "street": "CP N-12 UPPER GROUND FLOOR MUNSI LAL BUILDING", "city": "Connaught Cir", "phone": "09717292583", "website": "https://www.web-players.co.in/", "rating": 5, "review_count": "", "latitude": 28.6315566, "longitude": 77.22262119999999, "maps_url": "https://www.google.com/maps/place/?q=place_id:0x390cfdcc4be47a2d:0xbd6a23fa53037221"}, {"place_id": "0x390ce30f4c4ed777:0x3a7c5e032ce51ce5", "name": "Appextech Software Solutions", "category": "Software company", "street": "Second Floor", "city": "Mohan Cooperative Industrial Estate", "phone": "09911432451", "website": "https://www.appextech.com/", "rating": 4.9, "review_count": "", "latitude": 28.502260099999997, "longitude": 77.28519, "maps_url": "https://www.google.com/maps/place/?q=place_id:0x390ce30f4c4ed777:0x3a7c5e032ce51ce5"}, {"place_id": "0x390cfd32386fc949:0x3d73d08954802663", "name": "Alliancef Cyber & Web Technologies Pvt. Ltd.", "category": "Software company", "street": "Vijaya Building", "city": "811, 8th Floor", "phone": "09350254293", "website": "https://www.alliancef.com/", "rating": 5, "review_count": "", "latitude": 28.628895699999998, "longitude": 77.2252187, "maps_url": "https://www.google.com/maps/place/?q=place_id:0x390cfd32386fc949:0x3d73d08954802663"}, {"place_id": "0x390ce45bcd61048f:0x5f6a5602f4155df7", "name": "JK Technosoft Limited", "category": "Software company", "street": "F", "city": "3", "phone": "01204606300", "website": "https://jktech.com/", "rating": 4.2, "review_count": "", "latitude": 28.5802509, "longitude": 77.31793329999999, "maps_url": "https://www.google.com/maps/place/?q=place_id:0x390ce45bcd61048f:0x5f6a5602f4155df7"}, {"place_id": "0x390d0295dfbe951f:0xd11e46b9abc48457", "name": "Webtel Electrosoft Ltd.", "category": "Software company", "street": "1st Floor, Rattan Jyoti Building", "city": "110-114", "phone": "01145054000", "website": "https://webtel.in/", "rating": 3.9, "review_count": "", "latitude": 28.644031199999997, "longitude": 77.1772288, "maps_url": "https://www.google.com/maps/place/?q=place_id:0x390d0295dfbe951f:0xd11e46b9abc48457"}, {"place_id": "0x390ce3d606c913ef:0xd246bd5631eb2cad", "name": "Delvetech", "category": "Software company", "street": "87A/1, 3rd Floor, Opp. Block N-115, G.K-1, Near Moolchand Merto", "city": "Block B, Zamrudpur, Greater Kailash", "phone": "09873895154", "website": "http://www.delvetech.co.in/", "rating": 4.1, "review_count": "", "latitude": 28.5570597, "longitude": 77.2356981, "maps_url": "https://www.google.com/maps/place/?q=place_id:0x390ce3d606c913ef:0xd246bd5631eb2cad"}, {"place_id": "0x390ce3b7c0000001:0x46ddd80ee502d937", "name": "Amtrak Technologies Private Limited", "category": "Computer support and services", "street": "6, Community Centre", "city": "East of Kailash", "phone": "01126448000", "website": "https://amtrak.co.in/", "rating": 4.4, "review_count": "", "latitude": 28.558434899999998, "longitude": 77.2463302, "maps_url": "https://www.google.com/maps/place/?q=place_id:0x390ce3b7c0000001:0x46ddd80ee502d937"}, {"place_id": "0x390cfcacae4e5a67:0x961a9738d8ff3f7c", "name": "Need Infotech", "category": "Software company", "street": "110012", "city": "E-557", "phone": "08860808752", "website": "https://www.needinfotech.com/", "rating": 4.8, "review_count": "", "latitude": 28.631518, "longitude": 77.1436078, "maps_url": "https://www.google.com/maps/place/?q=place_id:0x390cfcacae4e5a67:0x961a9738d8ff3f7c"}, {"place_id": "0x390d1d13ebffffe1:0xe35273206cc9bd89", "name": "Detective Guru Rahul Rai Gupta - Secret Watch Detectives Pvt. Ltd.", "category": "Corporate office", "street": "284, 3rd Floor", "city": "Satya Niketan", "phone": "08826267700", "website": "https://secretwatchdetectives.com/", "rating": 4.9, "review_count": "", "latitude": 28.588499799999997, "longitude": 77.1687652, "maps_url": "https://www.google.com/maps/place/?q=place_id:0x390d1d13ebffffe1:0xe35273206cc9bd89"}, {"place_id": "0x390d1dc92fcc59c1:0x8c00d96ff929537f", "name": "Triumphant Finance Company LTD", "category": "Financial institution", "street": "Panchsheel Marg", "city": "Chanakyapuri", "phone": "09654586863", "website": "https://wa.link/5itrzt", "rating": "", "review_count": "", "latitude": 28.597783, "longitude": 77.1893484, "maps_url": "https://www.google.com/maps/place/?q=place_id:0x390d1dc92fcc59c1:0x8c00d96ff929537f"}, {"place_id": "0x390ce23eeab015ab:0x92d6a7e8dbc46e1a", "name": "Odyssey Website Development Company", "category": "Website designer", "street": "B-59", "city": "Block B, Soami Nagar South, Soami Nagar", "phone": "09654486464", "website": "http://odysseyin.com/?utm_source=GMB&utm_medium=Organic&utm_term=Odyssey&utm_content=Listing&utm_campaign=GMB1", "rating": 3.6, "review_count": "", "latitude": 28.541823599999997, "longitude": 77.2262008, "maps_url": "https://www.google.com/maps/place/?q=place_id:0x390ce23eeab015ab:0x92d6a7e8dbc46e1a"}, {"place_id": "0x390cfd3396f99f65:0xd97f147f067ace15", "name": "Shilpi Computers Private Limited", "category": "Corporate office", "street": "501-502", "city": "7, Tolstoy Rd", "phone": "01143500600", "website": "https://shilpisoft.com/", "rating": 3.9, "review_count": "", "latitude": 28.627693899999997, "longitude": 77.2244393, "maps_url": "https://www.google.com/maps/place/?q=place_id:0x390cfd3396f99f65:0xd97f147f067ace15"}, {"place_id": "0x390d1db0aef40171:0xb748a2e6079dd53d", "name": "YB INFORMATICS", "category": "Computer support and services", "street": "43, Poorvi Marg", "city": "Block A, Vasant Vihar", "phone": "09650920040", "website": "http://www.ybinformatics.com/", "rating": 5, "review_count": "", "latitude": 28.560817399999998, "longitude": 77.1666408, "maps_url": "https://www.google.com/maps/place/?q=place_id:0x390d1db0aef40171:0xb748a2e6079dd53d"}, {"place_id": "0x390d03fd9307cd73:0x7a223a0902c6e0cd", "name": "Web Cloud Technology", "category": "Website designer", "street": "3A/74 W.E.A", "city": "Sat Nagar, Karol Bagh", "phone": "08882324811", "website": "https://webcloudtechnology.in/", "rating": 4.4, "review_count": "", "latitude": 28.6465632, "longitude": 77.1824149, "maps_url": "https://www.google.com/maps/place/?q=place_id:0x390d03fd9307cd73:0x7a223a0902c6e0cd"}, {"place_id": "0x390ce39a24b89521:0x6e886c5e28fd05a9", "name": "Cloude Data Delhi | Best Cloud Service Provider company in India", "category": "Web hosting company", "street": "First Floor", "city": "A 212, Okhla Phase 3 Rd", "phone": "08882353612", "website": "https://cloudedata.com/", "rating": 4.4, "review_count": "", "latitude": 28.548515, "longitude": 77.2712834, "maps_url": "https://www.google.com/maps/place/?q=place_id:0x390ce39a24b89521:0x6e886c5e28fd05a9"}, {"place_id": "0xd1516b679f60d2f:0x9458c47d907b59a8", "name": "MarkTech Company", "category": "Marketing agency", "street": "INA, Laxmi Bai Nagar", "city": "New Delhi, Delhi 110023", "phone": "08527880385", "website": "https://markteches.com/", "rating": 3.9, "review_count": "", "latitude": 28.5754463, "longitude": 77.2077127, "maps_url": "https://www.google.com/maps/place/?q=place_id:0xd1516b679f60d2f:0x9458c47d907b59a8"}, {"place_id": "0x390d1d5d3588ee73:0x84dd16d360f31a0b", "name": "United States Agency For International Development", "category": "Government office", "street": "H5WP+QVP", "city": "American Embassy, Shantipath, Chanakyapuri", "phone": "01124198312", "website": "https://www.usaid.gov/india", "rating": 3.3, "review_count": "", "latitude": 28.5969581, "longitude": 77.187215, "maps_url": "https://www.google.com/maps/place/?q=place_id:0x390d1d5d3588ee73:0x84dd16d360f31a0b"}, {"place_id": "0x390d0348be373921:0xdab0e6afc72090d6", "name": "\ud835\udc16\ud835\udc1e\ud835\udc1b\ud835\udc24\ud835\udc1a\ud835\udc2b\ud835\udc2d \ud835\udc03\ud835\udc22\ud835\udc20\ud835\udc22\ud835\udc2d\ud835\udc1a\ud835\udc25 \ud835\udc0f\ud835\udc2f\ud835\udc2d. \ud835\udc0b\ud835\udc2d\ud835\udc1d", "category": "Website designer", "street": "2nd Floor", "city": "C-127", "phone": "09711110321", "website": "https://webkartindia.com/", "rating": 4.9, "review_count": "", "latitude": 28.628981399999997, "longitude": 77.1369867, "maps_url": "https://www.google.com/maps/place/?q=place_id:0x390d0348be373921:0xdab0e6afc72090d6"}, {"place_id": "0x390cfb4bf15a6733:0xaf50e6f3c5fb7641", "name": "Digitals Daddy: Web & App Development Company", "category": "Software company", "street": "Metro Gate No. 2", "city": "Nearest Sikandarpur", "phone": "09818286609", "website": "https://www.digitalsdaddy.com/", "rating": 4.9, "review_count": "", "latitude": 28.4847884, "longitude": 77.0922192, "maps_url": "https://www.google.com/maps/place/?q=place_id:0x390cfb4bf15a6733:0xaf50e6f3c5fb7641"}, {"place_id": "0x390d1d676f4487ad:0xad2e642d2072c910", "name": "U.S. Embassy", "category": "Embassy", "street": "H5WP+MQQ", "city": "Panchsheel Marg", "phone": "01124198000", "website": "https://in.usembassy.gov/", "rating": 4.3, "review_count": "", "latitude": 28.5967077, "longitude": 77.1869981, "maps_url": "https://www.google.com/maps/place/?q=place_id:0x390d1d676f4487ad:0xad2e642d2072c910"}, {"place_id": "0x390ce15795555555:0x9bb8a801d00d7573", "name": "DreamSoft Infotech - Website Development Company in India", "category": "Software company", "street": "A-75 Third Floor", "city": "A Block, Sector 5", "phone": "01204380622", "website": "https://dreamsoftinfotech.com/", "rating": 3.4, "review_count": "", "latitude": 28.591018899999998, "longitude": 77.32201529999999, "maps_url": "https://www.google.com/maps/place/?q=place_id:0x390ce15795555555:0x9bb8a801d00d7573"}, {"place_id": "0x390d02eb9de45597:0x772cc0459bd00b08", "name": "WebzPapa - SEO Company in Delhi I SEO Services Agency in Delhi", "category": "Website designer", "street": "Gate no 6", "city": "Building - O, 4th Floor, South Patel Nagar Near Patel Nagar Metro Station", "phone": "09953993944", "website": "https://webzpapa.com/seo-company-delhi.html", "rating": 4.7, "review_count": "", "latitude": 28.6450192, "longitude": 77.1688623, "maps_url": "https://www.google.com/maps/place/?q=place_id:0x390d02eb9de45597:0x772cc0459bd00b08"}, {"place_id": "0x390d02efaf79b961:0x413607f4cfba5420", "name": "Support Star Corporate Services Pvt. Ltd", "category": "Corporate office", "street": "Cottage No 19, Lower Ground Floor", "city": "West Patel Nagar, Patel Nagar", "phone": "07042627575", "website": "", "rating": 4.2, "review_count": "", "latitude": 28.6500426, "longitude": 77.1623192, "maps_url": "https://www.google.com/maps/place/?q=place_id:0x390d02efaf79b961:0x413607f4cfba5420"}, {"place_id": "0x390d1b0010fc2321:0x12e9154c815cf007", "name": "Prashant Dwivedi IT company", "category": "Warehouse", "street": "G3P5+GVC", "city": "Nayak Pura, Bijwasan", "phone": "", "website": "", "rating": "", "review_count": "", "latitude": 28.536316, "longitude": 77.059649, "maps_url": "https://www.google.com/maps/place/?q=place_id:0x390d1b0010fc2321:0x12e9154c815cf007"}, {"place_id": "0x390cfd35c8f89657:0xadbc7004661a9c74", "name": "Sterco Digitex Pvt Limited", "category": "Software company", "street": "2nd Floor", "city": "72, Janpath Rd", "phone": "01204857333", "website": "https://www.stercodigitex.com/", "rating": 4.1, "review_count": "", "latitude": 28.628133, "longitude": 77.21985099999999, "maps_url": "https://www.google.com/maps/place/?q=place_id:0x390cfd35c8f89657:0xadbc7004661a9c74"}, {"place_id": "0x390d1d6775fa2ecd:0x818db8ec9ca88adf", "name": "Embassy of Switzerland", "category": "Embassy", "street": "E-3, Nyaya Marg", "city": "Chanakyapuri", "phone": "01149959570", "website": "https://www.eda.admin.ch/newdelhi", "rating": 4.2, "review_count": "", "latitude": 28.596455499999998, "longitude": 77.1857067, "maps_url": "https://www.google.com/maps/place/?q=place_id:0x390d1d6775fa2ecd:0x818db8ec9ca88adf"}, {"place_id": "0x390d1d8baaaaaaab:0x81e02841f207d0f0", "name": "S SONY & COMPANY PVT. LTD", "category": "Real Estate Builders & Construction Company", "street": "G-4, ANUPAMA BUILDING II FLOOR", "city": "Hauz Khas", "phone": "01135002651", "website": "http://ssony.in/", "rating": 4.9, "review_count": "", "latitude": 28.5510508, "longitude": 77.2048471, "maps_url": "https://www.google.com/maps/place/?q=place_id:0x390d1d8baaaaaaab:0x81e02841f207d0f0"}, {"place_id": "0x390d1d87e9b69f2b:0xe0a635cec75d7088", "name": "TLGS Consulting Group", "category": "Consultant", "street": "8, Kautilya Marg", "city": "Kriti Nagar, Block X, Diplomatic Enclave, Chanakyapuri", "phone": "07669006430", "website": "https://tlgs.consulting/", "rating": 4.7, "review_count": "", "latitude": 28.604501199999998, "longitude": 77.1887504, "maps_url": "https://www.google.com/maps/place/?q=place_id:0x390d1d87e9b69f2b:0xe0a635cec75d7088"}, {"place_id": "0x390d1d841aaaaaab:0xa32856a97de4096b", "name": "BI Biotech India Pvt. Ltd. (Corporate Office)", "category": "Biotechnology company", "street": "328", "city": "Ansal Chamber-2", "phone": "01126101271", "website": "http://www.biotechindia.com/", "rating": 3.9, "review_count": "", "latitude": 28.5677649, "longitude": 77.187382, "maps_url": "https://www.google.com/maps/place/?q=place_id:0x390d1d841aaaaaab:0xa32856a97de4096b"}, {"place_id": "0xac577056c2b5ff3d:0xaf00253141553d04", "name": "Devnotam | IT Company", "category": "Internet marketing service", "street": "", "city": "", "phone": "", "website": "https://devnotam.com/", "rating": 5, "review_count": "", "latitude": 28.692404999999997, "longitude": 77.090042, "maps_url": "https://www.google.com/maps/place/?q=place_id:0xac577056c2b5ff3d:0xaf00253141553d04"}, {"place_id": "0x390ce459e2a3a42f:0xdda2e042090c2c72", "name": "InfiCare Technologies Pvt. Ltd", "category": "Software company", "street": "D-92 Second/Third floor", "city": "Sector 2", "phone": "09711265591", "website": "http://www.inficaretech.com/", "rating": 3.9, "review_count": "", "latitude": 28.582936099999998, "longitude": 77.3175146, "maps_url": "https://www.google.com/maps/place/?q=place_id:0x390ce459e2a3a42f:0xdda2e042090c2c72"}, {"place_id": "0x390d0331f8fa9037:0xbf316ec71fe5896d", "name": "Web Development Company in South West Delhi - MSN Technologies", "category": "Software company", "street": "Mahatma Gandhi Rd", "city": "Block WZ, Naraina", "phone": "08800388071", "website": "http://www.msntechnologies.org/", "rating": 5, "review_count": "", "latitude": 28.621692, "longitude": 77.1363598, "maps_url": "https://www.google.com/maps/place/?q=place_id:0x390d0331f8fa9037:0xbf316ec71fe5896d"}, {"place_id": "0x390d1ed3c6e9f579:0x322eccdb00f350d2", "name": "Techjockey", "category": "Software company", "street": "Ground floor, Habitat India", "city": "C-3", "phone": "01142213003", "website": "https://www.techjockey.com/", "rating": 4, "review_count": "", "latitude": 28.536615299999998, "longitude": 77.1902978, "maps_url": "https://www.google.com/maps/place/?q=place_id:0x390d1ed3c6e9f579:0x322eccdb00f350d2"}, {"place_id": "0x390d1d15ef12a133:0xdaadde8f4110c5cc", "name": "We-Comm IT", "category": "Chartered accountant", "street": "Ground Floor", "city": "Besides Punjab National Bank", "phone": "01146025005", "website": "http://www.ecommit.in/", "rating": 5, "review_count": "", "latitude": 28.603811099999998, "longitude": 77.18499849999999, "maps_url": "https://www.google.com/maps/place/?q=place_id:0x390d1d15ef12a133:0xdaadde8f4110c5cc"}, {"place_id": "0x390d1d13ebffffe1:0xe35273206cc9bd89", "name": "Detective Guru Rahul Rai Gupta - Secret Watch Detectives Pvt. Ltd.", "category": "Corporate office", "street": "284, 3rd Floor", "city": "Satya Niketan", "phone": "08826267700", "website": "https://secretwatchdetectives.com/", "rating": 4.9, "review_count": "", "latitude": 28.588499799999997, "longitude": 77.1687652, "maps_url": "https://www.google.com/maps/place/?q=place_id:0x390d1d13ebffffe1:0xe35273206cc9bd89"}, {"place_id": "0x390d1dc92fcc59c1:0x8c00d96ff929537f", "name": "Triumphant Finance Company LTD", "category": "Financial institution", "street": "Panchsheel Marg", "city": "Chanakyapuri", "phone": "09654586863", "website": "https://wa.link/5itrzt", "rating": "", "review_count": "", "latitude": 28.597783, "longitude": 77.1893484, "maps_url": "https://www.google.com/maps/place/?q=place_id:0x390d1dc92fcc59c1:0x8c00d96ff929537f"}, {"place_id": "0x390ce23eeab015ab:0x92d6a7e8dbc46e1a", "name": "Odyssey Website Development Company", "category": "Website designer", "street": "B-59", "city": "Block B, Soami Nagar South, Soami Nagar", "phone": "09654486464", "website": "http://odysseyin.com/?utm_source=GMB&utm_medium=Organic&utm_term=Odyssey&utm_content=Listing&utm_campaign=GMB1", "rating": 3.6, "review_count": "", "latitude": 28.541823599999997, "longitude": 77.2262008, "maps_url": "https://www.google.com/maps/place/?q=place_id:0x390ce23eeab015ab:0x92d6a7e8dbc46e1a"}, {"place_id": "0x390ce36a7e34fe59:0x1acced1d65a73707", "name": "i-softinc - Mobile App Development Company in Delhi", "category": "Software company", "street": "165 3rd Floor", "city": "Sarai Jullena, New Friends Colony", "phone": "08929570664", "website": "https://i-softinc.com/", "rating": 5, "review_count": "", "latitude": 28.5600456, "longitude": 77.2717803, "maps_url": "https://www.google.com/maps/place/?q=place_id:0x390ce36a7e34fe59:0x1acced1d65a73707"}, {"place_id": "0x390cfd3396f99f65:0xd97f147f067ace15", "name": "Shilpi Computers Private Limited", "category": "Corporate office", "street": "501-502", "city": "7, Tolstoy Rd", "phone": "01143500600", "website": "https://shilpisoft.com/", "rating": 3.9, "review_count": "", "latitude": 28.627693899999997, "longitude": 77.2244393, "maps_url": "https://www.google.com/maps/place/?q=place_id:0x390cfd3396f99f65:0xd97f147f067ace15"}, {"place_id": "0x390d1db0aef40171:0xb748a2e6079dd53d", "name": "YB INFORMATICS", "category": "Computer support and services", "street": "43, Poorvi Marg", "city": "Block A, Vasant Vihar", "phone": "09650920040", "website": "http://www.ybinformatics.com/", "rating": 5, "review_count": "", "latitude": 28.560817399999998, "longitude": 77.1666408, "maps_url": "https://www.google.com/maps/place/?q=place_id:0x390d1db0aef40171:0xb748a2e6079dd53d"}, {"place_id": "0x390d03fd9307cd73:0x7a223a0902c6e0cd", "name": "Web Cloud Technology", "category": "Website designer", "street": "3A/74 W.E.A", "city": "Sat Nagar, Karol Bagh", "phone": "08882324811", "website": "https://webcloudtechnology.in/", "rating": 4.4, "review_count": "", "latitude": 28.6465632, "longitude": 77.1824149, "maps_url": "https://www.google.com/maps/place/?q=place_id:0x390d03fd9307cd73:0x7a223a0902c6e0cd"}, {"place_id": "0x390ce39a24b89521:0x6e886c5e28fd05a9", "name": "Cloude Data Delhi | Best Cloud Service Provider company in India", "category": "Web hosting company", "street": "First Floor", "city": "A 212, Okhla Phase 3 Rd", "phone": "08882353612", "website": "https://cloudedata.com/", "rating": 4.4, "review_count": "", "latitude": 28.548515, "longitude": 77.2712834, "maps_url": "https://www.google.com/maps/place/?q=place_id:0x390ce39a24b89521:0x6e886c5e28fd05a9"}, {"place_id": "0xd1516b679f60d2f:0x9458c47d907b59a8", "name": "MarkTech Company", "category": "Marketing agency", "street": "INA, Laxmi Bai Nagar", "city": "New Delhi, Delhi 110023", "phone": "08527880385", "website": "https://markteches.com/", "rating": 3.9, "review_count": "", "latitude": 28.5754463, "longitude": 77.2077127, "maps_url": "https://www.google.com/maps/place/?q=place_id:0xd1516b679f60d2f:0x9458c47d907b59a8"}, {"place_id": "0x390d1d5d3588ee73:0x84dd16d360f31a0b", "name": "United States Agency For International Development", "category": "Government office", "street": "H5WP+QVP", "city": "American Embassy, Shantipath, Chanakyapuri", "phone": "01124198312", "website": "https://www.usaid.gov/india", "rating": 3.3, "review_count": "", "latitude": 28.5969581, "longitude": 77.187215, "maps_url": "https://www.google.com/maps/place/?q=place_id:0x390d1d5d3588ee73:0x84dd16d360f31a0b"}, {"place_id": "0x390d01699994952d:0xd94ec41e9587a4a2", "name": "Website Desiging Company - Asistech Software Solutions", "category": "Software company", "street": "211-C, Trivani Complex", "city": "Laxmi Nagar", "phone": "08287537054", "website": "", "rating": 3.7, "review_count": "", "latitude": 28.6342577, "longitude": 77.28133749999999, "maps_url": "https://www.google.com/maps/place/?q=place_id:0x390d01699994952d:0xd94ec41e9587a4a2"}, {"place_id": "0x390d0348be373921:0xdab0e6afc72090d6", "name": "\ud835\udc16\ud835\udc1e\ud835\udc1b\ud835\udc24\ud835\udc1a\ud835\udc2b\ud835\udc2d \ud835\udc03\ud835\udc22\ud835\udc20\ud835\udc22\ud835\udc2d\ud835\udc1a\ud835\udc25 \ud835\udc0f\ud835\udc2f\ud835\udc2d. \ud835\udc0b\ud835\udc2d\ud835\udc1d", "category": "Website designer", "street": "2nd Floor", "city": "C-127", "phone": "09711110321", "website": "https://webkartindia.com/", "rating": 4.9, "review_count": "", "latitude": 28.628981399999997, "longitude": 77.1369867, "maps_url": "https://www.google.com/maps/place/?q=place_id:0x390d0348be373921:0xdab0e6afc72090d6"}, {"place_id": "0x390cfb4bf15a6733:0xaf50e6f3c5fb7641", "name": "Digitals Daddy: Web & App Development Company", "category": "Software company", "street": "Metro Gate No. 2", "city": "Nearest Sikandarpur", "phone": "09818286609", "website": "https://www.digitalsdaddy.com/", "rating": 4.9, "review_count": "", "latitude": 28.4847884, "longitude": 77.0922192, "maps_url": "https://www.google.com/maps/place/?q=place_id:0x390cfb4bf15a6733:0xaf50e6f3c5fb7641"}, {"place_id": "0x390cfd8ec6286e99:0xbd009169c75db33d", "name": "Future Tech Software - Web Software Development Company", "category": "Software company", "street": "R 22 Shakarpur", "city": "Laxmi Nagar", "phone": "", "website": "", "rating": 5, "review_count": "", "latitude": 28.630793999999998, "longitude": 77.282076, "maps_url": "https://www.google.com/maps/place/?q=place_id:0x390cfd8ec6286e99:0xbd009169c75db33d"}, {"place_id": "0x390d1d676f4487ad:0xad2e642d2072c910", "name": "U.S. Embassy", "category": "Embassy", "street": "H5WP+MQQ", "city": "Panchsheel Marg", "phone": "01124198000", "website": "https://in.usembassy.gov/", "rating": 4.3, "review_count": "", "latitude": 28.5967077, "longitude": 77.1869981, "maps_url": "https://www.google.com/maps/place/?q=place_id:0x390d1d676f4487ad:0xad2e642d2072c910"}, {"place_id": "0x390cfcaa1f183ed1:0x2b7bcc06d62411fc", "name": "Global Information Technology Services", "category": "Computer Hardware Company", "street": "305 3rd Floor, Metro Complex", "city": "4 & 5, Madhuban Rd", "phone": "09971933388", "website": "http://gitservices.in/", "rating": 4, "review_count": "", "latitude": 28.6351263, "longitude": 77.28577609999999, "maps_url": "https://www.google.com/maps/place/?q=place_id:0x390cfcaa1f183ed1:0x2b7bcc06d62411fc"}, {"place_id": "0x390ce15795555555:0x9bb8a801d00d7573", "name": "DreamSoft Infotech - Website Development Company in India", "category": "Software company", "street": "A-75 Third Floor", "city": "A Block, Sector 5", "phone": "01204380622", "website": "https://dreamsoftinfotech.com/", "rating": 3.4, "review_count": "", "latitude": 28.591018899999998, "longitude": 77.32201529999999, "maps_url": "https://www.google.com/maps/place/?q=place_id:0x390ce15795555555:0x9bb8a801d00d7573"}, {"place_id": "0x390d02eb9de45597:0x772cc0459bd00b08", "name": "WebzPapa - SEO Company in Delhi I SEO Services Agency in Delhi", "category": "Website designer", "street": "Gate no 6", "city": "Building - O, 4th Floor, South Patel Nagar Near Patel Nagar Metro Station", "phone": "09953993944", "website": "https://webzpapa.com/seo-company-delhi.html", "rating": 4.7, "review_count": "", "latitude": 28.6450192, "longitude": 77.1688623, "maps_url": "https://www.google.com/maps/place/?q=place_id:0x390d02eb9de45597:0x772cc0459bd00b08"}, {"place_id": "0x390d02efaf79b961:0x413607f4cfba5420", "name": "Support Star Corporate Services Pvt. Ltd", "category": "Corporate office", "street": "Cottage No 19, Lower Ground Floor", "city": "West Patel Nagar, Patel Nagar", "phone": "07042627575", "website": "", "rating": 4.2, "review_count": "", "latitude": 28.6500426, "longitude": 77.1623192, "maps_url": "https://www.google.com/maps/place/?q=place_id:0x390d02efaf79b961:0x413607f4cfba5420"}, {"place_id": "0x390d1b0010fc2321:0x12e9154c815cf007", "name": "Prashant Dwivedi IT company", "category": "Warehouse", "street": "G3P5+GVC", "city": "Nayak Pura, Bijwasan", "phone": "", "website": "", "rating": "", "review_count": "", "latitude": 28.536316, "longitude": 77.059649, "maps_url": "https://www.google.com/maps/place/?q=place_id:0x390d1b0010fc2321:0x12e9154c815cf007"}, {"place_id": "0x390cfd35c8f89657:0xadbc7004661a9c74", "name": "Sterco Digitex Pvt Limited", "category": "Software company", "street": "2nd Floor", "city": "72, Janpath Rd", "phone": "01204857333", "website": "https://www.stercodigitex.com/", "rating": 4.1, "review_count": "", "latitude": 28.628133, "longitude": 77.21985099999999, "maps_url": "https://www.google.com/maps/place/?q=place_id:0x390cfd35c8f89657:0xadbc7004661a9c74"}, {"place_id": "0x390d1d6775fa2ecd:0x818db8ec9ca88adf", "name": "Embassy of Switzerland", "category": "Embassy", "street": "E-3, Nyaya Marg", "city": "Chanakyapuri", "phone": "01149959570", "website": "https://www.eda.admin.ch/newdelhi", "rating": 4.2, "review_count": "", "latitude": 28.596455499999998, "longitude": 77.1857067, "maps_url": "https://www.google.com/maps/place/?q=place_id:0x390d1d6775fa2ecd:0x818db8ec9ca88adf"}, {"place_id": "0x390d1d8baaaaaaab:0x81e02841f207d0f0", "name": "S SONY & COMPANY PVT. LTD", "category": "Real Estate Builders & Construction Company", "street": "G-4, ANUPAMA BUILDING II FLOOR", "city": "Hauz Khas", "phone": "01135002651", "website": "http://ssony.in/", "rating": 4.9, "review_count": "", "latitude": 28.5510508, "longitude": 77.2048471, "maps_url": "https://www.google.com/maps/place/?q=place_id:0x390d1d8baaaaaaab:0x81e02841f207d0f0"}, {"place_id": "0x390d1d87e9b69f2b:0xe0a635cec75d7088", "name": "TLGS Consulting Group", "category": "Consultant", "street": "8, Kautilya Marg", "city": "Kriti Nagar, Block X, Diplomatic Enclave, Chanakyapuri", "phone": "07669006430", "website": "https://tlgs.consulting/", "rating": 4.7, "review_count": "", "latitude": 28.604501199999998, "longitude": 77.1887504, "maps_url": "https://www.google.com/maps/place/?q=place_id:0x390d1d87e9b69f2b:0xe0a635cec75d7088"}, {"place_id": "0x3be7c21b5901e181:0x7fe794585addc1f6", "name": "Smartinfologiks - Software Development Company in India | IT Solutions", "category": "Software company", "street": "Hilton Center", "city": "514", "phone": "07400064691", "website": "https://www.smartinfologiks.com/", "rating": 4.6, "review_count": "", "latitude": 19.0139592, "longitude": 73.0382705, "maps_url": "https://www.google.com/maps/place/?q=place_id:0x3be7c21b5901e181:0x7fe794585addc1f6"}, {"place_id": "0x390ce550ac43f535:0x7efd3596bc8722ed", "name": "DataMetricks Consulting Private Limited- Best Digital Marketing & Web Development Company in Noida", "category": "Software company", "street": "12th Floor, TOWER-C", "city": "ITHUM TOWER", "phone": "07303946657", "website": "http://www.datametricks.com/", "rating": 5, "review_count": "", "latitude": 28.626568, "longitude": 77.37237549999999, "maps_url": "https://www.google.com/maps/place/?q=place_id:0x390ce550ac43f535:0x7efd3596bc8722ed"}, {"place_id": "0x3bc2becdc35b6937:0x515ac559c349eee3", "name": "Thinkitive Technologies Private Limited", "category": "Software company", "street": "4th Floor", "city": "ABIL IMPERIAL COMMERCIAL SPACES", "phone": "08956467327", "website": "https://www.thinkitive.com/", "rating": 3.9, "review_count": "", "latitude": 18.5563888, "longitude": 73.7729748, "maps_url": "https://www.google.com/maps/place/?q=place_id:0x3bc2becdc35b6937:0x515ac559c349eee3"}, {"place_id": "0x390cfdfaea215f11:0xd87976752dc790bb", "name": "Tern Technologies India", "category": "Software company", "street": "1st Floor, Hamilton House, Workingdom", "city": "Radial Rd Number 2", "phone": "", "website": "http://www.tern-group.com/", "rating": "", "review_count": "", "latitude": 28.632210599999997, "longitude": 77.2178871, "maps_url": "https://www.google.com/maps/place/?q=place_id:0x390cfdfaea215f11:0xd87976752dc790bb"}, {"place_id": "0x390ce3b5e9981665:0x6ed3916f90d5be3c", "name": "Netsoft Consulting Services", "category": "Information services", "street": "24, IInd Floor, Community Center, East Of Kailash", "city": "behind Sapna Cinema", "phone": "01145330000", "website": "https://netsoftit.com/contact-us/", "rating": 3.5, "review_count": "", "latitude": 28.5583678, "longitude": 77.24568579999999, "maps_url": "https://www.google.com/maps/place/?q=place_id:0x390ce3b5e9981665:0x6ed3916f90d5be3c"}, {"place_id": "0x390ce25f6e3d2b9d:0x57f3a0fc9725f59b", "name": "YATRA POINT TOURISM COMPANY INDIA", "category": "Travel agency", "street": "OFFICE NO-7", "city": "BULDING NO N-1, LGF", "phone": "08860016982", "website": "", "rating": 4.9, "review_count": "", "latitude": 28.574078, "longitude": 77.219089, "maps_url": "https://www.google.com/maps/place/?q=place_id:0x390ce25f6e3d2b9d:0x57f3a0fc9725f59b"}, {"place_id": "0x390ce3083df185df:0xcff0bc07ace98fca", "name": "Dwitty & Company", "category": "Website designer", "street": "B-109", "city": "Block D, Jangpura B", "phone": "07011273521", "website": "", "rating": 5, "review_count": "", "latitude": 28.581945599999997, "longitude": 77.2534653, "maps_url": "https://www.google.com/maps/place/?q=place_id:0x390ce3083df185df:0xcff0bc07ace98fca"}, {"place_id": "0x390d1d5c5f9b19a9:0x7ae8533dbf63b25a", "name": "Sikkim Tourist Information Centre", "category": "Tourist information center", "street": "14,Panchsheel Marg Chanakyapuri Delhi", "city": "New Delhi, Delhi 110021", "phone": "01141680421", "website": "http://www.sikkimtourism.gov.in/", "rating": 4, "review_count": "", "latitude": 28.599466999999997, "longitude": 77.1862577, "maps_url": "https://www.google.com/maps/place/?q=place_id:0x390d1d5c5f9b19a9:0x7ae8533dbf63b25a"}, {"place_id": "0x390cfd94ec7e1e97:0x1ec26c99087e1186", "name": "SHIVANSH ENTERPRISES", "category": "Software company", "street": "C-5, Street No.3", "city": "near HANSRAJ MARKET", "phone": "08826549483", "website": "", "rating": 5, "review_count": "", "latitude": 28.6781546, "longitude": 77.264049, "maps_url": "https://www.google.com/maps/place/?q=place_id:0x390cfd94ec7e1e97:0x1ec26c99087e1186"}, {"place_id": "0x390ce32f7f91b893:0xf7c2be7eb729f502", "name": "Digital marketing Company, website Designing Company ( Logo Designing Company ) ( Online Marketplace )", "category": "Website designer", "street": "120-G", "city": "Hari Nagar Ashram", "phone": "08920138925", "website": "https://royalcruiselimos.com/", "rating": 5, "review_count": "", "latitude": 28.5718902, "longitude": 77.2559809, "maps_url": "https://www.google.com/maps/place/?q=place_id:0x390ce32f7f91b893:0xf7c2be7eb729f502"}, {"place_id": "0x390ce30403b64187:0x8726709a519a194c", "name": "Digital Marketing Company", "category": "Advertising agency", "street": "Unit Number 109, 1St Floor, Mercantile House", "city": "KG Marg", "phone": "09599575057", "website": "https://www.linkedin.com/in/arvindnirala/", "rating": 4.9, "review_count": "", "latitude": 28.622821799999997, "longitude": 77.2253394, "maps_url": "https://www.google.com/maps/place/?q=place_id:0x390ce30403b64187:0x8726709a519a194c"}, {"place_id": "0x390d1d68373af9bf:0x25717e83a14ddb8f", "name": "Pravasi Bharatiya Kendra", "category": "Government office", "street": "15A, 15B and 15D", "city": "Dr Jose P Rizal Marg", "phone": "01124156405", "website": "http://www.mea.gov.in/", "rating": 4.6, "review_count": "", "latitude": 28.595798799999997, "longitude": 77.1807433, "maps_url": "https://www.google.com/maps/place/?q=place_id:0x390d1d68373af9bf:0x25717e83a14ddb8f"}, {"place_id": "0x390cfd3515adae13:0x1bb352627e7e90e6", "name": "The Shipping Corporation Of India Limited", "category": "Shipping company", "street": "1st floor, Chandralok Buillding, 36 Janpath", "city": "Janpath Rd", "phone": "01123322446", "website": "http://www.shipindia.com/", "rating": 3.9, "review_count": "", "latitude": 28.6243965, "longitude": 77.2196376, "maps_url": "https://www.google.com/maps/place/?q=place_id:0x390cfd3515adae13:0x1bb352627e7e90e6"}, {"place_id": "0x390d1d68eec0aa75:0x2731ced4195eed08", "name": "Barista coffee", "category": "Coffee shop", "street": "Primus hospital campus", "city": "2, Chandragupta Marg", "phone": "01166206640", "website": "http://barista.co.in/", "rating": 4.2, "review_count": "", "latitude": 28.5930996, "longitude": 77.1811318, "maps_url": "https://www.google.com/maps/place/?q=place_id:0x390d1d68eec0aa75:0x2731ced4195eed08"}, {"place_id": "0x390d1d1f87038a31:0xb14a71d8a335184e", "name": "Amit Sibal's Office", "category": "Lawyer", "street": "F-162, Malcha Marg", "city": "Block F, Diplomatic Enclave, Chanakyapuri", "phone": "01124104414", "website": "", "rating": 4.6, "review_count": "", "latitude": 28.600364499999998, "longitude": 77.1873688, "maps_url": "https://www.google.com/maps/place/?q=place_id:0x390d1d1f87038a31:0xb14a71d8a335184e"}, {"place_id": "0x2dd6bb9a20a55f2b:0xa98d26167aba7699", "name": "SUNM Tech | Best Web And App Development Services in Delhi | Software Development", "category": "Software company", "street": "", "city": "", "phone": "07042527794", "website": "https://sunmtech.com/", "rating": 5, "review_count": "", "latitude": 21.0680074, "longitude": 82.7525294, "maps_url": "https://www.google.com/maps/place/?q=place_id:0x2dd6bb9a20a55f2b:0xa98d26167aba7699"}, {"place_id": "0x390ce3c87abeddd9:0xa68500e49b658474", "name": "IT Magnum Opus", "category": "Computer support and services", "street": "P-31", "city": "Sriniwaspuri Extn, Block Q, Private Colony, Sri Niwaspuri", "phone": "", "website": "https://www.itmo.in/", "rating": 4.8, "review_count": "", "latitude": 28.5626805, "longitude": 77.2597913, "maps_url": "https://www.google.com/maps/place/?q=place_id:0x390ce3c87abeddd9:0xa68500e49b658474"}, {"place_id": "0x390d1d1323b91801:0x5a4843b2de9c70a6", "name": "SCG Contracts India Pvt. Ltd", "category": "Real Estate Builders & Construction Company", "street": "240, 3rd & 4th Floor, Satya Niketan", "city": "Ring Road", "phone": "01146032435", "website": "http://scgindia.com/", "rating": 4.4, "review_count": "", "latitude": 28.587790799999997, "longitude": 77.1703265, "maps_url": "https://www.google.com/maps/place/?q=place_id:0x390d1d1323b91801:0x5a4843b2de9c70a6"}]}