{"timestamp": 1773731437.172306, "keyword": "IT company", "location": "delhi", "cell_idx": 389, "results": [{"place_id": "0x390d1de832fe75c5:0xc9e069607be5fac3", "name": "F9 It Solutions", "category": "Computer support and services", "street": "House no. 40, Shop no.1", "city": "Nanak Pura, South Moti Bagh", "phone": "09990929523", "website": "", "rating": 4.9, "review_count": "", "latitude": 28.5861506, "longitude": 77.1705046, "maps_url": "https://www.google.com/maps/place/?q=place_id:0x390d1de832fe75c5:0xc9e069607be5fac3"}, {"place_id": "0x390d1d841fefffff:0x93fcc50cf324f171", "name": "Netsure IT Solution Private Limited (NSIT GLOBAL)", "category": "Software company", "street": "Ansal Chamber-2", "city": "NSIT GLOBAL, 428", "phone": "1800313818283", "website": "", "rating": 4.3, "review_count": "", "latitude": 28.5677649, "longitude": 77.187382, "maps_url": "https://www.google.com/maps/place/?q=place_id:0x390d1d841fefffff:0x93fcc50cf324f171"}, {"place_id": "0x390ce458d0000001:0xf2123bd299ec4501", "name": "IT Company India", "category": "Software company", "street": "D56", "city": "D Block, Sector 10", "phone": "09999244854", "website": "https://www.itcompanyindia.in/", "rating": 4.7, "review_count": "", "latitude": 28.589917699999997, "longitude": 77.3351153, "maps_url": "https://www.google.com/maps/place/?q=place_id:0x390ce458d0000001:0xf2123bd299ec4501"}, {"place_id": "0x390d1d95931171db:0xf4c24d49d831b27", "name": "Muniwar Technologies Private Limited", "category": "Software company", "street": "2nd Floor", "city": "Hanuman Mandir Market", "phone": "01143050611", "website": "https://www.muniwar.com/", "rating": 4.4, "review_count": "", "latitude": 28.557070699999997, "longitude": 77.1732794, "maps_url": "https://www.google.com/maps/place/?q=place_id:0x390d1d95931171db:0xf4c24d49d831b27"}, {"place_id": "0x390d1d9ce0eaada3:0xc5a1a0a2458099e3", "name": "CODENCREATIVE TECH PVT LTD", "category": "Software company", "street": "DDA Flat", "city": "RBI Officers Colony, Vasant Vihar", "phone": "09717047610", "website": "https://codencreative.com/", "rating": 4.9, "review_count": "", "latitude": 28.563302099999998, "longitude": 77.1519732, "maps_url": "https://www.google.com/maps/place/?q=place_id:0x390d1d9ce0eaada3:0xc5a1a0a2458099e3"}, {"place_id": "0x390d1d84709c66e7:0xb821a251a16fae09", "name": "IT Works @ Siyaram", "category": "Software company", "street": "404", "city": "BHIKAJI CAMA PLACE", "phone": "01143178782", "website": "http://www.garruda.co.in/", "rating": 4.8, "review_count": "", "latitude": 28.567508399999998, "longitude": 77.18817349999999, "maps_url": "https://www.google.com/maps/place/?q=place_id:0x390d1d84709c66e7:0xb821a251a16fae09"}, {"place_id": "0x390ce3c153b89811:0xe7a279685777e9ca", "name": "IT Company", "category": "Automation company", "street": "A-14", "city": "near iskcon temple", "phone": "", "website": "http://www.opuswiz.com/", "rating": 3, "review_count": "", "latitude": 28.557167, "longitude": 77.25424819999999, "maps_url": "https://www.google.com/maps/place/?q=place_id:0x390ce3c153b89811:0xe7a279685777e9ca"}, {"place_id": "0x390d1d86a4f12173:0x3a6b42ea6f4b8260", "name": "Softvanz Technologies Private Limited", "category": "Software company", "street": "Somdutt Chamber 1", "city": "BT-22/9", "phone": "", "website": "https://softvanz.com/", "rating": 5, "review_count": "", "latitude": 28.567948899999998, "longitude": 77.1889269, "maps_url": "https://www.google.com/maps/place/?q=place_id:0x390d1d86a4f12173:0x3a6b42ea6f4b8260"}, {"place_id": "0x390ce1597b5509e5:0xfd8209b937b44d3c", "name": "IT Solutions India Private Limited", "category": "Software company", "street": "D-88/5", "city": "Pocket D, Okhla Phase I, Okhla Industrial Estate", "phone": "09810017429", "website": "https://www.itsipl.com/", "rating": 4.2, "review_count": "", "latitude": 28.520146, "longitude": 77.280431, "maps_url": "https://www.google.com/maps/place/?q=place_id:0x390ce1597b5509e5:0xfd8209b937b44d3c"}, {"place_id": "0x390d1daf5bbb6d71:0xd493e8d457a28388", "name": "DPM IT SOLUTIONS", "category": "Software company", "street": "2nd floor, madangiri", "city": "111, E-2", "phone": "09650413450", "website": "https://dpmitsolutions.com/", "rating": 5, "review_count": "", "latitude": 28.565620799999998, "longitude": 77.16005679999999, "maps_url": "https://www.google.com/maps/place/?q=place_id:0x390d1daf5bbb6d71:0xd493e8d457a28388"}, {"place_id": "0x390d02e54cb57e51:0x9b728fddc9aa673e", "name": "IT Solutions & Services (ITSS)", "category": "Computer service", "street": "T\u20132425 Street Number 21, Baljeet Nagar", "city": "West Patel Nagar", "phone": "08800419462", "website": "https://www.itssin.com/", "rating": 4.7, "review_count": "", "latitude": 28.6576111, "longitude": 77.160708, "maps_url": "https://www.google.com/maps/place/?q=place_id:0x390d02e54cb57e51:0x9b728fddc9aa673e"}, {"place_id": "0x390d165555555555:0xf57c20f7d07d8fd1", "name": "Teckinfo Solutions Pvt Ltd", "category": "Software company", "street": "1/1 BA, 3rd Floor, Mohammadpur,", "city": "Bhikaji Cama Place", "phone": "01149605500", "website": "https://www.teckinfo.com/", "rating": 4.6, "review_count": "", "latitude": 28.566004099999997, "longitude": 77.187579, "maps_url": "https://www.google.com/maps/place/?q=place_id:0x390d165555555555:0xf57c20f7d07d8fd1"}, {"place_id": "0x390d1ca8de94abb1:0xc070687f1d5f8558", "name": "Bita Infotech IT Solutions:: Website Designing & Development Company", "category": "Software company", "street": "Rz-31 B, Street No. 5", "city": "Block M, West Sagarpur, Sagar Pur", "phone": "08178256664", "website": "https://bitainfotech.com/", "rating": 4.7, "review_count": "", "latitude": 28.6056495, "longitude": 77.1012293, "maps_url": "https://www.google.com/maps/place/?q=place_id:0x390d1ca8de94abb1:0xc070687f1d5f8558"}, {"place_id": "0x2a72b8b69d7b6493:0x11251466d4d34cac", "name": "WebZonal IT Company", "category": "Website designer", "street": "Wz-258/2-3, D Block Rd", "city": "Khazan Basti, Nangal Raya, Janakpuri", "phone": "09811170903", "website": "http://webzonal.com/", "rating": 5, "review_count": "", "latitude": 28.6122102, "longitude": 77.11159549999999, "maps_url": "https://www.google.com/maps/place/?q=place_id:0x2a72b8b69d7b6493:0x11251466d4d34cac"}, {"place_id": "0x390d0306a5205339:0xc8417239bcfe9f11", "name": "RSS INFOTECH PVT.LTD", "category": "Software company", "street": "1st floor, Didar Complex", "city": "6 DLE Industrial Area office no -128,129", "phone": "09953134732", "website": "https://www.rssindia.com/", "rating": 4.5, "review_count": "", "latitude": 28.656828299999997, "longitude": 77.1425177, "maps_url": "https://www.google.com/maps/place/?q=place_id:0x390d0306a5205339:0xc8417239bcfe9f11"}, {"place_id": "0x390d02994de5e515:0xd908bc03409a0d37", "name": "Himalayan IT Solutions | Best Website Designing Company in Delhi | SEO/Digital Marketing Company in Delhi NCR, India", "category": "Software company", "street": "61/4255, Padam Singh Rd", "city": "Block 29, Block 1, Regar Pura, Karol Bagh", "phone": "09899098509", "website": "http://www.himalayanitsolutions.com/", "rating": 3.9, "review_count": "", "latitude": 28.649673999999997, "longitude": 77.186599, "maps_url": "https://www.google.com/maps/place/?q=place_id:0x390d02994de5e515:0xd908bc03409a0d37"}, {"place_id": "0x390ce1fb44618b65:0x8e06b2a6128352d1", "name": "Acropolis Infotech - Delhi Office", "category": "Software company", "street": "metro station gate", "city": "55, 2nd Floor, Lane 2", "phone": "09999876593", "website": "https://www.acropolisinfotech.com/", "rating": 4.6, "review_count": "", "latitude": 28.518907, "longitude": 77.2015435, "maps_url": "https://www.google.com/maps/place/?q=place_id:0x390ce1fb44618b65:0x8e06b2a6128352d1"}, {"place_id": "0x390ce5fdcc79e755:0x309ce99251b84ef6", "name": "Optyminds IT Solutions - Top AI and IT company I Best Digital agency in Noida | Delhi NCR | India", "category": "Software company", "street": "1st Floor", "city": "B-70", "phone": "08929075975", "website": "https://optyminds.com/", "rating": 4.9, "review_count": "", "latitude": 28.584679599999998, "longitude": 77.3135042, "maps_url": "https://www.google.com/maps/place/?q=place_id:0x390ce5fdcc79e755:0x309ce99251b84ef6"}, {"place_id": "0x390d1d13b6d9434b:0xc20670ff2eb4f3fb", "name": "Future Domain Consulting", "category": "Human resource consulting", "street": "33, Street A", "city": "Block 1, Satya Niketan, South Moti Bagh", "phone": "08800395426", "website": "", "rating": 3.4, "review_count": "", "latitude": 28.5871186, "longitude": 77.1705207, "maps_url": "https://www.google.com/maps/place/?q=place_id:0x390d1d13b6d9434b:0xc20670ff2eb4f3fb"}, {"place_id": "0x390ce379c100ae01:0xf4cee3ee4a8e368e", "name": "Luezoid Technologies Private Limited", "category": "Software company", "street": "3rd Floor", "city": "10, Satya Niketan Rd", "phone": "09666718620", "website": "http://www.luezoid.com/", "rating": 4.1, "review_count": "", "latitude": 28.5877226, "longitude": 77.1671204, "maps_url": "https://www.google.com/maps/place/?q=place_id:0x390ce379c100ae01:0xf4cee3ee4a8e368e"}, {"place_id": "0x390d1d4d0e50913d:0xdb1cf17eefded4e8", "name": "Future Built", "category": "Interior designer", "street": "Type IV, Block E, South Moti Bagh", "city": "New Delhi, Delhi 110021", "phone": "08802728729", "website": "", "rating": 5, "review_count": 1, "latitude": 28.5814272, "longitude": 77.1686859, "maps_url": "https://www.google.com/maps/place/?q=place_id:0x390d1d4d0e50913d:0xdb1cf17eefded4e8"}, {"place_id": "0x390d1d2e973a42c5:0x9412c1d5250797e3", "name": "SPS Acmera (Best Projection Screen Fabric Company)", "category": "Fabric wholesaler", "street": "Godown E-1A, JR Complex Gate No.- 4, MelaRam Farm First Floor JR Complex", "city": "Gate Number 4 Rd", "phone": "08810300456", "website": "https://www.spsacmera.com/", "rating": 5, "review_count": 6, "latitude": 28.5802473, "longitude": 77.1739406, "maps_url": "https://www.google.com/maps/place/?q=place_id:0x390d1d2e973a42c5:0x9412c1d5250797e3"}, {"place_id": "0x390ce3db460cee5f:0x47a6e8d4aa56a40f", "name": "Injoria Technologies: Website, Custome Software, Mobile Apps Development company", "category": "Computer support and services", "street": "Second Floor", "city": "Pandav Nagar Complex", "phone": "09911177045", "website": "", "rating": 4.5, "review_count": 18, "latitude": 28.6215884, "longitude": 77.2842872, "maps_url": "https://www.google.com/maps/place/?q=place_id:0x390ce3db460cee5f:0x47a6e8d4aa56a40f"}, {"place_id": "0x390d1d841aaaaaab:0xa32856a97de4096b", "name": "BI Biotech India Pvt. Ltd. (Corporate Office)", "category": "Biotechnology company", "street": "328", "city": "Ansal Chamber-2", "phone": "01126101271", "website": "http://www.biotechindia.com/", "rating": 3.9, "review_count": 14, "latitude": 28.5677649, "longitude": 77.187382, "maps_url": "https://www.google.com/maps/place/?q=place_id:0x390d1d841aaaaaab:0xa32856a97de4096b"}, {"place_id": "0x390d1d13b7f8c74b:0x9b8e3ed5aab65dd7", "name": "Talent Valley", "category": "Human resource consulting", "street": "landmark- Venkateshwar College", "city": "12, Satya Niketan, 1st Floor, Service Lane", "phone": "09810405669", "website": "", "rating": 4.9, "review_count": 909, "latitude": 28.5877232, "longitude": 77.16712, "maps_url": "https://www.google.com/maps/place/?q=place_id:0x390d1d13b7f8c74b:0x9b8e3ed5aab65dd7"}, {"place_id": "0x390ce26dc4d4ba2d:0x9486a6d620e379f9", "name": "Akal Information Systems Ltd.", "category": "Software company", "street": "Tower J, World Trade Center", "city": "103", "phone": "01146503545", "website": "https://www.akalinfo.com/", "rating": 3.9, "review_count": 151, "latitude": 28.567935499999997, "longitude": 77.1923202, "maps_url": "https://www.google.com/maps/place/?q=place_id:0x390ce26dc4d4ba2d:0x9486a6d620e379f9"}, {"place_id": "0x390d1f5abfb25fe1:0x7d9c4d5e159f2955", "name": "Jaimru Technology Pvt Ltd", "category": "Software company", "street": "WARD NO. 2", "city": "Plot No. 178 M 33 A/1", "phone": "07838153420", "website": "https://www.jaimru.com/", "rating": 4.9, "review_count": 60, "latitude": 28.524347499999998, "longitude": 77.1731889, "maps_url": "https://www.google.com/maps/place/?q=place_id:0x390d1f5abfb25fe1:0x7d9c4d5e159f2955"}, {"place_id": "0x390ce1fb44618b65:0x8e06b2a6128352d1", "name": "Acropolis Infotech - Delhi Office", "category": "Software company", "street": "metro station gate", "city": "55, 2nd Floor, Lane 2", "phone": "09999876593", "website": "https://www.acropolisinfotech.com/", "rating": 4.6, "review_count": 38, "latitude": 28.518907, "longitude": 77.2015435, "maps_url": "https://www.google.com/maps/place/?q=place_id:0x390ce1fb44618b65:0x8e06b2a6128352d1"}, {"place_id": "0x390ce5fdcc79e755:0x309ce99251b84ef6", "name": "Optyminds IT Solutions - Top AI and IT company I Best Digital agency in Noida | Delhi NCR | India", "category": "Software company", "street": "1st Floor", "city": "B-70", "phone": "08929075975", "website": "https://optyminds.com/", "rating": 4.9, "review_count": 36, "latitude": 28.584679599999998, "longitude": 77.3135042, "maps_url": "https://www.google.com/maps/place/?q=place_id:0x390ce5fdcc79e755:0x309ce99251b84ef6"}, {"place_id": "0x390d1d5a2128b7d3:0x74f714c70d1979d2", "name": "The burger company", "category": "Restaurant", "street": "298, Satya niketan", "city": "next to metro station", "phone": "08510003955", "website": "", "rating": 4.2, "review_count": 13, "latitude": 28.588775499999997, "longitude": 77.1693049, "maps_url": "https://www.google.com/maps/place/?q=place_id:0x390d1d5a2128b7d3:0x74f714c70d1979d2"}, {"place_id": "0x390d1d0f2b039873:0x1254da1c0b3da26", "name": "IPRA Security Solutions Pvt. Ltd.", "category": "Security guard service", "street": "11 CSC", "city": "Anand Niketan", "phone": "01141028951", "website": "https://iprasecurity.com/", "rating": 4.7, "review_count": 270, "latitude": 28.578773599999998, "longitude": 77.1649467, "maps_url": "https://www.google.com/maps/place/?q=place_id:0x390d1d0f2b039873:0x1254da1c0b3da26"}, {"place_id": "0x390d1d11bc0287bb:0xf38bd19db9e32b3f", "name": "Department of Business Economics, University of Delhi", "category": "Academic department", "street": "H5P7+4QR", "city": "Benito Juarez Marg Near Spring Dale School", "phone": "01124157277", "website": "http://www.dbe-du.org/", "rating": 4.5, "review_count": 55, "latitude": 28.5853614, "longitude": 77.1643826, "maps_url": "https://www.google.com/maps/place/?q=place_id:0x390d1d11bc0287bb:0xf38bd19db9e32b3f"}, {"place_id": "0x390d1df079759d1f:0x8bfa70033f6c672a", "name": "NR Technoserve Pvt. Ltd.", "category": "Software company", "street": "133, Katwaria Sarai", "city": "Phase-2, Qutab Institutional Area", "phone": "07289096762", "website": "http://www.nrtechnoserve.co.in/", "rating": 4.4, "review_count": 20, "latitude": 28.5413306, "longitude": 77.18495519999999, "maps_url": "https://www.google.com/maps/place/?q=place_id:0x390d1df079759d1f:0x8bfa70033f6c672a"}, {"place_id": "0x390d02e54cb57e51:0x9b728fddc9aa673e", "name": "IT Solutions & Services (ITSS)", "category": "Computer service", "street": "T\u20132425 Street Number 21, Baljeet Nagar", "city": "West Patel Nagar", "phone": "08800419462", "website": "https://www.itssin.com/", "rating": 4.7, "review_count": 102, "latitude": 28.6576111, "longitude": 77.160708, "maps_url": "https://www.google.com/maps/place/?q=place_id:0x390d02e54cb57e51:0x9b728fddc9aa673e"}, {"place_id": "0x390d1dc539fc39dd:0xa8d421a9d22cb256", "name": "India best website development company", "category": "Software company", "street": "RZ74, RZ Rd", "city": "Hans Park, Block RZ, Sagarpur East, Sagar Pur", "phone": "", "website": "https://techbuddy31.co.in/", "rating": 5, "review_count": 1, "latitude": 28.6054396, "longitude": 77.1082699, "maps_url": "https://www.google.com/maps/place/?q=place_id:0x390d1dc539fc39dd:0xa8d421a9d22cb256"}, {"place_id": "0x390d1d13b6d9434b:0xc20670ff2eb4f3fb", "name": "Future Domain Consulting", "category": "Human resource consulting", "street": "33, Street A", "city": "Block 1, Satya Niketan, South Moti Bagh", "phone": "08800395426", "website": "", "rating": 3.4, "review_count": 214, "latitude": 28.5871186, "longitude": 77.1705207, "maps_url": "https://www.google.com/maps/place/?q=place_id:0x390d1d13b6d9434b:0xc20670ff2eb4f3fb"}, {"place_id": "0x390d1d13ebffffe1:0xe35273206cc9bd89", "name": "Detective Guru Rahul Rai Gupta - Secret Watch Detectives Pvt. Ltd.", "category": "Corporate office", "street": "284, 3rd Floor", "city": "Satya Niketan", "phone": "08826267700", "website": "https://secretwatchdetectives.com/", "rating": 4.9, "review_count": 1341, "latitude": 28.588499799999997, "longitude": 77.1687652, "maps_url": "https://www.google.com/maps/place/?q=place_id:0x390d1d13ebffffe1:0xe35273206cc9bd89"}, {"place_id": "0x390d1d1200317631:0xaf0dfd3727f2be81", "name": "Helia Journeys LLP", "category": "Tour agency", "street": "G-3, Benito Juarez Marg", "city": "Block G, Nanak Pura, Anand Niketan", "phone": "09773675150", "website": "http://heliajourneys.com/", "rating": 5, "review_count": 57, "latitude": 28.5842042, "longitude": 77.1658501, "maps_url": "https://www.google.com/maps/place/?q=place_id:0x390d1d1200317631:0xaf0dfd3727f2be81"}, {"place_id": "0x390d04afaaaaaaab:0xa0a133d0075e6be5", "name": "Website Development company", "category": "Software company", "street": "705/A/1", "city": "Bhikaji Cama Place", "phone": "01126100386", "website": "https://direct-i.com/", "rating": 4.8, "review_count": 6, "latitude": 28.5681396, "longitude": 77.18618649999999, "maps_url": "https://www.google.com/maps/place/?q=place_id:0x390d04afaaaaaaab:0xa0a133d0075e6be5"}, {"place_id": "0x390d1db040e36f01:0xa6ebc1d7ea604184", "name": "Mr & Miss City Fashion League Pvt. Ltd.", "category": "Media company", "street": "3rd floor", "city": "OFFICE", "phone": "09810517979", "website": "https://www.mrmisscity.com/", "rating": 4.7, "review_count": 3, "latitude": 28.579952799999997, "longitude": 77.17031279999999, "maps_url": "https://www.google.com/maps/place/?q=place_id:0x390d1db040e36f01:0xa6ebc1d7ea604184"}, {"place_id": "0x390cfcacae4e5a67:0x961a9738d8ff3f7c", "name": "Need Infotech", "category": "Software company", "street": "110012", "city": "E-557", "phone": "08860808752", "website": "https://www.needinfotech.com/", "rating": 4.8, "review_count": "", "latitude": 28.631518, "longitude": 77.1436078, "maps_url": "https://www.google.com/maps/place/?q=place_id:0x390cfcacae4e5a67:0x961a9738d8ff3f7c"}, {"place_id": "0x390ce45bcd61048f:0x5f6a5602f4155df7", "name": "JK Technosoft Limited", "category": "Software company", "street": "F", "city": "3", "phone": "01204606300", "website": "https://jktech.com/", "rating": 4.2, "review_count": "", "latitude": 28.5802509, "longitude": 77.31793329999999, "maps_url": "https://www.google.com/maps/place/?q=place_id:0x390ce45bcd61048f:0x5f6a5602f4155df7"}, {"place_id": "0x390cfd35391deb71:0xdbdd1388c7dc51b6", "name": "Jak Software Pvt Ltd", "category": "Software company", "street": "52 Janpath", "city": "New Delhi, Delhi 110001", "phone": "07827249056", "website": "http://www.jaksoftware.co.in/", "rating": 4.4, "review_count": "", "latitude": 28.627537999999998, "longitude": 77.21878989999999, "maps_url": "https://www.google.com/maps/place/?q=place_id:0x390cfd35391deb71:0xdbdd1388c7dc51b6"}, {"place_id": "0x390ce3db460cee5f:0x47a6e8d4aa56a40f", "name": "Injoria Technologies: Website, Custome Software, Mobile Apps Development company", "category": "Computer support and services", "street": "Second Floor", "city": "Pandav Nagar Complex", "phone": "09911177045", "website": "", "rating": 4.5, "review_count": "", "latitude": 28.6215884, "longitude": 77.2842872, "maps_url": "https://www.google.com/maps/place/?q=place_id:0x390ce3db460cee5f:0x47a6e8d4aa56a40f"}, {"place_id": "0x390ce25755122ea7:0x59e8215f1ba54e40", "name": "Ministry Of Marketing - Best Performance Marketing Agency", "category": "Marketing agency", "street": "7, Basrurkar Market Rd", "city": "Moti Bagh 1, Block D, Moti Bagh", "phone": "08700089990", "website": "http://www.ministryofmarketing.in/", "rating": 4.9, "review_count": "", "latitude": 28.581474099999998, "longitude": 77.1788444, "maps_url": "https://www.google.com/maps/place/?q=place_id:0x390ce25755122ea7:0x59e8215f1ba54e40"}, {"place_id": "0x390d068daabb01c5:0x9f458c7c5e28f8f0", "name": "Tekniko Global - Top Mobile App Development Company in Delhi | Android & iOS", "category": "Software company", "street": "", "city": "", "phone": "09311620027", "website": "https://www.teknikoglobal.com/", "rating": 4.5, "review_count": "", "latitude": 28.5870636, "longitude": 77.1721882, "maps_url": "https://www.google.com/maps/place/?q=place_id:0x390d068daabb01c5:0x9f458c7c5e28f8f0"}, {"place_id": "0x390d036a16f841d9:0x9b91311b1453f4c0", "name": "Zon Tec Solutions", "category": "Software company", "street": "3rd Floor", "city": "302 - 302 A, West", "phone": "09599902185", "website": "https://zontecsolutions.com/", "rating": 4.1, "review_count": "", "latitude": 28.6382303, "longitude": 77.1205162, "maps_url": "https://www.google.com/maps/place/?q=place_id:0x390d036a16f841d9:0x9b91311b1453f4c0"}, {"place_id": "0x390d011e517039e5:0xd7871aa892609a4c", "name": "Top #1 Website Company in delhi", "category": "Software company", "street": "P56H+9CP, Commercial Complex, Gopal Nagar, Model Town", "city": "near Akash Cinema", "phone": "", "website": "", "rating": 4.6, "review_count": "", "latitude": 28.7109375, "longitude": 77.1785625, "maps_url": "https://www.google.com/maps/place/?q=place_id:0x390d011e517039e5:0xd7871aa892609a4c"}, {"place_id": "0x390d1d841aaaaaab:0xa32856a97de4096b", "name": "BI Biotech India Pvt. Ltd. (Corporate Office)", "category": "Biotechnology company", "street": "328", "city": "Ansal Chamber-2", "phone": "01126101271", "website": "http://www.biotechindia.com/", "rating": 3.9, "review_count": "", "latitude": 28.5677649, "longitude": 77.187382, "maps_url": "https://www.google.com/maps/place/?q=place_id:0x390d1d841aaaaaab:0xa32856a97de4096b"}, {"place_id": "0x390d1db0aef40171:0xb748a2e6079dd53d", "name": "YB INFORMATICS", "category": "Computer support and services", "street": "43, Poorvi Marg", "city": "Block A, Vasant Vihar", "phone": "09650920040", "website": "http://www.ybinformatics.com/", "rating": 5, "review_count": "", "latitude": 28.560817399999998, "longitude": 77.1666408, "maps_url": "https://www.google.com/maps/place/?q=place_id:0x390d1db0aef40171:0xb748a2e6079dd53d"}, {"place_id": "0x390d1df8d1536897:0x16a28df7e236cedf", "name": "Kush Sahu", "category": "Computer support and services", "street": "Shop No 1", "city": "Nere School", "phone": "09304530622", "website": "", "rating": "", "review_count": "", "latitude": 28.581657399999997, "longitude": 77.1709202, "maps_url": "https://www.google.com/maps/place/?q=place_id:0x390d1df8d1536897:0x16a28df7e236cedf"}, {"place_id": "0x390d027d46aaaaab:0x424488cd037f060b", "name": "Creative Travel", "category": "Travel agency", "street": "27-30, Creative Plaza", "city": "Nanakpura, Moti Bagh South", "phone": "01244567777", "website": "http://www.creative.travel/", "rating": 3.8, "review_count": "", "latitude": 28.586196899999997, "longitude": 77.1685071, "maps_url": "https://www.google.com/maps/place/?q=place_id:0x390d027d46aaaaab:0x424488cd037f060b"}, {"place_id": "0x390d1ed3c6e9f579:0x322eccdb00f350d2", "name": "Techjockey", "category": "Software company", "street": "Ground floor, Habitat India", "city": "C-3", "phone": "01142213003", "website": "https://www.techjockey.com/", "rating": 4, "review_count": "", "latitude": 28.536615299999998, "longitude": 77.1902978, "maps_url": "https://www.google.com/maps/place/?q=place_id:0x390d1ed3c6e9f579:0x322eccdb00f350d2"}, {"place_id": "0x390d1dcc0b7042df:0xe8beed015fc6dd94", "name": "Chicken Company", "category": "Meat products store", "street": "Shop no.18", "city": "Market", "phone": "09711608446", "website": "https://chicken-company.grexa.site/", "rating": 4.9, "review_count": "", "latitude": 28.5806498, "longitude": 77.1684841, "maps_url": "https://www.google.com/maps/place/?q=place_id:0x390d1dcc0b7042df:0xe8beed015fc6dd94"}, {"place_id": "0x390d0302af76c545:0x97d6a46d40086acd", "name": "Solarman Technology Project Pvt Ltd - Digital Marketing Company in Delhi, India |Software Development Company | IT Company", "category": "Software company", "street": "6/14", "city": "Block 5, Kirti Nagar Industrial Area, Kirti Nagar", "phone": "07428086779", "website": "https://solarmantech.in/", "rating": 5, "review_count": "", "latitude": 28.6517841, "longitude": 77.14799649999999, "maps_url": "https://www.google.com/maps/place/?q=place_id:0x390d0302af76c545:0x97d6a46d40086acd"}, {"place_id": "0x390d1d4c55935395:0xab50652711211bc5", "name": "Deluxe Cargo Packers & Movers", "category": "Moving and storage service", "street": "Shop No. 28", "city": "near Gurudwara", "phone": "08929580075", "website": "http://www.deluxecargopackers.com/", "rating": 4.9, "review_count": "", "latitude": 28.5835272, "longitude": 77.16655, "maps_url": "https://www.google.com/maps/place/?q=place_id:0x390d1d4c55935395:0xab50652711211bc5"}, {"place_id": "0x390cfea83f36661b:0x893715bf8766e4ee", "name": "IT Solution", "category": "Software company", "street": "P7CG+RPF", "city": "Mahalaxmi Vihar, Phase 7, Block A, Shiv Vihar, Karawal Nagar", "phone": "09818231784", "website": "", "rating": 5, "review_count": "", "latitude": 28.722054399999998, "longitude": 77.2768011, "maps_url": "https://www.google.com/maps/place/?q=place_id:0x390cfea83f36661b:0x893715bf8766e4ee"}, {"place_id": "0x390d1d12c8127a87:0xdf257a3e79ba6bf0", "name": "Speed Broadband", "category": "Internet service provider", "street": "64-B, Village", "city": "Nanakpura Rd", "phone": "09811025353", "website": "", "rating": 4, "review_count": "", "latitude": 28.585663099999998, "longitude": 77.16944509999999, "maps_url": "https://www.google.com/maps/place/?q=place_id:0x390d1d12c8127a87:0xdf257a3e79ba6bf0"}, {"place_id": "0x390cfd355ca0fea9:0x1f2be0f1ef6dbdcf", "name": "Vayam Technologies Ltd.", "category": "Corporate office", "street": "Thapar House", "city": "124, Janpath Ln", "phone": "01147101200", "website": "https://www.vayamtech.com/", "rating": 3.8, "review_count": "", "latitude": 28.624508, "longitude": 77.21805499999999, "maps_url": "https://www.google.com/maps/place/?q=place_id:0x390cfd355ca0fea9:0x1f2be0f1ef6dbdcf"}, {"place_id": "0x390d1d4d0e50913d:0xdb1cf17eefded4e8", "name": "Future Built", "category": "Interior designer", "street": "Type IV, Block E, South Moti Bagh", "city": "New Delhi, Delhi 110021", "phone": "08802728729", "website": "", "rating": 5, "review_count": "", "latitude": 28.5814272, "longitude": 77.1686859, "maps_url": "https://www.google.com/maps/place/?q=place_id:0x390d1d4d0e50913d:0xdb1cf17eefded4e8"}, {"place_id": "0x390d1d4d0e50913d:0xdb1cf17eefded4e8", "name": "Future Built", "category": "Interior designer", "street": "Type IV, Block E, South Moti Bagh", "city": "New Delhi, Delhi 110021", "phone": "08802728729", "website": "", "rating": 5, "review_count": "", "latitude": 28.5814272, "longitude": 77.1686859, "maps_url": "https://www.google.com/maps/place/?q=place_id:0x390d1d4d0e50913d:0xdb1cf17eefded4e8"}, {"place_id": "0x390d1d1323b91801:0x5a4843b2de9c70a6", "name": "SCG Contracts India Pvt. Ltd", "category": "Real Estate Builders & Construction Company", "street": "240, 3rd & 4th Floor, Satya Niketan", "city": "Ring Road", "phone": "01146032435", "website": "http://scgindia.com/", "rating": 4.4, "review_count": "", "latitude": 28.587790799999997, "longitude": 77.1703265, "maps_url": "https://www.google.com/maps/place/?q=place_id:0x390d1d1323b91801:0x5a4843b2de9c70a6"}, {"place_id": "0x390d1d1200317631:0xaf0dfd3727f2be81", "name": "Helia Journeys LLP", "category": "Tour agency", "street": "G-3, Benito Juarez Marg", "city": "Block G, Nanak Pura, Anand Niketan", "phone": "09773675150", "website": "http://heliajourneys.com/", "rating": 5, "review_count": "", "latitude": 28.5842042, "longitude": 77.1658501, "maps_url": "https://www.google.com/maps/place/?q=place_id:0x390d1d1200317631:0xaf0dfd3727f2be81"}, {"place_id": "0x390ce25755122ea7:0x59e8215f1ba54e40", "name": "Ministry Of Marketing - Best Performance Marketing Agency", "category": "Advertising agency", "street": "7, Basrurkar Market Rd", "city": "Moti Bagh 1, Block D, Moti Bagh", "phone": "08700089990", "website": "http://www.ministryofmarketing.in/", "rating": 4.9, "review_count": "", "latitude": 28.581474099999998, "longitude": 77.1788444, "maps_url": "https://www.google.com/maps/place/?q=place_id:0x390ce25755122ea7:0x59e8215f1ba54e40"}, {"place_id": "0x390d1d96f3090577:0xb5c7a7e856482cb", "name": "MAX LOGISTIC PACKERS MOVERS", "category": "Transportation service", "street": "G-259,Block -F,Guru", "city": "Moti Nagar, Nanak Pura", "phone": "08588000134", "website": "https://maxlogisticpackers.com/", "rating": 4.7, "review_count": "", "latitude": 28.5852307, "longitude": 77.16977899999999, "maps_url": "https://www.google.com/maps/place/?q=place_id:0x390d1d96f3090577:0xb5c7a7e856482cb"}, {"place_id": "0x390d1d0982dfa0dd:0x404b7412ec70c0c", "name": "RKG Hygiene Solutions", "category": "Hygiene articles wholesaler", "street": "8D", "city": "Mini Market", "phone": "09999622545", "website": "", "rating": 4.7, "review_count": "", "latitude": 28.5851896, "longitude": 77.1706422, "maps_url": "https://www.google.com/maps/place/?q=place_id:0x390d1d0982dfa0dd:0x404b7412ec70c0c"}, {"place_id": "0x390d03ff3a6ee899:0xf355d89c9f801013", "name": "Esafe Hi-Tech Solutions Pvt. Ltd.", "category": "Computer service", "street": "4/52 , 3rd Floor", "city": "Shankar Road, Old Rajinder Nagar", "phone": "08800015155", "website": "https://esafesolutions.org/", "rating": 5, "review_count": "", "latitude": 28.6378399, "longitude": 77.1810955, "maps_url": "https://www.google.com/maps/place/?q=place_id:0x390d03ff3a6ee899:0xf355d89c9f801013"}, {"place_id": "0x390d1d0eae1da931:0xe70fb584621a0c3e", "name": "V. Yadav & Co.", "category": "Chartered accountant", "street": "DDA Market", "city": "1", "phone": "01141661511", "website": "http://www.vyadavco.com/", "rating": 3.9, "review_count": "", "latitude": 28.578680799999997, "longitude": 77.16503829999999, "maps_url": "https://www.google.com/maps/place/?q=place_id:0x390d1d0eae1da931:0xe70fb584621a0c3e"}, {"place_id": "0x390d1dab2d2b0617:0x230738e365419cae", "name": "CEMS India", "category": "Event management company", "street": "3rd Floor", "city": "18", "phone": "09870227007", "website": "http://cemsindia.in/", "rating": 5, "review_count": "", "latitude": 28.587577699999997, "longitude": 77.1669421, "maps_url": "https://www.google.com/maps/place/?q=place_id:0x390d1dab2d2b0617:0x230738e365419cae"}, {"place_id": "0x390d1d882fffffff:0x92ad1a5af869fcba", "name": "VAIKIN International Courier", "category": "Courier service", "street": "H. No. 230", "city": "Satya Niketan, South Moti Bagh", "phone": "09810346031", "website": "http://www.vaikin.com/", "rating": 4.6, "review_count": "", "latitude": 28.5880802, "longitude": 77.16978089999999, "maps_url": "https://www.google.com/maps/place/?q=place_id:0x390d1d882fffffff:0x92ad1a5af869fcba"}, {"place_id": "0x390d1c6bcfd37a51:0xe65828997af7f8dd", "name": "Ernst and Young Global Limited", "category": "Business management consultant", "street": "3rd & 6th Floor, Wing A & B Worldmark-1 Indira Gandhi International Airport Hospitality", "city": "Opp Holiday Inn", "phone": "", "website": "http://ey.com/", "rating": 4.6, "review_count": "", "latitude": 28.5504197, "longitude": 77.1220802, "maps_url": "https://www.google.com/maps/place/?q=place_id:0x390d1c6bcfd37a51:0xe65828997af7f8dd"}, {"place_id": "0x390cfb4bf15a6733:0xaf50e6f3c5fb7641", "name": "Digitals Daddy: Web & App Development Company", "category": "Software company", "street": "Metro Gate No. 2", "city": "Nearest Sikandarpur", "phone": "09818286609", "website": "https://www.digitalsdaddy.com/", "rating": 4.9, "review_count": "", "latitude": 28.4847884, "longitude": 77.0922192, "maps_url": "https://www.google.com/maps/place/?q=place_id:0x390cfb4bf15a6733:0xaf50e6f3c5fb7641"}, {"place_id": "0x390d0348be373921:0xdab0e6afc72090d6", "name": "\ud835\udc16\ud835\udc1e\ud835\udc1b\ud835\udc24\ud835\udc1a\ud835\udc2b\ud835\udc2d \ud835\udc03\ud835\udc22\ud835\udc20\ud835\udc22\ud835\udc2d\ud835\udc1a\ud835\udc25 \ud835\udc0f\ud835\udc2f\ud835\udc2d. \ud835\udc0b\ud835\udc2d\ud835\udc1d", "category": "Website designer", "street": "2nd Floor", "city": "C-127", "phone": "09711110321", "website": "https://webkartindia.com/", "rating": 4.9, "review_count": "", "latitude": 28.628981399999997, "longitude": 77.1369867, "maps_url": "https://www.google.com/maps/place/?q=place_id:0x390d0348be373921:0xdab0e6afc72090d6"}, {"place_id": "0x390d1d7410f39f77:0xace671909e9f7356", "name": "Shobha Star Events", "category": "Event management company", "street": "Mata Vaishno Devi Mandir", "city": "j-27", "phone": "", "website": "", "rating": 5, "review_count": "", "latitude": 28.58671, "longitude": 77.17424199999999, "maps_url": "https://www.google.com/maps/place/?q=place_id:0x390d1d7410f39f77:0xace671909e9f7356"}, {"place_id": "0x390d1d94f8044105:0xb118343ac0e664e7", "name": "Book My Tours India", "category": "Travel agency", "street": "413, Shri", "city": "Ram JJC, South Campus, South Moti Bagh", "phone": "07302778405", "website": "http://www.bookmytoursindia.in/", "rating": 4.9, "review_count": "", "latitude": 28.585137699999997, "longitude": 77.1696577, "maps_url": "https://www.google.com/maps/place/?q=place_id:0x390d1d94f8044105:0xb118343ac0e664e7"}, {"place_id": "0x390d1d2e973a42c5:0x9412c1d5250797e3", "name": "SPS Acmera (Best Projection Screen Fabric Company)", "category": "Fabric wholesaler", "street": "Godown E-1A, JR Complex Gate No.- 4, MelaRam Farm First Floor JR Complex", "city": "Gate Number 4 Rd", "phone": "08810300456", "website": "https://www.spsacmera.com/", "rating": 5, "review_count": "", "latitude": 28.5802473, "longitude": 77.1739406, "maps_url": "https://www.google.com/maps/place/?q=place_id:0x390d1d2e973a42c5:0x9412c1d5250797e3"}, {"place_id": "0x390d1d13a9aacf11:0x92e21c01528a7ff5", "name": "Sai Properties", "category": "Property management company", "street": "73", "city": "Moti Bagh II, Satya Niketan, South Moti Bagh", "phone": "09971606067", "website": "", "rating": 3.7, "review_count": "", "latitude": 28.5874673, "longitude": 77.1686268, "maps_url": "https://www.google.com/maps/place/?q=place_id:0x390d1d13a9aacf11:0x92e21c01528a7ff5"}, {"place_id": "0x390d1d72a859253b:0x2c0c6d4dd96e26d8", "name": "IndianOil", "category": "Petrol Pump", "street": "Lock No I", "city": "352 Gurudwara", "phone": "09810120002", "website": "https://locator.iocl.com/indianoil-raj-super-service-station-petrol-pump-gurudwara-ring-road-new-delhi-194890/Home", "rating": 4, "review_count": "", "latitude": 28.584367699999998, "longitude": 77.1721329, "maps_url": "https://www.google.com/maps/place/?q=place_id:0x390d1d72a859253b:0x2c0c6d4dd96e26d8"}, {"place_id": "0x390d1d130b5936a7:0x6dd65c4f4536d81f", "name": "CTC Air Carriers Private Limited", "category": "Freight Forwarding Agency", "street": "289, Benito Juarez Marg", "city": "Satya Niketan, South Moti Bagh", "phone": "01124672283", "website": "http://ctcair.in/", "rating": 5, "review_count": "", "latitude": 28.5886142, "longitude": 77.1694784, "maps_url": "https://www.google.com/maps/place/?q=place_id:0x390d1d130b5936a7:0x6dd65c4f4536d81f"}, {"place_id": "0x390d1d5a2128b7d3:0x74f714c70d1979d2", "name": "The burger company", "category": "Restaurant", "street": "298, Satya niketan", "city": "next to metro station", "phone": "08510003955", "website": "", "rating": 4.2, "review_count": "", "latitude": 28.588775499999997, "longitude": 77.1693049, "maps_url": "https://www.google.com/maps/place/?q=place_id:0x390d1d5a2128b7d3:0x74f714c70d1979d2"}, {"place_id": "0x390d1d96569ed74d:0xdead2970c5326923", "name": "Courier point", "category": "Courier service", "street": "Block H, Nanak Pura, South Moti Bagh", "city": "New Delhi, Delhi 110021", "phone": "09873494960", "website": "https://www.courierpoint.in/international_courier_cargo_company_in_india.php", "rating": 4.9, "review_count": "", "latitude": 28.583418899999998, "longitude": 77.168146, "maps_url": "https://www.google.com/maps/place/?q=place_id:0x390d1d96569ed74d:0xdead2970c5326923"}, {"place_id": "0x390d03fd9307cd73:0x7a223a0902c6e0cd", "name": "Web Cloud Technology", "category": "Website designer", "street": "3A/74 W.E.A", "city": "Sat Nagar, Karol Bagh", "phone": "08882324811", "website": "https://webcloudtechnology.in/", "rating": 4.4, "review_count": "", "latitude": 28.6465632, "longitude": 77.1824149, "maps_url": "https://www.google.com/maps/place/?q=place_id:0x390d03fd9307cd73:0x7a223a0902c6e0cd"}, {"place_id": "0x390d1d8baaaaaaab:0x81e02841f207d0f0", "name": "S SONY & COMPANY PVT. LTD", "category": "Real Estate Builders & Construction Company", "street": "G-4, ANUPAMA BUILDING II FLOOR", "city": "Hauz Khas", "phone": "01135002651", "website": "http://ssony.in/", "rating": 4.9, "review_count": "", "latitude": 28.5510508, "longitude": 77.2048471, "maps_url": "https://www.google.com/maps/place/?q=place_id:0x390d1d8baaaaaaab:0x81e02841f207d0f0"}, {"place_id": "0x390d1b0010fc2321:0x12e9154c815cf007", "name": "Prashant Dwivedi IT company", "category": "Warehouse", "street": "G3P5+GVC", "city": "Nayak Pura, Bijwasan", "phone": "", "website": "", "rating": "", "review_count": "", "latitude": 28.536316, "longitude": 77.059649, "maps_url": "https://www.google.com/maps/place/?q=place_id:0x390d1b0010fc2321:0x12e9154c815cf007"}, {"place_id": "0xd1516b679f60d2f:0x9458c47d907b59a8", "name": "MarkTech Company", "category": "Marketing agency", "street": "INA, Laxmi Bai Nagar", "city": "New Delhi, Delhi 110023", "phone": "08527880385", "website": "https://markteches.com/", "rating": 3.9, "review_count": "", "latitude": 28.5754463, "longitude": 77.2077127, "maps_url": "https://www.google.com/maps/place/?q=place_id:0xd1516b679f60d2f:0x9458c47d907b59a8"}, {"place_id": "0x390d1d0b7aaaaaab:0xd9444c533c2ebbc", "name": "Kachwaha & Partners", "category": "Law firm", "street": "1/6", "city": "Sector 3, Shanti Niketan", "phone": "01141661333", "website": "http://kaplegal.com/", "rating": 4.3, "review_count": "", "latitude": 28.577394199999997, "longitude": 77.1725658, "maps_url": "https://www.google.com/maps/place/?q=place_id:0x390d1d0b7aaaaaab:0xd9444c533c2ebbc"}, {"place_id": "0x390d1d12d8dcb791:0x19f0ff1f1806da9e", "name": "Carrier Media India Pvt.Ltd.", "category": "Refrigerator store", "street": "1/33 G, Ring Road", "city": "Moti Gaon, Moti Bagh South", "phone": "09050027370", "website": "http://carriermideaindia.com/", "rating": 2, "review_count": "", "latitude": 28.58721, "longitude": 77.17051699999999, "maps_url": "https://www.google.com/maps/place/?q=place_id:0x390d1d12d8dcb791:0x19f0ff1f1806da9e"}, {"place_id": "0x390ce15795555555:0x9bb8a801d00d7573", "name": "DreamSoft Infotech - Website Development Company in India", "category": "Software company", "street": "A-75 Third Floor", "city": "A Block, Sector 5", "phone": "01204380622", "website": "https://dreamsoftinfotech.com/", "rating": 3.4, "review_count": "", "latitude": 28.591018899999998, "longitude": 77.32201529999999, "maps_url": "https://www.google.com/maps/place/?q=place_id:0x390ce15795555555:0x9bb8a801d00d7573"}, {"place_id": "0x390d1d12b000cd95:0x44591c842f000675", "name": "Koundel Tourist Transport", "category": "Car rental agency", "street": "Shop No. 8 Mini Market Nanak Pura", "city": "New Delhi, Delhi 110021", "phone": "09971375932", "website": "http://www.koundeltourist.com/", "rating": 5, "review_count": "", "latitude": 28.5852722, "longitude": 77.17085639999999, "maps_url": "https://www.google.com/maps/place/?q=place_id:0x390d1d12b000cd95:0x44591c842f000675"}, {"place_id": "0x390d1d0b0bc6c5c7:0xf07b58176e8334be", "name": "Royale Realtors India", "category": "Real estate agency", "street": "19 DDA Market", "city": "Shanti Niketan", "phone": "09818312077", "website": "http://www.royalerealtorsindia.com/", "rating": 4.3, "review_count": "", "latitude": 28.576855899999998, "longitude": 77.16863649999999, "maps_url": "https://www.google.com/maps/place/?q=place_id:0x390d1d0b0bc6c5c7:0xf07b58176e8334be"}, {"place_id": "0x390d1d07da1b4d67:0x1ad77af3b6fc8b0f", "name": "East India Company", "category": "Furniture store", "street": "201, Rao Tularam Flyover", "city": "Vasant Enclave, Vasant Vihar", "phone": "09810038050", "website": "", "rating": 3.7, "review_count": "", "latitude": 28.5740731, "longitude": 77.1596352, "maps_url": "https://www.google.com/maps/place/?q=place_id:0x390d1d07da1b4d67:0x1ad77af3b6fc8b0f"}, {"place_id": "0x390d1ddd58162f01:0xab3fb218a885703a", "name": "India by Taxi cab", "category": "Car leasing service", "street": "A- 87", "city": "Moti Bagh 1, Block D2 B, WG Type, South Moti Bagh", "phone": "", "website": "", "rating": 5, "review_count": "", "latitude": 28.5819659, "longitude": 77.1750927, "maps_url": "https://www.google.com/maps/place/?q=place_id:0x390d1ddd58162f01:0xab3fb218a885703a"}, {"place_id": "0x390d1d1b6d126127:0xb42db8a3bd199527", "name": "Mediator Vikram", "category": "Mediation service", "street": "Anand Niketan", "city": "C-17, Benito Juarez Marg", "phone": "09810616644", "website": "https://mediatorvikram.com/", "rating": 5, "review_count": "", "latitude": 28.579834199999997, "longitude": 77.16290959999999, "maps_url": "https://www.google.com/maps/place/?q=place_id:0x390d1d1b6d126127:0xb42db8a3bd199527"}, {"place_id": "0x390d1d11bc0287bb:0xf38bd19db9e32b3f", "name": "Department of Business Economics, University of Delhi", "category": "Academic department", "street": "H5P7+4QR", "city": "Benito Juarez Marg Near Spring Dale School", "phone": "01124157277", "website": "http://www.dbe-du.org/", "rating": 4.5, "review_count": "", "latitude": 28.5853614, "longitude": 77.1643826, "maps_url": "https://www.google.com/maps/place/?q=place_id:0x390d1d11bc0287bb:0xf38bd19db9e32b3f"}, {"place_id": "0x390d1db040e36f01:0xa6ebc1d7ea604184", "name": "Mr & Miss City Fashion League Pvt. Ltd.", "category": "Media company", "street": "3rd floor", "city": "OFFICE", "phone": "09810517979", "website": "https://www.mrmisscity.com/", "rating": 4.7, "review_count": "", "latitude": 28.579952799999997, "longitude": 77.17031279999999, "maps_url": "https://www.google.com/maps/place/?q=place_id:0x390d1db040e36f01:0xa6ebc1d7ea604184"}, {"place_id": "0x390d1d24655a9ff3:0x598185f32f282085", "name": "Time For Travel", "category": "Travel agency", "street": "Moti Bagh II, Satya Niketan, South Moti Bagh", "city": "New Delhi, Delhi 110021", "phone": "", "website": "https://www.timefortravel.in/", "rating": 4.9, "review_count": "", "latitude": 28.5876058, "longitude": 77.1690556, "maps_url": "https://www.google.com/maps/place/?q=place_id:0x390d1d24655a9ff3:0x598185f32f282085"}, {"place_id": "0x3be7c21b5901e181:0x7fe794585addc1f6", "name": "Smartinfologiks - Software Development Company in India | IT Solutions", "category": "Software company", "street": "Hilton Center", "city": "514", "phone": "07400064691", "website": "https://www.smartinfologiks.com/", "rating": 4.6, "review_count": "", "latitude": 19.0139592, "longitude": 73.0382705, "maps_url": "https://www.google.com/maps/place/?q=place_id:0x3be7c21b5901e181:0x7fe794585addc1f6"}, {"place_id": "0x390d1f0df92e353d:0x54e79553d987073c", "name": "Zombie Marketers | Performance Marketing | Digital Marketing | Website development company in Delhi | SEO company in Delhi", "category": "Marketing agency", "street": "89/9 Mamman House B Block 4th Floor", "city": "Kishangarh Village, Vasant Kunj", "phone": "08527273938", "website": "", "rating": 4.4, "review_count": "", "latitude": 28.5189249, "longitude": 77.1646754, "maps_url": "https://www.google.com/maps/place/?q=place_id:0x390d1f0df92e353d:0x54e79553d987073c"}, {"place_id": "0x390d1dbca997176d:0x57e66bed722428a", "name": "Earthz Urban Spaces Pvt. Ltd.", "category": "Real Estate Builders & Construction Company", "street": "gate no 4", "city": "metro station", "phone": "09810313009", "website": "http://earthzurbanspaces.com/", "rating": 3.9, "review_count": "", "latitude": 28.5580338, "longitude": 77.1619972, "maps_url": "https://www.google.com/maps/place/?q=place_id:0x390d1dbca997176d:0x57e66bed722428a"}, {"place_id": "0x3bc2becdc35b6937:0x515ac559c349eee3", "name": "Thinkitive Technologies Private Limited", "category": "Software company", "street": "4th Floor", "city": "ABIL IMPERIAL COMMERCIAL SPACES", "phone": "08956467327", "website": "https://www.thinkitive.com/", "rating": 3.9, "review_count": "", "latitude": 18.5563888, "longitude": 73.7729748, "maps_url": "https://www.google.com/maps/place/?q=place_id:0x3bc2becdc35b6937:0x515ac559c349eee3"}, {"place_id": "0x390cfd35c8f89657:0xadbc7004661a9c74", "name": "Sterco Digitex Pvt Limited", "category": "Software company", "street": "2nd Floor", "city": "72, Janpath Rd", "phone": "01204857333", "website": "https://www.stercodigitex.com/", "rating": 4.1, "review_count": "", "latitude": 28.628133, "longitude": 77.21985099999999, "maps_url": "https://www.google.com/maps/place/?q=place_id:0x390cfd35c8f89657:0xadbc7004661a9c74"}, {"place_id": "0x390d1d53c56642f3:0x4048d5294200c7ae", "name": "Canvaxy", "category": "Computer support and services", "street": "Benito Juarez Marg", "city": "South Campus, South Moti Bagh", "phone": "", "website": "", "rating": "", "review_count": "", "latitude": 28.581427599999998, "longitude": 77.16358749999999, "maps_url": "https://www.google.com/maps/place/?q=place_id:0x390d1d53c56642f3:0x4048d5294200c7ae"}, {"place_id": "0x4e07060c4e4661bd:0x61b8f11fd7bcb70a", "name": "Full Web Mart - Digital Marketing Agency in Delhi", "category": "Website designer", "street": "Ground Floor", "city": "258", "phone": "", "website": "https://fullwebmart.com/", "rating": 5, "review_count": "", "latitude": 28.5852671, "longitude": 77.1708575, "maps_url": "https://www.google.com/maps/place/?q=place_id:0x4e07060c4e4661bd:0x61b8f11fd7bcb70a"}]}