{"timestamp": 1773731496.477089, "keyword": "IT company", "location": "delhi", "cell_idx": 478, "results": [{"place_id": "0x390ce21b8d636751:0xda2fa1d06a704eab", "name": "Prinknest Technology LLP", "category": "Software company", "street": "1st Floor", "city": "RZ 122 D, Plot No.1", "phone": "08076833804", "website": "https://prinknest.com/", "rating": 4.8, "review_count": "", "latitude": 28.606828, "longitude": 77.0816226, "maps_url": "https://www.google.com/maps/place/?q=place_id:0x390ce21b8d636751:0xda2fa1d06a704eab"}, {"place_id": "0x390d1c151596b775:0x754557c01b9adc82", "name": "A V TECHNO SOFT INDIA PRIVATE LIMITED", "category": "Software company", "street": "Gate No 3", "city": "Metro Station", "phone": "01141421924", "website": "http://www.avtechnosoftindia.com/", "rating": 4.3, "review_count": "", "latitude": 28.6078452, "longitude": 77.0774133, "maps_url": "https://www.google.com/maps/place/?q=place_id:0x390d1c151596b775:0x754557c01b9adc82"}, {"place_id": "0x390d05ecdc6529c1:0x7419fbbcac72b568", "name": "Traincape Technology Pvt Ltd", "category": "Software company", "street": "Traincape Technology, Khandolia Plaza", "city": "118/C, Dabri - Palam Rd", "phone": "09289589238", "website": "https://traincapetech.in/", "rating": 4.9, "review_count": "", "latitude": 28.607552, "longitude": 77.0819803, "maps_url": "https://www.google.com/maps/place/?q=place_id:0x390d05ecdc6529c1:0x7419fbbcac72b568"}, {"place_id": "0x390d1b348feffaaf:0x1d39ccb443b4228c", "name": "Sai Softlink Technologies", "category": "Software company", "street": "Street No-08", "city": "A-250", "phone": "09717360555", "website": "http://www.saisoftlink.com/", "rating": 4.6, "review_count": "", "latitude": 28.606681199999997, "longitude": 77.075874, "maps_url": "https://www.google.com/maps/place/?q=place_id:0x390d1b348feffaaf:0x1d39ccb443b4228c"}, {"place_id": "0x390d05506aaaaae7:0xb6ecfbcb8103e536", "name": "Go Business india | IT & Digital Marketing Company | Google & Social Media Promotion Company | Leads Generation Company", "category": "Software company", "street": "METRO PILLAR", "city": "Plot No-3 2nd Floor Main Om Vihar Phase - 1", "phone": "18002587735", "website": "http://www.gobusinessindia.com/", "rating": 4.6, "review_count": "", "latitude": 28.621423999999998, "longitude": 77.0534222, "maps_url": "https://www.google.com/maps/place/?q=place_id:0x390d05506aaaaae7:0xb6ecfbcb8103e536"}, {"place_id": "0x390d1b2adb5d443b:0xc02ec251a9ac224c", "name": "Kliff Technologies - Software Development & Website Development | Mobile App Development & Digital Marketing Company in Delhi", "category": "Website designer", "street": "1st Floor", "city": "RZ- A1, Pankha Rd", "phone": "09555608051", "website": "https://klifftechnologies.in/", "rating": 4.5, "review_count": "", "latitude": 28.6125735, "longitude": 77.08737169999999, "maps_url": "https://www.google.com/maps/place/?q=place_id:0x390d1b2adb5d443b:0xc02ec251a9ac224c"}, {"place_id": "0x390d1b497d10fb37:0xb0f4f0c7f7e5849b", "name": "KivonSoft Technology Pvt. Ltd.", "category": "Marketing agency", "street": "street, no 1", "city": "Ajad Singh Complex, 37E, 2nd floor", "phone": "08585941424", "website": "http://www.kivonsoft.com/", "rating": 4.9, "review_count": "", "latitude": 28.6098458, "longitude": 77.082195, "maps_url": "https://www.google.com/maps/place/?q=place_id:0x390d1b497d10fb37:0xb0f4f0c7f7e5849b"}, {"place_id": "0x390d054d244ad30f:0x3784c74184b34eda", "name": "Triyuga Soft Tech Pvt Ltd | IT Company in Delhi | Digital Marketing Company | Web Development Company", "category": "Software company", "street": "Wz-245/5d 1st Floor Main Najafgarh Road", "city": "West", "phone": "09267954524", "website": "https://www.triyugasofttech.com/", "rating": 4.4, "review_count": "", "latitude": 28.623697399999998, "longitude": 77.06208649999999, "maps_url": "https://www.google.com/maps/place/?q=place_id:0x390d054d244ad30f:0x3784c74184b34eda"}, {"place_id": "0x23fcf0d8b93f2fb7:0x745a018d0f07c925", "name": "Anshwar Tech Solutions", "category": "Software company", "street": "A-19 Chanakya Place", "city": "near Mata Chanan Devi Hospital", "phone": "", "website": "https://anshwartech.com/", "rating": 5, "review_count": "", "latitude": 28.6185697, "longitude": 77.0781253, "maps_url": "https://www.google.com/maps/place/?q=place_id:0x23fcf0d8b93f2fb7:0x745a018d0f07c925"}, {"place_id": "0x390d013ca8ac1387:0x8a0db85b518267d5", "name": "NexGen Innovators", "category": "Software company", "street": "114B, 3rd floor, Dwarka Mor", "city": "New Delhi, Delhi 110059", "phone": "", "website": "https://www.nexgi.com/", "rating": 4.9, "review_count": "", "latitude": 28.618961, "longitude": 77.0322202, "maps_url": "https://www.google.com/maps/place/?q=place_id:0x390d013ca8ac1387:0x8a0db85b518267d5"}, {"place_id": "0x390d04cab17864df:0xef92f88fa6d410b", "name": "Shivankit TechSolutions", "category": "Software company", "street": "#A1/2C Uttam Nagar", "city": "Chanakya Place", "phone": "08572828497", "website": "https://www.shivankit.com/", "rating": 5, "review_count": "", "latitude": 28.610444299999997, "longitude": 77.0785681, "maps_url": "https://www.google.com/maps/place/?q=place_id:0x390d04cab17864df:0xef92f88fa6d410b"}, {"place_id": "0x390d1ca8de94abb1:0xc070687f1d5f8558", "name": "Bita Infotech IT Solutions:: Website Designing & Development Company", "category": "Software company", "street": "Rz-31 B, Street No. 5", "city": "Block M, West Sagarpur, Sagar Pur", "phone": "08178256664", "website": "https://bitainfotech.com/", "rating": 4.7, "review_count": "", "latitude": 28.6056495, "longitude": 77.1012293, "maps_url": "https://www.google.com/maps/place/?q=place_id:0x390d1ca8de94abb1:0xc070687f1d5f8558"}, {"place_id": "0x390d05851091b5cd:0x9def6179c5f609b6", "name": "Sakshem IT Solution Pvt Ltd.", "category": "Software company", "street": "2nd Floor, Block A1", "city": "A-1/175, Najafgarh Rd", "phone": "01149295000", "website": "http://sakshemit.com/", "rating": 4.6, "review_count": "", "latitude": 28.6277199, "longitude": 77.0737584, "maps_url": "https://www.google.com/maps/place/?q=place_id:0x390d05851091b5cd:0x9def6179c5f609b6"}, {"place_id": "0x390d04b615f8ed83:0x2ae79bdb5ccd3866", "name": "Wellness Marketing Solutions Private Limited", "category": "Electronics manufacturer", "street": "FF, Office No.4", "city": "A1/1, Market", "phone": "180030772727", "website": "", "rating": 4.4, "review_count": "", "latitude": 28.6105047, "longitude": 77.07855459999999, "maps_url": "https://www.google.com/maps/place/?q=place_id:0x390d04b615f8ed83:0x2ae79bdb5ccd3866"}, {"place_id": "0x390d04d370decd5d:0xd82806f679d631b7", "name": "CHERRY INFOTECH", "category": "Software company", "street": "160-161, Q-Extn", "city": "Uttam Vihar, Uttam Nagar", "phone": "08800110806", "website": "http://www.cherryinfotech.com/", "rating": 3.4, "review_count": "", "latitude": 28.6109226, "longitude": 77.0630848, "maps_url": "https://www.google.com/maps/place/?q=place_id:0x390d04d370decd5d:0xd82806f679d631b7"}, {"place_id": "0x390d1bf076ad40a5:0x6e54f7930154b26d", "name": "pNthaan: Technologies - Digital Marketing Company in Delhi - Social Media Marketing", "category": "Software company", "street": "D2/15, Dabri - Palam Rd", "city": "Vinod Puri, Block B 3, Vijay Enclave, Mahavir Enclave", "phone": "09810455309", "website": "https://pnthaan.com/", "rating": 4.9, "review_count": "", "latitude": 28.602663399999997, "longitude": 77.0801891, "maps_url": "https://www.google.com/maps/place/?q=place_id:0x390d1bf076ad40a5:0x6e54f7930154b26d"}, {"place_id": "0x390d05b6fdc03235:0x8dd85524bd84f080", "name": "BestWebs - Website, App & Software Development Company in Delhi", "category": "Software company", "street": "BestWebs Solution", "city": "WZ-17B, Dayal Sar Road", "phone": "", "website": "https://www.bestwebs.in/", "rating": 4.3, "review_count": "", "latitude": 28.619131699999997, "longitude": 77.05549289999999, "maps_url": "https://www.google.com/maps/place/?q=place_id:0x390d05b6fdc03235:0x8dd85524bd84f080"}, {"place_id": "0x390d05f1eaeb1b01:0x4f45f419c4086e63", "name": "Asciitech Solution Pvt Ltd", "category": "Software company", "street": "152B, 3rd Floor Mudgal Complex", "city": "Bal Udhyan Rd", "phone": "", "website": "http://asciitechsolution.com/", "rating": 4.2, "review_count": "", "latitude": 28.6212336, "longitude": 77.057799, "maps_url": "https://www.google.com/maps/place/?q=place_id:0x390d05f1eaeb1b01:0x4f45f419c4086e63"}, {"place_id": "0x2a72b8b69d7b6493:0x11251466d4d34cac", "name": "WebZonal IT Company", "category": "Website designer", "street": "Wz-258/2-3, D Block Rd", "city": "Khazan Basti, Nangal Raya, Janakpuri", "phone": "09811170903", "website": "http://webzonal.com/", "rating": 5, "review_count": "", "latitude": 28.6122102, "longitude": 77.11159549999999, "maps_url": "https://www.google.com/maps/place/?q=place_id:0x2a72b8b69d7b6493:0x11251466d4d34cac"}, {"place_id": "0x390d053af4b9fae1:0xa955718786ea4c90", "name": "Efficient IT & Electronic Services Private Limited", "category": "Software company", "street": "1st floor", "city": "VV Plaza building", "phone": "08750042191", "website": "http://www.efficientindia.com/", "rating": 4.4, "review_count": "", "latitude": 28.6100702, "longitude": 77.03385709999999, "maps_url": "https://www.google.com/maps/place/?q=place_id:0x390d053af4b9fae1:0xa955718786ea4c90"}, {"place_id": "0x390d1c153a0323ff:0x48e3aad9be77d23c", "name": "Msinterface Technologies Pvt Ltd - Website Designer in Dwarka", "category": "Software company", "street": "Mahavir Enclave", "city": "Mahavir Enclave I, Sector 1 Dwarka, Dwarka", "phone": "09971787219", "website": "https://www.msinterface.in/", "rating": 5, "review_count": "", "latitude": 28.5961926, "longitude": 77.0823114, "maps_url": "https://www.google.com/maps/place/?q=place_id:0x390d1c153a0323ff:0x48e3aad9be77d23c"}, {"place_id": "0x390d04cab17864df:0xaa2ebc710590143", "name": "Nexgon Technology Pvt. Ltd.", "category": "Software company", "street": "B-78A, Market", "city": "Block H, Sitapuri Part 2, Chanakya Place", "phone": "09654755369", "website": "http://nexgon.in/", "rating": 1.7, "review_count": "", "latitude": 28.6105047, "longitude": 77.07855459999999, "maps_url": "https://www.google.com/maps/place/?q=place_id:0x390d04cab17864df:0xaa2ebc710590143"}, {"place_id": "0x390d052784967271:0x3800de98e6304b2d", "name": "Software & Website Development Company - InCodersLab", "category": "Software company", "street": "1ST FLOOR", "city": "WZ A-198, Hastsal Rd", "phone": "09110099102", "website": "https://incoderslab.com/", "rating": 4.9, "review_count": "", "latitude": 28.6240554, "longitude": 77.0622583, "maps_url": "https://www.google.com/maps/place/?q=place_id:0x390d052784967271:0x3800de98e6304b2d"}, {"place_id": "0x390d050049b90f67:0x1f4a3d5e8dd426b6", "name": "N 24 mahavir enclave", "category": "Computer support and services", "street": "N/50B", "city": "Chanakya Place II, Part-II, Sitapuri Part 2, Sitapuri", "phone": "", "website": "", "rating": "", "review_count": "", "latitude": 28.6103213, "longitude": 77.074083, "maps_url": "https://www.google.com/maps/place/?q=place_id:0x390d050049b90f67:0x1f4a3d5e8dd426b6"}, {"place_id": "0x390d04caefab7813:0x5c0ce1119a71f9cd", "name": "Universal Network of Infotech", "category": "Software company", "street": "WZ-61A/8A, Lane No 17, Vashist Park, Pankha Road, Janak Puri Institutional Area", "city": "25 Feet Rd", "phone": "01128526116", "website": "", "rating": "", "review_count": "", "latitude": 28.6125701, "longitude": 77.0776147, "maps_url": "https://www.google.com/maps/place/?q=place_id:0x390d04caefab7813:0x5c0ce1119a71f9cd"}, {"place_id": "0x390d1da73a24973f:0xfcbd561b3e6e5b0b", "name": "Adsource IT Solutions", "category": "Software company", "street": "Metro Pilllar, metro station", "city": "Dwarka More", "phone": "", "website": "https://www.adsourceitsolutions.com/", "rating": 5, "review_count": "", "latitude": 28.619874, "longitude": 77.0310854, "maps_url": "https://www.google.com/maps/place/?q=place_id:0x390d1da73a24973f:0xfcbd561b3e6e5b0b"}, {"place_id": "0x390ce458d0000001:0xf2123bd299ec4501", "name": "IT Company India", "category": "Software company", "street": "D56", "city": "D Block, Sector 10", "phone": "09999244854", "website": "https://www.itcompanyindia.in/", "rating": 4.7, "review_count": "", "latitude": 28.589917699999997, "longitude": 77.3351153, "maps_url": "https://www.google.com/maps/place/?q=place_id:0x390ce458d0000001:0xf2123bd299ec4501"}, {"place_id": "0x390d1b1fb85c71ed:0x1aa4ba2a08b02c1d", "name": "Tecmicra Solutions - Software, Website Development & Digital Marketing Company", "category": "Software company", "street": "Floor, D410", "city": "3rd", "phone": "07042387253", "website": "https://tecmicra.co.in/", "rating": 5, "review_count": "", "latitude": 28.5849324, "longitude": 77.071085, "maps_url": "https://www.google.com/maps/place/?q=place_id:0x390d1b1fb85c71ed:0x1aa4ba2a08b02c1d"}, {"place_id": "0x8be65278a5572b07:0x413ba8eb2bfa0ea6", "name": "Webcorewin Business Solution LLP | Top Website & Software Development Company in Delhi NCR", "category": "Software company", "street": "Metro Pillar Number 571", "city": "Second Floor", "phone": "09811382167", "website": "https://www.webcorewin.com/", "rating": 5, "review_count": "", "latitude": 28.6314446, "longitude": 77.0831694, "maps_url": "https://www.google.com/maps/place/?q=place_id:0x8be65278a5572b07:0x413ba8eb2bfa0ea6"}, {"place_id": "0x390d05ab36c173d7:0xeed262fcfef0eb1f", "name": "Tech System and Security Solutions.", "category": "Computer repair service", "street": "G 126 Gali Number 26", "city": "Main, Rajapuri Road", "phone": "08287063947", "website": "https://wa.me/918287063947", "rating": 5, "review_count": "", "latitude": 28.6099933, "longitude": 77.0751854, "maps_url": "https://www.google.com/maps/place/?q=place_id:0x390d05ab36c173d7:0xeed262fcfef0eb1f"}, {"place_id": "0x390d059150d8d8d3:0xa88f8d2856eab58e", "name": "Codemez It Solutions", "category": "Software company", "street": "Ground Floor", "city": "H No 271", "phone": "08800598521", "website": "https://codemez.com/", "rating": 5, "review_count": "", "latitude": 28.6140609, "longitude": 77.0312409, "maps_url": "https://www.google.com/maps/place/?q=place_id:0x390d059150d8d8d3:0xa88f8d2856eab58e"}, {"place_id": "0x390d059cda471b33:0x48b1d97ba40ee8a0", "name": "Safder Ali (Freelance Web Developer in Delhi, india)", "category": "Website designer", "street": "B-90, Gali No. 3", "city": "Block H, Part 2, Sitapuri", "phone": "07531877045", "website": "", "rating": 4.9, "review_count": "", "latitude": 28.6110522, "longitude": 77.0793217, "maps_url": "https://www.google.com/maps/place/?q=place_id:0x390d059cda471b33:0x48b1d97ba40ee8a0"}, {"place_id": "0x390d04d6aaaaaaab:0x6d2dd9b5b477e4e8", "name": "IT SOLUTIONS & SERVICES - Computer laptop CCTV and Digital Marketing Services", "category": "Computer service", "street": "B-2, Suraksha vihar", "city": "Vikas Nagar, Uttam Nagar", "phone": "08860403626", "website": "http://www.itssin.com/", "rating": 5, "review_count": "", "latitude": 28.6405785, "longitude": 77.0457845, "maps_url": "https://www.google.com/maps/place/?q=place_id:0x390d04d6aaaaaaab:0x6d2dd9b5b477e4e8"}, {"place_id": "0x4aae0663c3deca9b:0x4c38411d99fb6a76", "name": "Best Web India- Website Designing and Web Development Company", "category": "Website designer", "street": "D-25, Gali No.10", "city": "New Jankipuri, Uttam Nagar, Bindapur", "phone": "09318492254", "website": "https://www.bestwebindia.com/", "rating": 5, "review_count": "", "latitude": 28.6080206, "longitude": 77.07317429999999, "maps_url": "https://www.google.com/maps/place/?q=place_id:0x4aae0663c3deca9b:0x4c38411d99fb6a76"}, {"place_id": "0x390d05f1c70d0d6b:0x80d816e36f28618f", "name": "Katchin Tech Private Limited | Software Development Company in Delhi NCR", "category": "Software company", "street": "A-4", "city": "near skin decor", "phone": "07669005215", "website": "https://www.katchintech.com/", "rating": 5, "review_count": "", "latitude": 28.575834099999998, "longitude": 77.05139609999999, "maps_url": "https://www.google.com/maps/place/?q=place_id:0x390d05f1c70d0d6b:0x80d816e36f28618f"}, {"place_id": "0x390d0559358f3f43:0x842dbc0884057f4c", "name": "DigiTalk Infotech", "category": "Software company", "street": "WZ B-2 BLOCK 2", "city": "Z-BLOCK, B-2, Uttam Nagar", "phone": "09354502385", "website": "https://www.digitalkinfotech.com/", "rating": 4.9, "review_count": "", "latitude": 28.6213701, "longitude": 77.0546701, "maps_url": "https://www.google.com/maps/place/?q=place_id:0x390d0559358f3f43:0x842dbc0884057f4c"}, {"place_id": "0x390d1b8a2ffab6d1:0x4cf87095fb08e7b4", "name": "A to Z IT Solutions", "category": "Computer support and services", "street": "Gali no 1", "city": "A-24, 40 Feet Rd", "phone": "", "website": "", "rating": "", "review_count": "", "latitude": 28.6082017, "longitude": 77.07706929999999, "maps_url": "https://www.google.com/maps/place/?q=place_id:0x390d1b8a2ffab6d1:0x4cf87095fb08e7b4"}, {"place_id": "0x390d05cd2ace8d53:0xf82774e10e1ff47c", "name": "Quicky Technologies", "category": "Software company", "street": "3rd Floor", "city": "C-85, Rama Park Rd", "phone": "09899550472", "website": "https://www.quickytechnologies.com/", "rating": 5, "review_count": "", "latitude": 28.622149999999998, "longitude": 77.03673069999999, "maps_url": "https://www.google.com/maps/place/?q=place_id:0x390d05cd2ace8d53:0xf82774e10e1ff47c"}, {"place_id": "0x8ace583f4f849005:0x8e2302d49a3d0d32", "name": "GLOBAL TECHNOLOGY (GT) CONNECT", "category": "Software company", "street": "metro exit gate", "city": "B-77, First Floor, Sewak Park", "phone": "09211458714", "website": "https://www.globaltechnologyconnect.com/", "rating": 5, "review_count": "", "latitude": 28.618889799999998, "longitude": 77.0509601, "maps_url": "https://www.google.com/maps/place/?q=place_id:0x8ace583f4f849005:0x8e2302d49a3d0d32"}, {"place_id": "0x390d04d2f6575abb:0xd5553781913e9a53", "name": "Espial Infotech", "category": "Software company", "street": "Uttam Vihar, Block B, Uttam Nagar, Bindapur", "city": "Delhi, 110059", "phone": "", "website": "http://espial.in/", "rating": 5, "review_count": "", "latitude": 28.611546399999998, "longitude": 77.06602269999999, "maps_url": "https://www.google.com/maps/place/?q=place_id:0x390d04d2f6575abb:0xd5553781913e9a53"}, {"place_id": "0x390d1df0721e08c5:0x49d5fd4648a33c2d", "name": "Nibble Software | Website Design & Development | Travel Web API & CRM | SEO, SMO, Paid Ads, Amazon & Flipkart Marketing", "category": "Website designer", "street": "4th Floor", "city": "Moolchand Tower", "phone": "09971066697", "website": "https://www.nibblesoftware.com/", "rating": 4.8, "review_count": "", "latitude": 28.6000862, "longitude": 77.0818018, "maps_url": "https://www.google.com/maps/place/?q=place_id:0x390d1df0721e08c5:0x49d5fd4648a33c2d"}, {"place_id": "0x390d05d963d99f53:0x91edee2f04d3bf7f", "name": "Qurilo Solutions Private Limited", "category": "Software company", "street": "Metro Station", "city": "Block-A, RZ-91/2, Second Floor, Main Mohan Garden Bus Stand", "phone": "07303684058", "website": "https://www.qurilo.com/", "rating": 4.8, "review_count": "", "latitude": 28.620371199999997, "longitude": 77.04135459999999, "maps_url": "https://www.google.com/maps/place/?q=place_id:0x390d05d963d99f53:0x91edee2f04d3bf7f"}, {"place_id": "0x390d058eebd4e349:0xe3540cff21ac1db4", "name": "Matrix Infotech Solution | Software Development Company in Delhi", "category": "Software company", "street": "3rd floor, Besmate Indian Bank, housing complex", "city": "Main Market", "phone": "08920817059", "website": "https://www.matrixinfotechsolution.com/", "rating": 5, "review_count": "", "latitude": 28.6165375, "longitude": 77.0282521, "maps_url": "https://www.google.com/maps/place/?q=place_id:0x390d058eebd4e349:0xe3540cff21ac1db4"}, {"place_id": "0x390d057a964f6fd7:0xee9473a3a884e657", "name": "Weblytics Infotech - Crm Software Company Delhi, ERP Software Company in Delhi, MLM Software Company in Delhi", "category": "Software company", "street": "E, 40", "city": "Shiv Vihar Rd", "phone": "07291827082", "website": "https://www.weblyticsinfotech.com/crm-software-in-delhi.php", "rating": 4.9, "review_count": "", "latitude": 28.643033799999998, "longitude": 77.05317409999999, "maps_url": "https://www.google.com/maps/place/?q=place_id:0x390d057a964f6fd7:0xee9473a3a884e657"}, {"place_id": "0x390d05f74d23e473:0x3c8b46b00054fd18", "name": "Deliver Future Technologies (Graphics, Websites, Apps, Hosting & One destination - Complete IT solutions )", "category": "Software company", "street": "STREET NO. 13", "city": "PLOT NO. 94/95, 55 Foota Road", "phone": "09555534066", "website": "http://www.deliverfuture.com/", "rating": 5, "review_count": "", "latitude": 28.6268811, "longitude": 77.02857, "maps_url": "https://www.google.com/maps/place/?q=place_id:0x390d05f74d23e473:0x3c8b46b00054fd18"}, {"place_id": "0x390d0512043d68eb:0xa0a236331ac360c9", "name": "MLM Software Providers : Best MLM Software Company in Delhi | MLM Website Demo", "category": "Software company", "street": "near Dwarka Mor Metro Station", "city": "Sewak Park, Uttam Nagar", "phone": "09039336261", "website": "https://mlmwebsoftware.in/", "rating": 5, "review_count": "", "latitude": 28.614188, "longitude": 77.03621799999999, "maps_url": "https://www.google.com/maps/place/?q=place_id:0x390d0512043d68eb:0xa0a236331ac360c9"}, {"place_id": "0x390d0537c5555555:0x5f01df07c82453a9", "name": "Famepixel IT Hub", "category": "Software company", "street": "Pillar number 783", "city": "Metro Station Dwarka Mor", "phone": "07210868167", "website": "http://famepixel.com/", "rating": 4.9, "review_count": "", "latitude": 28.618416, "longitude": 77.0324006, "maps_url": "https://www.google.com/maps/place/?q=place_id:0x390d0537c5555555:0x5f01df07c82453a9"}, {"place_id": "0x1467f6f60d47359b:0x3ea62ed571eb45a9", "name": "SPG Technologies", "category": "Software company", "street": "housing complex", "city": "D-89", "phone": "09990390197", "website": "http://www.spgtechnologies.com/", "rating": 4.8, "review_count": "", "latitude": 28.6236146, "longitude": 77.0261836, "maps_url": "https://www.google.com/maps/place/?q=place_id:0x1467f6f60d47359b:0x3ea62ed571eb45a9"}, {"place_id": "0x390d05713cbc05f9:0x29ec332097ea9861", "name": "Bluebyte It Solutions", "category": "Software company", "street": "MS-83", "city": "Block MS, Mohan Garden, Uttam Nagar", "phone": "08178838292", "website": "https://www.bluebyteitsolutions.com/", "rating": 5, "review_count": "", "latitude": 28.6289797, "longitude": 77.0335781, "maps_url": "https://www.google.com/maps/place/?q=place_id:0x390d05713cbc05f9:0x29ec332097ea9861"}, {"place_id": "0x390d1b4653b9a801:0x86f5689aae957554", "name": "eWeblink Technology - Web Design & Development Company in Delhi", "category": "Software company", "street": "2nd floor", "city": "A2, Dabri - Palam Rd", "phone": "09015858565", "website": "https://eweblink.net/", "rating": 4.1, "review_count": "", "latitude": 28.6000421, "longitude": 77.08201629999999, "maps_url": "https://www.google.com/maps/place/?q=place_id:0x390d1b4653b9a801:0x86f5689aae957554"}, {"place_id": "0x390d059671a64d2f:0xb361357944c4a556", "name": "BurningCompass", "category": "Software company", "street": "L-110, Chanakya Place", "city": "near Mongia Computer Institute", "phone": "09205920555", "website": "https://www.burningcompass.com/", "rating": 5, "review_count": "", "latitude": 28.610981199999998, "longitude": 77.07725889999999, "maps_url": "https://www.google.com/maps/place/?q=place_id:0x390d059671a64d2f:0xb361357944c4a556"}, {"place_id": "0x390d05035d069c35:0x732c882d67fb79ce", "name": "Bizz Plus Solutions - Billing Software, Inventory Software , Restaurant Software In Delhi", "category": "Software company", "street": "A1/64B", "city": "Block D, Sewak Park, Dwarka", "phone": "09910480280", "website": "", "rating": 4.8, "review_count": "", "latitude": 28.6147715, "longitude": 77.0340168, "maps_url": "https://www.google.com/maps/place/?q=place_id:0x390d05035d069c35:0x732c882d67fb79ce"}, {"place_id": "0x390d1b1ee9b7244f:0x94de2ceb0a1199eb", "name": "PNH Infotech Digital Marketing", "category": "Software company", "street": "SHOP NO-10", "city": "RZ-17, Street Number 5", "phone": "07982414307", "website": "http://www.pnhinfotech.com/", "rating": 5, "review_count": "", "latitude": 28.608214999999998, "longitude": 77.0926496, "maps_url": "https://www.google.com/maps/place/?q=place_id:0x390d1b1ee9b7244f:0x94de2ceb0a1199eb"}, {"place_id": "0x390d1baaff346a7b:0x1b774913c94bd822", "name": "Ontech Digital Technologies Pvt. Ltd.", "category": "Website designer", "street": "3rd floor", "city": "Shyam Kunj Tower", "phone": "08802377021", "website": "https://ontechdigital.com/", "rating": 5, "review_count": "", "latitude": 28.5994429, "longitude": 77.0819152, "maps_url": "https://www.google.com/maps/place/?q=place_id:0x390d1baaff346a7b:0x1b774913c94bd822"}, {"place_id": "0x390d0527bcd5e67b:0x3965268cc84f1041", "name": "Anichand Technology", "category": "Software company", "street": "G-12, Shyam Park, Nawada Metro Station", "city": "Gate Number 1 Rd", "phone": "08920213690", "website": "", "rating": 4.8, "review_count": "", "latitude": 28.627177099999997, "longitude": 77.06674389999999, "maps_url": "https://www.google.com/maps/place/?q=place_id:0x390d0527bcd5e67b:0x3965268cc84f1041"}, {"place_id": "0x390d1bce4922443b:0x1d3d203acccf9c6b", "name": "Startup Era", "category": "Computer support and services", "street": "Durgapuri & Dwarkapuri, Block A, Vijay Enclave, Work2zone", "city": "New Delhi, Delhi, 110045", "phone": "09117101716", "website": "https://startupera.co.in/", "rating": 4.9, "review_count": "", "latitude": 28.6071124, "longitude": 77.0812361, "maps_url": "https://www.google.com/maps/place/?q=place_id:0x390d1bce4922443b:0x1d3d203acccf9c6b"}, {"place_id": "0x390d03e4b3b5c3a1:0x7dac887432b854cf", "name": "Digilinkers - Best Digital Marketing Agency in Delhi | Website Development", "category": "Website designer", "street": "2nd floor", "city": "Metro Station Gate", "phone": "09818000334", "website": "https://digilinkers.com/", "rating": 4.7, "review_count": "", "latitude": 28.6137274, "longitude": 77.08550269999999, "maps_url": "https://www.google.com/maps/place/?q=place_id:0x390d03e4b3b5c3a1:0x7dac887432b854cf"}, {"place_id": "0x390d052a1265bc33:0xd1f77384fcc24135", "name": "Grace Techno | Web Designing Company in Delhi | Web & Software Development Company in Delhi", "category": "Software company", "street": "First Floor", "city": "Building Burger King", "phone": "08595273503", "website": "https://gracetechno.online/", "rating": 5, "review_count": "", "latitude": 28.6198245, "longitude": 77.054174, "maps_url": "https://www.google.com/maps/place/?q=place_id:0x390d052a1265bc33:0xd1f77384fcc24135"}, {"place_id": "0x390d1bbf7873b92b:0xb13923c5c0ba8fc6", "name": "DCC Green Energy Pvt Ltd (Head Office)", "category": "Corporate office", "street": "Main Extensions", "city": "RZ-79-80, Gali No. 1", "phone": "07290049003", "website": "https://www.zerowasterecycler.com/", "rating": 4.8, "review_count": "", "latitude": 28.6088156, "longitude": 77.083559, "maps_url": "https://www.google.com/maps/place/?q=place_id:0x390d1bbf7873b92b:0xb13923c5c0ba8fc6"}, {"place_id": "0x390d0535f75f906d:0x5766b40eb88860ea", "name": "Technogix Solutions", "category": "Computer support and services", "street": "P16", "city": "Chanakya Place II, Anup Nagar, Uttam Nagar, Bindapur", "phone": "09871149811", "website": "", "rating": 5, "review_count": "", "latitude": 28.609276299999998, "longitude": 77.07502389999999, "maps_url": "https://www.google.com/maps/place/?q=place_id:0x390d0535f75f906d:0x5766b40eb88860ea"}, {"place_id": "0x390d1b870d520967:0x6752131f3ff91542", "name": "Yogcad Solutions", "category": "Industrial consultant", "street": "Dr Lohia Industrial Area, Dabri Village, Dabri", "city": "New Delhi, Delhi, 110045", "phone": "09871244297", "website": "", "rating": 4.2, "review_count": "", "latitude": 28.6101641, "longitude": 77.08365359999999, "maps_url": "https://www.google.com/maps/place/?q=place_id:0x390d1b870d520967:0x6752131f3ff91542"}, {"place_id": "0x390d0547b5969763:0x7a1bc3649cb2ff91", "name": "Satyug Healthcare - International Patient Services in India ( Medical Tourism Company)", "category": "Health consultant", "street": "P-39A CHANKYA PLACE PAT-2, UTTAM NAGAR WET DELHI-110059", "city": "New Delhi, Delhi 110059", "phone": "08882424372", "website": "https://www.satyughealthcare.com/", "rating": 4.9, "review_count": "", "latitude": 28.6092758, "longitude": 77.0750513, "maps_url": "https://www.google.com/maps/place/?q=place_id:0x390d0547b5969763:0x7a1bc3649cb2ff91"}, {"place_id": "0x390d1baef0a1f8e5:0x41a753a46f12b010", "name": "Digilift Academy- Digital Marketing Institute", "category": "Education center", "street": "Rz-84 A Block Dabri", "city": "Main, Dabri - Palam Rd", "phone": "08788726918", "website": "https://digiliftacademy.com/", "rating": 4.4, "review_count": "", "latitude": 28.608807199999998, "longitude": 77.0827295, "maps_url": "https://www.google.com/maps/place/?q=place_id:0x390d1baef0a1f8e5:0x41a753a46f12b010"}, {"place_id": "0x390d04c87e7a7a95:0x1753a9da6f2f2657", "name": "Paper Recycling Company - Green-O-Tech India\u2122", "category": "Waste management service", "street": "169, Group Floor, Landmark Shakuntala school of nursing", "city": "Block RZ", "phone": "07840024848", "website": "http://greenotechindia.com/", "rating": 4.5, "review_count": "", "latitude": 28.6087419, "longitude": 77.0904177, "maps_url": "https://www.google.com/maps/place/?q=place_id:0x390d04c87e7a7a95:0x1753a9da6f2f2657"}, {"place_id": "0x390d1bde4056c567:0x4140521e938ed1f4", "name": "S K plus security solution", "category": "Computer security service", "street": "A 191", "city": "Gali No. 6", "phone": "", "website": "", "rating": 5, "review_count": "", "latitude": 28.6072138, "longitude": 77.0768286, "maps_url": "https://www.google.com/maps/place/?q=place_id:0x390d1bde4056c567:0x4140521e938ed1f4"}, {"place_id": "0x390d1b490beaf2c5:0x993e4b7b864a4419", "name": "Work2Zone", "category": "Coworking space", "street": "1/46 Vijay Enclave Opposite of Maruti Suzuki Magic Auto showroom Palam - dabri Marg opposite Jindal Public School dwarka New delhi", "city": "New", "phone": "07979087780", "website": "http://www.work2zone.com/", "rating": 4.8, "review_count": "", "latitude": 28.6070671, "longitude": 77.0812835, "maps_url": "https://www.google.com/maps/place/?q=place_id:0x390d1b490beaf2c5:0x993e4b7b864a4419"}, {"place_id": "0x390d04cbadc3cb69:0xacb3c36ce79befb6", "name": "Lakshaya Computer Institute-Best Computer Institute In Janak Puri-Best Computer Coaching In Janak Puri.", "category": "Software Training Institute", "street": "First Floor", "city": "chanakya place", "phone": "09313736198", "website": "http://lakshayainstitute.com/", "rating": 4.9, "review_count": "", "latitude": 28.609956399999998, "longitude": 77.0765053, "maps_url": "https://www.google.com/maps/place/?q=place_id:0x390d04cbadc3cb69:0xacb3c36ce79befb6"}, {"place_id": "0x390d1b489dcdb0b5:0x5666dda01eb6646c", "name": "Indias Company", "category": "Home goods store", "street": "Rzd 3/203 gali no 9 Mahavir Enclave I, Mahavir Enclave Part 2, Mahavir Enclave", "city": "Nar, Dashrath Puri", "phone": "08299423838", "website": "http://www.gassafetydevice.in/", "rating": 4.7, "review_count": "", "latitude": 28.6002743, "longitude": 77.0832405, "maps_url": "https://www.google.com/maps/place/?q=place_id:0x390d1b489dcdb0b5:0x5666dda01eb6646c"}, {"place_id": "0x390d1b4b357fd0f3:0x5164c9a529d8615b", "name": "National Steel Works (NSW)", "category": "Steel fabricator", "street": "4, Palam - Dabri Marg", "city": "market", "phone": "09555336161", "website": "https://pin.it/3349maA", "rating": 4.9, "review_count": "", "latitude": 28.6103295, "longitude": 77.0838053, "maps_url": "https://www.google.com/maps/place/?q=place_id:0x390d1b4b357fd0f3:0x5164c9a529d8615b"}, {"place_id": "0x390d05445c4f975b:0x10c123bfb62e384b", "name": "App Development Company in Delhi | Android App Company in Delhi", "category": "Software company", "street": "4 Floor", "city": "B-77", "phone": "", "website": "", "rating": "", "review_count": "", "latitude": 28.6150725, "longitude": 77.0341376, "maps_url": "https://www.google.com/maps/place/?q=place_id:0x390d05445c4f975b:0x10c123bfb62e384b"}, {"place_id": "0x390d1b34f952eaa7:0x8174d3d320e7d7c1", "name": "Indi Fast", "category": "Fastener supplier", "street": "S- 25, Chanakya Place", "city": "40 Feet Rd", "phone": "09810573967", "website": "", "rating": 4.3, "review_count": "", "latitude": 28.610941699999998, "longitude": 77.076137, "maps_url": "https://www.google.com/maps/place/?q=place_id:0x390d1b34f952eaa7:0x8174d3d320e7d7c1"}, {"place_id": "0x390d04caf03231ff:0x3a30a58d350d7071", "name": "ALSA INTERNATIONAL", "category": "Manufacturer", "street": "E-122-B, Front Side, 25 Feet Road, Chanakya Place", "city": "Part I, Uttam Nagar New", "phone": "09650155085", "website": "http://www.alsainternational.in/", "rating": 4.8, "review_count": "", "latitude": 28.610359499999998, "longitude": 77.0763309, "maps_url": "https://www.google.com/maps/place/?q=place_id:0x390d04caf03231ff:0x3a30a58d350d7071"}, {"place_id": "0x390d058bdb6dd021:0xf7283c805e4ff140", "name": "CloudNard Technologies Private Limited", "category": "Computer support and services", "street": "RZ-H", "city": "Block H, Part-02, Sitapuri", "phone": "08810226361", "website": "", "rating": 5, "review_count": "", "latitude": 28.610626399999997, "longitude": 77.0793675, "maps_url": "https://www.google.com/maps/place/?q=place_id:0x390d058bdb6dd021:0xf7283c805e4ff140"}, {"place_id": "0x390d1b31cb539a69:0x2e9e9b3fa8a8aeab", "name": "DICT INSTITUTE", "category": "Computer training school", "street": "BUS STAND", "city": "RZ - B-110, Dabri Dwarka Rd", "phone": "07827033614", "website": "https://dict.org.in/", "rating": 4.9, "review_count": "", "latitude": 28.6093239, "longitude": 77.0802707, "maps_url": "https://www.google.com/maps/place/?q=place_id:0x390d1b31cb539a69:0x2e9e9b3fa8a8aeab"}, {"place_id": "0x390d1be78e3b2823:0xf8152dae6bc9d501", "name": "Raghav Transport Packers and Movers !! Packers and Movers !!", "category": "Packaging company", "street": "A-15, Gali Number 3", "city": "Part 2, Mahavir Enclave Part 2, Mahavir Enclave Part 3, Mahavir Enclave", "phone": "09312432902", "website": "https://raghavtransportpackersandmovers.in/", "rating": 4.8, "review_count": "", "latitude": 28.6072213, "longitude": 77.0762132, "maps_url": "https://www.google.com/maps/place/?q=place_id:0x390d1be78e3b2823:0xf8152dae6bc9d501"}, {"place_id": "0x390d1bd4de94363b:0x25dbfb99e99463bd", "name": "Hypro web", "category": "Web hosting company", "street": "J34H+R5F", "city": "Dwarkapuri Rd", "phone": "09968917175", "website": "https://hyproweb.com/", "rating": 4.9, "review_count": "", "latitude": 28.6070505, "longitude": 77.0779223, "maps_url": "https://www.google.com/maps/place/?q=place_id:0x390d1bd4de94363b:0x25dbfb99e99463bd"}, {"place_id": "0x390d057935998adf:0xd8c9568f2c15d748", "name": "Noork", "category": "Computer support and services", "street": "Chanakya Place II, Block A, Sitapuri Part 2, Janakpuri", "city": "New Delhi, Delhi, 110059", "phone": "08178642398", "website": "https://www.noork.in/", "rating": "", "review_count": "", "latitude": 28.609958799999998, "longitude": 77.0764583, "maps_url": "https://www.google.com/maps/place/?q=place_id:0x390d057935998adf:0xd8c9568f2c15d748"}, {"place_id": "0x390d1b4a59bc74df:0x5b9ab3915048593a", "name": "SMV IT Solutions", "category": "Educational testing service", "street": "A-1/47, Dabri - Palam Rd", "city": "Block A, Vijay Enclave, Mahavir Enclave", "phone": "01149873512", "website": "", "rating": 3.7, "review_count": "", "latitude": 28.607143899999997, "longitude": 77.0814029, "maps_url": "https://www.google.com/maps/place/?q=place_id:0x390d1b4a59bc74df:0x5b9ab3915048593a"}, {"place_id": "0xac577056c2b5ff3d:0xaf00253141553d04", "name": "Devnotam | IT Company", "category": "Internet marketing service", "street": "", "city": "", "phone": "", "website": "https://devnotam.com/", "rating": 5, "review_count": "", "latitude": 28.692404999999997, "longitude": 77.090042, "maps_url": "https://www.google.com/maps/place/?q=place_id:0xac577056c2b5ff3d:0xaf00253141553d04"}, {"place_id": "0x390d04cae1555555:0xc469b09b624b2b7a", "name": "Spine Infotech", "category": "BPO Company", "street": "SHOP-3, AT", "city": "PLOT NO-A-1&2, WEST", "phone": "09416405931", "website": "http://spineinfotech.com/", "rating": 1.9, "review_count": "", "latitude": 28.6116545, "longitude": 77.0770357, "maps_url": "https://www.google.com/maps/place/?q=place_id:0x390d04cae1555555:0xc469b09b624b2b7a"}, {"place_id": "0x390d1b5f6afe68df:0x6bea045639300f9f", "name": "GCAP World Softech Private Limited", "category": "Education center", "street": "Sri Agrasen CGHS", "city": "Plot no 10, BC/B6", "phone": "07042415314", "website": "https://web.gcapworld.com/", "rating": 3.8, "review_count": "", "latitude": 28.6096461, "longitude": 77.0831243, "maps_url": "https://www.google.com/maps/place/?q=place_id:0x390d1b5f6afe68df:0x6bea045639300f9f"}, {"place_id": "0x390d05ac42811d0d:0xae7359e1acebdbb2", "name": "Neonutriva Healthcare Pvt Ltd", "category": "Pharmaceutical company", "street": "Police Station", "city": "S-23 FF Chankya Place Part-2", "phone": "09650888164", "website": "", "rating": 5, "review_count": "", "latitude": 28.6109469, "longitude": 77.07590239999999, "maps_url": "https://www.google.com/maps/place/?q=place_id:0x390d05ac42811d0d:0xae7359e1acebdbb2"}, {"place_id": "0x390d05b8e455e051:0x1b2d2701cac575e8", "name": "Soinech", "category": "Software company", "street": "A-10", "city": "Nanhey Park, Om Vihar, Uttam Nagar", "phone": "", "website": "https://soinech.com/", "rating": 5, "review_count": "", "latitude": 28.615056199999998, "longitude": 77.047398, "maps_url": "https://www.google.com/maps/place/?q=place_id:0x390d05b8e455e051:0x1b2d2701cac575e8"}, {"place_id": "0x390d056bae9f5887:0xf1e742a385d21d57", "name": "Vaibhav Softech", "category": "Software company", "street": "Dwarka Mor", "city": "H No. 32 gram sabha First Floor Metro Pillar. 774", "phone": "07488774467", "website": "https://vaibhavsoftech.com/", "rating": 4.4, "review_count": "", "latitude": 28.6240554, "longitude": 77.0622583, "maps_url": "https://www.google.com/maps/place/?q=place_id:0x390d056bae9f5887:0xf1e742a385d21d57"}, {"place_id": "0x390d1b870d520967:0x6752131f3ff91542", "name": "Yogcad Solutions", "category": "Industrial consultant", "street": "Dr Lohia Industrial Area, Dabri Village, Dabri", "city": "New Delhi, Delhi, 110045", "phone": "09871244297", "website": "", "rating": 4.2, "review_count": "", "latitude": 28.6101641, "longitude": 77.08365359999999, "maps_url": "https://www.google.com/maps/place/?q=place_id:0x390d1b870d520967:0x6752131f3ff91542"}, {"place_id": "0x390d0547b5969763:0x7a1bc3649cb2ff91", "name": "Satyug Healthcare - International Patient Services in India ( Medical Tourism Company)", "category": "Health consultant", "street": "P-39A CHANKYA PLACE PAT-2, UTTAM NAGAR WET DELHI-110059", "city": "New Delhi, Delhi 110059", "phone": "08882424372", "website": "https://www.satyughealthcare.com/", "rating": 4.9, "review_count": "", "latitude": 28.6092758, "longitude": 77.0750513, "maps_url": "https://www.google.com/maps/place/?q=place_id:0x390d0547b5969763:0x7a1bc3649cb2ff91"}, {"place_id": "0x390d1baef0a1f8e5:0x41a753a46f12b010", "name": "Digilift Academy- Digital Marketing Institute", "category": "Education center", "street": "Rz-84 A Block Dabri", "city": "Main, Dabri - Palam Rd", "phone": "08788726918", "website": "https://digiliftacademy.com/", "rating": 4.4, "review_count": "", "latitude": 28.608807199999998, "longitude": 77.0827295, "maps_url": "https://www.google.com/maps/place/?q=place_id:0x390d1baef0a1f8e5:0x41a753a46f12b010"}, {"place_id": "0x4f6402c2da16ff95:0xd3b65b0e189f65b0", "name": "Radiant Technologies - E-commerce Website Development & Designing Company, Digital Marketing, Customized CRM", "category": "Software company", "street": "Second Floor", "city": "WZ 10B, Asalatpur Rd", "phone": "09999886194", "website": "https://techradiant.net/", "rating": 4.5, "review_count": "", "latitude": 28.6217926, "longitude": 77.0763157, "maps_url": "https://www.google.com/maps/place/?q=place_id:0x4f6402c2da16ff95:0xd3b65b0e189f65b0"}, {"place_id": "0x390d05f43df5b29b:0x857f927e00982d67", "name": "MLM Software Company in Delhi | MLM Software Development", "category": "Software company", "street": "Plot no 198", "city": "Prashant Enclave, Bapraula Extension, Baprola", "phone": "08130287135", "website": "https://www.weblyticsinfotech.com/", "rating": 5, "review_count": "", "latitude": 28.6365546, "longitude": 77.01408649999999, "maps_url": "https://www.google.com/maps/place/?q=place_id:0x390d05f43df5b29b:0x857f927e00982d67"}, {"place_id": "0x390d04c87e7a7a95:0x1753a9da6f2f2657", "name": "Paper Recycling Company - Green-O-Tech India\u2122", "category": "Waste management service", "street": "169, Group Floor, Landmark Shakuntala school of nursing", "city": "Block RZ", "phone": "07840024848", "website": "http://greenotechindia.com/", "rating": 4.5, "review_count": "", "latitude": 28.6087419, "longitude": 77.0904177, "maps_url": "https://www.google.com/maps/place/?q=place_id:0x390d04c87e7a7a95:0x1753a9da6f2f2657"}, {"place_id": "0x390d1bde4056c567:0x4140521e938ed1f4", "name": "S K plus security solution", "category": "Computer security service", "street": "A 191", "city": "Gali No. 6", "phone": "", "website": "", "rating": 5, "review_count": "", "latitude": 28.6072138, "longitude": 77.0768286, "maps_url": "https://www.google.com/maps/place/?q=place_id:0x390d1bde4056c567:0x4140521e938ed1f4"}, {"place_id": "0x390d05ef967e0c39:0x89317c84e545a9b8", "name": "Puneet Agrawal Software Developer", "category": "Software company", "street": "Flat No. 305, Aditya Homes, Street no. 1", "city": "Matiala Rd", "phone": "", "website": "", "rating": 5, "review_count": "", "latitude": 28.6156106, "longitude": 77.0478225, "maps_url": "https://www.google.com/maps/place/?q=place_id:0x390d05ef967e0c39:0x89317c84e545a9b8"}, {"place_id": "0x390d1b490beaf2c5:0x993e4b7b864a4419", "name": "Work2Zone", "category": "Coworking space", "street": "1/46 Vijay Enclave Opposite of Maruti Suzuki Magic Auto showroom Palam - dabri Marg opposite Jindal Public School dwarka New delhi", "city": "New", "phone": "07979087780", "website": "http://www.work2zone.com/", "rating": 4.8, "review_count": "", "latitude": 28.6070671, "longitude": 77.0812835, "maps_url": "https://www.google.com/maps/place/?q=place_id:0x390d1b490beaf2c5:0x993e4b7b864a4419"}, {"place_id": "0x390d04cbadc3cb69:0xacb3c36ce79befb6", "name": "Lakshaya Computer Institute-Best Computer Institute In Janak Puri-Best Computer Coaching In Janak Puri.", "category": "Software Training Institute", "street": "First Floor", "city": "chanakya place", "phone": "09313736198", "website": "http://lakshayainstitute.com/", "rating": 4.9, "review_count": "", "latitude": 28.609956399999998, "longitude": 77.0765053, "maps_url": "https://www.google.com/maps/place/?q=place_id:0x390d04cbadc3cb69:0xacb3c36ce79befb6"}, {"place_id": "0x390d1b489dcdb0b5:0x5666dda01eb6646c", "name": "Indias Company", "category": "Home goods store", "street": "Rzd 3/203 gali no 9 Mahavir Enclave I, Mahavir Enclave Part 2, Mahavir Enclave", "city": "Nar, Dashrath Puri", "phone": "08299423838", "website": "http://www.gassafetydevice.in/", "rating": 4.7, "review_count": "", "latitude": 28.6002743, "longitude": 77.0832405, "maps_url": "https://www.google.com/maps/place/?q=place_id:0x390d1b489dcdb0b5:0x5666dda01eb6646c"}, {"place_id": "0x390d1b4b357fd0f3:0x5164c9a529d8615b", "name": "National Steel Works (NSW)", "category": "Steel fabricator", "street": "4, Palam - Dabri Marg", "city": "market", "phone": "09555336161", "website": "https://pin.it/3349maA", "rating": 4.9, "review_count": "", "latitude": 28.6103295, "longitude": 77.0838053, "maps_url": "https://www.google.com/maps/place/?q=place_id:0x390d1b4b357fd0f3:0x5164c9a529d8615b"}, {"place_id": "0x390d05445c4f975b:0x10c123bfb62e384b", "name": "App Development Company in Delhi | Android App Company in Delhi", "category": "Software company", "street": "4 Floor", "city": "B-77", "phone": "", "website": "", "rating": "", "review_count": "", "latitude": 28.6150725, "longitude": 77.0341376, "maps_url": "https://www.google.com/maps/place/?q=place_id:0x390d05445c4f975b:0x10c123bfb62e384b"}, {"place_id": "0x390d1b34f952eaa7:0x8174d3d320e7d7c1", "name": "Indi Fast", "category": "Fastener supplier", "street": "S- 25, Chanakya Place", "city": "40 Feet Rd", "phone": "09810573967", "website": "", "rating": 4.3, "review_count": "", "latitude": 28.610941699999998, "longitude": 77.076137, "maps_url": "https://www.google.com/maps/place/?q=place_id:0x390d1b34f952eaa7:0x8174d3d320e7d7c1"}, {"place_id": "0x390d04caf03231ff:0x3a30a58d350d7071", "name": "ALSA INTERNATIONAL", "category": "Manufacturer", "street": "E-122-B, Front Side, 25 Feet Road, Chanakya Place", "city": "Part I, Uttam Nagar New", "phone": "09650155085", "website": "http://www.alsainternational.in/", "rating": 4.8, "review_count": "", "latitude": 28.610359499999998, "longitude": 77.0763309, "maps_url": "https://www.google.com/maps/place/?q=place_id:0x390d04caf03231ff:0x3a30a58d350d7071"}, {"place_id": "0x390d058bdb6dd021:0xf7283c805e4ff140", "name": "CloudNard Technologies Private Limited", "category": "Computer support and services", "street": "RZ-H", "city": "Block H, Part-02, Sitapuri", "phone": "08810226361", "website": "", "rating": 5, "review_count": "", "latitude": 28.610626399999997, "longitude": 77.0793675, "maps_url": "https://www.google.com/maps/place/?q=place_id:0x390d058bdb6dd021:0xf7283c805e4ff140"}, {"place_id": "0x390d1b31cb539a69:0x2e9e9b3fa8a8aeab", "name": "DICT INSTITUTE", "category": "Computer training school", "street": "BUS STAND", "city": "RZ - B-110, Dabri Dwarka Rd", "phone": "07827033614", "website": "https://dict.org.in/", "rating": 4.9, "review_count": "", "latitude": 28.6093239, "longitude": 77.0802707, "maps_url": "https://www.google.com/maps/place/?q=place_id:0x390d1b31cb539a69:0x2e9e9b3fa8a8aeab"}, {"place_id": "0x390d1be78e3b2823:0xf8152dae6bc9d501", "name": "Raghav Transport Packers and Movers !! Packers and Movers !!", "category": "Packaging company", "street": "A-15, Gali Number 3", "city": "Part 2, Mahavir Enclave Part 2, Mahavir Enclave Part 3, Mahavir Enclave", "phone": "09312432902", "website": "https://raghavtransportpackersandmovers.in/", "rating": 4.8, "review_count": "", "latitude": 28.6072213, "longitude": 77.0762132, "maps_url": "https://www.google.com/maps/place/?q=place_id:0x390d1be78e3b2823:0xf8152dae6bc9d501"}, {"place_id": "0x390d1bd4de94363b:0x25dbfb99e99463bd", "name": "Hypro web", "category": "Web hosting company", "street": "J34H+R5F", "city": "Dwarkapuri Rd", "phone": "09968917175", "website": "https://hyproweb.com/", "rating": 4.9, "review_count": "", "latitude": 28.6070505, "longitude": 77.0779223, "maps_url": "https://www.google.com/maps/place/?q=place_id:0x390d1bd4de94363b:0x25dbfb99e99463bd"}, {"place_id": "0x890fe6bae5fbe77f:0x5bed6165bdabeff", "name": "Mind Manthan IT Solutions", "category": "Software company", "street": "A90", "city": "A Block, Sector 4", "phone": "", "website": "", "rating": 5, "review_count": "", "latitude": 28.578162, "longitude": 77.321079, "maps_url": "https://www.google.com/maps/place/?q=place_id:0x890fe6bae5fbe77f:0x5bed6165bdabeff"}, {"place_id": "0x390d054948f136e5:0xe4c12e8b0e494ec9", "name": "Prime Websoft", "category": "Software company", "street": "166A, Gali No12", "city": "Jain Rd", "phone": "07678105149", "website": "https://primewebsoft.com/", "rating": 4.4, "review_count": "", "latitude": 28.6245266, "longitude": 77.03089179999999, "maps_url": "https://www.google.com/maps/place/?q=place_id:0x390d054948f136e5:0xe4c12e8b0e494ec9"}, {"place_id": "0x390d057935998adf:0xd8c9568f2c15d748", "name": "Noork", "category": "Computer support and services", "street": "Chanakya Place II, Block A, Sitapuri Part 2, Janakpuri", "city": "New Delhi, Delhi, 110059", "phone": "08178642398", "website": "https://www.noork.in/", "rating": "", "review_count": "", "latitude": 28.609958799999998, "longitude": 77.0764583, "maps_url": "https://www.google.com/maps/place/?q=place_id:0x390d057935998adf:0xd8c9568f2c15d748"}, {"place_id": "0x390d1b4a59bc74df:0x5b9ab3915048593a", "name": "SMV IT Solutions", "category": "Educational testing service", "street": "A-1/47, Dabri - Palam Rd", "city": "Block A, Vijay Enclave, Mahavir Enclave", "phone": "01149873512", "website": "", "rating": 3.7, "review_count": "", "latitude": 28.607143899999997, "longitude": 77.0814029, "maps_url": "https://www.google.com/maps/place/?q=place_id:0x390d1b4a59bc74df:0x5b9ab3915048593a"}, {"place_id": "0xac577056c2b5ff3d:0xaf00253141553d04", "name": "Devnotam | IT Company", "category": "Internet marketing service", "street": "", "city": "", "phone": "", "website": "https://devnotam.com/", "rating": 5, "review_count": "", "latitude": 28.692404999999997, "longitude": 77.090042, "maps_url": "https://www.google.com/maps/place/?q=place_id:0xac577056c2b5ff3d:0xaf00253141553d04"}, {"place_id": "0x7fbc95cdc04d491:0x240992bcf6bcfa7c", "name": "Axion Softech", "category": "Software company", "street": "", "city": "", "phone": "09817887826", "website": "https://axionsoftech.com/", "rating": 5, "review_count": "", "latitude": 21.0680074, "longitude": 82.7525294, "maps_url": "https://www.google.com/maps/place/?q=place_id:0x7fbc95cdc04d491:0x240992bcf6bcfa7c"}, {"place_id": "0x390d055e2918a2a9:0x28275cdedde44d20", "name": "VIP Elevators", "category": "Elevator Manufacturer", "street": "Plot No. 39/1B", "city": "Raksha Enclave, Block H, Mohan Garden, Uttam Nagar", "phone": "", "website": "", "rating": 5, "review_count": "", "latitude": 28.610552799999997, "longitude": 77.07832069999999, "maps_url": "https://www.google.com/maps/place/?q=place_id:0x390d055e2918a2a9:0x28275cdedde44d20"}, {"place_id": "0x390d04cae1555555:0xc469b09b624b2b7a", "name": "Spine Infotech", "category": "BPO Company", "street": "SHOP-3, AT", "city": "PLOT NO-A-1&2, WEST", "phone": "09416405931", "website": "http://spineinfotech.com/", "rating": 1.9, "review_count": "", "latitude": 28.6116545, "longitude": 77.0770357, "maps_url": "https://www.google.com/maps/place/?q=place_id:0x390d04cae1555555:0xc469b09b624b2b7a"}, {"place_id": "0x390d1b84c5142357:0xa8ed21d749ba699f", "name": "Jaiswal Overseas", "category": "Courier service", "street": "chanakaya place part-2", "city": "L-27, 25 Feet Rd", "phone": "08700145140", "website": "", "rating": 5, "review_count": "", "latitude": 28.6101043, "longitude": 77.07745659999999, "maps_url": "https://www.google.com/maps/place/?q=place_id:0x390d1b84c5142357:0xa8ed21d749ba699f"}, {"place_id": "0x390d05669b8d2edd:0x66446ecba892b452", "name": "Techedge Info Solutions", "category": "Software company", "street": "C-26", "city": "Hari Vihar, Sector 16A, Kakrola", "phone": "", "website": "http://www.techedgeinfo.com/", "rating": 5, "review_count": "", "latitude": 28.618256, "longitude": 77.0226217, "maps_url": "https://www.google.com/maps/place/?q=place_id:0x390d05669b8d2edd:0x66446ecba892b452"}, {"place_id": "0x390d0563ca3ac545:0x4c634a94e799f025", "name": "Holcim", "category": "Website designer", "street": "Rzf 2/138 gali no.2e", "city": "Vaishali, Vaishali Colony, Mahavir Enclave", "phone": "09599916192", "website": "", "rating": 4.9, "review_count": "", "latitude": 28.607789399999998, "longitude": 77.08363539999999, "maps_url": "https://www.google.com/maps/place/?q=place_id:0x390d0563ca3ac545:0x4c634a94e799f025"}, {"place_id": "0x390d0524d0cec9d5:0x6be2a5bdbe429fad", "name": "Fablex - Embroidery Company in Delhi", "category": "Embroidery service", "street": "A-1 A-41 B/P PT-1 Chanakya place", "city": "30 Feet Rd", "phone": "07217687739", "website": "", "rating": 5, "review_count": "", "latitude": 28.6148194, "longitude": 77.0798635, "maps_url": "https://www.google.com/maps/place/?q=place_id:0x390d0524d0cec9d5:0x6be2a5bdbe429fad"}, {"place_id": "0x390d1b0f5597e2c9:0xcb41d5453e49abbb", "name": "SHARMA WATCH CENTER | Smartwatch Repair Specialist | All Brand Watch Repair | Battery, Glass & Strap Replacement (SINCE1992)", "category": "Watch repair service", "street": "B-29, Street No. 2", "city": "near Dada Dev Hospital", "phone": "07503613511", "website": "https://sharma-watch-center.grexa.site/", "rating": 4.9, "review_count": "", "latitude": 28.609454399999997, "longitude": 77.080292, "maps_url": "https://www.google.com/maps/place/?q=place_id:0x390d1b0f5597e2c9:0xcb41d5453e49abbb"}, {"place_id": "0x390d1b72ccdff5f7:0xac8c7666258ed0f2", "name": "JAGPAL AND COMPANY", "category": "Hardware store", "street": "Rz-A-1, Dwarkapuri", "city": "near Jasram Akhada", "phone": "09999354699", "website": "", "rating": 5, "review_count": "", "latitude": 28.6084513, "longitude": 77.080077, "maps_url": "https://www.google.com/maps/place/?q=place_id:0x390d1b72ccdff5f7:0xac8c7666258ed0f2"}, {"place_id": "0x390d05996292984b:0xa53d104ebb600936", "name": "GetHelpOra", "category": "Business management consultant", "street": "Chanakya place", "city": "Pankha Rd", "phone": "", "website": "", "rating": "", "review_count": "", "latitude": 28.6102793, "longitude": 77.07676099999999, "maps_url": "https://www.google.com/maps/place/?q=place_id:0x390d05996292984b:0xa53d104ebb600936"}, {"place_id": "0x390d05001766b683:0x90f715a2c27b2bb0", "name": "SANT COMMUNICATIONS", "category": "Computer security service", "street": "Block G & H", "city": "132, 30 Feet Rd", "phone": "", "website": "", "rating": 5, "review_count": "", "latitude": 28.611457899999998, "longitude": 77.0796953, "maps_url": "https://www.google.com/maps/place/?q=place_id:0x390d05001766b683:0x90f715a2c27b2bb0"}, {"place_id": "0x390d1b0024d069bf:0x7700418f727c55f7", "name": "Transport mela", "category": "Corporate office", "street": "Street No. 2", "city": "Vaishali, Dabri Village, Dabri", "phone": "09310420993", "website": "https://transportmela.com/", "rating": 4.9, "review_count": "", "latitude": 28.610152, "longitude": 77.08367659999999, "maps_url": "https://www.google.com/maps/place/?q=place_id:0x390d1b0024d069bf:0x7700418f727c55f7"}, {"place_id": "0x390d0554e724708b:0x94d630e80019bb56", "name": "BML Production", "category": "Event planner", "street": "Dabri Dwarka Rd", "city": "behind Dada Dev Hospital", "phone": "09540975557", "website": "http://www.bmlproduction.in/", "rating": 4.6, "review_count": "", "latitude": 28.6100493, "longitude": 77.0813648, "maps_url": "https://www.google.com/maps/place/?q=place_id:0x390d0554e724708b:0x94d630e80019bb56"}, {"place_id": "0x390d1b03ea61b603:0xd009501f84564160", "name": "SEO Experts", "category": "Computer support and services", "street": "RZ-117A, Gali No 1", "city": "Vaishali, Dabri Extension East, Dashrath Puri", "phone": "09999293555", "website": "", "rating": "", "review_count": "", "latitude": 28.607043899999997, "longitude": 77.08305419999999, "maps_url": "https://www.google.com/maps/place/?q=place_id:0x390d1b03ea61b603:0xd009501f84564160"}, {"place_id": "0x390d05cd4ef943fd:0x50438f658e8cf854", "name": "DTDC COURIER - DABRI", "category": "Courier service", "street": "INDUSTRIAL AREA", "city": "PLOT NO. 1", "phone": "09999117997", "website": "", "rating": 4.8, "review_count": "", "latitude": 28.610626, "longitude": 77.0839963, "maps_url": "https://www.google.com/maps/place/?q=place_id:0x390d05cd4ef943fd:0x50438f658e8cf854"}, {"place_id": "0x390d050529565365:0xf96c92f976dc5077", "name": "Tamanna Software Solutions", "category": "Software company", "street": "67 A", "city": "Dwarka Mor, Block C, Vipin Garden, Dwarka", "phone": "07982305259", "website": "https://tamannasoftware.com/", "rating": "", "review_count": "", "latitude": 28.620966499999998, "longitude": 77.0282718, "maps_url": "https://www.google.com/maps/place/?q=place_id:0x390d050529565365:0xf96c92f976dc5077"}, {"place_id": "0x390d1b9d7c55f8d9:0xfca04ada599b2113", "name": "Best Software And Website Development Company", "category": "Software company", "street": "110059, Uttam Nagar", "city": "Block B, Bharat Vihar, Madhu Vihar", "phone": "08210512097", "website": "", "rating": 3, "review_count": "", "latitude": 28.6071529, "longitude": 77.0596844, "maps_url": "https://www.google.com/maps/place/?q=place_id:0x390d1b9d7c55f8d9:0xfca04ada599b2113"}, {"place_id": "0x390d04d124db55c3:0x25491bb135059019", "name": "Bws Infotech It Company", "category": "Computer service", "street": "J387+J72", "city": "near Pal Dairy", "phone": "", "website": "", "rating": "", "review_count": "", "latitude": 28.616511, "longitude": 77.063146, "maps_url": "https://www.google.com/maps/place/?q=place_id:0x390d04d124db55c3:0x25491bb135059019"}, {"place_id": "0x390d055a5463cc63:0x8742744c3d0cc683", "name": "ONFO Digitalways IT Services (P) Ltd.", "category": "Software company", "street": "Second Floor", "city": "A-100, Shivaji Marg", "phone": "09582238038", "website": "http://www.onfo.in/", "rating": 5, "review_count": "", "latitude": 28.6202777, "longitude": 77.0408601, "maps_url": "https://www.google.com/maps/place/?q=place_id:0x390d055a5463cc63:0x8742744c3d0cc683"}, {"place_id": "0x390d03281871ef51:0x87d05ae5b85adc52", "name": "CRCIT INFOTECH PVT LTD", "category": "Software company", "street": "RZ B-4, Pankha Rd", "city": "opposite Janak Cinema Complex", "phone": "09599884630", "website": "", "rating": 4.9, "review_count": "", "latitude": 28.7321179, "longitude": 77.0297145, "maps_url": "https://www.google.com/maps/place/?q=place_id:0x390d03281871ef51:0x87d05ae5b85adc52"}, {"place_id": "0x390d0582de874ca7:0x4550ba5aa297e903", "name": "Raza IT Solutions and CCTV Camera | Laptop Repair | Desktop Repair | PC Build", "category": "Computer repair service", "street": "D - 26", "city": "Bindapur Rd", "phone": "07492003993", "website": "", "rating": "", "review_count": "", "latitude": 28.6115785, "longitude": 77.0748493, "maps_url": "https://www.google.com/maps/place/?q=place_id:0x390d0582de874ca7:0x4550ba5aa297e903"}, {"place_id": "0x390d0541ab855ef3:0x7db5739e07c60e70", "name": "Elegant Info Solutions", "category": "Software company", "street": "Dwarka Mor, Sainik Nagar, Vipin Garden, Nawada", "city": "Delhi, 110059", "phone": "09871115570", "website": "http://www.elegantinfosolutions.com/", "rating": 4.5, "review_count": "", "latitude": 28.625640699999998, "longitude": 77.03090089999999, "maps_url": "https://www.google.com/maps/place/?q=place_id:0x390d0541ab855ef3:0x7db5739e07c60e70"}, {"place_id": "0x390d04cb293da68d:0x91f49fd90628ed8", "name": "COMPLETE HYDRAULIC SOLUTION INDIA", "category": "Corporate office", "street": "K- 51/A", "city": "Chanakya Place II, Anup Nagar, Uttam Nagar, Bindapur", "phone": "09811809062", "website": "https://completehydraulic.in/", "rating": 5, "review_count": "", "latitude": 28.6103134, "longitude": 77.07631529999999, "maps_url": "https://www.google.com/maps/place/?q=place_id:0x390d04cb293da68d:0x91f49fd90628ed8"}]}