{"timestamp": 1773730624.9424815, "keyword": "IT company", "location": "delhi", "cell_idx": 268, "results": [{"place_id": "0x390ce38f903de9fd:0x60b75e3dc7d3fb1b", "name": "iTech Mission Private Limited (iTM)", "category": "Software company", "street": "4th Floor, Saira Tower", "city": "Gulmohar Commercial Complex", "phone": "", "website": "http://www.itechmission.org/", "rating": 5, "review_count": "", "latitude": 28.557895499999997, "longitude": 77.20812099999999, "maps_url": "https://www.google.com/maps/place/?q=place_id:0x390ce38f903de9fd:0x60b75e3dc7d3fb1b"}, {"place_id": "0x390ce21425118e25:0x70fb9d80e6685fad", "name": "Ananta Business Services", "category": "Software company", "street": "125, South", "city": "Shahpur Jat, Siri Fort", "phone": "09289371171", "website": "http://www.absite.in/", "rating": 4.7, "review_count": "", "latitude": 28.5490721, "longitude": 77.2159506, "maps_url": "https://www.google.com/maps/place/?q=place_id:0x390ce21425118e25:0x70fb9d80e6685fad"}, {"place_id": "0x390ce458d0000001:0xf2123bd299ec4501", "name": "IT Company India", "category": "Software company", "street": "D56", "city": "D Block, Sector 10", "phone": "09999244854", "website": "https://www.itcompanyindia.in/", "rating": 4.7, "review_count": "", "latitude": 28.589917699999997, "longitude": 77.3351153, "maps_url": "https://www.google.com/maps/place/?q=place_id:0x390ce458d0000001:0xf2123bd299ec4501"}, {"place_id": "0x390ce3c153b89811:0xe7a279685777e9ca", "name": "IT Company", "category": "Automation company", "street": "A-14", "city": "near iskcon temple", "phone": "", "website": "http://www.opuswiz.com/", "rating": 3, "review_count": "", "latitude": 28.557167, "longitude": 77.25424819999999, "maps_url": "https://www.google.com/maps/place/?q=place_id:0x390ce3c153b89811:0xe7a279685777e9ca"}, {"place_id": "0x390ce209862e9b9b:0x8a6b2a4334884f77", "name": "T9L", "category": "Software company", "street": "C-7, 2nd floor", "city": "SDA commercial complex", "phone": "", "website": "http://www.t9l.com/", "rating": 4.8, "review_count": "", "latitude": 28.546775999999998, "longitude": 77.1969742, "maps_url": "https://www.google.com/maps/place/?q=place_id:0x390ce209862e9b9b:0x8a6b2a4334884f77"}, {"place_id": "0x390d1d25657c3fff:0x2479edc53b95bf35", "name": "RewardsPlus | Website & Digital Marketing Company", "category": "Software company", "street": "124A/1, LGF", "city": "Shaheed Jeet Singh Marg", "phone": "09560205262", "website": "https://rewardsplus.in/", "rating": 4.8, "review_count": "", "latitude": 28.5404378, "longitude": 77.18601559999999, "maps_url": "https://www.google.com/maps/place/?q=place_id:0x390d1d25657c3fff:0x2479edc53b95bf35"}, {"place_id": "0x390ce227b000003f:0x68c684a3cbf810b", "name": "IT Solution INDIA", "category": "Computer support and services", "street": "Triveni Commercial Complex", "city": "Sheikh Sarai Phase 1, Sheikh Sarai", "phone": "09312209167", "website": "https://itsolutionindia.in/", "rating": 4.8, "review_count": "", "latitude": 28.5364054, "longitude": 77.22372, "maps_url": "https://www.google.com/maps/place/?q=place_id:0x390ce227b000003f:0x68c684a3cbf810b"}, {"place_id": "0x390d1d86a4f12173:0x3a6b42ea6f4b8260", "name": "Softvanz Technologies Private Limited", "category": "Software company", "street": "Somdutt Chamber 1", "city": "BT-22/9", "phone": "", "website": "https://softvanz.com/", "rating": 5, "review_count": "", "latitude": 28.567948899999998, "longitude": 77.1889269, "maps_url": "https://www.google.com/maps/place/?q=place_id:0x390d1d86a4f12173:0x3a6b42ea6f4b8260"}, {"place_id": "0x390ce1fb44618b65:0x8e06b2a6128352d1", "name": "Acropolis Infotech - Delhi Office", "category": "Software company", "street": "metro station gate", "city": "55, 2nd Floor, Lane 2", "phone": "09999876593", "website": "https://www.acropolisinfotech.com/", "rating": 4.6, "review_count": "", "latitude": 28.518907, "longitude": 77.2015435, "maps_url": "https://www.google.com/maps/place/?q=place_id:0x390ce1fb44618b65:0x8e06b2a6128352d1"}, {"place_id": "0x390d1d966e971d83:0x1cbc96c1a5a2849", "name": "Global Web Technologies LLP", "category": "Website designer", "street": "C2/16", "city": "Block C 2, Safdarjung Development Area, Hauz Khas", "phone": "08076233525", "website": "https://globalwebtechnologies.com/", "rating": 3.3, "review_count": "", "latitude": 28.551269299999998, "longitude": 77.2029672, "maps_url": "https://www.google.com/maps/place/?q=place_id:0x390d1d966e971d83:0x1cbc96c1a5a2849"}, {"place_id": "0x390ce3c53f4cf309:0x964287885bdc5c67", "name": "Mangalam Automation - IT Infrastructure and Audio Video Company", "category": "Computer support and services", "street": "UG 8, Building No.39", "city": "Hauz Khas Village, Deer Park, Hauz Khas", "phone": "09810227333", "website": "https://www.mangalamautomation.com/", "rating": 5, "review_count": "", "latitude": 28.552976599999997, "longitude": 77.1947921, "maps_url": "https://www.google.com/maps/place/?q=place_id:0x390ce3c53f4cf309:0x964287885bdc5c67"}, {"place_id": "0x390ce21cdac06087:0x2f28809b63cedf0d", "name": "Berco's Corporate Office", "category": "Corporate office", "street": "Surya Mansion", "city": "101, Second Floor", "phone": "01140771604", "website": "http://bercos.net.in/", "rating": 4.4, "review_count": "", "latitude": 28.550569499999998, "longitude": 77.2043873, "maps_url": "https://www.google.com/maps/place/?q=place_id:0x390ce21cdac06087:0x2f28809b63cedf0d"}, {"place_id": "0x390ce263ae840a65:0xfe4ba777c11dced6", "name": "Computer Ware India Pvt Ltd", "category": "Computer support and services", "street": "Veena Arcade", "city": "C-1/B, Sri Aurobindo Marg", "phone": "01126863278", "website": "http://www.computerware.in/", "rating": 4.1, "review_count": "", "latitude": 28.5587523, "longitude": 77.2065252, "maps_url": "https://www.google.com/maps/place/?q=place_id:0x390ce263ae840a65:0xfe4ba777c11dced6"}, {"place_id": "0x390d1df079759d1f:0x8bfa70033f6c672a", "name": "NR Technoserve Pvt. Ltd.", "category": "Software company", "street": "133, Katwaria Sarai", "city": "Phase-2, Qutab Institutional Area", "phone": "07289096762", "website": "http://www.nrtechnoserve.co.in/", "rating": 4.4, "review_count": "", "latitude": 28.5413306, "longitude": 77.18495519999999, "maps_url": "https://www.google.com/maps/place/?q=place_id:0x390d1df079759d1f:0x8bfa70033f6c672a"}, {"place_id": "0x390d1fb30dd00ee3:0x77cfd1f858a2b9ee", "name": "Ionic Software Services", "category": "Software company", "street": "B-2/63, Africa Ave", "city": "Block A, Block B 2, Safdarjung Enclave", "phone": "08744941668", "website": "http://www.ionicsoftwares.com/", "rating": 4.7, "review_count": "", "latitude": 28.515873499999998, "longitude": 77.2044335, "maps_url": "https://www.google.com/maps/place/?q=place_id:0x390d1fb30dd00ee3:0x77cfd1f858a2b9ee"}, {"place_id": "0x390ce215cfde0db7:0x72d12f7279088995", "name": "Corporate Gifting Company in Hauz Khas | Corporate Gifting Company | Purple Palette", "category": "Corporate gift supplier", "street": "39, Daryacha Building", "city": "Hauz Khas Village, Hauz Khas", "phone": "09873333348", "website": "http://purplepalette.in/", "rating": 4.9, "review_count": "", "latitude": 28.5529987, "longitude": 77.1946361, "maps_url": "https://www.google.com/maps/place/?q=place_id:0x390ce215cfde0db7:0x72d12f7279088995"}, {"place_id": "0x390d1d8a98fa52bb:0xef5cfe72e6c99a74", "name": "Ultraconfidentiel Design Pvt Ltd", "category": "Corporate office", "street": "Surya Mansion", "city": "Chaudhary Dilip Singh Marg", "phone": "01126519133", "website": "http://ultraconfidentiel.com/", "rating": 4.7, "review_count": "", "latitude": 28.5504659, "longitude": 77.20443689999999, "maps_url": "https://www.google.com/maps/place/?q=place_id:0x390d1d8a98fa52bb:0xef5cfe72e6c99a74"}, {"place_id": "0x390ce3e02b5bccbd:0x8b9b77bfa478eebc", "name": "Hexalifts - Lift Manufacturers Company", "category": "Elevator Manufacturer", "street": "K-62", "city": "Block K, Green Park", "phone": "09990878787", "website": "https://hexalifts.in/", "rating": 4.7, "review_count": "", "latitude": 28.5539223, "longitude": 77.2001981, "maps_url": "https://www.google.com/maps/place/?q=place_id:0x390ce3e02b5bccbd:0x8b9b77bfa478eebc"}, {"place_id": "0x390d1d8baaaaaaab:0x81e02841f207d0f0", "name": "S SONY & COMPANY PVT. LTD", "category": "Real Estate Builders & Construction Company", "street": "G-4, ANUPAMA BUILDING II FLOOR", "city": "Hauz Khas", "phone": "01135002651", "website": "http://ssony.in/", "rating": 4.9, "review_count": "", "latitude": 28.5510508, "longitude": 77.2048471, "maps_url": "https://www.google.com/maps/place/?q=place_id:0x390d1d8baaaaaaab:0x81e02841f207d0f0"}, {"place_id": "0x390ce3ad10000061:0xeff7e6017a22cce7", "name": "Alpinesoft IT Solutions Authorized Google Workspace Reseller", "category": "Software company", "street": "162/9 Ist Floor, KIshangarh - Gaushala Marg", "city": "Lakhi Nath Kuti, Mehrauli, Vasant Kunj", "phone": "09999011157", "website": "https://www.alpinesoftit.com/", "rating": 4.3, "review_count": "", "latitude": 28.515394399999998, "longitude": 77.16460359999999, "maps_url": "https://www.google.com/maps/place/?q=place_id:0x390ce3ad10000061:0xeff7e6017a22cce7"}, {"place_id": "0x390d1d8a98fa52bb:0xef5cfe72e6c99a74", "name": "Ultraconfidentiel Design Pvt Ltd", "category": "Corporate office", "street": "Surya Mansion", "city": "Chaudhary Dilip Singh Marg", "phone": "01126519133", "website": "http://ultraconfidentiel.com/", "rating": 4.7, "review_count": "", "latitude": 28.5504659, "longitude": 77.20443689999999, "maps_url": "https://www.google.com/maps/place/?q=place_id:0x390d1d8a98fa52bb:0xef5cfe72e6c99a74"}, {"place_id": "0x390ce3d606c913ef:0xd246bd5631eb2cad", "name": "Delvetech", "category": "Software company", "street": "87A/1, 3rd Floor, Opp. Block N-115, G.K-1, Near Moolchand Merto", "city": "Block B, Zamrudpur, Greater Kailash", "phone": "09873895154", "website": "http://www.delvetech.co.in/", "rating": 4.1, "review_count": "", "latitude": 28.5570597, "longitude": 77.2356981, "maps_url": "https://www.google.com/maps/place/?q=place_id:0x390ce3d606c913ef:0xd246bd5631eb2cad"}, {"place_id": "0x390d1ed3c6e9f579:0x322eccdb00f350d2", "name": "Techjockey", "category": "Software company", "street": "Ground floor, Habitat India", "city": "C-3", "phone": "01142213003", "website": "https://www.techjockey.com/", "rating": 4, "review_count": "", "latitude": 28.536615299999998, "longitude": 77.1902978, "maps_url": "https://www.google.com/maps/place/?q=place_id:0x390d1ed3c6e9f579:0x322eccdb00f350d2"}, {"place_id": "0x390ce3b31aba64ef:0xe7b284399b8f2b40", "name": "Urbanclap company", "category": "Corporate office", "street": "161 B/4, Second Floor, Gulmohar House, Near Green Park Metro Gate- 2", "city": "New Delhi, Delhi 110016", "phone": "", "website": "https://www.urbancompany.com/delhi-ncr", "rating": 3, "review_count": "", "latitude": 28.5568733, "longitude": 77.2059249, "maps_url": "https://www.google.com/maps/place/?q=place_id:0x390ce3b31aba64ef:0xe7b284399b8f2b40"}, {"place_id": "0x390ce281d4ad610d:0x8fda91ec32c7c545", "name": "Blue Chip Hospitality Pvt Ltd (BCH)", "category": "Corporate office", "street": "G-5, First Floor", "city": "Hauz Khas Market, Kharera, Hauz Khas", "phone": "01141324988", "website": "http://www.bchgroup.co/", "rating": 4.1, "review_count": "", "latitude": 28.551054299999997, "longitude": 77.204891, "maps_url": "https://www.google.com/maps/place/?q=place_id:0x390ce281d4ad610d:0x8fda91ec32c7c545"}, {"place_id": "0x390ce3a2740b6b31:0x603cd65425552a67", "name": "CIN Universe - India's Largest Hotel Mar-Tech & Digital Marketing Agency", "category": "Marketing agency", "street": "R/16", "city": "Block R, Padmini Enclave, Hauz Khas", "phone": "", "website": "https://www.cinuniverse.com/", "rating": 3.8, "review_count": "", "latitude": 28.5489264, "longitude": 77.2056219, "maps_url": "https://www.google.com/maps/place/?q=place_id:0x390ce3a2740b6b31:0x603cd65425552a67"}, {"place_id": "0x390ce21e692e0283:0xa33efbc3468a3d7d", "name": "Tally Software Services", "category": "Software company", "street": "C 220/4, Savtri Nagar, Malviya Nagar", "city": "New Delhi, Delhi 110017", "phone": "09810311011", "website": "", "rating": 3.8, "review_count": "", "latitude": 28.533087, "longitude": 77.2128759, "maps_url": "https://www.google.com/maps/place/?q=place_id:0x390ce21e692e0283:0xa33efbc3468a3d7d"}, {"place_id": "0x390ce23eeab015ab:0x92d6a7e8dbc46e1a", "name": "Odyssey Website Development Company", "category": "Website designer", "street": "B-59", "city": "Block B, Soami Nagar South, Soami Nagar", "phone": "09654486464", "website": "http://odysseyin.com/?utm_source=GMB&utm_medium=Organic&utm_term=Odyssey&utm_content=Listing&utm_campaign=GMB1", "rating": 3.6, "review_count": "", "latitude": 28.541823599999997, "longitude": 77.2262008, "maps_url": "https://www.google.com/maps/place/?q=place_id:0x390ce23eeab015ab:0x92d6a7e8dbc46e1a"}, {"place_id": "0x390ce21b1531e42f:0x7ad1ad608e2f1451", "name": "Ametheus Holdings Pvt Ltd", "category": "Pharmaceutical company", "street": "Khasra No 50", "city": "Propert No 17, Sri Aurobindo Marg", "phone": "", "website": "http://www.ametheushealth.com/", "rating": 5, "review_count": "", "latitude": 28.552075, "longitude": 77.203769, "maps_url": "https://www.google.com/maps/place/?q=place_id:0x390ce21b1531e42f:0x7ad1ad608e2f1451"}, {"place_id": "0x390ce20bffffffff:0x6f1cc47abdde4f79", "name": "SNR & Company - Chartered Accountant Firm", "category": "Chartered accountant", "street": "Second Floor", "city": "A-15", "phone": "01141655801", "website": "http://snr.company/", "rating": 4.7, "review_count": "", "latitude": 28.5531246, "longitude": 77.2077339, "maps_url": "https://www.google.com/maps/place/?q=place_id:0x390ce20bffffffff:0x6f1cc47abdde4f79"}, {"place_id": "0x390ce20d18205051:0xb7a91dceaba10698", "name": "Hindustan Aeronautics Limited", "category": "Aircraft Manufacturer", "street": "101 - 104, 1St Floor,Auribindo Market", "city": "Sri Aurobindo Marg", "phone": "01126960096", "website": "", "rating": 4, "review_count": "", "latitude": 28.5517118, "longitude": 77.20387579999999, "maps_url": "https://www.google.com/maps/place/?q=place_id:0x390ce20d18205051:0xb7a91dceaba10698"}, {"place_id": "0x390d1d037a38b6b1:0xf2971326b46c47e", "name": "Geet Mp3 Music Company", "category": "Corporate office", "street": "H53V+8MX", "city": "GEET MP3 Music Company", "phone": "", "website": "", "rating": 3.9, "review_count": "", "latitude": 28.5533745, "longitude": 77.1942471, "maps_url": "https://www.google.com/maps/place/?q=place_id:0x390d1d037a38b6b1:0xf2971326b46c47e"}, {"place_id": "0x390ce3f198af8479:0xa418c7f56914c853", "name": "Mudra Finance Limited", "category": "Real Estate Builders & Construction Company", "street": "Hauz Khas Market, G-12A, Hauz Khas", "city": "New Delhi, Delhi 110016", "phone": "01244068880", "website": "", "rating": 5, "review_count": "", "latitude": 28.5506241, "longitude": 77.205454, "maps_url": "https://www.google.com/maps/place/?q=place_id:0x390ce3f198af8479:0xa418c7f56914c853"}, {"place_id": "0x390cdc6f70fb5be5:0xa34888feda73528d", "name": "Pepper Designs", "category": "Website designer", "street": "House No 1, Ground Floor", "city": "Hauz Khas Village", "phone": "09811767560", "website": "https://www.pepper-designs.com/", "rating": 4.6, "review_count": "", "latitude": 28.555021999999997, "longitude": 77.19471399999999, "maps_url": "https://www.google.com/maps/place/?q=place_id:0x390cdc6f70fb5be5:0xa34888feda73528d"}, {"place_id": "0x390ce21c24e85b2f:0xf80cd35fedbc3cea", "name": "Cyberspace Networking Systems (P) Ltd.", "category": "Website designer", "street": "NIL-36C, Shvalik, DDA Flats, Malviya Nagar", "city": "New Delhi, Delhi 110017", "phone": "01141892901", "website": "http://www.cyberspace.in/", "rating": 3.9, "review_count": "", "latitude": 28.534816, "longitude": 77.21120789999999, "maps_url": "https://www.google.com/maps/place/?q=place_id:0x390ce21c24e85b2f:0xf80cd35fedbc3cea"}, {"place_id": "0x390ce33a2b250803:0x7142e204a821d1ee", "name": "AMITECH IT SOLUTIONS Authorized Dealer - Matrix Epabx System | IP-PBX | CCTV Camera In Delhi", "category": "Telecommunications service provider", "street": "B-4, Basement", "city": "Shivalik Colony", "phone": "09999663767", "website": "", "rating": 4.5, "review_count": "", "latitude": 28.561581699999998, "longitude": 77.19240769999999, "maps_url": "https://www.google.com/maps/place/?q=place_id:0x390ce33a2b250803:0x7142e204a821d1ee"}, {"place_id": "0x390d1d8baaaaaaab:0xac7565e292ddc7f8", "name": "Norisys Technology", "category": "Electrical supply store", "street": "A-62", "city": "Police Station Colony, Mayfair Gardens, Hauz Khas", "phone": "01126966162", "website": "http://www.norisys.com/", "rating": 4.1, "review_count": "", "latitude": 28.547981999999998, "longitude": 77.2084617, "maps_url": "https://www.google.com/maps/place/?q=place_id:0x390d1d8baaaaaaab:0xac7565e292ddc7f8"}, {"place_id": "0x390ce2118c26aaab:0xcf5c76ce9aaa3806", "name": "Wembrace Biopharma Pvt Ltd", "category": "Pharmaceutical company", "street": "Commercial Complex", "city": "B6/9", "phone": "18002029010", "website": "http://wembrace.in/", "rating": 4.9, "review_count": "", "latitude": 28.5590175, "longitude": 77.1966321, "maps_url": "https://www.google.com/maps/place/?q=place_id:0x390ce2118c26aaab:0xcf5c76ce9aaa3806"}, {"place_id": "0x390ce34dd0ff658f:0xfc81aa0e6231b097", "name": "Pestexpertsolution", "category": "Pest control service", "street": "C4/1 SDA", "city": "Block C 4, Safdarjung Development Area, Hauz Khas", "phone": "07065795081", "website": "https://pestexpertsolution.in/", "rating": 5, "review_count": "", "latitude": 28.548485399999997, "longitude": 77.1991582, "maps_url": "https://www.google.com/maps/place/?q=place_id:0x390ce34dd0ff658f:0xfc81aa0e6231b097"}, {"place_id": "0x390d1dbc05701463:0x3b1a96772b2b9e29", "name": "DIYTINERARY - World's first DIY ITINERARY - by the Singh Sisters", "category": "Consultant", "street": "Hauz Khas Enclave, Hauz Khas", "city": "New Delhi, Delhi 110016", "phone": "09873395006", "website": "http://diytinerary.com/", "rating": 4.7, "review_count": "", "latitude": 28.5483601, "longitude": 77.2064779, "maps_url": "https://www.google.com/maps/place/?q=place_id:0x390d1dbc05701463:0x3b1a96772b2b9e29"}, {"place_id": "0x390ce39307063999:0xb115a5e9663792f0", "name": "Eagle Hunter Solutions Limited", "category": "Security guard service", "street": "61, Kalu Sarai Rd, Sarvpriya vihar", "city": "61, Kalu Sarai Rd", "phone": "01140748000", "website": "https://eaglehuntersgroup.com/", "rating": 4, "review_count": "", "latitude": 28.542211499999997, "longitude": 77.2036753, "maps_url": "https://www.google.com/maps/place/?q=place_id:0x390ce39307063999:0xb115a5e9663792f0"}, {"place_id": "0x390ce26c7a9059d1:0x8db5c6aface80cf4", "name": "Xalta", "category": "Food & Beverage Exporter", "street": "Gulmohar Commercial Complex", "city": "161, B/4, 4th Floor", "phone": "", "website": "https://xalta.co.in/", "rating": 3.6, "review_count": "", "latitude": 28.558654699999998, "longitude": 77.20854159999999, "maps_url": "https://www.google.com/maps/place/?q=place_id:0x390ce26c7a9059d1:0x8db5c6aface80cf4"}, {"place_id": "0x390d030d1e116a3f:0xfaaa47f3feb6de13", "name": "Achiever's Point", "category": "Coaching Center", "street": "G-4", "city": "near PNB Bank", "phone": "09899004123", "website": "https://achieverspoint.com/", "rating": 4.7, "review_count": "", "latitude": 28.550931199999997, "longitude": 77.2048839, "maps_url": "https://www.google.com/maps/place/?q=place_id:0x390d030d1e116a3f:0xfaaa47f3feb6de13"}, {"place_id": "0x390ce21285cc4a85:0xe7208c91a51f1e14", "name": "ARCH-EN DESIGN", "category": "Architecture firm", "street": "B-1/37, Hauz Khas Rd", "city": "Hauz Khas Market, Kharera, Hauz Khas", "phone": "01145188222", "website": "http://aed.co.in/", "rating": 4.3, "review_count": "", "latitude": 28.5510786, "longitude": 77.2059414, "maps_url": "https://www.google.com/maps/place/?q=place_id:0x390ce21285cc4a85:0xe7208c91a51f1e14"}, {"place_id": "0x390ce345b4996ae9:0x66811993b01307e8", "name": "Art Attack Animation", "category": "Animation Studio", "street": "Ground Floor, Building No.4", "city": "103/4", "phone": "09910196744", "website": "http://www.artattackanimation.com/", "rating": 4.6, "review_count": "", "latitude": 28.550153299999998, "longitude": 77.204636, "maps_url": "https://www.google.com/maps/place/?q=place_id:0x390ce345b4996ae9:0x66811993b01307e8"}, {"place_id": "0x390ce3cbdf8575f7:0xf0876d9a23cdc609", "name": "Labify", "category": "Research and product development", "street": "C2/16", "city": "Block C 2, Safdarjung Development Area, Hauz Khas", "phone": "01179603645", "website": "https://labify.in/", "rating": 5, "review_count": "", "latitude": 28.551391499999998, "longitude": 77.2029245, "maps_url": "https://www.google.com/maps/place/?q=place_id:0x390ce3cbdf8575f7:0xf0876d9a23cdc609"}, {"place_id": "0x390ce2305c00002d:0xace6bfd1ada18332", "name": "Corporate Interiors Pvt Ltd", "category": "Interior designer", "street": "F-29, LGF", "city": "Green Park Main", "phone": "01141767070", "website": "http://www.corporateinteriorsindia.in/", "rating": 4.3, "review_count": "", "latitude": 28.5552989, "longitude": 77.2035501, "maps_url": "https://www.google.com/maps/place/?q=place_id:0x390ce2305c00002d:0xace6bfd1ada18332"}, {"place_id": "0x390ce276e5555555:0x8ecad25fd7650f95", "name": "Holistic Ecommerce - Website Design & Development Agency", "category": "Website designer", "street": "House No 26", "city": "Block B 7, Arjun Nagar, Green Park", "phone": "09319695241", "website": "http://holisticecommerce.com/", "rating": 4.7, "review_count": "", "latitude": 28.560747799999998, "longitude": 77.1983506, "maps_url": "https://www.google.com/maps/place/?q=place_id:0x390ce276e5555555:0x8ecad25fd7650f95"}, {"place_id": "0x390ce2212d95d215:0x6c328b55bd42915f", "name": "UNI IT Solutions", "category": "Software company", "street": "B-104", "city": "Panchsheel Vihar, Sheikh Sarai Village, Sheikh Sarai", "phone": "09717610770", "website": "", "rating": 5, "review_count": "", "latitude": 28.535768299999997, "longitude": 77.2221177, "maps_url": "https://www.google.com/maps/place/?q=place_id:0x390ce2212d95d215:0x6c328b55bd42915f"}, {"place_id": "0x390ce20561f40001:0x7383b0fb863c41bc", "name": "COMPACT IT SOLUTIONS", "category": "Software company", "street": "B-69", "city": "near DDA MARKET", "phone": "09891330157", "website": "http://compactitsolutions.com/", "rating": "", "review_count": "", "latitude": 28.541745, "longitude": 77.2042498, "maps_url": "https://www.google.com/maps/place/?q=place_id:0x390ce20561f40001:0x7383b0fb863c41bc"}]}