{"timestamp": 1773730999.5020046, "keyword": "IT company", "location": "delhi", "cell_idx": 328, "results": [{"place_id": "0x390d1b0e3fffffff:0x6daaf31757ecac3a", "name": "Koyna K IT Solutions (Kodewell)", "category": "Computer Hardware Company", "street": "C-1", "city": "Block C, Sector 8 Dwarka, Dwarka", "phone": "09810617986", "website": "http://www.kodewell.in/", "rating": 4.4, "review_count": "", "latitude": 28.569539199999998, "longitude": 77.0783484, "maps_url": "https://www.google.com/maps/place/?q=place_id:0x390d1b0e3fffffff:0x6daaf31757ecac3a"}, {"place_id": "0x390d1b524d89b769:0xb5c7f7f25cdd761a", "name": "Inowix Technologies", "category": "Software company", "street": "224 Dada Dev Tower 3rd Floor Behind Akash Hospital, main road, rajapuri chowk, opp sector 4 dwarka", "city": "Raja Puri, Matiala", "phone": "", "website": "https://www.inowix.in/", "rating": 5, "review_count": "", "latitude": 28.5708961, "longitude": 77.07486089999999, "maps_url": "https://www.google.com/maps/place/?q=place_id:0x390d1b524d89b769:0xb5c7f7f25cdd761a"}, {"place_id": "0x390d1bad2a1e1825:0x98fd9cf59db0e04f", "name": "Startup Khata Accounting Software", "category": "Software company", "street": "First Floor", "city": "RZP-56A, Street Number 1", "phone": "01140452748", "website": "https://www.startupkhata.com/", "rating": 5, "review_count": "", "latitude": 28.5746446, "longitude": 77.0771236, "maps_url": "https://www.google.com/maps/place/?q=place_id:0x390d1bad2a1e1825:0x98fd9cf59db0e04f"}, {"place_id": "0x390d1b4190c52423:0x2d81b1e397b948b1", "name": "Trynocode Technology Pvt Ltd,", "category": "Website designer", "street": "2nd floor", "city": "A-96", "phone": "09711942575", "website": "https://trynocode.com/", "rating": 4.8, "review_count": "", "latitude": 28.5715221, "longitude": 77.0730092, "maps_url": "https://www.google.com/maps/place/?q=place_id:0x390d1b4190c52423:0x2d81b1e397b948b1"}, {"place_id": "0x390ce21b8d636751:0xda2fa1d06a704eab", "name": "Prinknest Technology LLP", "category": "Software company", "street": "1st Floor", "city": "RZ 122 D, Plot No.1", "phone": "08076833804", "website": "https://prinknest.com/", "rating": 4.8, "review_count": "", "latitude": 28.606828, "longitude": 77.0816226, "maps_url": "https://www.google.com/maps/place/?q=place_id:0x390ce21b8d636751:0xda2fa1d06a704eab"}, {"place_id": "0x390d1b0ad6565c37:0x9ee772d45ffed70d", "name": "IOTtech Softwares", "category": "Software company", "street": "First & Second Floor", "city": "Lucky Plaza", "phone": "08034798583", "website": "", "rating": 4.9, "review_count": "", "latitude": 28.5847981, "longitude": 77.07323199999999, "maps_url": "https://www.google.com/maps/place/?q=place_id:0x390d1b0ad6565c37:0x9ee772d45ffed70d"}, {"place_id": "0x390d05a9e1c5836b:0xffa4b24b103b66b", "name": "Aloweb Private Limited", "category": "Website designer", "street": "3nd Floor", "city": "B-40", "phone": "", "website": "https://aaloweb.com/", "rating": 5, "review_count": "", "latitude": 28.5726865, "longitude": 77.0761624, "maps_url": "https://www.google.com/maps/place/?q=place_id:0x390d05a9e1c5836b:0xffa4b24b103b66b"}, {"place_id": "0x390d1b18046bbffb:0xb21dca8c6a640dbf", "name": "GreenTrans Logistics and Transport Software Company", "category": "Software company", "street": "A 59,IIIrd Floor", "city": "Sector 8 Dwarka, Dwarka", "phone": "09958840764", "website": "https://greentrans.in/", "rating": 4.9, "review_count": "", "latitude": 28.5742418, "longitude": 77.0705795, "maps_url": "https://www.google.com/maps/place/?q=place_id:0x390d1b18046bbffb:0xb21dca8c6a640dbf"}, {"place_id": "0x390d1bb72bd328b1:0xd9425539dc10edb3", "name": "SOFT INDIA WEB SOFTWARE DEVELOPMENT PVT LTD", "category": "Software company", "street": "Ground Floor", "city": "A- 107", "phone": "09625503688", "website": "http://www.softindia.in/", "rating": 3.2, "review_count": "", "latitude": 28.587611, "longitude": 77.0704514, "maps_url": "https://www.google.com/maps/place/?q=place_id:0x390d1bb72bd328b1:0xd9425539dc10edb3"}, {"place_id": "0x390d1b3d620205b1:0xe21a1fe217f40c4", "name": "InFutive Technology Pvt Ltd.", "category": "Software company", "street": "C-Block", "city": "B - 282 Palam Extension", "phone": "08882283917", "website": "http://www.infutive.com/", "rating": 5, "review_count": "", "latitude": 28.5862752, "longitude": 77.0697868, "maps_url": "https://www.google.com/maps/place/?q=place_id:0x390d1b3d620205b1:0xe21a1fe217f40c4"}, {"place_id": "0x390d05f1c70d0d6b:0x80d816e36f28618f", "name": "Katchin Tech Private Limited | Software Development Company in Delhi NCR", "category": "Software company", "street": "A-4", "city": "near skin decor", "phone": "07669005215", "website": "https://www.katchintech.com/", "rating": 5, "review_count": "", "latitude": 28.575834099999998, "longitude": 77.05139609999999, "maps_url": "https://www.google.com/maps/place/?q=place_id:0x390d05f1c70d0d6b:0x80d816e36f28618f"}, {"place_id": "0x390d1b1fb85c71ed:0x1aa4ba2a08b02c1d", "name": "Tecmicra Solutions - Software, Website Development & Digital Marketing Company", "category": "Software company", "street": "Floor, D410", "city": "3rd", "phone": "07042387253", "website": "https://tecmicra.co.in/", "rating": 5, "review_count": "", "latitude": 28.5849324, "longitude": 77.071085, "maps_url": "https://www.google.com/maps/place/?q=place_id:0x390d1b1fb85c71ed:0x1aa4ba2a08b02c1d"}, {"place_id": "0x390d013ca8ac1387:0x8a0db85b518267d5", "name": "NexGen Innovators", "category": "Software company", "street": "114B, 3rd floor, Dwarka Mor", "city": "New Delhi, Delhi 110059", "phone": "", "website": "https://www.nexgi.com/", "rating": 4.9, "review_count": "", "latitude": 28.618961, "longitude": 77.0322202, "maps_url": "https://www.google.com/maps/place/?q=place_id:0x390d013ca8ac1387:0x8a0db85b518267d5"}, {"place_id": "0x390d1b097bcea0d3:0x83c0849ab6b0443b", "name": "Bluewebby Technologies | Website Design & Development in Dwarka | Android & IOS Development | Digital Marketing Agency", "category": "Software company", "street": "RZF-766/41", "city": "Part-2, Block P, Raj Nagar Extension, Palam", "phone": "09896383705", "website": "http://www.bluewebby.com/", "rating": 5, "review_count": "", "latitude": 28.5739707, "longitude": 77.0790138, "maps_url": "https://www.google.com/maps/place/?q=place_id:0x390d1b097bcea0d3:0x83c0849ab6b0443b"}, {"place_id": "0x390d04ae48526021:0xfc8962573381adb3", "name": "Softonic Solution", "category": "Software company", "street": "Building A", "city": "Block A, 2nd Floor, Plot No. 11, 12, 16, 17 Palam Extension", "phone": "09990944381", "website": "", "rating": 4.9, "review_count": "", "latitude": 28.582297399999998, "longitude": 77.07083709999999, "maps_url": "https://www.google.com/maps/place/?q=place_id:0x390d04ae48526021:0xfc8962573381adb3"}, {"place_id": "0x390d1b7465daad1f:0xcb6513e16f7b8db2", "name": "UNC MART PVT. LTD.", "category": "Software company", "street": "Plot#14 Pochanpur", "city": "Sector 23", "phone": "07428505014", "website": "http://www.uncmart.in/", "rating": 4.9, "review_count": "", "latitude": 28.568372, "longitude": 77.0695528, "maps_url": "https://www.google.com/maps/place/?q=place_id:0x390d1b7465daad1f:0xcb6513e16f7b8db2"}, {"place_id": "0x390d1bedde2c99bd:0x162fa54778df6fe", "name": "Omneelab Software Solutions Pvt Ltd", "category": "Software company", "street": "3rd Floor", "city": "LSC -2", "phone": "09958123820", "website": "https://www.omneelab.com/", "rating": 4.7, "review_count": "", "latitude": 28.5897889, "longitude": 77.06333149999999, "maps_url": "https://www.google.com/maps/place/?q=place_id:0x390d1bedde2c99bd:0x162fa54778df6fe"}, {"place_id": "0x390d1ac4f284e761:0x9464ca79c229a74d", "name": "Times IT Services Pvt. Ltd", "category": "Software company", "street": "Vardhman Bahnhof Plaza", "city": "204", "phone": "09650012304", "website": "https://www.timesitservices.com/", "rating": 4.9, "review_count": "", "latitude": 28.5906919, "longitude": 77.043549, "maps_url": "https://www.google.com/maps/place/?q=place_id:0x390d1ac4f284e761:0x9464ca79c229a74d"}, {"place_id": "0x390ce458d0000001:0xf2123bd299ec4501", "name": "IT Company India", "category": "Software company", "street": "D56", "city": "D Block, Sector 10", "phone": "09999244854", "website": "https://www.itcompanyindia.in/", "rating": 4.7, "review_count": "", "latitude": 28.589917699999997, "longitude": 77.3351153, "maps_url": "https://www.google.com/maps/place/?q=place_id:0x390ce458d0000001:0xf2123bd299ec4501"}, {"place_id": "0x390d1b007ae0c719:0x3414319f2b69e494", "name": "Iris Aerial Innovations Pvt Ltd", "category": "Corporate office", "street": "B 142", "city": "Block B, Sector 8 Dwarka, Dwarka", "phone": "09599115441", "website": "http://www.irisaerial.in/", "rating": 5, "review_count": "", "latitude": 28.5722235, "longitude": 77.0771484, "maps_url": "https://www.google.com/maps/place/?q=place_id:0x390d1b007ae0c719:0x3414319f2b69e494"}, {"place_id": "0x390d1b95c0282d51:0xa63e0ab9c2fe717d", "name": "Core Web Technology", "category": "Software company", "street": "RZF-906/22,B3,3rd Flooor, Netaji Shubhash Marg Rajnagar-II", "city": "near SBI", "phone": "09319919395", "website": "https://www.corewebtechnology.com/", "rating": 5, "review_count": "", "latitude": 28.5768757, "longitude": 77.0790449, "maps_url": "https://www.google.com/maps/place/?q=place_id:0x390d1b95c0282d51:0xa63e0ab9c2fe717d"}, {"place_id": "0x390d053af4b9fae1:0xa955718786ea4c90", "name": "Efficient IT & Electronic Services Private Limited", "category": "Software company", "street": "1st floor", "city": "VV Plaza building", "phone": "08750042191", "website": "http://www.efficientindia.com/", "rating": 4.4, "review_count": "", "latitude": 28.6100702, "longitude": 77.03385709999999, "maps_url": "https://www.google.com/maps/place/?q=place_id:0x390d053af4b9fae1:0xa955718786ea4c90"}, {"place_id": "0x390d1bdf0a3e7f61:0x9183ef9d4cac657c", "name": "TechBinge India", "category": "Software company", "street": "E-515, 1st Floor", "city": "Block E, Sector 7 Dwarka, Dwarka", "phone": "09871056158", "website": "https://techbinge.org/", "rating": 4.3, "review_count": "", "latitude": 28.5850108, "longitude": 77.07190899999999, "maps_url": "https://www.google.com/maps/place/?q=place_id:0x390d1bdf0a3e7f61:0x9183ef9d4cac657c"}, {"place_id": "0x390d1a5532eb800f:0xf2e1540348673db7", "name": "bitGain Technology Private Limited", "category": "Software company", "street": "Plot No 497", "city": "Bharthal, Sector 26 Dwarka, Bharthal", "phone": "09560002243", "website": "https://www.bitgaintech.com/", "rating": 4.7, "review_count": "", "latitude": 28.5467209, "longitude": 77.0473114, "maps_url": "https://www.google.com/maps/place/?q=place_id:0x390d1a5532eb800f:0xf2e1540348673db7"}, {"place_id": "0x390d1b07258b26f1:0x8226854068152e3e", "name": "Softcom Technologies - Web Designing Company in Delhi", "category": "Website designer", "street": "S-89, Manish Global Mall", "city": "Sector 22 Dwarka, Dwarka", "phone": "09910258463", "website": "https://www.softcomtechnologies.com/", "rating": 5, "review_count": "", "latitude": 28.559992299999998, "longitude": 77.0596212, "maps_url": "https://www.google.com/maps/place/?q=place_id:0x390d1b07258b26f1:0x8226854068152e3e"}, {"place_id": "0x390d04d87fa425e9:0xabbae143206fe3b7", "name": "Xcrino Business Solutions Pvt Ltd", "category": "Software company", "street": "3rd Floor", "city": "Goma Plaza", "phone": "09211352844", "website": "https://www.xcrino.com/", "rating": 3.8, "review_count": "", "latitude": 28.585049599999998, "longitude": 77.0719654, "maps_url": "https://www.google.com/maps/place/?q=place_id:0x390d04d87fa425e9:0xabbae143206fe3b7"}, {"place_id": "0x390d058eebd4e349:0xe3540cff21ac1db4", "name": "Matrix Infotech Solution | Software Development Company in Delhi", "category": "Software company", "street": "3rd floor, Besmate Indian Bank, housing complex", "city": "Main Market", "phone": "08920817059", "website": "https://www.matrixinfotechsolution.com/", "rating": 5, "review_count": "", "latitude": 28.6165375, "longitude": 77.0282521, "maps_url": "https://www.google.com/maps/place/?q=place_id:0x390d058eebd4e349:0xe3540cff21ac1db4"}, {"place_id": "0x390d1ac339555557:0x9e72f1346ffa17f8", "name": "DIGIWIZ TECHNOLOGIES PVT LTD", "category": "Software company", "street": "112,MANISH MARKET", "city": "Sector 11 Dwarka, Dwarka", "phone": "08800643456", "website": "https://seoservicessk.com/seo-services-in-dwarka-seo-course-in-dwarka/", "rating": 4.9, "review_count": "", "latitude": 28.586458, "longitude": 77.0457241, "maps_url": "https://www.google.com/maps/place/?q=place_id:0x390d1ac339555557:0x9e72f1346ffa17f8"}, {"place_id": "0x2a72b8b69d7b6493:0x11251466d4d34cac", "name": "WebZonal IT Company", "category": "Website designer", "street": "Wz-258/2-3, D Block Rd", "city": "Khazan Basti, Nangal Raya, Janakpuri", "phone": "09811170903", "website": "http://webzonal.com/", "rating": 5, "review_count": "", "latitude": 28.6122102, "longitude": 77.11159549999999, "maps_url": "https://www.google.com/maps/place/?q=place_id:0x2a72b8b69d7b6493:0x11251466d4d34cac"}, {"place_id": "0x390d1b86b6b5582d:0x36c722e124b57be8", "name": "kdrsoft Technologies - website designing company in delhi", "category": "Website designer", "street": "2nd Floor", "city": "Manish Global Mall", "phone": "09910258463", "website": "https://www.kdrsoft.com/", "rating": 4.9, "review_count": "", "latitude": 28.559937299999998, "longitude": 77.0596687, "maps_url": "https://www.google.com/maps/place/?q=place_id:0x390d1b86b6b5582d:0x36c722e124b57be8"}, {"place_id": "0x390d1ba2b97290ff:0x89787d29c3ad6b38", "name": "DigiVigyan Marketing Pvt. Ltd.", "category": "Website designer", "street": "3rd Floor, C", "city": "60", "phone": "", "website": "https://www.digivigyan.com/", "rating": 4.8, "review_count": "", "latitude": 28.570065099999997, "longitude": 77.0761868, "maps_url": "https://www.google.com/maps/place/?q=place_id:0x390d1ba2b97290ff:0x89787d29c3ad6b38"}, {"place_id": "0x390d02e520aee25b:0x322870f3355c7f4b", "name": "Delphi Infotech (Cybersecurity & Cloud Solutions)", "category": "Software company", "street": "225A, D-21", "city": "Corporate Park", "phone": "01145075151", "website": "https://www.delphiinfo.com/", "rating": 4.2, "review_count": "", "latitude": 28.5618181, "longitude": 77.0670596, "maps_url": "https://www.google.com/maps/place/?q=place_id:0x390d02e520aee25b:0x322870f3355c7f4b"}, {"place_id": "0x390d059150d8d8d3:0xa88f8d2856eab58e", "name": "Codemez It Solutions", "category": "Software company", "street": "Ground Floor", "city": "H No 271", "phone": "08800598521", "website": "https://codemez.com/", "rating": 5, "review_count": "", "latitude": 28.6140609, "longitude": 77.0312409, "maps_url": "https://www.google.com/maps/place/?q=place_id:0x390d059150d8d8d3:0xa88f8d2856eab58e"}, {"place_id": "0x390d1da73a24973f:0xfcbd561b3e6e5b0b", "name": "Adsource IT Solutions", "category": "Software company", "street": "Metro Pilllar, metro station", "city": "Dwarka More", "phone": "", "website": "https://www.adsourceitsolutions.com/", "rating": 5, "review_count": "", "latitude": 28.619874, "longitude": 77.0310854, "maps_url": "https://www.google.com/maps/place/?q=place_id:0x390d1da73a24973f:0xfcbd561b3e6e5b0b"}, {"place_id": "0x390d1c153a0323ff:0x48e3aad9be77d23c", "name": "Msinterface Technologies Pvt Ltd - Website Designer in Dwarka", "category": "Software company", "street": "Mahavir Enclave", "city": "Mahavir Enclave I, Sector 1 Dwarka, Dwarka", "phone": "09971787219", "website": "https://www.msinterface.in/", "rating": 5, "review_count": "", "latitude": 28.5961926, "longitude": 77.0823114, "maps_url": "https://www.google.com/maps/place/?q=place_id:0x390d1c153a0323ff:0x48e3aad9be77d23c"}, {"place_id": "0x390d04bf231d4979:0xa2cd2b7e8bfd68ff", "name": "TN Infotech Pvt. Ltd.", "category": "Computer support and services", "street": "E-594, FIRST FLOOR", "city": "Ramphal Chowk Rd", "phone": "09810782194", "website": "http://tninfotech.net/", "rating": 5, "review_count": "", "latitude": 28.585736699999998, "longitude": 77.0719481, "maps_url": "https://www.google.com/maps/place/?q=place_id:0x390d04bf231d4979:0xa2cd2b7e8bfd68ff"}, {"place_id": "0x390d1782ae9a9ab7:0x1ac110f26be9a439", "name": "Ignissta Software", "category": "Software company", "street": "72", "city": "Bagdola, Sector 8 Dwarka, Dwarka", "phone": "09310479620", "website": "https://www.ignissta.com.au/", "rating": "", "review_count": "", "latitude": 28.572784499999997, "longitude": 77.07127729999999, "maps_url": "https://www.google.com/maps/place/?q=place_id:0x390d1782ae9a9ab7:0x1ac110f26be9a439"}, {"place_id": "0x390ce3c153b89811:0xe7a279685777e9ca", "name": "IT Company", "category": "Automation company", "street": "A-14", "city": "near iskcon temple", "phone": "", "website": "http://www.opuswiz.com/", "rating": 3, "review_count": "", "latitude": 28.557167, "longitude": 77.25424819999999, "maps_url": "https://www.google.com/maps/place/?q=place_id:0x390ce3c153b89811:0xe7a279685777e9ca"}, {"place_id": "0x390d1b013ca4a0fd:0x46305f1938cd3165", "name": "INDORAIL Technology Pvt. Ltd.", "category": "Industrial Spares & Products Wholesaler", "street": "B-21 Block B", "city": "Bagdola, Sector 8 Dwarka", "phone": "", "website": "http://www.indorail.in/", "rating": 5, "review_count": "", "latitude": 28.572308999999997, "longitude": 77.076216, "maps_url": "https://www.google.com/maps/place/?q=place_id:0x390d1b013ca4a0fd:0x46305f1938cd3165"}, {"place_id": "0x390d1b3d95555591:0x43c9fe791aed7a0e", "name": "Acetech Information Systems Pvt. Ltd", "category": "Software company", "street": "Unit No. 469-470, Vegas Mall", "city": "Commercial Towers", "phone": "09650972345", "website": "http://www.acetechindia.com/", "rating": 4.4, "review_count": "", "latitude": 28.601454, "longitude": 77.0294002, "maps_url": "https://www.google.com/maps/place/?q=place_id:0x390d1b3d95555591:0x43c9fe791aed7a0e"}, {"place_id": "0x4f697d3361ddeb39:0xe0e2b2ed3253d014", "name": "Oceanic Studio - Web Development & Digital Marketing Company in Delhi", "category": "Website designer", "street": "Basement, 249", "city": "Block B, Sector 8 Dwarka, Dwarka", "phone": "09891043380", "website": "http://www.oceanicstudio.net/", "rating": 5, "review_count": "", "latitude": 28.5701, "longitude": 77.079269, "maps_url": "https://www.google.com/maps/place/?q=place_id:0x4f697d3361ddeb39:0xe0e2b2ed3253d014"}, {"place_id": "0x390d1b8d94bfebb9:0xdbd74207ae3d35e7", "name": "SysTools Software Pvt Ltd", "category": "Software company", "street": "City Centre", "city": "528", "phone": "06230830862", "website": "https://www.systoolsgroup.com/", "rating": 4.5, "review_count": "", "latitude": 28.5921344, "longitude": 77.0417265, "maps_url": "https://www.google.com/maps/place/?q=place_id:0x390d1b8d94bfebb9:0xdbd74207ae3d35e7"}, {"place_id": "0x390d05cd2ace8d53:0xf82774e10e1ff47c", "name": "Quicky Technologies", "category": "Software company", "street": "3rd Floor", "city": "C-85, Rama Park Rd", "phone": "09899550472", "website": "https://www.quickytechnologies.com/", "rating": 5, "review_count": "", "latitude": 28.622149999999998, "longitude": 77.03673069999999, "maps_url": "https://www.google.com/maps/place/?q=place_id:0x390d05cd2ace8d53:0xf82774e10e1ff47c"}, {"place_id": "0x390d1be996551767:0xb2f7b290665076b9", "name": "Xntrova Technologies \u2013 Best Digital Marketing Agency in Delhi | SEO Services in Delhi", "category": "Internet marketing service", "street": "2nd floor", "city": "A 107", "phone": "08683828646", "website": "https://www.xntrova.com/", "rating": 4.6, "review_count": "", "latitude": 28.5745203, "longitude": 77.0711895, "maps_url": "https://www.google.com/maps/place/?q=place_id:0x390d1be996551767:0xb2f7b290665076b9"}, {"place_id": "0x390d1b38fd32b4f3:0x82d62331243c57ca", "name": "Techiedom", "category": "Software company", "street": "12, 16", "city": "Block A, 2nd Floor, Plot No. 11", "phone": "08076944161", "website": "https://www.techiedom.com/", "rating": 4.7, "review_count": "", "latitude": 28.592847, "longitude": 77.07793199999999, "maps_url": "https://www.google.com/maps/place/?q=place_id:0x390d1b38fd32b4f3:0x82d62331243c57ca"}, {"place_id": "0x29182cd90b477205:0xafbdc18388b8d100", "name": "Ananta Technology - IT Company", "category": "Web hosting company", "street": "RZB-214, Old Mehrauli Rd", "city": "Palam Colony, Part - I, Raj Nagar", "phone": "", "website": "https://anantatechnology.com/", "rating": 5, "review_count": "", "latitude": 28.584313899999998, "longitude": 77.0862543, "maps_url": "https://www.google.com/maps/place/?q=place_id:0x29182cd90b477205:0xafbdc18388b8d100"}, {"place_id": "0x390d1b158ca5e96b:0x8fe247ea1594e420", "name": "Bluelinks Seo Company In Delhi", "category": "Internet marketing service", "street": "B-36 Dwarka Sector-8 Ground Floor", "city": "New Delhi, Delhi 110077", "phone": "09818068033", "website": "https://www.bluelinks.in/", "rating": 4.7, "review_count": "", "latitude": 28.5724481, "longitude": 77.0765854, "maps_url": "https://www.google.com/maps/place/?q=place_id:0x390d1b158ca5e96b:0x8fe247ea1594e420"}, {"place_id": "0x390d1bd44d66b275:0x88a3460d23c114f1", "name": "ReCorporate India", "category": "Business management consultant", "street": "A 201", "city": "Block A, Sector 8 Dwarka, Dwarka", "phone": "09555415415", "website": "http://www.recorporate.net/", "rating": 4.7, "review_count": "", "latitude": 28.573704799999998, "longitude": 77.07249949999999, "maps_url": "https://www.google.com/maps/place/?q=place_id:0x390d1bd44d66b275:0x88a3460d23c114f1"}, {"place_id": "0x390d1b53669611a7:0xd0180d327b46ea0e", "name": "GRK Info Services Pvt Ltd", "category": "Software company", "street": "E - 595, UGF", "city": "Daani Plaza", "phone": "", "website": "http://grkpl.com/", "rating": 4.6, "review_count": "", "latitude": 28.5852842, "longitude": 77.0713699, "maps_url": "https://www.google.com/maps/place/?q=place_id:0x390d1b53669611a7:0xd0180d327b46ea0e"}, {"place_id": "0x390d05035d069c35:0x732c882d67fb79ce", "name": "Bizz Plus Solutions - Billing Software, Inventory Software , Restaurant Software In Delhi", "category": "Software company", "street": "A1/64B", "city": "Block D, Sewak Park, Dwarka", "phone": "09910480280", "website": "", "rating": 4.8, "review_count": "", "latitude": 28.6147715, "longitude": 77.0340168, "maps_url": "https://www.google.com/maps/place/?q=place_id:0x390d05035d069c35:0x732c882d67fb79ce"}, {"place_id": "0x390d1ba812ffffff:0xca4c275bd9c34fa7", "name": "KV Human Resources Services Pvt. Ltd", "category": "Corporate office", "street": "A 59 2nd floor", "city": "Block A, Sector 8 Dwarka, Dwarka", "phone": "07669100805", "website": "http://kvhr.in/", "rating": 4.5, "review_count": "", "latitude": 28.574257099999997, "longitude": 77.0715393, "maps_url": "https://www.google.com/maps/place/?q=place_id:0x390d1ba812ffffff:0xca4c275bd9c34fa7"}, {"place_id": "0x390d1bfd61687473:0x878fa1ec1c9a9d7f", "name": "T&N Business Services Pvt Ltd Delhi", "category": "Business management consultant", "street": "3rd", "city": "E-517", "phone": "09455579997", "website": "http://www.tnservices.in/", "rating": 4.7, "review_count": "", "latitude": 28.584938899999997, "longitude": 77.072231, "maps_url": "https://www.google.com/maps/place/?q=place_id:0x390d1bfd61687473:0x878fa1ec1c9a9d7f"}, {"place_id": "0x390d1b2440000001:0x7b52a88f21fc0d82", "name": "DesignDot Technologies | #1 Best Website & App Development | Top Software & AIML Solutions Company in Delhi", "category": "Software company", "street": "RZ 1/13, 3RD FLOOR, Main Road Above HDFC Bank, Dwarka, Near Palam Metro Gate 2", "city": "New Delhi, Delhi 110077", "phone": "09999652812", "website": "https://www.designdot.co.in/", "rating": 5, "review_count": "", "latitude": 28.587238199999998, "longitude": 77.0850727, "maps_url": "https://www.google.com/maps/place/?q=place_id:0x390d1b2440000001:0x7b52a88f21fc0d82"}, {"place_id": "0x390d05713cbc05f9:0x29ec332097ea9861", "name": "Bluebyte It Solutions", "category": "Software company", "street": "MS-83", "city": "Block MS, Mohan Garden, Uttam Nagar", "phone": "08178838292", "website": "https://www.bluebyteitsolutions.com/", "rating": 5, "review_count": "", "latitude": 28.6289797, "longitude": 77.0335781, "maps_url": "https://www.google.com/maps/place/?q=place_id:0x390d05713cbc05f9:0x29ec332097ea9861"}, {"place_id": "0x390d1b8e5b6999a1:0x522ffbc2c7c23362", "name": "Techthastu Private Limited (Techthaastu)", "category": "Software company", "street": "Techthaastu Office, Pt. Mehru Marg, Outer Bharthal Firni road Bharthal Village", "city": "near Govt. Girls senior secondary School", "phone": "08383889042", "website": "https://www.techthaastu.com/", "rating": 5, "review_count": "", "latitude": 28.5403192, "longitude": 77.0524594, "maps_url": "https://www.google.com/maps/place/?q=place_id:0x390d1b8e5b6999a1:0x522ffbc2c7c23362"}, {"place_id": "0x390d1adbffffffff:0x47351decce42f4a5", "name": "Gazelle Information Technologies Private Limited", "category": "Consultant", "street": "201C/6, Second Floor Corporate Park, D-21 Dwarka, Near Dwarka Sector-8 Metro Station", "city": "Delhi 110077", "phone": "09868825252", "website": "https://www.gazelle.in/", "rating": 3.5, "review_count": "", "latitude": 28.5714012, "longitude": 77.07195639999999, "maps_url": "https://www.google.com/maps/place/?q=place_id:0x390d1adbffffffff:0x47351decce42f4a5"}, {"place_id": "0x390d02994de5e515:0xd908bc03409a0d37", "name": "Himalayan IT Solutions | Best Website Designing Company in Delhi | SEO/Digital Marketing Company in Delhi NCR, India", "category": "Software company", "street": "61/4255, Padam Singh Rd", "city": "Block 29, Block 1, Regar Pura, Karol Bagh", "phone": "09899098509", "website": "http://www.himalayanitsolutions.com/", "rating": 3.9, "review_count": "", "latitude": 28.649673999999997, "longitude": 77.186599, "maps_url": "https://www.google.com/maps/place/?q=place_id:0x390d02994de5e515:0xd908bc03409a0d37"}, {"place_id": "0x390d1b162ed2908d:0x35f238c42a340589", "name": "Udigie - Best Website Development Company In Delhi", "category": "Website designer", "street": "D-486, 1st Floor", "city": "Ramphal Chowk Rd", "phone": "07982140540", "website": "https://udigie.com/", "rating": 5, "review_count": "", "latitude": 28.5847357, "longitude": 77.0703491, "maps_url": "https://www.google.com/maps/place/?q=place_id:0x390d1b162ed2908d:0x35f238c42a340589"}, {"place_id": "0x390d1bbd14a92329:0x69ccddf6d89ff", "name": "PMPA SOFTTECH PVT. LTD.", "category": "Software company", "street": "6/A6", "city": "Pocket-8, Sector 23b, Dwarka", "phone": "07073003833", "website": "", "rating": 4.5, "review_count": "", "latitude": 28.563591799999998, "longitude": 77.0417138, "maps_url": "https://www.google.com/maps/place/?q=place_id:0x390d1bbd14a92329:0x69ccddf6d89ff"}, {"place_id": "0x390d1b3c6ae899df:0xe4ed2cb24ede2228", "name": "NESKONZEITA", "category": "Security system supplier", "street": "RZF-770/B7, STREET-11", "city": "Part-2, Block F, Raj Nagar Extension, Raj Nagar", "phone": "09990561556", "website": "https://neskonzeita.in/", "rating": 5, "review_count": "", "latitude": 28.5732611, "longitude": 77.08134059999999, "maps_url": "https://www.google.com/maps/place/?q=place_id:0x390d1b3c6ae899df:0xe4ed2cb24ede2228"}, {"place_id": "0x390d05713cbc05f9:0x29ec332097ea9861", "name": "Bluebyte It Solutions", "category": "Software company", "street": "MS-83", "city": "Block MS, Mohan Garden, Uttam Nagar", "phone": "08178838292", "website": "https://www.bluebyteitsolutions.com/", "rating": 5, "review_count": "", "latitude": 28.6289797, "longitude": 77.0335781, "maps_url": "https://www.google.com/maps/place/?q=place_id:0x390d05713cbc05f9:0x29ec332097ea9861"}, {"place_id": "0x390d02994de5e515:0xd908bc03409a0d37", "name": "Himalayan IT Solutions | Best Website Designing Company in Delhi | SEO/Digital Marketing Company in Delhi NCR, India", "category": "Software company", "street": "61/4255, Padam Singh Rd", "city": "Block 29, Block 1, Regar Pura, Karol Bagh", "phone": "09899098509", "website": "http://www.himalayanitsolutions.com/", "rating": 3.9, "review_count": "", "latitude": 28.649673999999997, "longitude": 77.186599, "maps_url": "https://www.google.com/maps/place/?q=place_id:0x390d02994de5e515:0xd908bc03409a0d37"}, {"place_id": "0x448aa981f5f4e8af:0x24d0bd0e978530df", "name": "Tech Rajendra", "category": "Software company", "street": "3rd Floor", "city": "Plot no. 190, Golf Course Rd", "phone": "09540020546", "website": "https://www.techrajendra.com/", "rating": 4.5, "review_count": "", "latitude": 28.586822299999998, "longitude": 77.0276827, "maps_url": "https://www.google.com/maps/place/?q=place_id:0x448aa981f5f4e8af:0x24d0bd0e978530df"}, {"place_id": "0x390d1b7c17a6ad6f:0xf0fd2cbc44fb8c4e", "name": "Khurana Future Homes", "category": "Real Estate Builders & Construction Company", "street": "B", "city": "148", "phone": "08010989802", "website": "", "rating": 4.8, "review_count": "", "latitude": 28.5720292, "longitude": 77.0774598, "maps_url": "https://www.google.com/maps/place/?q=place_id:0x390d1b7c17a6ad6f:0xf0fd2cbc44fb8c4e"}, {"place_id": "0x390d1b11e3a974ab:0xf3fb4c947c1afce3", "name": "Gaurav Computer Wala", "category": "Computer repair service", "street": "near Maruti Excel Gaurav Computer Wala", "city": "Bagdola, Sector 8 Dwarka, Dwarka", "phone": "09971576102", "website": "", "rating": 5, "review_count": "", "latitude": 28.5714822, "longitude": 77.07518809999999, "maps_url": "https://www.google.com/maps/place/?q=place_id:0x390d1b11e3a974ab:0xf3fb4c947c1afce3"}, {"place_id": "0x390d1b0ee94131bb:0x5eaa2377c7a7735d", "name": "Shree Securitron Systems Private Limited | CCTV Camera | Electronic Lock | Access Control", "category": "Security system supplier", "street": "GF RZP 17 Block P Chanchal furniture second floor Near ICMR national institute of malaria road dwarka", "city": "Sector 8 Dwarka, Palam", "phone": "09891103106", "website": "https://shreesecuritron.co.in/", "rating": 4.8, "review_count": "", "latitude": 28.5741259, "longitude": 77.07692999999999, "maps_url": "https://www.google.com/maps/place/?q=place_id:0x390d1b0ee94131bb:0x5eaa2377c7a7735d"}, {"place_id": "0x390d1b0545b2c0cd:0x23ba5665da999202", "name": "Animeria Technologies - Software & App Development | Digital Marketing", "category": "Software company", "street": "A30", "city": "Block D, Sector 8 Dwarka, Dwarka", "phone": "08882612956", "website": "https://www.animeriatechnologies.com/", "rating": 5, "review_count": "", "latitude": 28.572037899999998, "longitude": 77.070837, "maps_url": "https://www.google.com/maps/place/?q=place_id:0x390d1b0545b2c0cd:0x23ba5665da999202"}, {"place_id": "0x8ace583f4f849005:0x8e2302d49a3d0d32", "name": "GLOBAL TECHNOLOGY (GT) CONNECT", "category": "Software company", "street": "metro exit gate", "city": "B-77, First Floor, Sewak Park", "phone": "09211458714", "website": "https://www.globaltechnologyconnect.com/", "rating": 5, "review_count": "", "latitude": 28.618889799999998, "longitude": 77.0509601, "maps_url": "https://www.google.com/maps/place/?q=place_id:0x8ace583f4f849005:0x8e2302d49a3d0d32"}, {"place_id": "0x390d1b847c0cc601:0xe50ddf38c96ccb63", "name": "BitQit Private Limited", "category": "Software company", "street": "Vegas Towers", "city": "475 - 476", "phone": "", "website": "https://www.bitqit.com/", "rating": 5, "review_count": "", "latitude": 28.6015788, "longitude": 77.0296654, "maps_url": "https://www.google.com/maps/place/?q=place_id:0x390d1b847c0cc601:0xe50ddf38c96ccb63"}, {"place_id": "0x390d1b9ddfccb265:0xb589ee8b4aaaa57c", "name": "50 Hertz Limited", "category": "Software company", "street": "Corporate Park", "city": "303, 3rd Floor, D21", "phone": "01140110747", "website": "https://www.50hertz.in/", "rating": 4.6, "review_count": "", "latitude": 28.5618181, "longitude": 77.0670596, "maps_url": "https://www.google.com/maps/place/?q=place_id:0x390d1b9ddfccb265:0xb589ee8b4aaaa57c"}, {"place_id": "0x390ce514db51a1bd:0x133424cc92a96479", "name": "Regatta Technologies", "category": "Software company", "street": "1st Floor", "city": "Plot No. 361", "phone": "09266443222", "website": "https://www.regattatechnologies.com/", "rating": 4.5, "review_count": "", "latitude": 28.6177194, "longitude": 77.02874659999999, "maps_url": "https://www.google.com/maps/place/?q=place_id:0x390ce514db51a1bd:0x133424cc92a96479"}, {"place_id": "0x390d05c94d5ebb61:0xe8289327a1223c5", "name": "Shivnik Technology", "category": "Software company", "street": "3rd floor", "city": "245, Om Vihar St", "phone": "", "website": "https://www.instagram.com/shivniktechnology/", "rating": 5, "review_count": "", "latitude": 28.622485299999997, "longitude": 77.0498868, "maps_url": "https://www.google.com/maps/place/?q=place_id:0x390d05c94d5ebb61:0xe8289327a1223c5"}, {"place_id": "0x390d05e1e22e3551:0xc247a3a4488411d2", "name": "Code Celsius IT Solutions LLP", "category": "Software company", "street": "4th Floor", "city": "A1/47", "phone": "09266957277", "website": "https://www.codecelsius.com/", "rating": 4.9, "review_count": "", "latitude": 28.6165134, "longitude": 77.0330232, "maps_url": "https://www.google.com/maps/place/?q=place_id:0x390d05e1e22e3551:0xc247a3a4488411d2"}, {"place_id": "0x390d1be0f1470549:0x17a9d7f6d78b0d57", "name": "Cognam Technologies", "category": "Corporate office", "street": "B299&300, 1st Floor, Palam Extn", "city": "near Ramphal Chowk Road", "phone": "", "website": "https://www.cognam.com/", "rating": 4.3, "review_count": "", "latitude": 28.5860047, "longitude": 77.07136419999999, "maps_url": "https://www.google.com/maps/place/?q=place_id:0x390d1be0f1470549:0x17a9d7f6d78b0d57"}, {"place_id": "0x390d1bdec1ced481:0x832b048bd9008df3", "name": "Kloud Datasoft Pvt. Ltd. - Best Software Development Company in New Delhi", "category": "Software company", "street": "T 7", "city": "Pankaj Central Plaza", "phone": "", "website": "https://klouddatasoft.com/", "rating": 5, "review_count": "", "latitude": 28.5927787, "longitude": 77.0460346, "maps_url": "https://www.google.com/maps/place/?q=place_id:0x390d1bdec1ced481:0x832b048bd9008df3"}, {"place_id": "0x390d1b0e55555555:0x3eefd0a536701b8a", "name": "Dynamic Staffing Services Private Limited", "category": "Employment consultant", "street": "71", "city": "Block B, Sector 8 Dwarka, Dwarka", "phone": "01140410000", "website": "https://www.dss-hr.com/", "rating": 4.6, "review_count": "", "latitude": 28.5717048, "longitude": 77.07649119999999, "maps_url": "https://www.google.com/maps/place/?q=place_id:0x390d1b0e55555555:0x3eefd0a536701b8a"}, {"place_id": "0x390d05c8987801e5:0x128e04dce6c4cbc4", "name": "Matrix Infotech Solution | Software Development Company", "category": "Software company", "street": "j j", "city": "Dwarka Mor, Block WE, Mohan Garden, Razapur Khurd", "phone": "08920817059", "website": "http://www.matrixinfotechsolution.com/", "rating": 3.9, "review_count": "", "latitude": 28.637037, "longitude": 77.0291258, "maps_url": "https://www.google.com/maps/place/?q=place_id:0x390d05c8987801e5:0x128e04dce6c4cbc4"}, {"place_id": "0x20616dbf813c03ef:0xc8fd1ca47f902e9e", "name": "Bloatware IT Software Company | website Designing Company | Software Company | MLM |CRM | Android Apps", "category": "Software company", "street": "C1", "city": "Rama Park", "phone": "08920750797", "website": "https://bloatwareitsolutions.com/", "rating": 4.5, "review_count": "", "latitude": 28.621265599999997, "longitude": 77.0324943, "maps_url": "https://www.google.com/maps/place/?q=place_id:0x20616dbf813c03ef:0xc8fd1ca47f902e9e"}, {"place_id": "0x390d0165c4c0adb7:0x24c751b1139cf8dc", "name": "StartupGali", "category": "License bureau", "street": "2nd Floor", "city": "D-480", "phone": "09650082009", "website": "https://www.startupgali.com/", "rating": 4.9, "review_count": "", "latitude": 28.584743399999997, "longitude": 77.069817, "maps_url": "https://www.google.com/maps/place/?q=place_id:0x390d0165c4c0adb7:0x24c751b1139cf8dc"}, {"place_id": "0x390d1df0721e08c5:0x49d5fd4648a33c2d", "name": "Nibble Software | Website Design & Development | Travel Web API & CRM | SEO, SMO, Paid Ads, Amazon & Flipkart Marketing", "category": "Website designer", "street": "4th Floor", "city": "Moolchand Tower", "phone": "09971066697", "website": "https://www.nibblesoftware.com/", "rating": 4.8, "review_count": "", "latitude": 28.6000862, "longitude": 77.0818018, "maps_url": "https://www.google.com/maps/place/?q=place_id:0x390d1df0721e08c5:0x49d5fd4648a33c2d"}, {"place_id": "0x390d1bf076ad40a5:0x6e54f7930154b26d", "name": "pNthaan: Technologies - Digital Marketing Company in Delhi - Social Media Marketing", "category": "Software company", "street": "D2/15, Dabri - Palam Rd", "city": "Vinod Puri, Block B 3, Vijay Enclave, Mahavir Enclave", "phone": "09810455309", "website": "https://pnthaan.com/", "rating": 4.9, "review_count": 20, "latitude": 28.602663399999997, "longitude": 77.0801891, "maps_url": "https://www.google.com/maps/place/?q=place_id:0x390d1bf076ad40a5:0x6e54f7930154b26d"}, {"place_id": "0x390d1be7f1a44f95:0x84524a5425f8930d", "name": "InfraDost Technologies Pvt Ltd.- Microsoft Adobe Corel Draw & Security Solution Provider", "category": "Software company", "street": "Gurgaon - Delhi Expy", "city": "Block B, Mahipalpur Village, Mahipalpur", "phone": "08287792542", "website": "http://www.infradost.com/", "rating": 4.6, "review_count": 8, "latitude": 28.5485743, "longitude": 77.1264697, "maps_url": "https://www.google.com/maps/place/?q=place_id:0x390d1be7f1a44f95:0x84524a5425f8930d"}, {"place_id": "0x390d1b6807b97c57:0xb6dc40e91d71681f", "name": "Algo2bots Infotech", "category": "Software company", "street": "WZ-291, Street Number 8", "city": "Sadh Nagar I, Sadh Nagar, Palam", "phone": "09911447760", "website": "http://algo2botsinfotech.com/", "rating": 5, "review_count": 1, "latitude": 28.587672599999998, "longitude": 77.09199129999999, "maps_url": "https://www.google.com/maps/place/?q=place_id:0x390d1b6807b97c57:0xb6dc40e91d71681f"}, {"place_id": "0x390d1bf7b99f3135:0x7b59ef65ff972e2", "name": "XB Software Development Company", "category": "Software company", "street": "Goma Plaza", "city": "E-512, Ramphal Chowk Rd", "phone": "08802878718", "website": "", "rating": 5, "review_count": 5, "latitude": 28.586331899999998, "longitude": 77.0716807, "maps_url": "https://www.google.com/maps/place/?q=place_id:0x390d1bf7b99f3135:0x7b59ef65ff972e2"}, {"place_id": "0x390d1bcd76384d39:0xdb32f9430e255f8e", "name": "WINISHTECH IT SOLUTIONS PRIVATE LIMITED", "category": "Software company", "street": "B1/639 A", "city": "Janakpuri West, Block B1, Janakpuri", "phone": "", "website": "https://winishtechitsolutions.com/", "rating": 5, "review_count": 3, "latitude": 28.6324707, "longitude": 77.0857044, "maps_url": "https://www.google.com/maps/place/?q=place_id:0x390d1bcd76384d39:0xdb32f9430e255f8e"}, {"place_id": "0x390d1b80fb9da03d:0xd77ea97dd9a2aa4a", "name": "Nextwebi IT Solutions Pvt Ltd", "category": "Website designer", "street": "45, Street Number 2", "city": "Palam Extension, Sector 7 Dwarka, Dwarka", "phone": "08904240871", "website": "", "rating": 5, "review_count": 22, "latitude": 28.5945388, "longitude": 77.0857647, "maps_url": "https://www.google.com/maps/place/?q=place_id:0x390d1b80fb9da03d:0xd77ea97dd9a2aa4a"}, {"place_id": "0x390d050d9e7ce6a3:0xa72607a5a8be6510", "name": "Shri Sai Tech Solutions", "category": "Software company", "street": "Pillar number 783", "city": "Metro Station Dwarka Mor A-109, Street No. 4", "phone": "07210868167", "website": "https://shrisaitechsolutions.com/", "rating": 4.3, "review_count": 16, "latitude": 28.6189075, "longitude": 77.0333678, "maps_url": "https://www.google.com/maps/place/?q=place_id:0x390d050d9e7ce6a3:0xa72607a5a8be6510"}, {"place_id": "0x390d1b3c7aaaaaab:0xcc0116b944b8452c", "name": "ESIGN WEB SERVICES PVT LTD", "category": "Website designer", "street": "3rd Floor", "city": "Plot No 24", "phone": "09718099999", "website": "https://www.esignwebservices.com/", "rating": 4.7, "review_count": 146, "latitude": 28.5857121, "longitude": 77.0494913, "maps_url": "https://www.google.com/maps/place/?q=place_id:0x390d1b3c7aaaaaab:0xcc0116b944b8452c"}, {"place_id": "0x390d1b0e55555555:0x5906afe3e1eb2d07", "name": "FPS LOGISTICS", "category": "Logistics service", "street": "shop no 4 and 5 1st and 2nd floor", "city": "Plot No 5", "phone": "09810769388", "website": "http://fpslogistics.in/", "rating": 4.7, "review_count": 978, "latitude": 28.5741314, "longitude": 77.07054819999999, "maps_url": "https://www.google.com/maps/place/?q=place_id:0x390d1b0e55555555:0x5906afe3e1eb2d07"}, {"place_id": "0x390d055ab880b807:0xcb5c025daa2b2795", "name": "Tech Web Mantra", "category": "Software company", "street": "B-77", "city": "near Dwarka Mor Metro Station", "phone": "09871521039", "website": "https://www.techwebmantra.com/", "rating": 5, "review_count": 98, "latitude": 28.614187899999997, "longitude": 77.0362179, "maps_url": "https://www.google.com/maps/place/?q=place_id:0x390d055ab880b807:0xcb5c025daa2b2795"}, {"place_id": "0x390d1b43e0685165:0x15aac335821ae93f", "name": "Booster Shop India", "category": "Security system installation service", "street": "RZG-315/B, RAJNAGAR", "city": "Part-2, Palam", "phone": "09811431764", "website": "http://boostershop.in/", "rating": 4.5, "review_count": 62, "latitude": 28.5739062, "longitude": 77.0765377, "maps_url": "https://www.google.com/maps/place/?q=place_id:0x390d1b43e0685165:0x15aac335821ae93f"}, {"place_id": "0x390d1b72684054fd:0x6905a48dbca4ba20", "name": "Amit Verma", "category": "Internet marketing service", "street": "", "city": "", "phone": "09582211007", "website": "", "rating": 4, "review_count": 10, "latitude": 45.050399899999995, "longitude": -47.802320699999996, "maps_url": "https://www.google.com/maps/place/?q=place_id:0x390d1b72684054fd:0x6905a48dbca4ba20"}, {"place_id": "0x390d1baaff346a7b:0x1b774913c94bd822", "name": "Ontech Digital Technologies Pvt. Ltd.", "category": "Website designer", "street": "3rd floor", "city": "Shyam Kunj Tower", "phone": "08802377021", "website": "https://ontechdigital.com/", "rating": 5, "review_count": 42, "latitude": 28.5994429, "longitude": 77.0819152, "maps_url": "https://www.google.com/maps/place/?q=place_id:0x390d1baaff346a7b:0x1b774913c94bd822"}, {"place_id": "0x390d05c021c5643f:0x4c5794b17406c81c", "name": "Web2online Solutions - web designing and web development company in delhi, seo company delhi", "category": "Website designer", "street": "C 917", "city": "Block C, Sector 7 Dwarka, Dwarka", "phone": "08860303721", "website": "https://web2onlinesolutions.com/", "rating": 4.9, "review_count": 35, "latitude": 28.585333499999997, "longitude": 77.0707252, "maps_url": "https://www.google.com/maps/place/?q=place_id:0x390d05c021c5643f:0x4c5794b17406c81c"}, {"place_id": "0x40acf0c9312777c9:0xc5f8949c226d0337", "name": "Interact Technologies", "category": "Advertising agency", "street": "B-40", "city": "near Mother Dairy", "phone": "", "website": "https://interacttechnologies.in/", "rating": "", "review_count": "", "latitude": 28.5720487, "longitude": 77.0708701, "maps_url": "https://www.google.com/maps/place/?q=place_id:0x40acf0c9312777c9:0xc5f8949c226d0337"}, {"place_id": "0x390d04d2f6575abb:0xd5553781913e9a53", "name": "Espial Infotech", "category": "Software company", "street": "Uttam Vihar, Block B, Uttam Nagar, Bindapur", "city": "Delhi, 110059", "phone": "", "website": "http://espial.in/", "rating": 5, "review_count": 1, "latitude": 28.611546399999998, "longitude": 77.06602269999999, "maps_url": "https://www.google.com/maps/place/?q=place_id:0x390d04d2f6575abb:0xd5553781913e9a53"}, {"place_id": "0x390d05e30eed4415:0x52bb703e06164e54", "name": "SpriteEra IT Solutions Pvt. Ltd.", "category": "Software company", "street": "N-52", "city": "Nand Vihar, Sector 16A, Dwarka", "phone": "09569550856", "website": "https://spriteera.com/", "rating": 5, "review_count": 9, "latitude": 28.614293099999998, "longitude": 77.01946319999999, "maps_url": "https://www.google.com/maps/place/?q=place_id:0x390d05e30eed4415:0x52bb703e06164e54"}, {"place_id": "0x390d195c26bfa369:0x69bd8efd2e3a31fe", "name": "Radical Minds Technologies Pvt. Ltd.", "category": "BPO Company", "street": "368", "city": "Phase II, Udyog Vihar, Sector 20", "phone": "01244338366", "website": "http://www.radicalminds.in/", "rating": 4.2, "review_count": 2604, "latitude": 28.506335099999998, "longitude": 77.0877546, "maps_url": "https://www.google.com/maps/place/?q=place_id:0x390d195c26bfa369:0x69bd8efd2e3a31fe"}, {"place_id": "0x41d0a87c8f4afaf:0x24b53b7f7ad5bf06", "name": "Fox Beryl - Digital Marketing Company", "category": "Website designer", "street": "G-16/2 Street NO. 2 Raj nagar", "city": "Part-2, Palam", "phone": "08595869757", "website": "https://foxberyl.in/", "rating": 5, "review_count": 54, "latitude": 28.585067199999997, "longitude": 77.0815736, "maps_url": "https://www.google.com/maps/place/?q=place_id:0x41d0a87c8f4afaf:0x24b53b7f7ad5bf06"}, {"place_id": "0x390d052a1265bc33:0xd1f77384fcc24135", "name": "Grace Techno | Web Designing Company in Delhi | Web & Software Development Company in Delhi", "category": "Software company", "street": "First Floor", "city": "Building Burger King", "phone": "08595273503", "website": "https://gracetechno.online/", "rating": 5, "review_count": 9, "latitude": 28.6198245, "longitude": 77.054174, "maps_url": "https://www.google.com/maps/place/?q=place_id:0x390d052a1265bc33:0xd1f77384fcc24135"}]}