{"timestamp": 1773729859.5473635, "keyword": "IT company", "location": "delhi", "cell_idx": 149, "results": [{"place_id": "0x390ce1ce534cb1e5:0x39fe77c42bc52616", "name": "ITeSolution- Odoo ERP , Mobile/Web Application Development Software Company in Noida, Delhi NCR India.", "category": "Software company", "street": "RZ60/9", "city": "T/F, Tughlakabad Extension, Tughlakabad", "phone": "09889294124", "website": "https://www.itesolution.co.in/", "rating": 4.9, "review_count": "", "latitude": 28.520523899999997, "longitude": 77.2570535, "maps_url": "https://www.google.com/maps/place/?q=place_id:0x390ce1ce534cb1e5:0x39fe77c42bc52616"}, {"place_id": "0x390ce18e402306b5:0x9dbfaada227164c4", "name": "Vijprat Tech Private Limited", "category": "Software company", "street": "Sangam Vihar", "city": "Block D, Hamdard Nagar", "phone": "08565013979", "website": "https://www.vijprat.com/", "rating": 4.8, "review_count": "", "latitude": 28.5153091, "longitude": 77.2498549, "maps_url": "https://www.google.com/maps/place/?q=place_id:0x390ce18e402306b5:0x9dbfaada227164c4"}, {"place_id": "0x390ce1597b5509e5:0xfd8209b937b44d3c", "name": "IT Solutions India Private Limited", "category": "Software company", "street": "D-88/5", "city": "Pocket D, Okhla Phase I, Okhla Industrial Estate", "phone": "09810017429", "website": "https://www.itsipl.com/", "rating": 4.2, "review_count": "", "latitude": 28.520146, "longitude": 77.280431, "maps_url": "https://www.google.com/maps/place/?q=place_id:0x390ce1597b5509e5:0xfd8209b937b44d3c"}, {"place_id": "0x390ce3c153b89811:0xe7a279685777e9ca", "name": "IT Company", "category": "Automation company", "street": "A-14", "city": "near iskcon temple", "phone": "", "website": "http://www.opuswiz.com/", "rating": 3, "review_count": "", "latitude": 28.557167, "longitude": 77.25424819999999, "maps_url": "https://www.google.com/maps/place/?q=place_id:0x390ce3c153b89811:0xe7a279685777e9ca"}, {"place_id": "0x390ce458d0000001:0xf2123bd299ec4501", "name": "IT Company India", "category": "Software company", "street": "D56", "city": "D Block, Sector 10", "phone": "09999244854", "website": "https://www.itcompanyindia.in/", "rating": 4.7, "review_count": "", "latitude": 28.589917699999997, "longitude": 77.3351153, "maps_url": "https://www.google.com/maps/place/?q=place_id:0x390ce458d0000001:0xf2123bd299ec4501"}, {"place_id": "0x8d1367491c694315:0xb6e1626c69d891d2", "name": "WebGridSolution - Software Development Digital Marketing Company", "category": "Software company", "street": "G-12/188", "city": "Talimabad, Sangam Vihar", "phone": "", "website": "https://webgridsolution.com/", "rating": 4.8, "review_count": "", "latitude": 28.506943099999997, "longitude": 77.2507213, "maps_url": "https://www.google.com/maps/place/?q=place_id:0x8d1367491c694315:0xb6e1626c69d891d2"}, {"place_id": "0x390ce25767d65705:0x69370431f47bb375", "name": "Utech India Limited", "category": "Software company", "street": "2nd Floor", "city": "A-2", "phone": "01140562728", "website": "http://utechindia.com/", "rating": 4.8, "review_count": "", "latitude": 28.5281512, "longitude": 77.2742353, "maps_url": "https://www.google.com/maps/place/?q=place_id:0x390ce25767d65705:0x69370431f47bb375"}, {"place_id": "0x390ce3de4687a317:0x587eff2ec36e0933", "name": "SNJ Solutions Pvt Ltd", "category": "Software company", "street": "", "city": "", "phone": "09958110050", "website": "http://www.snjsolutions.co.in/", "rating": 4.9, "review_count": "", "latitude": 21.0680074, "longitude": 82.7525294, "maps_url": "https://www.google.com/maps/place/?q=place_id:0x390ce3de4687a317:0x587eff2ec36e0933"}, {"place_id": "0x390cfd309eebed77:0xf47bee595f075e26", "name": "Asfera Technologies Private Limited | Dialer Software Company", "category": "Software company", "street": "59/1", "city": "Saroj Tower, Office No:- 15", "phone": "09066677770", "website": "https://www.asfera.in/", "rating": 4.6, "review_count": "", "latitude": 28.540130599999998, "longitude": 77.2619868, "maps_url": "https://www.google.com/maps/place/?q=place_id:0x390cfd309eebed77:0xf47bee595f075e26"}, {"place_id": "0x390ce161ceec9d85:0x952e8b11295dfe85", "name": "HYBEC IT SOLUTION", "category": "Software company", "street": "National Small Industries Corporation", "city": "Block F, Okhla Phase III, Okhla Industrial Estate", "phone": "01149128591", "website": "http://www.hybecitsolutions.com/", "rating": 4.8, "review_count": "", "latitude": 28.5490569, "longitude": 77.2674236, "maps_url": "https://www.google.com/maps/place/?q=place_id:0x390ce161ceec9d85:0x952e8b11295dfe85"}, {"place_id": "0x390ce3ecb114ad9b:0x831bb62ea721e15", "name": "\ud835\udc06\ud835\udc22\ud835\udc2d\ud835\udc32\ud835\udc2c\ud835\udc28\ud835\udc1f\ud835\udc2d\u00ae \ud835\udc13\ud835\udc1e\ud835\udc1c\ud835\udc21\ud835\udc27\ud835\udc28\ud835\udc25\ud835\udc28\ud835\udc20\ud835\udc22\ud835\udc1e\ud835\udc2c", "category": "Software company", "street": "Pocket-M, Chitranjan Park", "city": "Police Station", "phone": "09821150988", "website": "https://gitysoft.com/", "rating": 5, "review_count": "", "latitude": 28.5396921, "longitude": 77.24901009999999, "maps_url": "https://www.google.com/maps/place/?q=place_id:0x390ce3ecb114ad9b:0x831bb62ea721e15"}, {"place_id": "0x390ce41c1fbfe739:0x580eaf080b6dc089", "name": "WDMtech", "category": "Software company", "street": "H 228, Street No. 13", "city": "Khadda Colony, Jaitpur", "phone": "", "website": "https://www.wdmtech.com/", "rating": 4.4, "review_count": "", "latitude": 28.532524499999997, "longitude": 77.2655063, "maps_url": "https://www.google.com/maps/place/?q=place_id:0x390ce41c1fbfe739:0x580eaf080b6dc089"}, {"place_id": "0x390ce1a20e94f69d:0xf6c5af89da672917", "name": "Code IT Solutions", "category": "Software company", "street": "E45", "city": "Krishna Park Colony, Khanpur", "phone": "07992249312", "website": "http://codeitsolutionshub.com/", "rating": 4.9, "review_count": "", "latitude": 28.509770999999997, "longitude": 77.23377169999999, "maps_url": "https://www.google.com/maps/place/?q=place_id:0x390ce1a20e94f69d:0xf6c5af89da672917"}, {"place_id": "0x390ce3277a9c44e1:0xe02b4d0908f9dc05", "name": "Titan IT Services", "category": "Computer support and services", "street": "3rd floor", "city": "H. No. 339/4", "phone": "09453470502", "website": "https://digitalcarddy.com/Titan-IT-Services", "rating": 4.8, "review_count": "", "latitude": 28.5372524, "longitude": 77.2636504, "maps_url": "https://www.google.com/maps/place/?q=place_id:0x390ce3277a9c44e1:0xe02b4d0908f9dc05"}, {"place_id": "0x390ce3c7b85554e5:0x34e439c15e247631", "name": "HAUT IT Solutions Pvt. Ltd", "category": "Software company", "street": "390", "city": "Sant Nagar, East of Kailash", "phone": "09934753003", "website": "http://www.hautitsolutions.com/", "rating": 4.3, "review_count": "", "latitude": 28.554910099999997, "longitude": 77.25111249999999, "maps_url": "https://www.google.com/maps/place/?q=place_id:0x390ce3c7b85554e5:0x34e439c15e247631"}, {"place_id": "0x390ce1fb44618b65:0x8e06b2a6128352d1", "name": "Acropolis Infotech - Delhi Office", "category": "Software company", "street": "metro station gate", "city": "55, 2nd Floor, Lane 2", "phone": "09999876593", "website": "https://www.acropolisinfotech.com/", "rating": 4.6, "review_count": "", "latitude": 28.518907, "longitude": 77.2015435, "maps_url": "https://www.google.com/maps/place/?q=place_id:0x390ce1fb44618b65:0x8e06b2a6128352d1"}, {"place_id": "0x390ce1656fbb7b65:0x7f0e4b2c21935a5c", "name": "Lynkit Solutions Pvt. Ltd.", "category": "Software company", "street": "246", "city": "Block A, Okhla Phase I, Okhla Industrial Estate", "phone": "01140824028", "website": "http://www.lynkit.in/", "rating": 4.3, "review_count": "", "latitude": 28.5254729, "longitude": 77.2754985, "maps_url": "https://www.google.com/maps/place/?q=place_id:0x390ce1656fbb7b65:0x7f0e4b2c21935a5c"}, {"place_id": "0x390ce2305c00002d:0x9f7efbacdc0d8271", "name": "ICO WebTech Pvt. Ltd. - Website Designing Company in Delhi", "category": "Website designer", "street": "J E 5, Ground Floor, Khirki Extension, Malviya Nagar", "city": "New Delhi, Delhi 110017", "phone": "08447380262", "website": "https://www.icowebsolutions.com/", "rating": 4.6, "review_count": "", "latitude": 28.535594, "longitude": 77.21577099999999, "maps_url": "https://www.google.com/maps/place/?q=place_id:0x390ce2305c00002d:0x9f7efbacdc0d8271"}, {"place_id": "0x390ce11068dacbdd:0xac4070cb73f9c1b1", "name": "Reedham It solutions pvt ltd", "category": "Software company", "street": "1297B, H 16 Rd", "city": "Block G 1, Talimabad, Sangam Vihar", "phone": "01146012950", "website": "http://reedhamitsolution.com/", "rating": 5, "review_count": "", "latitude": 28.5017906, "longitude": 77.25404069999999, "maps_url": "https://www.google.com/maps/place/?q=place_id:0x390ce11068dacbdd:0xac4070cb73f9c1b1"}, {"place_id": "0x390ce30f4c4ed777:0x3a7c5e032ce51ce5", "name": "Appextech Software Solutions", "category": "Software company", "street": "Second Floor", "city": "Mohan Cooperative Industrial Estate", "phone": "09911432451", "website": "https://www.appextech.com/", "rating": 4.9, "review_count": "", "latitude": 28.502260099999997, "longitude": 77.28519, "maps_url": "https://www.google.com/maps/place/?q=place_id:0x390ce30f4c4ed777:0x3a7c5e032ce51ce5"}, {"place_id": "0x390ce31a134804c3:0x1efe0384e9410898", "name": "CINCHIS DIGITAL INDIA PVT. LTD.", "category": "Computer support and services", "street": "Hemkunt Chambers", "city": "Nehru Place", "phone": "09667339664", "website": "https://cinchis.com/", "rating": 4.9, "review_count": "", "latitude": 28.547605299999997, "longitude": 77.25241419999999, "maps_url": "https://www.google.com/maps/place/?q=place_id:0x390ce31a134804c3:0x1efe0384e9410898"}, {"place_id": "0x390ce1c0c464a231:0xd92817f936b31b2b", "name": "Computers Care Junction", "category": "Computer service", "street": "RZ 3178, Street No.36", "city": "Tughlakabad Extension, Tughlakabad", "phone": "07042017876", "website": "http://www.computercarejunction.in/", "rating": 4.8, "review_count": "", "latitude": 28.5171638, "longitude": 77.2556424, "maps_url": "https://www.google.com/maps/place/?q=place_id:0x390ce1c0c464a231:0xd92817f936b31b2b"}, {"place_id": "0x390ce5fdcc79e755:0x309ce99251b84ef6", "name": "Optyminds IT Solutions - Top AI and IT company I Best Digital agency in Noida | Delhi NCR | India", "category": "Software company", "street": "1st Floor", "city": "B-70", "phone": "08929075975", "website": "https://optyminds.com/", "rating": 4.9, "review_count": "", "latitude": 28.584679599999998, "longitude": 77.3135042, "maps_url": "https://www.google.com/maps/place/?q=place_id:0x390ce5fdcc79e755:0x309ce99251b84ef6"}, {"place_id": "0x390ce3de132b4909:0xb23d21cd15c91719", "name": "Indev Consultancy Pvt Ltd", "category": "Software company", "street": "2nd Floor", "city": "E-40/3", "phone": "01135352929", "website": "http://indevconsultancy.com/", "rating": 4.7, "review_count": "", "latitude": 28.536490699999998, "longitude": 77.2709845, "maps_url": "https://www.google.com/maps/place/?q=place_id:0x390ce3de132b4909:0xb23d21cd15c91719"}, {"place_id": "0x390ce17fe586541d:0x425e234a344ee8b2", "name": "Trident Information Systems Pvt Ltd", "category": "Software company", "street": "M-31A, M Block Market", "city": "Block M, Greater Kailash II, Greater Kailash", "phone": "01129219927", "website": "https://www.tridentinfo.com/", "rating": 3.6, "review_count": "", "latitude": 28.5333558, "longitude": 77.2412192, "maps_url": "https://www.google.com/maps/place/?q=place_id:0x390ce17fe586541d:0x425e234a344ee8b2"}, {"place_id": "0x390cddf536e5435d:0x7effb233335fc345", "name": "Minerva Technology Solutions Ltd.", "category": "Software company", "street": "Unit # 5 & 6", "city": "US Complex", "phone": "01140792600", "website": "http://www.minerva.in/", "rating": 4.5, "review_count": "", "latitude": 28.538679, "longitude": 77.2821338, "maps_url": "https://www.google.com/maps/place/?q=place_id:0x390cddf536e5435d:0x7effb233335fc345"}, {"place_id": "0x390ce137736852e9:0x7fe34ee47ed93a72", "name": "Pothera ERP Software for Manufacturing Company", "category": "Software company", "street": "Basement A-283, Near TATA Showroom Okhla Phase 1, New Delhi", "city": "Delhi, 110020", "phone": "", "website": "http://pothera.com/", "rating": 5, "review_count": "", "latitude": 28.525357099999997, "longitude": 77.27710809999999, "maps_url": "https://www.google.com/maps/place/?q=place_id:0x390ce137736852e9:0x7fe34ee47ed93a72"}, {"place_id": "0x390ce6cf6c89da1b:0x65c494efea23f742", "name": "Web Development Company | Danip Technologies", "category": "Software company", "street": "91 Springboard", "city": "B1/H3", "phone": "", "website": "http://www.daniptechnologies.com/", "rating": 3.5, "review_count": "", "latitude": 28.516938399999997, "longitude": 77.2949711, "maps_url": "https://www.google.com/maps/place/?q=place_id:0x390ce6cf6c89da1b:0x65c494efea23f742"}, {"place_id": "0x390ce226100110ef:0xe529d399458dbf03", "name": "First IT", "category": "Software company", "street": "S/F 776-A", "city": "Chirag Dilli", "phone": "", "website": "https://www.firstit.in/", "rating": 5, "review_count": "", "latitude": 28.5376318, "longitude": 77.2282863, "maps_url": "https://www.google.com/maps/place/?q=place_id:0x390ce226100110ef:0xe529d399458dbf03"}, {"place_id": "0x390ce158b926ffd3:0x1a98e9ac83e533d3", "name": "InSoftLink Software Technology", "category": "Software company", "street": "E 44/3", "city": "Pocket D, Okhla Phase II, Okhla Industrial Estate", "phone": "09540349392", "website": "http://insoftlinktechnology.com/", "rating": 3.9, "review_count": "", "latitude": 28.5353694, "longitude": 77.2702709, "maps_url": "https://www.google.com/maps/place/?q=place_id:0x390ce158b926ffd3:0x1a98e9ac83e533d3"}, {"place_id": "0x390ce3c50d455555:0x625e4cf2def0b6ac", "name": "Infonative Solutions Limited", "category": "Computer support and services", "street": "107, 108", "city": "DLF South Court", "phone": "08448141818", "website": "https://infonative.net/", "rating": 4.7, "review_count": "", "latitude": 28.5274255, "longitude": 77.2209031, "maps_url": "https://www.google.com/maps/place/?q=place_id:0x390ce3c50d455555:0x625e4cf2def0b6ac"}, {"place_id": "0x390ce17b94309bbf:0x2a7be4bbd23e8470", "name": "Nexinfotech", "category": "Software company", "street": "Gali No. 5", "city": "Block J 1, Devli, Sangam Vihar", "phone": "09319089231", "website": "https://nexinfotech.com/", "rating": 5, "review_count": "", "latitude": 28.4901479, "longitude": 77.2463212, "maps_url": "https://www.google.com/maps/place/?q=place_id:0x390ce17b94309bbf:0x2a7be4bbd23e8470"}, {"place_id": "0x390ce7b62827897b:0xf9c64750fed6eeef", "name": "Connect Infosoft Technologies Pvt.Ltd-Mobile and Software Application Development Company", "category": "Software company", "street": "Plot No.598", "city": "near Community Center", "phone": "", "website": "https://www.connectinfosoft.com/", "rating": 4.6, "review_count": "", "latitude": 28.451022599999998, "longitude": 77.29805, "maps_url": "https://www.google.com/maps/place/?q=place_id:0x390ce7b62827897b:0xf9c64750fed6eeef"}, {"place_id": "0x390ce3c5130e43f3:0xce85951ee98d424e", "name": "MODI INFOSOL PVT. LTD.", "category": "Manufacturer", "street": "OFFICE # 168", "city": "D Block, Pocket D, Okhla Phase I, Okhla Industrial Estate", "phone": "01140746900", "website": "http://www.modiithub.com/", "rating": 3.6, "review_count": "", "latitude": 28.5209118, "longitude": 77.2783556, "maps_url": "https://www.google.com/maps/place/?q=place_id:0x390ce3c5130e43f3:0xce85951ee98d424e"}, {"place_id": "0x390ce1df63d67305:0xdf2fb87b08d4a892", "name": "Kareem Consultants", "category": "Database Management Company", "street": "Rz 3214, Street No.36", "city": "Tughlakabad Extension, Tughlakabad", "phone": "08376893184", "website": "http://kareemconsultants.com/", "rating": 4.9, "review_count": "", "latitude": 28.5167036, "longitude": 77.2553047, "maps_url": "https://www.google.com/maps/place/?q=place_id:0x390ce1df63d67305:0xdf2fb87b08d4a892"}, {"place_id": "0x390ce1e92eec0d49:0x8b4c598e70e40b8", "name": "Kito Infocom Pvt. Ltd", "category": "Internet marketing service", "street": "2nd Floor", "city": "B-38", "phone": "08826845665", "website": "https://kitoinfocom.com/", "rating": 4.6, "review_count": "", "latitude": 28.5302415, "longitude": 77.2719123, "maps_url": "https://www.google.com/maps/place/?q=place_id:0x390ce1e92eec0d49:0x8b4c598e70e40b8"}, {"place_id": "0x390ce3932eaaaaab:0xb308d9aae0d93852", "name": "Al Hadaf Technologies\u2013 ERP, CRM, HRM, Hospital, School, Billing Software Development Company in Delhi NCR", "category": "Software company", "street": "96, Gate No-2", "city": "opp. Escort Hospital", "phone": "08586972994", "website": "https://www.alhadaftech.com/", "rating": 4.9, "review_count": "", "latitude": 28.5562397, "longitude": 77.2762099, "maps_url": "https://www.google.com/maps/place/?q=place_id:0x390ce3932eaaaaab:0xb308d9aae0d93852"}, {"place_id": "0x4ebf586dbe4d7c09:0x968455c83bf5226c", "name": "Anchor IT Solutions- App Development | Website Development | Digital Marketing", "category": "Software company", "street": "4", "city": "Vinoba Puri, Lajpat Nagar II, Lajpat Nagar", "phone": "07678658584", "website": "", "rating": 4.8, "review_count": "", "latitude": 28.566371399999998, "longitude": 77.2486924, "maps_url": "https://www.google.com/maps/place/?q=place_id:0x4ebf586dbe4d7c09:0x968455c83bf5226c"}, {"place_id": "0x390ce16ede0e02b5:0xc549800b46f74e0c", "name": "Usher Infotech", "category": "Software company", "street": "RZ-529/24", "city": "Tughlakabad Extension, Tughlakabad", "phone": "09718347896", "website": "http://www.usherinfotech.com/", "rating": 4.8, "review_count": "", "latitude": 28.521096399999998, "longitude": 77.2570176, "maps_url": "https://www.google.com/maps/place/?q=place_id:0x390ce16ede0e02b5:0xc549800b46f74e0c"}, {"place_id": "0x390ce3cfe91504eb:0x55346c5c499223d7", "name": "CCS Computers Private Limited", "category": "Computer support and services", "street": "2nd-3rd Floor Skipper House", "city": "Nehru Place", "phone": "01126463959", "website": "http://www.ccscomputers.co.in/", "rating": 4, "review_count": "", "latitude": 28.550090599999997, "longitude": 77.2537834, "maps_url": "https://www.google.com/maps/place/?q=place_id:0x390ce3cfe91504eb:0x55346c5c499223d7"}, {"place_id": "0x390ce3720732e4b9:0x6e20d783471055cd", "name": "PC-TECH INFORMATION SYSTEMS", "category": "Software company", "street": "Ground Floor", "city": "19/7", "phone": "09810134631", "website": "https://pctechinfosys.com/", "rating": 5, "review_count": "", "latitude": 28.539841, "longitude": 77.2520643, "maps_url": "https://www.google.com/maps/place/?q=place_id:0x390ce3720732e4b9:0x6e20d783471055cd"}, {"place_id": "0x390ce16ede0e02b5:0xc549800b46f74e0c", "name": "Usher Infotech", "category": "Software company", "street": "RZ-529/24", "city": "Tughlakabad Extension, Tughlakabad", "phone": "09718347896", "website": "http://www.usherinfotech.com/", "rating": 4.8, "review_count": "", "latitude": 28.521096399999998, "longitude": 77.2570176, "maps_url": "https://www.google.com/maps/place/?q=place_id:0x390ce16ede0e02b5:0xc549800b46f74e0c"}, {"place_id": "0x390ce3932eaaaaab:0xb308d9aae0d93852", "name": "Al Hadaf Technologies\u2013 ERP, CRM, HRM, Hospital, School, Billing Software Development Company in Delhi NCR", "category": "Software company", "street": "96, Gate No-2", "city": "opp. Escort Hospital", "phone": "08586972994", "website": "https://www.alhadaftech.com/", "rating": 4.9, "review_count": "", "latitude": 28.5562397, "longitude": 77.2762099, "maps_url": "https://www.google.com/maps/place/?q=place_id:0x390ce3932eaaaaab:0xb308d9aae0d93852"}, {"place_id": "0x390ce3cfe91504eb:0x55346c5c499223d7", "name": "CCS Computers Private Limited", "category": "Computer support and services", "street": "2nd-3rd Floor Skipper House", "city": "Nehru Place", "phone": "01126463959", "website": "http://www.ccscomputers.co.in/", "rating": 4, "review_count": "", "latitude": 28.550090599999997, "longitude": 77.2537834, "maps_url": "https://www.google.com/maps/place/?q=place_id:0x390ce3cfe91504eb:0x55346c5c499223d7"}, {"place_id": "0x4ebf586dbe4d7c09:0x968455c83bf5226c", "name": "Anchor IT Solutions- App Development | Website Development | Digital Marketing", "category": "Software company", "street": "4", "city": "Vinoba Puri, Lajpat Nagar II, Lajpat Nagar", "phone": "07678658584", "website": "", "rating": 4.8, "review_count": "", "latitude": 28.566371399999998, "longitude": 77.2486924, "maps_url": "https://www.google.com/maps/place/?q=place_id:0x4ebf586dbe4d7c09:0x968455c83bf5226c"}, {"place_id": "0x390ce152f8ac4b5b:0x79c000d2fd097014", "name": "Perfect-Ecommerce's", "category": "E - Commerce Agency", "street": "ICICI ATM", "city": "RZ421/13", "phone": "07065984177", "website": "https://perfectecommerces.in/", "rating": 4.8, "review_count": "", "latitude": 28.520523999999998, "longitude": 77.257054, "maps_url": "https://www.google.com/maps/place/?q=place_id:0x390ce152f8ac4b5b:0x79c000d2fd097014"}, {"place_id": "0x390ce15e36305553:0xd368bac6bfbc5737", "name": "CHETAK RO SYSTEMS PRIVATE LIMITED (Maharana Pratap Industries)", "category": "Corporate office", "street": "Gali Number 35", "city": "Tughlakabad Extension, Tughlakabad", "phone": "09311252866", "website": "", "rating": 3.7, "review_count": "", "latitude": 28.517839, "longitude": 77.2549872, "maps_url": "https://www.google.com/maps/place/?q=place_id:0x390ce15e36305553:0xd368bac6bfbc5737"}, {"place_id": "0x390ce3c8e5555555:0xc908f703f65324ea", "name": "Vinayak Compserve Pvt.Ltd", "category": "Computer service", "street": "220", "city": "Sant Nagar, East of Kailash", "phone": "01126430397", "website": "https://vinayakit.com/", "rating": 3.7, "review_count": "", "latitude": 28.5536721, "longitude": 77.2494229, "maps_url": "https://www.google.com/maps/place/?q=place_id:0x390ce3c8e5555555:0xc908f703f65324ea"}, {"place_id": "0x390d1e2895a5a193:0xc8a11377898c5b0f", "name": "GALAXY IT CORPORATION", "category": "Computer service", "street": "B-6, Annexe", "city": "Shivalik Colony, Malviya Nagar", "phone": "09990560588", "website": "http://www.galaxyitcorp.in/", "rating": 5, "review_count": "", "latitude": 28.533527, "longitude": 77.206172, "maps_url": "https://www.google.com/maps/place/?q=place_id:0x390d1e2895a5a193:0xc8a11377898c5b0f"}, {"place_id": "0x4215c6da63b4b82f:0x794ba814a6ada964", "name": "Asha Tech | Website Design, App Development & IT Solutions Delhi", "category": "Software company", "street": "no 2", "city": "195, Lane No. 1", "phone": "07531080874", "website": "https://ashatech.co.in/", "rating": 4.7, "review_count": "", "latitude": 28.519994099999998, "longitude": 77.2008791, "maps_url": "https://www.google.com/maps/place/?q=place_id:0x4215c6da63b4b82f:0x794ba814a6ada964"}, {"place_id": "0x390ce14ee7712b09:0x16f1e425f9106ad", "name": "Royal Datamatics Limited", "category": "Software company", "street": "Shop No", "city": "DSIDC", "phone": "01145751500", "website": "http://www.rdpl.com/", "rating": 4, "review_count": "", "latitude": 28.521658, "longitude": 77.278385, "maps_url": "https://www.google.com/maps/place/?q=place_id:0x390ce14ee7712b09:0x16f1e425f9106ad"}, {"place_id": "0x673c42c8cede8fd3:0xeb22e40375bc5f4a", "name": "India Business Directory", "category": "Business to business service", "street": "RZ2042/27", "city": "near Majedia Hospital", "phone": "", "website": "https://indiabusinesdirectory.com/", "rating": 5, "review_count": "", "latitude": 28.5204424, "longitude": 77.2557298, "maps_url": "https://www.google.com/maps/place/?q=place_id:0x673c42c8cede8fd3:0xeb22e40375bc5f4a"}, {"place_id": "0x2a72b8b69d7b6493:0x11251466d4d34cac", "name": "WebZonal IT Company", "category": "Website designer", "street": "Wz-258/2-3, D Block Rd", "city": "Khazan Basti, Nangal Raya, Janakpuri", "phone": "09811170903", "website": "http://webzonal.com/", "rating": 5, "review_count": "", "latitude": 28.6122102, "longitude": 77.11159549999999, "maps_url": "https://www.google.com/maps/place/?q=place_id:0x2a72b8b69d7b6493:0x11251466d4d34cac"}, {"place_id": "0x390ce3b7c0000001:0x46ddd80ee502d937", "name": "Amtrak Technologies Private Limited", "category": "Computer support and services", "street": "6, Community Centre", "city": "East of Kailash", "phone": "01126448000", "website": "https://amtrak.co.in/", "rating": 4.4, "review_count": "", "latitude": 28.558434899999998, "longitude": 77.2463302, "maps_url": "https://www.google.com/maps/place/?q=place_id:0x390ce3b7c0000001:0x46ddd80ee502d937"}, {"place_id": "0x390ce196e61df7f3:0xedb8f1af808c8874", "name": "Best Digital Marketing Company in Kalkaji - HitupSolutions", "category": "Software company", "street": "1343, Street No. 13", "city": "Govindpuri", "phone": "07983772834", "website": "https://hitupsolutions.com/", "rating": 4.9, "review_count": "", "latitude": 28.5323982, "longitude": 77.2634478, "maps_url": "https://www.google.com/maps/place/?q=place_id:0x390ce196e61df7f3:0xedb8f1af808c8874"}, {"place_id": "0x390ce3f8f4aa824f:0x11711854f86aeab0", "name": "Mindsmiratus Technologies Pvt Ltd", "category": "Software company", "street": "A-263, 1st Floor", "city": "Mindsmiratus Technologies Pvt Ltd", "phone": "01144786201", "website": "https://www.mindsmiratus.com/?utm_source=google&utm_medium=organic&utm_campaign=gmb", "rating": 4.9, "review_count": "", "latitude": 28.5017362, "longitude": 77.28707539999999, "maps_url": "https://www.google.com/maps/place/?q=place_id:0x390ce3f8f4aa824f:0x11711854f86aeab0"}, {"place_id": "0x390ce456aaaaaaab:0x6e4e087895622564", "name": "Klasiinn", "category": "Software company", "street": "E-506, Inder Mohan Bhardwaj Marg", "city": "Block E, Greater Kailash II, Greater Kailash", "phone": "07827882870", "website": "http://klasiinn.in/", "rating": 5, "review_count": "", "latitude": 28.5358657, "longitude": 77.2384798, "maps_url": "https://www.google.com/maps/place/?q=place_id:0x390ce456aaaaaaab:0x6e4e087895622564"}, {"place_id": "0x390feda4c4f56aed:0x2277b287e38fc0ec", "name": "Dizivan IT Solutions Pvt Ltd- App Development & Digital Marketing Company", "category": "Software company", "street": "near Metro Station New Ashok Nagar", "city": "Block B, New Ashok Nagar", "phone": "09142092979", "website": "https://dizivan.com/", "rating": 5, "review_count": "", "latitude": 28.5891575, "longitude": 77.3020624, "maps_url": "https://www.google.com/maps/place/?q=place_id:0x390feda4c4f56aed:0x2277b287e38fc0ec"}, {"place_id": "0x390ce55ac6cd745d:0x87bd5a43123b9e77", "name": "Lifecodify Pvt Ltd", "category": "Software company", "street": "1st Lane Johri Farm", "city": "Noor Nagar Extn I, Jamia Nagar, Okhla", "phone": "08505914227", "website": "https://lifecodify.com/", "rating": 5, "review_count": "", "latitude": 28.5547963, "longitude": 77.2858262, "maps_url": "https://www.google.com/maps/place/?q=place_id:0x390ce55ac6cd745d:0x87bd5a43123b9e77"}, {"place_id": "0x390ce3001bfd51c7:0x43ad1c18c320f5e6", "name": "APPSYFY IT SOLUTIONS PVT LTD", "category": "Software company", "street": "211, Okhla Phase 3 Rd", "city": "Okhla Phase III, Okhla Industrial Estate", "phone": "", "website": "https://appsyfy.com/", "rating": 5, "review_count": "", "latitude": 28.5484191, "longitude": 77.27131729999999, "maps_url": "https://www.google.com/maps/place/?q=place_id:0x390ce3001bfd51c7:0x43ad1c18c320f5e6"}, {"place_id": "0x390ce3ea3fb39ced:0x8b9f74c98dfbe23e", "name": "StudioKrew : Game development company and App Development Studio India", "category": "Software company", "street": "2, Shambhu Dayal Marg", "city": "opp. Okhla Phase 3", "phone": "08826617711", "website": "https://studiokrew.com/", "rating": 4.4, "review_count": "", "latitude": 28.554599999999997, "longitude": 77.265056, "maps_url": "https://www.google.com/maps/place/?q=place_id:0x390ce3ea3fb39ced:0x8b9f74c98dfbe23e"}, {"place_id": "0x390ce161bb6d1b07:0x9c9d73be7e13cb98", "name": "AS Dynamic Engineering Pvt. Ltd.", "category": "Air conditioning repair service", "street": "Ground Floor", "city": "Rz 3271/37", "phone": "09818228486", "website": "http://www.dynamicac.in/", "rating": 4, "review_count": "", "latitude": 28.516293599999997, "longitude": 77.25427669999999, "maps_url": "https://www.google.com/maps/place/?q=place_id:0x390ce161bb6d1b07:0x9c9d73be7e13cb98"}, {"place_id": "0x390ce19c2f11a78d:0x23d3b68c53e6bd3b", "name": "Online Business Karle", "category": "Website designer", "street": "2nd floor", "city": "RZ-2538/27", "phone": "09266362718", "website": "https://sites.google.com/view/onlinebusinesskarle/home", "rating": 5, "review_count": "", "latitude": 28.519954799999997, "longitude": 77.2563722, "maps_url": "https://www.google.com/maps/place/?q=place_id:0x390ce19c2f11a78d:0x23d3b68c53e6bd3b"}, {"place_id": "0x390ce1b9de54d101:0xc5184256693b27dd", "name": "LCK Technologies - Website designing development company South Delhi", "category": "Website designer", "street": "439 1st floor", "city": "438", "phone": "09891337955", "website": "https://lckdigitalmedia.in/", "rating": 4.9, "review_count": "", "latitude": 28.5089698, "longitude": 77.20114769999999, "maps_url": "https://www.google.com/maps/place/?q=place_id:0x390ce1b9de54d101:0xc5184256693b27dd"}, {"place_id": "0x2cf51d6937751b49:0xb5838015406bcbee", "name": "D'Markly | De Facto Marketing", "category": "Software company", "street": "J1/214, DDA Flats Govind Puri", "city": "Kalkaji", "phone": "07042528496", "website": "https://dmarkly.com/", "rating": 4.9, "review_count": "", "latitude": 28.526916099999998, "longitude": 77.256979, "maps_url": "https://www.google.com/maps/place/?q=place_id:0x2cf51d6937751b49:0xb5838015406bcbee"}, {"place_id": "0x390ce156071a0709:0xdf7cbd27b9b178d8", "name": "Fitoor world", "category": "Immigration & naturalization service", "street": "29, Jagadamba Rd", "city": "Tughlakabad Extension, Tughlakabad", "phone": "", "website": "https://www.fitoor.world/", "rating": 4.8, "review_count": 25, "latitude": 28.5203949, "longitude": 77.2560847, "maps_url": "https://www.google.com/maps/place/?q=place_id:0x390ce156071a0709:0xdf7cbd27b9b178d8"}, {"place_id": "0x390ce3c577996141:0x6f0e309d0c4c2de1", "name": "Eagle Information Systems Pvt. Ltd.", "category": "Computer support and services", "street": "Madhuban Building", "city": "705", "phone": "09818188012", "website": "http://www.eagle.in/", "rating": 4.5, "review_count": "", "latitude": 28.5486501, "longitude": 77.2520914, "maps_url": "https://www.google.com/maps/place/?q=place_id:0x390ce3c577996141:0x6f0e309d0c4c2de1"}, {"place_id": "0x390ce100f5e94809:0xd78d6863269ad2a1", "name": "Taom Solutions", "category": "Software company", "street": "E- 44/3 Ground Floor", "city": "F Block, Pocket X, Okhla Phase II, Okhla Industrial Estate", "phone": "", "website": "https://www.taomsolutions.com/", "rating": 5, "review_count": "", "latitude": 28.535762799999997, "longitude": 77.2764329, "maps_url": "https://www.google.com/maps/place/?q=place_id:0x390ce100f5e94809:0xd78d6863269ad2a1"}, {"place_id": "0x390ce17b01e1a187:0x586fa6002747476d", "name": "OneTap AI Solutions", "category": "Software company", "street": "FIRST FLOOR", "city": "HOLI CHOWK", "phone": "07859935902", "website": "https://onetapaisolutions.com/", "rating": 5, "review_count": "", "latitude": 28.5011396, "longitude": 77.2343595, "maps_url": "https://www.google.com/maps/place/?q=place_id:0x390ce17b01e1a187:0x586fa6002747476d"}, {"place_id": "0x390ce23eeab015ab:0x92d6a7e8dbc46e1a", "name": "Odyssey Website Development Company", "category": "Website designer", "street": "B-59", "city": "Block B, Soami Nagar South, Soami Nagar", "phone": "09654486464", "website": "http://odysseyin.com/?utm_source=GMB&utm_medium=Organic&utm_term=Odyssey&utm_content=Listing&utm_campaign=GMB1", "rating": 3.6, "review_count": "", "latitude": 28.541823599999997, "longitude": 77.2262008, "maps_url": "https://www.google.com/maps/place/?q=place_id:0x390ce23eeab015ab:0x92d6a7e8dbc46e1a"}, {"place_id": "0x390ce4196aaaaab1:0xbcb7bc86b6b6bcb", "name": "Hashtag Software Development", "category": "Software company", "street": "E-154", "city": "Shaheen Bagh, Okhla", "phone": "09560393716", "website": "http://hashtagsoftwaredevelopment.com/", "rating": 5, "review_count": "", "latitude": 28.5465439, "longitude": 77.3026622, "maps_url": "https://www.google.com/maps/place/?q=place_id:0x390ce4196aaaaab1:0xbcb7bc86b6b6bcb"}, {"place_id": "0x390ce111f4c3c21d:0x3ec8c73183bc7b9a", "name": "Basha Impex LLP.", "category": "Manufacturer", "street": "TA: 238/239", "city": "F/F", "phone": "09717397621", "website": "http://www.basha-impex.com/", "rating": 5, "review_count": "", "latitude": 28.5271965, "longitude": 77.2602294, "maps_url": "https://www.google.com/maps/place/?q=place_id:0x390ce111f4c3c21d:0x3ec8c73183bc7b9a"}, {"place_id": "0x390ce39a24b89521:0x6e886c5e28fd05a9", "name": "Cloude Data Delhi | Best Cloud Service Provider company in India", "category": "Web hosting company", "street": "First Floor", "city": "A 212, Okhla Phase 3 Rd", "phone": "08882353612", "website": "https://cloudedata.com/", "rating": 4.4, "review_count": "", "latitude": 28.548515, "longitude": 77.2712834, "maps_url": "https://www.google.com/maps/place/?q=place_id:0x390ce39a24b89521:0x6e886c5e28fd05a9"}, {"place_id": "0x390ce10159da4517:0xda755cd7eed5765e", "name": "AirGrow Engineers and Services | Air Grow Engineers and Services | Top Compressor Company in delhi", "category": "Air compressor supplier", "street": "Tughlakabad Extension, Tughlakabad", "city": "New Delhi, Delhi 110019", "phone": "", "website": "", "rating": 4.9, "review_count": "", "latitude": 28.520523899999997, "longitude": 77.2570535, "maps_url": "https://www.google.com/maps/place/?q=place_id:0x390ce10159da4517:0xda755cd7eed5765e"}, {"place_id": "0x390ce3e8c0000001:0x7e2d636beb2d1821", "name": "DigiSensy", "category": "Marketing agency", "street": "3", "city": "Okhla Phase I, Okhla Industrial Estate", "phone": "09935628555", "website": "https://www.digisensy.com/", "rating": 4.6, "review_count": "", "latitude": 28.549205999999998, "longitude": 77.26776, "maps_url": "https://www.google.com/maps/place/?q=place_id:0x390ce3e8c0000001:0x7e2d636beb2d1821"}, {"place_id": "0x390ce3ffe4d01b19:0xe0931b3dea29cf15", "name": "Buzytech : Web Development & Digital Marketing Company", "category": "Marketing agency", "street": "US Complex", "city": "204", "phone": "09810748731", "website": "http://www.buzytech.com/", "rating": 4.2, "review_count": "", "latitude": 28.538573, "longitude": 77.2826166, "maps_url": "https://www.google.com/maps/place/?q=place_id:0x390ce3ffe4d01b19:0xe0931b3dea29cf15"}, {"place_id": "0x390ce3bff9ba7d67:0x8b4534027f9a5803", "name": "Accel IT Services -Regional Office", "category": "Computer support and services", "street": "Ground Floor", "city": "A-61/1", "phone": "", "website": "https://www.accelits.com/", "rating": 3.9, "review_count": "", "latitude": 28.5396719, "longitude": 77.2697596, "maps_url": "https://www.google.com/maps/place/?q=place_id:0x390ce3bff9ba7d67:0x8b4534027f9a5803"}, {"place_id": "0x390ce3c572a9ee5f:0xd4ddf520fbbd12dc", "name": "Vectrae Infotech", "category": "Corporate office", "street": "B-1 Extension", "city": "A-16", "phone": "01140590964", "website": "http://www.vectrae.com/", "rating": 4.6, "review_count": "", "latitude": 28.5068442, "longitude": 77.2986782, "maps_url": "https://www.google.com/maps/place/?q=place_id:0x390ce3c572a9ee5f:0xd4ddf520fbbd12dc"}, {"place_id": "0x390ce10972701b43:0x88fbfcfafdaf00f3", "name": "SearchingYard Group Corporate HQ", "category": "Software company", "street": "Tower 1st Floor, A", "city": "Nagpal Business", "phone": "", "website": "http://www.searchingyard.com/", "rating": 1.7, "review_count": "", "latitude": 28.538387699999998, "longitude": 77.27080029999999, "maps_url": "https://www.google.com/maps/place/?q=place_id:0x390ce10972701b43:0x88fbfcfafdaf00f3"}, {"place_id": "0x390ce165f0fc0ebb:0xa6aca0fb3e59811b", "name": "mk foods", "category": "Corporate office", "street": "rz 2808/32", "city": "Tughlakabad Extension, Tughlakabad", "phone": "09910163339", "website": "", "rating": 4.5, "review_count": "", "latitude": 28.5189293, "longitude": 77.25566959999999, "maps_url": "https://www.google.com/maps/place/?q=place_id:0x390ce165f0fc0ebb:0xa6aca0fb3e59811b"}, {"place_id": "0x390ce3d127ecac55:0xc4655bdf74888e42", "name": "PCJ Partner Tax & Law Firm", "category": "Tax consultant", "street": "RZ-2922, Basement", "city": "Gali, Street Number 33", "phone": "09910069419", "website": "", "rating": 5, "review_count": "", "latitude": 28.5187395, "longitude": 77.2553133, "maps_url": "https://www.google.com/maps/place/?q=place_id:0x390ce3d127ecac55:0xc4655bdf74888e42"}, {"place_id": "0x390ce58b73e1c0b7:0x4ec535b92bf1a74d", "name": "IM Corporation", "category": "Manufacturer", "street": "Ground Floor", "city": "Nathu's Sweets", "phone": "08048263469", "website": "http://www.imcorporation.in/", "rating": 4.9, "review_count": "", "latitude": 28.5282052, "longitude": 77.2751705, "maps_url": "https://www.google.com/maps/place/?q=place_id:0x390ce58b73e1c0b7:0x4ec535b92bf1a74d"}, {"place_id": "0x390ce3eda5c58b1f:0x5bf7f49d89d62908", "name": "IvyTech IT Solutions", "category": "Software company", "street": "A-7, 1st Floor", "city": "Behind Crowne Palaza Hotal", "phone": "08076233768", "website": "", "rating": 5, "review_count": "", "latitude": 28.5283543, "longitude": 77.274602, "maps_url": "https://www.google.com/maps/place/?q=place_id:0x390ce3eda5c58b1f:0x5bf7f49d89d62908"}, {"place_id": "0x390ce1f3680c0793:0x251c9beb1e8924ad", "name": "FSIndia - The Best Video Production Company", "category": "Video production service", "street": "192B/3, 2nd Floor", "city": "Govindpuri, Kalkaji", "phone": "09996910399", "website": "https://freelanceservicesindia.com/", "rating": 4.7, "review_count": "", "latitude": 28.536257799999998, "longitude": 77.2640229, "maps_url": "https://www.google.com/maps/place/?q=place_id:0x390ce1f3680c0793:0x251c9beb1e8924ad"}, {"place_id": "0x390ce44efef427e7:0x4d0a10522519f65e", "name": "Omnie Solutions (I) Pvt Ltd", "category": "Software company", "street": "D-108", "city": "Sector 2, D Block, Sector 2", "phone": "09266754671", "website": "https://www.omniesolutions.com/", "rating": 3.4, "review_count": "", "latitude": 28.583485, "longitude": 77.316155, "maps_url": "https://www.google.com/maps/place/?q=place_id:0x390ce44efef427e7:0x4d0a10522519f65e"}, {"place_id": "0x390ce195c4a79d17:0xf0cfcd6d1d88b9c6", "name": "Export surplus garments company branded only", "category": "Clothing wholesaler", "street": "Rz-2750 Street no-28 Main road", "city": "near ananda store", "phone": "09582968181", "website": "", "rating": 5, "review_count": "", "latitude": 28.5197696, "longitude": 77.25586129999999, "maps_url": "https://www.google.com/maps/place/?q=place_id:0x390ce195c4a79d17:0xf0cfcd6d1d88b9c6"}, {"place_id": "0x390ce16c371cfdcf:0x8cb1606f583f5bba", "name": "RONAK ENTERPRISES", "category": "Computer service", "street": "3191", "city": "Tughlakabad Extension, Tughlakabad", "phone": "", "website": "", "rating": "", "review_count": "", "latitude": 28.5167897, "longitude": 77.2554342, "maps_url": "https://www.google.com/maps/place/?q=place_id:0x390ce16c371cfdcf:0x8cb1606f583f5bba"}, {"place_id": "0x390ce3a840ea11c1:0xdf76e01fa07971ea", "name": "Camsol Advisory | Best Online CA Services in Delhi | Company Registration Services", "category": "Accounting firm", "street": "Basement, N Block", "city": "N-22, Guru Ravidas Marg", "phone": "09873895537", "website": "https://camsoladvisory.com/", "rating": 4.9, "review_count": "", "latitude": 28.537281, "longitude": 77.2591806, "maps_url": "https://www.google.com/maps/place/?q=place_id:0x390ce3a840ea11c1:0xdf76e01fa07971ea"}, {"place_id": "0xa23da5c11cc29301:0x7892865b08c8d494", "name": "Call Center Solutions | Dialer Software Company | IVR Service", "category": "Telecommunications service provider", "street": "Office No:- 15 First Floor", "city": "59/1", "phone": "09930259555", "website": "https://www.callcentersolution.in/", "rating": 4.4, "review_count": "", "latitude": 28.540130599999998, "longitude": 77.2619868, "maps_url": "https://www.google.com/maps/place/?q=place_id:0xa23da5c11cc29301:0x7892865b08c8d494"}, {"place_id": "0x80c3d6491527002d:0x7195de2f1fed298d", "name": "Brand Digital Solution", "category": "Internet marketing service", "street": "Rz-2691/29", "city": "Tughlakabad Extension, Tughlakabad", "phone": "07042436876", "website": "", "rating": 5, "review_count": "", "latitude": 28.5187815, "longitude": 77.2575766, "maps_url": "https://www.google.com/maps/place/?q=place_id:0x80c3d6491527002d:0x7195de2f1fed298d"}, {"place_id": "0x390cdda0937a36df:0x350a8716d5f40b92", "name": "VS Square Info Solutions", "category": "Computer support and services", "street": "Govardhan Building", "city": "Nehru Place", "phone": "09319173336", "website": "http://www.vssquareinfo.com/", "rating": 4.9, "review_count": "", "latitude": 28.5490526, "longitude": 77.251606, "maps_url": "https://www.google.com/maps/place/?q=place_id:0x390cdda0937a36df:0x350a8716d5f40b92"}, {"place_id": "0x390ce1f5c3012927:0x6f31a3585810e8ec", "name": "PRO IT SOLUTIONS", "category": "Computer Wholesaler", "street": "1623/13 4th Floor", "city": "Street No. 13", "phone": "07011094747", "website": "https://www.proitsolution.in/", "rating": 5, "review_count": "", "latitude": 28.5325247, "longitude": 77.2655059, "maps_url": "https://www.google.com/maps/place/?q=place_id:0x390ce1f5c3012927:0x6f31a3585810e8ec"}, {"place_id": "0x390ce17808ca13d3:0xd447f98f248e4d69", "name": "Speed Broadband Service", "category": "Internet service provider", "street": "RZ", "city": "Tughlakabad Extension, Tughlakabad", "phone": "09910572913", "website": "", "rating": 5, "review_count": "", "latitude": 28.518798, "longitude": 77.255189, "maps_url": "https://www.google.com/maps/place/?q=place_id:0x390ce17808ca13d3:0xd447f98f248e4d69"}, {"place_id": "0x390ce1bef0c8c071:0xb0a64e46c6405fc6", "name": "Tech rise dynamics", "category": "Website designer", "street": "293, Lane-2, Westend Marg", "city": "near Saket Metro Station", "phone": "08750557052", "website": "https://www.techrisedynamics.com/", "rating": 5, "review_count": "", "latitude": 28.5177321, "longitude": 77.1986237, "maps_url": "https://www.google.com/maps/place/?q=place_id:0x390ce1bef0c8c071:0xb0a64e46c6405fc6"}, {"place_id": "0x390ce1b43452bbdd:0x7dc21ec8540f7de7", "name": "SMC Integrated Facility Management Solutions Limited, New Delhi - Corporate Office", "category": "Property management company", "street": "3rd Floor", "city": "DDA Community Center", "phone": "01146464444", "website": "https://www.servicemasterclean.com/", "rating": 4.6, "review_count": "", "latitude": 28.528879699999997, "longitude": 77.2731482, "maps_url": "https://www.google.com/maps/place/?q=place_id:0x390ce1b43452bbdd:0x7dc21ec8540f7de7"}, {"place_id": "0x390ce165c831aaab:0x4bbf418e1c5ad421", "name": "Legit Filings | ITR | GST | TDS | ROC | Tax Audit | Company Registration | EPF | ESIC | Payroll Management |", "category": "Tax preparation service", "street": "119, Third Floor, DDA Flats", "city": "J-2", "phone": "09318315298", "website": "http://www.legitfilings.com/", "rating": 4.9, "review_count": "", "latitude": 28.5259638, "longitude": 77.25540339999999, "maps_url": "https://www.google.com/maps/place/?q=place_id:0x390ce165c831aaab:0x4bbf418e1c5ad421"}, {"place_id": "0x390ce1002a554e17:0x6f3c02c7c218c8b6", "name": "Pallet Bazaar Industrial Solutions", "category": "Pallet supplier", "street": "No. 0040", "city": "Rz-3298, 37, Tughlakabad Extension Pole", "phone": "", "website": "https://www.palletbazaar.in/?utm_source=google_profile&utm_campaign=Googlebusinessprofile", "rating": 5, "review_count": "", "latitude": 28.516013299999997, "longitude": 77.2550225, "maps_url": "https://www.google.com/maps/place/?q=place_id:0x390ce1002a554e17:0x6f3c02c7c218c8b6"}, {"place_id": "0x390ce459e2a3a42f:0xdda2e042090c2c72", "name": "InfiCare Technologies Pvt. Ltd", "category": "Software company", "street": "D-92 Second/Third floor", "city": "Sector 2", "phone": "09711265591", "website": "http://www.inficaretech.com/", "rating": 3.9, "review_count": "", "latitude": 28.582936099999998, "longitude": 77.3175146, "maps_url": "https://www.google.com/maps/place/?q=place_id:0x390ce459e2a3a42f:0xdda2e042090c2c72"}, {"place_id": "0xa3f7b500ba6bee9b:0xbf6f44de92b28de", "name": "Yuvocreations Private Limited ( \u092f\u0941\u0935\u094b\u0915\u094d\u0930\u093f\u090f\u0936\u0928\u094d\u0938 \u092a\u094d\u0930\u093e\u0907\u0935\u0947\u091f \u0932\u093f\u092e\u093f\u091f\u0947\u0921 ) - Website Designing & Digital Marketing Agency", "category": "Software company", "street": "Lane no.4", "city": "Khasra no. 258, Westend Marg", "phone": "07042123166", "website": "https://yuvocreations.com/", "rating": 5, "review_count": "", "latitude": 28.5169774, "longitude": 77.19925789999999, "maps_url": "https://www.google.com/maps/place/?q=place_id:0xa3f7b500ba6bee9b:0xbf6f44de92b28de"}, {"place_id": "0x390ce10076647803:0x400a4600e9a20661", "name": "Palletsale Enterprises /plastic & wooden pallets supplier,\u092a\u094d\u0932\u093e\u0938\u094d\u091f\u093f\u0915 \u0914\u0930 \u0932\u0915\u0921\u093c\u0940 \u092a\u094d\u0932\u0947\u091f\u094d\u0938 \u0938\u092a\u094d\u0932\u093e\u092f\u0930", "category": "Pallet supplier", "street": "Rz-3303/37, Street No.37", "city": "Tughlakabad Extension, Tughlakabad", "phone": "08384079107", "website": "http://palletsale.in/", "rating": 5, "review_count": "", "latitude": 28.5158697, "longitude": 77.2546521, "maps_url": "https://www.google.com/maps/place/?q=place_id:0x390ce10076647803:0x400a4600e9a20661"}]}