{"timestamp": 1773730473.8660274, "keyword": "IT company", "location": "delhi", "cell_idx": 245, "results": [{"place_id": "0x390ce21425118e25:0x70fb9d80e6685fad", "name": "Ananta Business Services", "category": "Software company", "street": "125, South", "city": "Shahpur Jat, Siri Fort", "phone": "09289371171", "website": "http://www.absite.in/", "rating": 4.7, "review_count": "", "latitude": 28.5490721, "longitude": 77.2159506, "maps_url": "https://www.google.com/maps/place/?q=place_id:0x390ce21425118e25:0x70fb9d80e6685fad"}, {"place_id": "0x390ce227b000003f:0x68c684a3cbf810b", "name": "IT Solution INDIA", "category": "Computer support and services", "street": "Triveni Commercial Complex", "city": "Sheikh Sarai Phase 1, Sheikh Sarai", "phone": "09312209167", "website": "https://itsolutionindia.in/", "rating": 4.8, "review_count": "", "latitude": 28.5364054, "longitude": 77.22372, "maps_url": "https://www.google.com/maps/place/?q=place_id:0x390ce227b000003f:0x68c684a3cbf810b"}, {"place_id": "0x390ce2305c00002d:0x9f7efbacdc0d8271", "name": "ICO WebTech Pvt. Ltd. - Website Designing Company in Delhi", "category": "Website designer", "street": "J E 5, Ground Floor, Khirki Extension, Malviya Nagar", "city": "New Delhi, Delhi 110017", "phone": "08447380262", "website": "https://www.icowebsolutions.com/", "rating": 4.6, "review_count": "", "latitude": 28.535594, "longitude": 77.21577099999999, "maps_url": "https://www.google.com/maps/place/?q=place_id:0x390ce2305c00002d:0x9f7efbacdc0d8271"}, {"place_id": "0x390ce3a8698145c9:0x91f786577268e0b5", "name": "Third Unicorn Pvt Ltd", "category": "Software company", "street": "489/55/4 Second Floor", "city": "Maharishi Dayanand Marg", "phone": "", "website": "https://www.third-unicorn.com/", "rating": 4.1, "review_count": "", "latitude": 28.540586599999997, "longitude": 77.2126019, "maps_url": "https://www.google.com/maps/place/?q=place_id:0x390ce3a8698145c9:0x91f786577268e0b5"}, {"place_id": "0x390d053ee4271333:0x64c61924be17de78", "name": "WebOConnect Technologies Pvt. Ltd.", "category": "Software company", "street": "T", "city": "Press Enclave Marg", "phone": "08447141991", "website": "https://weboconnect.com/", "rating": 4.6, "review_count": "", "latitude": 28.5313457, "longitude": 77.2208345, "maps_url": "https://www.google.com/maps/place/?q=place_id:0x390d053ee4271333:0x64c61924be17de78"}, {"place_id": "0x390ce21e692e0283:0xe1908ca6b243ae5", "name": "Satyam Solutions Pvt. Ltd.", "category": "Software company", "street": "Plot No. 11A", "city": "2nd Floor", "phone": "09810311011", "website": "https://www.satyamsolutions.com/", "rating": 5, "review_count": "", "latitude": 28.539084199999998, "longitude": 77.21761289999999, "maps_url": "https://www.google.com/maps/place/?q=place_id:0x390ce21e692e0283:0xe1908ca6b243ae5"}, {"place_id": "0x390ce458d0000001:0xf2123bd299ec4501", "name": "IT Company India", "category": "Software company", "street": "D56", "city": "D Block, Sector 10", "phone": "09999244854", "website": "https://www.itcompanyindia.in/", "rating": 4.7, "review_count": "", "latitude": 28.589917699999997, "longitude": 77.3351153, "maps_url": "https://www.google.com/maps/place/?q=place_id:0x390ce458d0000001:0xf2123bd299ec4501"}, {"place_id": "0x390ce3c153b89811:0xe7a279685777e9ca", "name": "IT Company", "category": "Automation company", "street": "A-14", "city": "near iskcon temple", "phone": "", "website": "http://www.opuswiz.com/", "rating": 3, "review_count": "", "latitude": 28.557167, "longitude": 77.25424819999999, "maps_url": "https://www.google.com/maps/place/?q=place_id:0x390ce3c153b89811:0xe7a279685777e9ca"}, {"place_id": "0x390ce3d3caa305a3:0x25daafe821cab590", "name": "NITA INFOTECH", "category": "Website designer", "street": "Gupta Colony, Khirki Extension, Malviya Nagar", "city": "New Delhi, Delhi 110017", "phone": "09582699555", "website": "https://nitainfotech.com/", "rating": 5, "review_count": "", "latitude": 28.5346342, "longitude": 77.2169517, "maps_url": "https://www.google.com/maps/place/?q=place_id:0x390ce3d3caa305a3:0x25daafe821cab590"}, {"place_id": "0x390ce21f98b68037:0xa0cd9a8fbca6e15e", "name": "Eros Soft Solutions", "category": "Software company", "street": "JF-33, Top Floor", "city": "Gupta Colony, Tikona Park, Malviya Nagar", "phone": "09205344927", "website": "http://www.erossoft.com/", "rating": 5, "review_count": "", "latitude": 28.53396, "longitude": 77.2161631, "maps_url": "https://www.google.com/maps/place/?q=place_id:0x390ce21f98b68037:0xa0cd9a8fbca6e15e"}, {"place_id": "0x390cfd9627f1ef6f:0x2ceaf9a99dfc7b29", "name": "QuaintX Innovations", "category": "Software company", "street": "3rd Floor, Building", "city": "125, Savitri Nagar Rd", "phone": "07015149213", "website": "https://quaintx.com/", "rating": 5, "review_count": "", "latitude": 28.5394647, "longitude": 77.21983519999999, "maps_url": "https://www.google.com/maps/place/?q=place_id:0x390cfd9627f1ef6f:0x2ceaf9a99dfc7b29"}, {"place_id": "0x390ce1fb44618b65:0x8e06b2a6128352d1", "name": "Acropolis Infotech - Delhi Office", "category": "Software company", "street": "metro station gate", "city": "55, 2nd Floor, Lane 2", "phone": "09999876593", "website": "https://www.acropolisinfotech.com/", "rating": 4.6, "review_count": "", "latitude": 28.518907, "longitude": 77.2015435, "maps_url": "https://www.google.com/maps/place/?q=place_id:0x390ce1fb44618b65:0x8e06b2a6128352d1"}, {"place_id": "0x390ce226100110ef:0xe529d399458dbf03", "name": "First IT", "category": "Software company", "street": "S/F 776-A", "city": "Chirag Dilli", "phone": "", "website": "https://www.firstit.in/", "rating": 5, "review_count": "", "latitude": 28.5376318, "longitude": 77.2282863, "maps_url": "https://www.google.com/maps/place/?q=place_id:0x390ce226100110ef:0xe529d399458dbf03"}, {"place_id": "0x396db583ecc187c9:0x9fd07aff31653778", "name": "Fatcamel", "category": "Software company", "street": "A, A1/13", "city": "S11 DDA Flats", "phone": "", "website": "https://www.fatcamel.ai/", "rating": 5, "review_count": "", "latitude": 28.5451558, "longitude": 77.225, "maps_url": "https://www.google.com/maps/place/?q=place_id:0x396db583ecc187c9:0x9fd07aff31653778"}, {"place_id": "0x390ce21bf4d99b5b:0x43023947299f4a2d", "name": "Twistfuture Software Pvt. Ltd", "category": "Software company", "street": "C-71A, Basant Kaur Marg,", "city": "Block C, Malviya Nagar", "phone": "01141328844", "website": "https://www.twistfuture.com/", "rating": 3.3, "review_count": "", "latitude": 28.5370387, "longitude": 77.2103918, "maps_url": "https://www.google.com/maps/place/?q=place_id:0x390ce21bf4d99b5b:0x43023947299f4a2d"}, {"place_id": "0x390ce1f700000001:0xff8e31165bb9abad", "name": "DeviceDisk", "category": "Software company", "street": "2nd Floor, Building No. 40A", "city": "S-212", "phone": "09873015155", "website": "http://www.devicedisk.in/", "rating": 4.7, "review_count": "", "latitude": 28.538749, "longitude": 77.214867, "maps_url": "https://www.google.com/maps/place/?q=place_id:0x390ce1f700000001:0xff8e31165bb9abad"}, {"place_id": "0x390d1e2895a5a193:0xc8a11377898c5b0f", "name": "GALAXY IT CORPORATION", "category": "Computer service", "street": "B-6, Annexe", "city": "Shivalik Colony, Malviya Nagar", "phone": "09990560588", "website": "http://www.galaxyitcorp.in/", "rating": 5, "review_count": "", "latitude": 28.533527, "longitude": 77.206172, "maps_url": "https://www.google.com/maps/place/?q=place_id:0x390d1e2895a5a193:0xc8a11377898c5b0f"}, {"place_id": "0x390ce30c10b0eaa1:0xe7ad99a81f58b8ff", "name": "DND Infotech", "category": "Software company", "street": "H-12", "city": "8", "phone": "09501651992", "website": "", "rating": 4.9, "review_count": "", "latitude": 28.5340641, "longitude": 77.2091579, "maps_url": "https://www.google.com/maps/place/?q=place_id:0x390ce30c10b0eaa1:0xe7ad99a81f58b8ff"}, {"place_id": "0x390ce23eeab015ab:0x92d6a7e8dbc46e1a", "name": "Odyssey Website Development Company", "category": "Website designer", "street": "B-59", "city": "Block B, Soami Nagar South, Soami Nagar", "phone": "09654486464", "website": "http://odysseyin.com/?utm_source=GMB&utm_medium=Organic&utm_term=Odyssey&utm_content=Listing&utm_campaign=GMB1", "rating": 3.6, "review_count": "", "latitude": 28.541823599999997, "longitude": 77.2262008, "maps_url": "https://www.google.com/maps/place/?q=place_id:0x390ce23eeab015ab:0x92d6a7e8dbc46e1a"}, {"place_id": "0x390ce21a2aa60105:0x84c6cef5ae3a617d", "name": "Pro Interactive Services Pvt Ltd", "category": "Corporate office", "street": "C", "city": "84, Shivalik Rd", "phone": "", "website": "http://prointeractive.co.in/", "rating": 4, "review_count": "", "latitude": 28.5397042, "longitude": 77.2117517, "maps_url": "https://www.google.com/maps/place/?q=place_id:0x390ce21a2aa60105:0x84c6cef5ae3a617d"}, {"place_id": "0x390ce3423e7de399:0x4f1d6da1ccc7fc78", "name": "BrainyDX", "category": "Software company", "street": "125, Second Floor", "city": "Shahpur Jat, Siri Fort", "phone": "08826941455", "website": "https://www.brainydx.com/", "rating": 4.1, "review_count": "", "latitude": 28.5490677, "longitude": 77.2159996, "maps_url": "https://www.google.com/maps/place/?q=place_id:0x390ce3423e7de399:0x4f1d6da1ccc7fc78"}, {"place_id": "0x390d1d86a4f12173:0x3a6b42ea6f4b8260", "name": "Softvanz Technologies Private Limited", "category": "Software company", "street": "Somdutt Chamber 1", "city": "BT-22/9", "phone": "", "website": "https://softvanz.com/", "rating": 5, "review_count": "", "latitude": 28.567948899999998, "longitude": 77.1889269, "maps_url": "https://www.google.com/maps/place/?q=place_id:0x390d1d86a4f12173:0x3a6b42ea6f4b8260"}, {"place_id": "0x390ce322e1c10175:0x200ef5cf95d4921", "name": "Dawki Infotech", "category": "Computer support and services", "street": "LGF, L-30B", "city": "Block H 6, Block L, Malviya Nagar", "phone": "08076096255", "website": "https://www.dawkiinfotech.com/", "rating": 5, "review_count": "", "latitude": 28.5321377, "longitude": 77.2103083, "maps_url": "https://www.google.com/maps/place/?q=place_id:0x390ce322e1c10175:0x200ef5cf95d4921"}, {"place_id": "0x390ce21641cbbb5d:0x2c773a890f1e4a19", "name": "Mark Design", "category": "Website designer", "street": "DDA Flats", "city": "92-B, Shahpur Jat", "phone": "09818371797", "website": "http://www.mark-design.net/", "rating": 4.5, "review_count": "", "latitude": 28.5471112, "longitude": 77.21588969999999, "maps_url": "https://www.google.com/maps/place/?q=place_id:0x390ce21641cbbb5d:0x2c773a890f1e4a19"}, {"place_id": "0x390ce3b48e27a563:0x4ec8ae3c524366b", "name": "iSOFT INDIA TECHNOLOGIES", "category": "Software company", "street": "E-168|169, Amar Colony, Lajpat Nagar", "city": "New Delhi, Delhi 110024", "phone": "09717978320", "website": "", "rating": 4.9, "review_count": "", "latitude": 28.5657368, "longitude": 77.23946029999999, "maps_url": "https://www.google.com/maps/place/?q=place_id:0x390ce3b48e27a563:0x4ec8ae3c524366b"}, {"place_id": "0x390ce3c50d455555:0x625e4cf2def0b6ac", "name": "Infonative Solutions Limited", "category": "Computer support and services", "street": "107, 108", "city": "DLF South Court", "phone": "08448141818", "website": "https://infonative.net/", "rating": 4.7, "review_count": "", "latitude": 28.5274255, "longitude": 77.2209031, "maps_url": "https://www.google.com/maps/place/?q=place_id:0x390ce3c50d455555:0x625e4cf2def0b6ac"}, {"place_id": "0x390ce5fdcc79e755:0x309ce99251b84ef6", "name": "Optyminds IT Solutions - Top AI and IT company I Best Digital agency in Noida | Delhi NCR | India", "category": "Software company", "street": "1st Floor", "city": "B-70", "phone": "08929075975", "website": "https://optyminds.com/", "rating": 4.9, "review_count": "", "latitude": 28.584679599999998, "longitude": 77.3135042, "maps_url": "https://www.google.com/maps/place/?q=place_id:0x390ce5fdcc79e755:0x309ce99251b84ef6"}, {"place_id": "0x390ce21e54e0751b:0x2cf4021558e71be3", "name": "Raghwendra Web Services", "category": "Software company", "street": "Shop no 6, FF", "city": "near Hanuman Temple", "phone": "09312447399", "website": "https://www.raghwendra.com/", "rating": 4.9, "review_count": "", "latitude": 28.539061999999998, "longitude": 77.2135338, "maps_url": "https://www.google.com/maps/place/?q=place_id:0x390ce21e54e0751b:0x2cf4021558e71be3"}, {"place_id": "0x390d1df079759d1f:0x8bfa70033f6c672a", "name": "NR Technoserve Pvt. Ltd.", "category": "Software company", "street": "133, Katwaria Sarai", "city": "Phase-2, Qutab Institutional Area", "phone": "07289096762", "website": "http://www.nrtechnoserve.co.in/", "rating": 4.4, "review_count": "", "latitude": 28.5413306, "longitude": 77.18495519999999, "maps_url": "https://www.google.com/maps/place/?q=place_id:0x390d1df079759d1f:0x8bfa70033f6c672a"}, {"place_id": "0x390ce2438b1c1c29:0xbb0e9ff8df35ff8c", "name": "D.R. JOHN\u2019S LAB PHARMA PVT. LTD.", "category": "Pharmaceutical company", "street": "212", "city": "Shahpur Jat, Siri Fort", "phone": "01141039388", "website": "http://www.drjohnslab.com/", "rating": 4.3, "review_count": "", "latitude": 28.5470962, "longitude": 77.213652, "maps_url": "https://www.google.com/maps/place/?q=place_id:0x390ce2438b1c1c29:0xbb0e9ff8df35ff8c"}, {"place_id": "0x390ce3d606c913ef:0xd246bd5631eb2cad", "name": "Delvetech", "category": "Software company", "street": "87A/1, 3rd Floor, Opp. Block N-115, G.K-1, Near Moolchand Merto", "city": "Block B, Zamrudpur, Greater Kailash", "phone": "09873895154", "website": "http://www.delvetech.co.in/", "rating": 4.1, "review_count": "", "latitude": 28.5570597, "longitude": 77.2356981, "maps_url": "https://www.google.com/maps/place/?q=place_id:0x390ce3d606c913ef:0xd246bd5631eb2cad"}, {"place_id": "0x4215c6da63b4b82f:0x794ba814a6ada964", "name": "Asha Tech | Website Design, App Development & IT Solutions Delhi", "category": "Software company", "street": "no 2", "city": "195, Lane No. 1", "phone": "07531080874", "website": "https://ashatech.co.in/", "rating": 4.7, "review_count": "", "latitude": 28.519994099999998, "longitude": 77.2008791, "maps_url": "https://www.google.com/maps/place/?q=place_id:0x4215c6da63b4b82f:0x794ba814a6ada964"}, {"place_id": "0x390ce3b7c0000001:0x46ddd80ee502d937", "name": "Amtrak Technologies Private Limited", "category": "Computer support and services", "street": "6, Community Centre", "city": "East of Kailash", "phone": "01126448000", "website": "https://amtrak.co.in/", "rating": 4.4, "review_count": "", "latitude": 28.558434899999998, "longitude": 77.2463302, "maps_url": "https://www.google.com/maps/place/?q=place_id:0x390ce3b7c0000001:0x46ddd80ee502d937"}, {"place_id": "0x390ce3c8e5555555:0xc908f703f65324ea", "name": "Vinayak Compserve Pvt.Ltd", "category": "Computer service", "street": "220", "city": "Sant Nagar, East of Kailash", "phone": "01126430397", "website": "https://vinayakit.com/", "rating": 3.7, "review_count": "", "latitude": 28.5536721, "longitude": 77.2494229, "maps_url": "https://www.google.com/maps/place/?q=place_id:0x390ce3c8e5555555:0xc908f703f65324ea"}, {"place_id": "0x390ce3cfe91504eb:0x55346c5c499223d7", "name": "CCS Computers Private Limited", "category": "Computer support and services", "street": "2nd-3rd Floor Skipper House", "city": "Nehru Place", "phone": "01126463959", "website": "http://www.ccscomputers.co.in/", "rating": 4, "review_count": "", "latitude": 28.550090599999997, "longitude": 77.2537834, "maps_url": "https://www.google.com/maps/place/?q=place_id:0x390ce3cfe91504eb:0x55346c5c499223d7"}, {"place_id": "0x390ce218dfafac15:0x72ffd0731133a8c8", "name": "Thermosun Engineering and Power India Pvt. Ltd.", "category": "Solar energy system service", "street": "1st Floor", "city": "D-2/208", "phone": "08077914097", "website": "https://thermosun.in/", "rating": 4.9, "review_count": "", "latitude": 28.540034, "longitude": 77.22037, "maps_url": "https://www.google.com/maps/place/?q=place_id:0x390ce218dfafac15:0x72ffd0731133a8c8"}, {"place_id": "0x390ce21e692e0283:0xa33efbc3468a3d7d", "name": "Tally Software Services", "category": "Software company", "street": "C 220/4, Savtri Nagar, Malviya Nagar", "city": "New Delhi, Delhi 110017", "phone": "09810311011", "website": "", "rating": 3.8, "review_count": "", "latitude": 28.533087, "longitude": 77.2128759, "maps_url": "https://www.google.com/maps/place/?q=place_id:0x390ce21e692e0283:0xa33efbc3468a3d7d"}, {"place_id": "0x2a72b8b69d7b6493:0x11251466d4d34cac", "name": "WebZonal IT Company", "category": "Website designer", "street": "Wz-258/2-3, D Block Rd", "city": "Khazan Basti, Nangal Raya, Janakpuri", "phone": "09811170903", "website": "http://webzonal.com/", "rating": 5, "review_count": "", "latitude": 28.6122102, "longitude": 77.11159549999999, "maps_url": "https://www.google.com/maps/place/?q=place_id:0x2a72b8b69d7b6493:0x11251466d4d34cac"}, {"place_id": "0x390ce38ed46e508b:0xc485469ec54906b0", "name": "Inkerr Brand Solutions Pvt. Ltd.", "category": "Manufacturer", "street": "B 57 LGF, Outer Ring Rd", "city": "Block B, Soami Nagar South, Soami Nagar", "phone": "08882674034", "website": "", "rating": 3.5, "review_count": "", "latitude": 28.5418275, "longitude": 77.22586199999999, "maps_url": "https://www.google.com/maps/place/?q=place_id:0x390ce38ed46e508b:0xc485469ec54906b0"}, {"place_id": "0x390ce21c24e85b2f:0xf80cd35fedbc3cea", "name": "Cyberspace Networking Systems (P) Ltd.", "category": "Website designer", "street": "NIL-36C, Shvalik, DDA Flats, Malviya Nagar", "city": "New Delhi, Delhi 110017", "phone": "01141892901", "website": "http://www.cyberspace.in/", "rating": 3.9, "review_count": "", "latitude": 28.534816, "longitude": 77.21120789999999, "maps_url": "https://www.google.com/maps/place/?q=place_id:0x390ce21c24e85b2f:0xf80cd35fedbc3cea"}, {"place_id": "0x390ce222a2d43c01:0xe4a960017d1441c3", "name": "Just Dial, Delhi", "category": "Information and technology services", "street": "G6R9+P7X", "city": "RM Vats Marg", "phone": "08077251415", "website": "https://cms.justdial.com/contact-us", "rating": 3.1, "review_count": "", "latitude": 28.541873, "longitude": 77.21822259999999, "maps_url": "https://www.google.com/maps/place/?q=place_id:0x390ce222a2d43c01:0xe4a960017d1441c3"}, {"place_id": "0x390d1f5abfb25fe1:0x7d9c4d5e159f2955", "name": "Jaimru Technology Pvt Ltd", "category": "Software company", "street": "WARD NO. 2", "city": "Plot No. 178 M 33 A/1", "phone": "07838153420", "website": "https://www.jaimru.com/", "rating": 4.9, "review_count": "", "latitude": 28.524347499999998, "longitude": 77.1731889, "maps_url": "https://www.google.com/maps/place/?q=place_id:0x390d1f5abfb25fe1:0x7d9c4d5e159f2955"}, {"place_id": "0x390ce25ec0000001:0x7afeeb0691268f4e", "name": "Tekege Solutions Pvt. Ltd. | Aavaz Contact Center Solutions", "category": "Software company", "street": "Second Floor", "city": "128 B", "phone": "01143155300", "website": "", "rating": 3.4, "review_count": "", "latitude": 28.5486753, "longitude": 77.2154683, "maps_url": "https://www.google.com/maps/place/?q=place_id:0x390ce25ec0000001:0x7afeeb0691268f4e"}, {"place_id": "0x390ce3932eaaaaab:0xb308d9aae0d93852", "name": "Al Hadaf Technologies\u2013 ERP, CRM, HRM, Hospital, School, Billing Software Development Company in Delhi NCR", "category": "Software company", "street": "96, Gate No-2", "city": "opp. Escort Hospital", "phone": "08586972994", "website": "https://www.alhadaftech.com/", "rating": 4.9, "review_count": "", "latitude": 28.5562397, "longitude": 77.2762099, "maps_url": "https://www.google.com/maps/place/?q=place_id:0x390ce3932eaaaaab:0xb308d9aae0d93852"}, {"place_id": "0x390ce27611b460db:0x8879e233c1d66b97", "name": "FIRST FIDDLE F&B PRIVATE LIMITED", "category": "Corporate office", "street": "S-357 2nd floor", "city": "Block S, Panchsheel Park South, Panchsheel Park", "phone": "", "website": "https://www.firstfiddle.in/", "rating": 4.7, "review_count": "", "latitude": 28.5423938, "longitude": 77.21887629999999, "maps_url": "https://www.google.com/maps/place/?q=place_id:0x390ce27611b460db:0x8879e233c1d66b97"}, {"place_id": "0x390ce456aaaaaaab:0x6e4e087895622564", "name": "Klasiinn", "category": "Software company", "street": "E-506, Inder Mohan Bhardwaj Marg", "city": "Block E, Greater Kailash II, Greater Kailash", "phone": "07827882870", "website": "http://klasiinn.in/", "rating": 5, "review_count": "", "latitude": 28.5358657, "longitude": 77.2384798, "maps_url": "https://www.google.com/maps/place/?q=place_id:0x390ce456aaaaaaab:0x6e4e087895622564"}, {"place_id": "0x390ce25e35e99b33:0xf443abe69b4e8fcc", "name": "Synapse Valuetech Private Limited", "category": "Software company", "street": "Lower Ground Floor", "city": "221", "phone": "01146628882", "website": "https://www.synapsevaluetech.com/", "rating": 4.3, "review_count": "", "latitude": 28.558165, "longitude": 77.2592385, "maps_url": "https://www.google.com/maps/place/?q=place_id:0x390ce25e35e99b33:0xf443abe69b4e8fcc"}, {"place_id": "0x390ce2213470cc43:0x45347cf3b89e6619", "name": "Brandwidth Events", "category": "Event management company", "street": "1st Floor", "city": "B - 103", "phone": "01145623070", "website": "", "rating": 4.3, "review_count": "", "latitude": 28.5384057, "longitude": 77.21835089999999, "maps_url": "https://www.google.com/maps/place/?q=place_id:0x390ce2213470cc43:0x45347cf3b89e6619"}, {"place_id": "0x390d1ed3c6e9f579:0x322eccdb00f350d2", "name": "Techjockey", "category": "Software company", "street": "Ground floor, Habitat India", "city": "C-3", "phone": "01142213003", "website": "https://www.techjockey.com/", "rating": 4, "review_count": "", "latitude": 28.536615299999998, "longitude": 77.1902978, "maps_url": "https://www.google.com/maps/place/?q=place_id:0x390d1ed3c6e9f579:0x322eccdb00f350d2"}, {"place_id": "0x390ce21be662aa67:0xd94593b2bc3cdea9", "name": "Shiva Consultancy Services Pvt. Ltd.", "category": "Industrial consultant", "street": "A-87, LGF", "city": "Shivalik Rd", "phone": "01141830217", "website": "http://www.sisplindia.com/", "rating": 3.3, "review_count": "", "latitude": 28.5380789, "longitude": 77.2113601, "maps_url": "https://www.google.com/maps/place/?q=place_id:0x390ce21be662aa67:0xd94593b2bc3cdea9"}, {"place_id": "0x390ce399ebc466c3:0x5b912bd044a4cd5c", "name": "E Global Soft Solutions", "category": "Software company", "street": "Corporate Office - 252/1", "city": "T/F, Shahpur Jat, Siri Fort", "phone": "01145622642", "website": "https://eglobalsoftsolutions.com/", "rating": 4, "review_count": "", "latitude": 28.5484539, "longitude": 77.2111137, "maps_url": "https://www.google.com/maps/place/?q=place_id:0x390ce399ebc466c3:0x5b912bd044a4cd5c"}, {"place_id": "0x390ce21848b3e2b1:0xc9240da5ec590fc4", "name": "Axys Integrated Solutions", "category": "Audio visual consultant", "street": "S - 273", "city": "Block S, Panchsheel Park South, Panchsheel Park", "phone": "09818250524", "website": "", "rating": 4, "review_count": "", "latitude": 28.5415335, "longitude": 77.21669229999999, "maps_url": "https://www.google.com/maps/place/?q=place_id:0x390ce21848b3e2b1:0xc9240da5ec590fc4"}, {"place_id": "0x390d1b50b5c3a6ab:0xda8ba4e1f9ef8aca", "name": "The Buzz Media Company", "category": "Marketing agency", "street": "C79", "city": "Shivalik Colony, Malviya Nagar", "phone": "09311298369", "website": "https://thebuzzmediacompany.com/", "rating": 4.9, "review_count": "", "latitude": 28.5404196, "longitude": 77.2121341, "maps_url": "https://www.google.com/maps/place/?q=place_id:0x390d1b50b5c3a6ab:0xda8ba4e1f9ef8aca"}, {"place_id": "0x390ce276135bdc6d:0x3022c7d8f3b7309a", "name": "Koan Advisory Group", "category": "Consultant", "street": "B40", "city": "Block B, Soami Nagar South, Soami Nagar", "phone": "01141834471", "website": "http://koanadvisory.com/", "rating": 4.4, "review_count": "", "latitude": 28.542137, "longitude": 77.2231686, "maps_url": "https://www.google.com/maps/place/?q=place_id:0x390ce276135bdc6d:0x3022c7d8f3b7309a"}, {"place_id": "0x390ce2160c350ae7:0x769ee9e445eca4d6", "name": "The Sports Company", "category": "Corporate office", "street": "141-A, Fourth Floor", "city": "Shahpur Jat, Siri Fort", "phone": "09821384210", "website": "http://tscglobal.in/", "rating": 4.8, "review_count": "", "latitude": 28.548057999999997, "longitude": 77.216359, "maps_url": "https://www.google.com/maps/place/?q=place_id:0x390ce2160c350ae7:0x769ee9e445eca4d6"}, {"place_id": "0x390ce3c577996141:0x6f0e309d0c4c2de1", "name": "Eagle Information Systems Pvt. Ltd.", "category": "Computer support and services", "street": "Madhuban Building", "city": "705", "phone": "09818188012", "website": "http://www.eagle.in/", "rating": 4.5, "review_count": "", "latitude": 28.5486501, "longitude": 77.2520914, "maps_url": "https://www.google.com/maps/place/?q=place_id:0x390ce3c577996141:0x6f0e309d0c4c2de1"}, {"place_id": "0x390ce38be771f07f:0xb287fb849f2fded8", "name": "dmodot Corporate Office", "category": "Back Office", "street": "125 First Floor", "city": "Shahpur Jat, Siri Fort", "phone": "08383095736", "website": "https://www.dmodot.com/", "rating": 4.2, "review_count": "", "latitude": 28.5490332, "longitude": 77.2159707, "maps_url": "https://www.google.com/maps/place/?q=place_id:0x390ce38be771f07f:0xb287fb849f2fded8"}, {"place_id": "0x390ce19d6aaaaaab:0x322f66cd91e8f6cd", "name": "Vikas Gupta Web Developer", "category": "Website designer", "street": "A-454 Dakshinpuri", "city": "New Delhi, Delhi 110062", "phone": "09643269244", "website": "https://itcrafterhub.com/website-developer-delhi/", "rating": 5, "review_count": "", "latitude": 28.522017599999998, "longitude": 77.2366923, "maps_url": "https://www.google.com/maps/place/?q=place_id:0x390ce19d6aaaaaab:0x322f66cd91e8f6cd"}, {"place_id": "0x390ce45a25555555:0x83a27490bba534a7", "name": "Parangat Technologies", "category": "Software company", "street": "", "city": "", "phone": "08700213345", "website": "https://www.parangat.com/", "rating": 4.1, "review_count": "", "latitude": 9.374110199999999, "longitude": -74.9524576, "maps_url": "https://www.google.com/maps/place/?q=place_id:0x390ce45a25555555:0x83a27490bba534a7"}, {"place_id": "0x390ce21e31d0e221:0xc6d2034bec008db", "name": "7 Seas Business Solution", "category": "Human resource consulting", "street": "40A, 3rd Floor", "city": "Corner Market, Malviya Nagar", "phone": "09990029966", "website": "https://7cbiz.com/", "rating": 4.7, "review_count": "", "latitude": 28.538402599999998, "longitude": 77.21481519999999, "maps_url": "https://www.google.com/maps/place/?q=place_id:0x390ce21e31d0e221:0xc6d2034bec008db"}, {"place_id": "0x390ce20238d9c3e9:0xb9d5b43740d46acf", "name": "Shiva Infra Solutions Pvt Ltd", "category": "Industrial consultant", "street": "A-87, LGF", "city": "Shivalik Rd", "phone": "01141830217", "website": "https://shivainfra.com/", "rating": 3.8, "review_count": "", "latitude": 28.538078, "longitude": 77.21136589999999, "maps_url": "https://www.google.com/maps/place/?q=place_id:0x390ce20238d9c3e9:0xb9d5b43740d46acf"}, {"place_id": "0x390ce272866ace87:0x12f056561ba90730", "name": "International Business Advisors LLP", "category": "Chartered accountant", "street": "S-217", "city": "Block S, Panchsheel Park South, Panchsheel Park", "phone": "01140946000", "website": "http://www.ibadvisors.co/", "rating": 4.3, "review_count": "", "latitude": 28.5427261, "longitude": 77.2154876, "maps_url": "https://www.google.com/maps/place/?q=place_id:0x390ce272866ace87:0x12f056561ba90730"}, {"place_id": "0x390d1da3650ad377:0x51b59ad6758908b9", "name": "Arimus Law", "category": "Law firm", "street": "Panchsheel Park South, Panchsheel Park", "city": "New Delhi, Delhi 110017", "phone": "01126144113", "website": "http://www.arimuslaw.com/", "rating": 3.8, "review_count": "", "latitude": 28.543932899999998, "longitude": 77.2185504, "maps_url": "https://www.google.com/maps/place/?q=place_id:0x390d1da3650ad377:0x51b59ad6758908b9"}, {"place_id": "0x390ce33fe00a9675:0xd7cf855eb67b990d", "name": "Accession Business Solutions Private Limited", "category": "Computer support and services", "street": "2nd Floor", "city": "125, Shahpur Jat", "phone": "07011681612", "website": "https://abshub.in/", "rating": "", "review_count": "", "latitude": 28.547262399999997, "longitude": 77.2156741, "maps_url": "https://www.google.com/maps/place/?q=place_id:0x390ce33fe00a9675:0xd7cf855eb67b990d"}, {"place_id": "0x390cdda0937a36df:0x350a8716d5f40b92", "name": "VS Square Info Solutions", "category": "Computer support and services", "street": "Govardhan Building", "city": "Nehru Place", "phone": "09319173336", "website": "http://www.vssquareinfo.com/", "rating": 4.9, "review_count": "", "latitude": 28.5490526, "longitude": 77.251606, "maps_url": "https://www.google.com/maps/place/?q=place_id:0x390cdda0937a36df:0x350a8716d5f40b92"}, {"place_id": "0x390ce21e4d3f5423:0x1b11a07bc5c2bbc0", "name": "Burning Desire Inclusive", "category": "Software company", "street": "", "city": "", "phone": "09999145527", "website": "", "rating": 4.6, "review_count": "", "latitude": 33.0797494, "longitude": 35.7175981, "maps_url": "https://www.google.com/maps/place/?q=place_id:0x390ce21e4d3f5423:0x1b11a07bc5c2bbc0"}, {"place_id": "0x390ce2174f512127:0x1c69387b3f730761", "name": "OBHAN MASON", "category": "Law firm", "street": "Second Floor", "city": "N - 94", "phone": "01140200200", "website": "http://www.obhanandassociates.com/", "rating": 4.4, "review_count": "", "latitude": 28.5436844, "longitude": 77.2124889, "maps_url": "https://www.google.com/maps/place/?q=place_id:0x390ce2174f512127:0x1c69387b3f730761"}, {"place_id": "0xa3f7b500ba6bee9b:0xbf6f44de92b28de", "name": "Yuvocreations Private Limited ( \u092f\u0941\u0935\u094b\u0915\u094d\u0930\u093f\u090f\u0936\u0928\u094d\u0938 \u092a\u094d\u0930\u093e\u0907\u0935\u0947\u091f \u0932\u093f\u092e\u093f\u091f\u0947\u0921 ) - Website Designing & Digital Marketing Agency", "category": "Software company", "street": "Lane no.4", "city": "Khasra no. 258, Westend Marg", "phone": "07042123166", "website": "https://yuvocreations.com/", "rating": 5, "review_count": "", "latitude": 28.5169774, "longitude": 77.19925789999999, "maps_url": "https://www.google.com/maps/place/?q=place_id:0xa3f7b500ba6bee9b:0xbf6f44de92b28de"}, {"place_id": "0x390ce223cfffffed:0x7a1b48618ba9ba36", "name": "Red Cube Digital Media", "category": "Internet marketing service", "street": "B-102,104 First Floor Phase 1", "city": "Panchsheel Vihar, Sheikh Sarai", "phone": "08588832141", "website": "https://www.redcubedigital.com/", "rating": 4.1, "review_count": "", "latitude": 28.535821199999997, "longitude": 77.22323879999999, "maps_url": "https://www.google.com/maps/place/?q=place_id:0x390ce223cfffffed:0x7a1b48618ba9ba36"}, {"place_id": "0x7f4b3ca25fc9b73:0x317c8405b30f2fc3", "name": "Auriga Accounting Pvt.Ltd", "category": "Accounting firm", "street": "163 D/1", "city": "Khirki Extension, Malviya Nagar", "phone": "07982044611", "website": "http://www.aurigaaccounting.in/", "rating": 4.9, "review_count": "", "latitude": 28.532131999999997, "longitude": 77.2188195, "maps_url": "https://www.google.com/maps/place/?q=place_id:0x7f4b3ca25fc9b73:0x317c8405b30f2fc3"}, {"place_id": "0x390ce3dc66b0f37b:0x67649ea81637c678", "name": "MediaX", "category": "Marketing agency", "street": "1st Floor", "city": "416, Shahpur Jat", "phone": "09760273375", "website": "http://mediax.co.in/", "rating": 5, "review_count": "", "latitude": 28.547075, "longitude": 77.2158196, "maps_url": "https://www.google.com/maps/place/?q=place_id:0x390ce3dc66b0f37b:0x67649ea81637c678"}, {"place_id": "0x390ce39307063999:0xb115a5e9663792f0", "name": "Eagle Hunter Solutions Limited", "category": "Security guard service", "street": "61, Kalu Sarai Rd, Sarvpriya vihar", "city": "61, Kalu Sarai Rd", "phone": "01140748000", "website": "https://eaglehuntersgroup.com/", "rating": 4, "review_count": "", "latitude": 28.542211499999997, "longitude": 77.2036753, "maps_url": "https://www.google.com/maps/place/?q=place_id:0x390ce39307063999:0xb115a5e9663792f0"}, {"place_id": "0x390ce1f58670050d:0x7edf8b23b3baeffc", "name": "Shadowfax Technologies Pvt Ltd", "category": "Software company", "street": "Number 9, Malviya Nagar Rd", "city": "Block K, Malviya Nagar", "phone": "", "website": "", "rating": 1.4, "review_count": "", "latitude": 28.532720299999998, "longitude": 77.2142975, "maps_url": "https://www.google.com/maps/place/?q=place_id:0x390ce1f58670050d:0x7edf8b23b3baeffc"}, {"place_id": "0x390ce39a24b89521:0x6e886c5e28fd05a9", "name": "Cloude Data Delhi | Best Cloud Service Provider company in India", "category": "Web hosting company", "street": "First Floor", "city": "A 212, Okhla Phase 3 Rd", "phone": "08882353612", "website": "https://cloudedata.com/", "rating": 4.4, "review_count": "", "latitude": 28.548515, "longitude": 77.2712834, "maps_url": "https://www.google.com/maps/place/?q=place_id:0x390ce39a24b89521:0x6e886c5e28fd05a9"}, {"place_id": "0x390ce223f499f2cb:0xea54d2d126688a8c", "name": "Creativizt Communications", "category": "Public relations firm", "street": "Old Market, Block C, Malviya Nagar", "city": "New Delhi, Delhi 110017", "phone": "09971722917", "website": "https://creativizt.com/", "rating": 4.8, "review_count": "", "latitude": 28.537221199999998, "longitude": 77.2114648, "maps_url": "https://www.google.com/maps/place/?q=place_id:0x390ce223f499f2cb:0xea54d2d126688a8c"}, {"place_id": "0x390ce301f39666e3:0x2d76e4f8edc55b2c", "name": "Khurana & Khurana Advocates", "category": "Corporate office", "street": "S-378, 1st Floor", "city": "Panchsheel Park", "phone": "01140079530", "website": "https://www.khuranaandkhurana.com/", "rating": 4.4, "review_count": "", "latitude": 28.541451199999997, "longitude": 77.2191912, "maps_url": "https://www.google.com/maps/place/?q=place_id:0x390ce301f39666e3:0x2d76e4f8edc55b2c"}, {"place_id": "0x390ce3b5e9981665:0x6ed3916f90d5be3c", "name": "Netsoft Consulting Services", "category": "Information services", "street": "24, IInd Floor, Community Center, East Of Kailash", "city": "behind Sapna Cinema", "phone": "01145330000", "website": "https://netsoftit.com/contact-us/", "rating": 3.5, "review_count": "", "latitude": 28.5583678, "longitude": 77.24568579999999, "maps_url": "https://www.google.com/maps/place/?q=place_id:0x390ce3b5e9981665:0x6ed3916f90d5be3c"}, {"place_id": "0x390d1d8baaaaaaab:0xac7565e292ddc7f8", "name": "Norisys Technology", "category": "Electrical supply store", "street": "A-62", "city": "Police Station Colony, Mayfair Gardens, Hauz Khas", "phone": "01126966162", "website": "http://www.norisys.com/", "rating": 4.1, "review_count": "", "latitude": 28.547981999999998, "longitude": 77.2084617, "maps_url": "https://www.google.com/maps/place/?q=place_id:0x390d1d8baaaaaaab:0xac7565e292ddc7f8"}, {"place_id": "0x390ce3b3d458c803:0x2fe64486e2439b83", "name": "Djnni Retail Pvt ltd", "category": "Mobility equipment supplier", "street": "125, Shahpur Jat", "city": "Siri Fort", "phone": "", "website": "http://www.djnniretail.com/", "rating": 3.7, "review_count": "", "latitude": 28.5491395, "longitude": 77.21585639999999, "maps_url": "https://www.google.com/maps/place/?q=place_id:0x390ce3b3d458c803:0x2fe64486e2439b83"}, {"place_id": "0x390ce25a3cd1955d:0x6fcfc11459587fd", "name": "Eco Mobility", "category": "Car rental agency", "street": "45, 1st Floor", "city": "Corner Market", "phone": "09654999666", "website": "https://www.ecosmobility.com/", "rating": 4.4, "review_count": "", "latitude": 28.5398015, "longitude": 77.2128439, "maps_url": "https://www.google.com/maps/place/?q=place_id:0x390ce25a3cd1955d:0x6fcfc11459587fd"}, {"place_id": "0x390ce39a24b89521:0x6e886c5e28fd05a9", "name": "Cloude Data Delhi | Best Cloud Service Provider company in India", "category": "Web hosting company", "street": "First Floor", "city": "A 212, Okhla Phase 3 Rd", "phone": "08882353612", "website": "https://cloudedata.com/", "rating": 4.4, "review_count": "", "latitude": 28.548515, "longitude": 77.2712834, "maps_url": "https://www.google.com/maps/place/?q=place_id:0x390ce39a24b89521:0x6e886c5e28fd05a9"}, {"place_id": "0x390ce223f499f2cb:0xea54d2d126688a8c", "name": "Creativizt Communications", "category": "Public relations firm", "street": "Old Market, Block C, Malviya Nagar", "city": "New Delhi, Delhi 110017", "phone": "09971722917", "website": "https://creativizt.com/", "rating": 4.8, "review_count": "", "latitude": 28.537221199999998, "longitude": 77.2114648, "maps_url": "https://www.google.com/maps/place/?q=place_id:0x390ce223f499f2cb:0xea54d2d126688a8c"}, {"place_id": "0x390ce301f39666e3:0x2d76e4f8edc55b2c", "name": "Khurana & Khurana Advocates", "category": "Corporate office", "street": "S-378, 1st Floor", "city": "Panchsheel Park", "phone": "01140079530", "website": "https://www.khuranaandkhurana.com/", "rating": 4.4, "review_count": "", "latitude": 28.541451199999997, "longitude": 77.2191912, "maps_url": "https://www.google.com/maps/place/?q=place_id:0x390ce301f39666e3:0x2d76e4f8edc55b2c"}, {"place_id": "0x390ce3b5e9981665:0x6ed3916f90d5be3c", "name": "Netsoft Consulting Services", "category": "Information services", "street": "24, IInd Floor, Community Center, East Of Kailash", "city": "behind Sapna Cinema", "phone": "01145330000", "website": "https://netsoftit.com/contact-us/", "rating": 3.5, "review_count": "", "latitude": 28.5583678, "longitude": 77.24568579999999, "maps_url": "https://www.google.com/maps/place/?q=place_id:0x390ce3b5e9981665:0x6ed3916f90d5be3c"}, {"place_id": "0x390d1d8baaaaaaab:0xac7565e292ddc7f8", "name": "Norisys Technology", "category": "Electrical supply store", "street": "A-62", "city": "Police Station Colony, Mayfair Gardens, Hauz Khas", "phone": "01126966162", "website": "http://www.norisys.com/", "rating": 4.1, "review_count": "", "latitude": 28.547981999999998, "longitude": 77.2084617, "maps_url": "https://www.google.com/maps/place/?q=place_id:0x390d1d8baaaaaaab:0xac7565e292ddc7f8"}, {"place_id": "0x390ce3b3d458c803:0x2fe64486e2439b83", "name": "Djnni Retail Pvt ltd", "category": "Mobility equipment supplier", "street": "125, Shahpur Jat", "city": "Siri Fort", "phone": "", "website": "http://www.djnniretail.com/", "rating": 3.7, "review_count": "", "latitude": 28.5491395, "longitude": 77.21585639999999, "maps_url": "https://www.google.com/maps/place/?q=place_id:0x390ce3b3d458c803:0x2fe64486e2439b83"}, {"place_id": "0x390ce25a3cd1955d:0x6fcfc11459587fd", "name": "Eco Mobility", "category": "Car rental agency", "street": "45, 1st Floor", "city": "Corner Market", "phone": "09654999666", "website": "https://www.ecosmobility.com/", "rating": 4.4, "review_count": "", "latitude": 28.5398015, "longitude": 77.2128439, "maps_url": "https://www.google.com/maps/place/?q=place_id:0x390ce25a3cd1955d:0x6fcfc11459587fd"}, {"place_id": "0x390ce21403eac9ed:0xace7a4a6d86ff075", "name": "Lipi Exports Private Limited", "category": "Corporate office", "street": "H", "city": "Shahpur Jat, Siri Fort", "phone": "09196542732", "website": "http://lipiexports.com/", "rating": 4, "review_count": "", "latitude": 28.547469999999997, "longitude": 77.2131769, "maps_url": "https://www.google.com/maps/place/?q=place_id:0x390ce21403eac9ed:0xace7a4a6d86ff075"}, {"place_id": "0x390ce119f672935f:0xc21f713864406965", "name": "Prakhar Consulting Group", "category": "Human resource consulting", "street": "B 1/44, Smt. Ram Pyari Bhalla Marg", "city": "opposite Spark GYM", "phone": "08826665842", "website": "https://pcginternational.in/", "rating": 4.9, "review_count": "", "latitude": 28.5356946, "longitude": 77.2155061, "maps_url": "https://www.google.com/maps/place/?q=place_id:0x390ce119f672935f:0xc21f713864406965"}, {"place_id": "0x390ce215dce4541b:0xe1cd8f38a7eb23fe", "name": "Harikrit Films", "category": "Film Production Company", "street": "122", "city": "Shahpur Jat, Siri Fort", "phone": "01141751720", "website": "http://www.harikritfilms.com/", "rating": 4.8, "review_count": "", "latitude": 28.549304499999998, "longitude": 77.2159008, "maps_url": "https://www.google.com/maps/place/?q=place_id:0x390ce215dce4541b:0xe1cd8f38a7eb23fe"}, {"place_id": "0x390ce3f8b2b0be77:0xfdafb798e34dffad", "name": "V K P & CO.(CA FIRM)", "category": "Chartered accountant", "street": "253B", "city": "3B", "phone": "", "website": "", "rating": 5, "review_count": "", "latitude": 28.5448231, "longitude": 77.2103905, "maps_url": "https://www.google.com/maps/place/?q=place_id:0x390ce3f8b2b0be77:0xfdafb798e34dffad"}, {"place_id": "0x390ce10972701b43:0x88fbfcfafdaf00f3", "name": "SearchingYard Group Corporate HQ", "category": "Software company", "street": "Tower 1st Floor, A", "city": "Nagpal Business", "phone": "", "website": "http://www.searchingyard.com/", "rating": 1.7, "review_count": "", "latitude": 28.538387699999998, "longitude": 77.27080029999999, "maps_url": "https://www.google.com/maps/place/?q=place_id:0x390ce10972701b43:0x88fbfcfafdaf00f3"}, {"place_id": "0x390ce39387032e6f:0xb3780fb47de22f8c", "name": "My Care India | Best Medical Tourism Company in India | Health Tourism in India", "category": "Medical Center", "street": "S 203", "city": "2nd Floor", "phone": "09313785700", "website": "https://mycareindia.com/", "rating": 5, "review_count": "", "latitude": 28.538749, "longitude": 77.214867, "maps_url": "https://www.google.com/maps/place/?q=place_id:0x390ce39387032e6f:0xb3780fb47de22f8c"}, {"place_id": "0x390ce216847eae69:0x4aff0676ff1c9543", "name": "Elegante World", "category": "Event management company", "street": "116-B(3RD FLOOR), Shahpur Jat, Siri Fort", "city": "New Delhi, Delhi 110049", "phone": "09810695621", "website": "https://www.eleganteworld.com/", "rating": 4.8, "review_count": "", "latitude": 28.549683899999998, "longitude": 77.21512299999999, "maps_url": "https://www.google.com/maps/place/?q=place_id:0x390ce216847eae69:0x4aff0676ff1c9543"}, {"place_id": "0x390ce20330000001:0x23c631cfeb401a2b", "name": "The White Wall Studio", "category": "Film Production Company", "street": "C-68 (BASEMENT", "city": "Shivalik Colony, Malviya Nagar", "phone": "09953730689", "website": "http://thewhitewallstudio.in/", "rating": 4.2, "review_count": "", "latitude": 28.5400273, "longitude": 77.2122177, "maps_url": "https://www.google.com/maps/place/?q=place_id:0x390ce20330000001:0x23c631cfeb401a2b"}, {"place_id": "0x390ce20bffffffff:0x6f1cc47abdde4f79", "name": "SNR & Company - Chartered Accountant Firm", "category": "Chartered accountant", "street": "Second Floor", "city": "A-15", "phone": "01141655801", "website": "http://snr.company/", "rating": 4.7, "review_count": "", "latitude": 28.5531246, "longitude": 77.2077339, "maps_url": "https://www.google.com/maps/place/?q=place_id:0x390ce20bffffffff:0x6f1cc47abdde4f79"}, {"place_id": "0x390ce23b27296511:0x642f17367bc18ac7", "name": "Imperia Law", "category": "Law firm", "street": "E-62", "city": "Panchsheel Park North, Panchsheel Park", "phone": "09971512222", "website": "http://www.imperialaw.com/", "rating": 4.3, "review_count": "", "latitude": 28.5437703, "longitude": 77.21955899999999, "maps_url": "https://www.google.com/maps/place/?q=place_id:0x390ce23b27296511:0x642f17367bc18ac7"}, {"place_id": "0x390ce2183f371cc9:0x999d74ad1bba493e", "name": "Studio B Architects", "category": "Architecture firm", "street": "S 260", "city": "Block S, Panchsheel Park South, Panchsheel Park", "phone": "01126012181", "website": "http://studiobarchitect.com/", "rating": 4.7, "review_count": "", "latitude": 28.541642799999998, "longitude": 77.21577309999999, "maps_url": "https://www.google.com/maps/place/?q=place_id:0x390ce2183f371cc9:0x999d74ad1bba493e"}, {"place_id": "0x390ce3ecfebea50d:0x9fd47ba0ec414a5", "name": "Shack Coffee Co.", "category": "Cafe", "street": "143 A, Ground Floor", "city": "Shahpur Jat, Siri Fort", "phone": "09818040777", "website": "http://shackcoffee.co/", "rating": 4.9, "review_count": "", "latitude": 28.5478223, "longitude": 77.21647519999999, "maps_url": "https://www.google.com/maps/place/?q=place_id:0x390ce3ecfebea50d:0x9fd47ba0ec414a5"}, {"place_id": "0x390ce3f93925ee19:0x8688a44a5f3b66c3", "name": "MaxAtHome Blood Test Lab | Full Body Health Checkup | Urgent Blood Test", "category": "Blood testing service", "street": "Block B, Panchsheel Park South, Panchsheel Park", "city": "New Delhi, Delhi 110017", "phone": "09240299623", "website": "https://www.maxathome.in/service/pathology?utm_source=Google&utm_medium=GMB", "rating": 4.9, "review_count": "", "latitude": 28.5421212, "longitude": 77.22097459999999, "maps_url": "https://www.google.com/maps/place/?q=place_id:0x390ce3f93925ee19:0x8688a44a5f3b66c3"}]}