{"timestamp": 1773729344.4445033, "keyword": "IT company", "location": "delhi", "cell_idx": 73, "results": [{"place_id": "0x390ce1aa4d34fe37:0x451d1679345c6df6", "name": "Matrix Solution Group", "category": "Computer Hardware Company", "street": "G-2nd 18/11", "city": "near Tiranga Chowk Road", "phone": "09599014461", "website": "https://www.matrixsolutiongroup.com/", "rating": 4.6, "review_count": "", "latitude": 28.5005962, "longitude": 77.2478308, "maps_url": "https://www.google.com/maps/place/?q=place_id:0x390ce1aa4d34fe37:0x451d1679345c6df6"}, {"place_id": "0x390ce1a84c6a05c3:0x7e192e6d8b97061d", "name": "A-TECH INDIA", "category": "Business management consultant", "street": "B -539, Public Schools Rd", "city": "Block B, Devli, Sangam Vihar", "phone": "08527298902", "website": "http://atechindia.in/", "rating": 5, "review_count": "", "latitude": 28.5021427, "longitude": 77.2406735, "maps_url": "https://www.google.com/maps/place/?q=place_id:0x390ce1a84c6a05c3:0x7e192e6d8b97061d"}, {"place_id": "0x390ce1d73c888e6f:0x679aac9b7129eb22", "name": "Webgram it Solution", "category": "Website designer", "street": "Block C, Devli, Sangam Vihar", "city": "New Delhi, Delhi 110080", "phone": "07551120242", "website": "https://webgramitsolution.com/", "rating": 4.8, "review_count": "", "latitude": 28.498291299999998, "longitude": 77.23990909999999, "maps_url": "https://www.google.com/maps/place/?q=place_id:0x390ce1d73c888e6f:0x679aac9b7129eb22"}, {"place_id": "0x390ce1a80c4becd1:0xcb8a503f62161432", "name": "Computer Network Solutions", "category": "Computer service", "street": "K-I D59, Gali Number 18", "city": "near HANUMAN MANDIR", "phone": "09810459177", "website": "https://computernstechnology.blogspot.com/", "rating": 4.9, "review_count": "", "latitude": 28.493691199999997, "longitude": 77.2492716, "maps_url": "https://www.google.com/maps/place/?q=place_id:0x390ce1a80c4becd1:0xcb8a503f62161432"}, {"place_id": "0x8d1367491c694315:0xb6e1626c69d891d2", "name": "WebGridSolution - Software Development Digital Marketing Company", "category": "Software company", "street": "G-12/188", "city": "Talimabad, Sangam Vihar", "phone": "", "website": "https://webgridsolution.com/", "rating": 4.8, "review_count": "", "latitude": 28.506943099999997, "longitude": 77.2507213, "maps_url": "https://www.google.com/maps/place/?q=place_id:0x8d1367491c694315:0xb6e1626c69d891d2"}, {"place_id": "0x390ce112b8e7842f:0xf52e5dae570a739f", "name": "Alex IT Solutions", "category": "Computer support and services", "street": "C-1st/479, Gali No. 6", "city": "near Sehrawat Gas Agency", "phone": "07042556210", "website": "", "rating": 4.4, "review_count": "", "latitude": 28.500353099999998, "longitude": 77.2379811, "maps_url": "https://www.google.com/maps/place/?q=place_id:0x390ce112b8e7842f:0xf52e5dae570a739f"}, {"place_id": "0x390ce1597b5509e5:0xfd8209b937b44d3c", "name": "IT Solutions India Private Limited", "category": "Software company", "street": "D-88/5", "city": "Pocket D, Okhla Phase I, Okhla Industrial Estate", "phone": "09810017429", "website": "https://www.itsipl.com/", "rating": 4.2, "review_count": "", "latitude": 28.520146, "longitude": 77.280431, "maps_url": "https://www.google.com/maps/place/?q=place_id:0x390ce1597b5509e5:0xfd8209b937b44d3c"}, {"place_id": "0x390ce3da3f68853d:0xcd720b2a87c87b08", "name": "E Pixel Services", "category": "Software company", "street": "Sangam vihar", "city": "Block L, Devli, Sangam Vihar", "phone": "", "website": "http://www.epixelservices.com/", "rating": 4.8, "review_count": "", "latitude": 28.4979901, "longitude": 77.2339501, "maps_url": "https://www.google.com/maps/place/?q=place_id:0x390ce3da3f68853d:0xcd720b2a87c87b08"}, {"place_id": "0x390ce1a20e94f69d:0xf6c5af89da672917", "name": "Code IT Solutions", "category": "Software company", "street": "E45", "city": "Krishna Park Colony, Khanpur", "phone": "07992249312", "website": "http://codeitsolutionshub.com/", "rating": 4.9, "review_count": "", "latitude": 28.509770999999997, "longitude": 77.23377169999999, "maps_url": "https://www.google.com/maps/place/?q=place_id:0x390ce1a20e94f69d:0xf6c5af89da672917"}, {"place_id": "0x390ce458d0000001:0xf2123bd299ec4501", "name": "IT Company India", "category": "Software company", "street": "D56", "city": "D Block, Sector 10", "phone": "09999244854", "website": "https://www.itcompanyindia.in/", "rating": 4.7, "review_count": "", "latitude": 28.589917699999997, "longitude": 77.3351153, "maps_url": "https://www.google.com/maps/place/?q=place_id:0x390ce458d0000001:0xf2123bd299ec4501"}, {"place_id": "0x390ce17b94309bbf:0x2a7be4bbd23e8470", "name": "Nexinfotech", "category": "Software company", "street": "Gali No. 5", "city": "Block J 1, Devli, Sangam Vihar", "phone": "09319089231", "website": "https://nexinfotech.com/", "rating": 5, "review_count": "", "latitude": 28.4901479, "longitude": 77.2463212, "maps_url": "https://www.google.com/maps/place/?q=place_id:0x390ce17b94309bbf:0x2a7be4bbd23e8470"}, {"place_id": "0x390ce11068dacbdd:0xac4070cb73f9c1b1", "name": "Reedham It solutions pvt ltd", "category": "Software company", "street": "1297B, H 16 Rd", "city": "Block G 1, Talimabad, Sangam Vihar", "phone": "01146012950", "website": "http://reedhamitsolution.com/", "rating": 5, "review_count": "", "latitude": 28.5017906, "longitude": 77.25404069999999, "maps_url": "https://www.google.com/maps/place/?q=place_id:0x390ce11068dacbdd:0xac4070cb73f9c1b1"}, {"place_id": "0x390ce3c153b89811:0xe7a279685777e9ca", "name": "IT Company", "category": "Automation company", "street": "A-14", "city": "near iskcon temple", "phone": "", "website": "http://www.opuswiz.com/", "rating": 3, "review_count": "", "latitude": 28.557167, "longitude": 77.25424819999999, "maps_url": "https://www.google.com/maps/place/?q=place_id:0x390ce3c153b89811:0xe7a279685777e9ca"}, {"place_id": "0x390ce17b01e1a187:0x586fa6002747476d", "name": "OneTap AI Solutions", "category": "Software company", "street": "FIRST FLOOR", "city": "HOLI CHOWK", "phone": "07859935902", "website": "https://onetapaisolutions.com/", "rating": 5, "review_count": "", "latitude": 28.5011396, "longitude": 77.2343595, "maps_url": "https://www.google.com/maps/place/?q=place_id:0x390ce17b01e1a187:0x586fa6002747476d"}, {"place_id": "0x390ce146624d3325:0xdef50cdb9e3f79b2", "name": "Hybridd Eminence IT Solutions", "category": "Computer service", "street": "No .A-66", "city": "H", "phone": "07011675606", "website": "https://www.google.com/search?q=hybrid+eminence+it+solutions&oq=hy&aqs=chrome.0.69i59j69i61j69i57j0i273l2j46i199i291i433i512j0i433i512l2.1129j0j4&client=ms-android-xiaomi&sourceid=chrome-mobile&ie=UTF-8#lkt=overview&trex=m_t:lcl_akp,rc_f:nav,rc_ludocids:16065761383106443698,rc_q:Hybrid%2520Eminence%2520IT%2520Solutions,ru_q:Hybrid%2520Eminence%2520IT%2520Solutions,trex_id:BTlVsc", "rating": 4.9, "review_count": "", "latitude": 28.504536299999998, "longitude": 77.2357723, "maps_url": "https://www.google.com/maps/place/?q=place_id:0x390ce146624d3325:0xdef50cdb9e3f79b2"}, {"place_id": "0x390ce167a2fe2113:0x680ab5f778d97d4c", "name": "Digital Multi Solutions - Best CCTV Camera installation & Repair Service in Delhi", "category": "Security system installation service", "street": "F2, 873", "city": "A", "phone": "09599327317", "website": "https://digitalmultisolutions.com/", "rating": 5, "review_count": "", "latitude": 28.499465599999997, "longitude": 77.2420319, "maps_url": "https://www.google.com/maps/place/?q=place_id:0x390ce167a2fe2113:0x680ab5f778d97d4c"}, {"place_id": "0x390ce1aea33ff0ff:0xb3005294b9055523", "name": "SmartSapient Business Solutions", "category": "Software company", "street": "G2/72", "city": "Block F 2, Sangam Vihar", "phone": "", "website": "https://www.smartsapient.com/", "rating": "", "review_count": "", "latitude": 28.4992804, "longitude": 77.2463545, "maps_url": "https://www.google.com/maps/place/?q=place_id:0x390ce1aea33ff0ff:0xb3005294b9055523"}, {"place_id": "0x390ce1fb44618b65:0x8e06b2a6128352d1", "name": "Acropolis Infotech - Delhi Office", "category": "Software company", "street": "metro station gate", "city": "55, 2nd Floor, Lane 2", "phone": "09999876593", "website": "https://www.acropolisinfotech.com/", "rating": 4.6, "review_count": "", "latitude": 28.518907, "longitude": 77.2015435, "maps_url": "https://www.google.com/maps/place/?q=place_id:0x390ce1fb44618b65:0x8e06b2a6128352d1"}, {"place_id": "0x390ce7d088b49e53:0xbe91d554f6056f4a", "name": "ARVI IT SOLUTIONS", "category": "Software company", "street": "G-454/20, Tajpur Rd", "city": "near standford convent school", "phone": "09971148719", "website": "https://arviitsolutions.com/", "rating": 4.9, "review_count": "", "latitude": 28.4926846, "longitude": 77.3079108, "maps_url": "https://www.google.com/maps/place/?q=place_id:0x390ce7d088b49e53:0xbe91d554f6056f4a"}, {"place_id": "0x390ce1a84c6a05c3:0x8782105baf302a33", "name": "Website Vale", "category": "Website designer", "street": "K-ll 685", "city": "near Raghupath Chowk", "phone": "08750343083", "website": "https://www.websitevale.com/", "rating": 4.9, "review_count": "", "latitude": 28.494864399999997, "longitude": 77.23539339999999, "maps_url": "https://www.google.com/maps/place/?q=place_id:0x390ce1a84c6a05c3:0x8782105baf302a33"}, {"place_id": "0x390ce161ceec9d85:0x952e8b11295dfe85", "name": "HYBEC IT SOLUTION", "category": "Software company", "street": "National Small Industries Corporation", "city": "Block F, Okhla Phase III, Okhla Industrial Estate", "phone": "01149128591", "website": "http://www.hybecitsolutions.com/", "rating": 4.8, "review_count": "", "latitude": 28.5490569, "longitude": 77.2674236, "maps_url": "https://www.google.com/maps/place/?q=place_id:0x390ce161ceec9d85:0x952e8b11295dfe85"}, {"place_id": "0x390ce1ce534cb1e5:0x39fe77c42bc52616", "name": "ITeSolution- Odoo ERP , Mobile/Web Application Development Software Company in Noida, Delhi NCR India.", "category": "Software company", "street": "RZ60/9", "city": "T/F, Tughlakabad Extension, Tughlakabad", "phone": "09889294124", "website": "https://www.itesolution.co.in/", "rating": 4.9, "review_count": "", "latitude": 28.520523899999997, "longitude": 77.2570535, "maps_url": "https://www.google.com/maps/place/?q=place_id:0x390ce1ce534cb1e5:0x39fe77c42bc52616"}, {"place_id": "0x390ce6ef34283cef:0x52e1084d285eb54f", "name": "M/S. BAGHEL IT SOLUTIONS", "category": "Software company", "street": "E-30A/ 8", "city": "Hari Nagar Part II, Hari Nagar Extn, Hari Nagar, Badarpur", "phone": "09999931256", "website": "http://www.baghelitsolutions.com/", "rating": 4.9, "review_count": "", "latitude": 28.5081524, "longitude": 77.3155013, "maps_url": "https://www.google.com/maps/place/?q=place_id:0x390ce6ef34283cef:0x52e1084d285eb54f"}, {"place_id": "0x390ce1ed08b4f5ff:0x29de586224c28bfa", "name": "Advait Infotech", "category": "Computer support and services", "street": "G-486", "city": "Block G, Devli, Sangam Vihar", "phone": "", "website": "https://advaitit.in/", "rating": 5, "review_count": "", "latitude": 28.4970675, "longitude": 77.24002039999999, "maps_url": "https://www.google.com/maps/place/?q=place_id:0x390ce1ed08b4f5ff:0x29de586224c28bfa"}, {"place_id": "0x390ce18e402306b5:0x9dbfaada227164c4", "name": "Vijprat Tech Private Limited", "category": "Software company", "street": "Sangam Vihar", "city": "Block D, Hamdard Nagar", "phone": "08565013979", "website": "https://www.vijprat.com/", "rating": 4.8, "review_count": "", "latitude": 28.5153091, "longitude": 77.2498549, "maps_url": "https://www.google.com/maps/place/?q=place_id:0x390ce18e402306b5:0x9dbfaada227164c4"}, {"place_id": "0x390ce227b000003f:0x68c684a3cbf810b", "name": "IT Solution INDIA", "category": "Computer support and services", "street": "Triveni Commercial Complex", "city": "Sheikh Sarai Phase 1, Sheikh Sarai", "phone": "09312209167", "website": "https://itsolutionindia.in/", "rating": 4.8, "review_count": "", "latitude": 28.5364054, "longitude": 77.22372, "maps_url": "https://www.google.com/maps/place/?q=place_id:0x390ce227b000003f:0x68c684a3cbf810b"}, {"place_id": "0x390ce30f4c4ed777:0x3a7c5e032ce51ce5", "name": "Appextech Software Solutions", "category": "Software company", "street": "Second Floor", "city": "Mohan Cooperative Industrial Estate", "phone": "09911432451", "website": "https://www.appextech.com/", "rating": 4.9, "review_count": "", "latitude": 28.502260099999997, "longitude": 77.28519, "maps_url": "https://www.google.com/maps/place/?q=place_id:0x390ce30f4c4ed777:0x3a7c5e032ce51ce5"}, {"place_id": "0x390ce5fdcc79e755:0x309ce99251b84ef6", "name": "Optyminds IT Solutions - Top AI and IT company I Best Digital agency in Noida | Delhi NCR | India", "category": "Software company", "street": "1st Floor", "city": "B-70", "phone": "08929075975", "website": "https://optyminds.com/", "rating": 4.9, "review_count": "", "latitude": 28.584679599999998, "longitude": 77.3135042, "maps_url": "https://www.google.com/maps/place/?q=place_id:0x390ce5fdcc79e755:0x309ce99251b84ef6"}, {"place_id": "0x390ce3656d0315e1:0xd5bfe1a2a2869d6f", "name": "InnoSewa", "category": "Software company", "street": "D-1/52B", "city": "Block D, Sangam Vihar", "phone": "07011307359", "website": "https://innosewa.com/", "rating": 5, "review_count": "", "latitude": 28.5082408, "longitude": 77.2443978, "maps_url": "https://www.google.com/maps/place/?q=place_id:0x390ce3656d0315e1:0xd5bfe1a2a2869d6f"}, {"place_id": "0x390ce1ee3b73efc3:0x8062ca7cf21b78db", "name": "VISHNAVE SOLUTIONS", "category": "Computer support and services", "street": "C-1292/12", "city": "Block C, Devli, Sangam Vihar", "phone": "08448604031", "website": "https://vishnavesolutions.com/", "rating": 4.4, "review_count": "", "latitude": 28.4990794, "longitude": 77.2398247, "maps_url": "https://www.google.com/maps/place/?q=place_id:0x390ce1ee3b73efc3:0x8062ca7cf21b78db"}, {"place_id": "0x390ce10edbfc8f25:0x8cc000882048f2a0", "name": "DMOOP | Digital Marketing & Web Development Agency", "category": "Software company", "street": "E-7A, 409/3", "city": "near Sagar Auto World", "phone": "08700831637", "website": "", "rating": 4.9, "review_count": "", "latitude": 28.503207999999997, "longitude": 77.246916, "maps_url": "https://www.google.com/maps/place/?q=place_id:0x390ce10edbfc8f25:0x8cc000882048f2a0"}, {"place_id": "0x390ce7b62827897b:0xf9c64750fed6eeef", "name": "Connect Infosoft Technologies Pvt.Ltd-Mobile and Software Application Development Company", "category": "Software company", "street": "Plot No.598", "city": "near Community Center", "phone": "", "website": "https://www.connectinfosoft.com/", "rating": 4.6, "review_count": "", "latitude": 28.451022599999998, "longitude": 77.29805, "maps_url": "https://www.google.com/maps/place/?q=place_id:0x390ce7b62827897b:0xf9c64750fed6eeef"}, {"place_id": "0x390ce76a5afbb667:0xb82005056bfc325e", "name": "Sonic Tech Solutions (Tally Certified Partner)", "category": "Software company", "street": "2nd Floor", "city": "No 11A", "phone": "09953535497", "website": "http://www.sonictechsolutions.com/", "rating": 5, "review_count": "", "latitude": 28.5003758, "longitude": 77.2905988, "maps_url": "https://www.google.com/maps/place/?q=place_id:0x390ce76a5afbb667:0xb82005056bfc325e"}, {"place_id": "0x390ce198ef877ab9:0x7a18a39d0d4b426", "name": "PRIYA TECHNOLOGY", "category": "Software company", "street": "45, Devli Rd", "city": "Khanpur Extension, Khanpur", "phone": "09718501851", "website": "", "rating": 4, "review_count": "", "latitude": 28.5133838, "longitude": 77.2337356, "maps_url": "https://www.google.com/maps/place/?q=place_id:0x390ce198ef877ab9:0x7a18a39d0d4b426"}, {"place_id": "0x390ce7d1a34f5fc3:0xad54a304f940d3c4", "name": "Infotonics media", "category": "Software company", "street": "B1/A5", "city": "Block E, Mohan Cooperative Industrial Estate, Badarpur", "phone": "09810959001", "website": "https://www.infotonicsmedia.com/", "rating": 4.9, "review_count": "", "latitude": 28.5092856, "longitude": 77.29728779999999, "maps_url": "https://www.google.com/maps/place/?q=place_id:0x390ce7d1a34f5fc3:0xad54a304f940d3c4"}, {"place_id": "0x390ce1656fbb7b65:0x7f0e4b2c21935a5c", "name": "Lynkit Solutions Pvt. Ltd.", "category": "Software company", "street": "246", "city": "Block A, Okhla Phase I, Okhla Industrial Estate", "phone": "01140824028", "website": "http://www.lynkit.in/", "rating": 4.3, "review_count": "", "latitude": 28.5254729, "longitude": 77.2754985, "maps_url": "https://www.google.com/maps/place/?q=place_id:0x390ce1656fbb7b65:0x7f0e4b2c21935a5c"}, {"place_id": "0x390ce18d63d85c39:0xf541a7d4f517169d", "name": "iFuturePlus Skill Development & Training centre", "category": "Education center", "street": "H 17 Rd", "city": "18a, Sangam Vihar", "phone": "06376952881", "website": "", "rating": 4.9, "review_count": "", "latitude": 28.5007666, "longitude": 77.2492355, "maps_url": "https://www.google.com/maps/place/?q=place_id:0x390ce18d63d85c39:0xf541a7d4f517169d"}, {"place_id": "0x390ce1361c1d0ec9:0xaf1e699c9ad610ca", "name": "VIRMANI SOFTWARE & HARDWARE SOLUTION", "category": "Computer Hardware Company", "street": "F1/67", "city": "Block F 2, Sangam Vihar", "phone": "", "website": "", "rating": 5, "review_count": "", "latitude": 28.502211499999998, "longitude": 77.2441462, "maps_url": "https://www.google.com/maps/place/?q=place_id:0x390ce1361c1d0ec9:0xaf1e699c9ad610ca"}, {"place_id": "0x2af2d75c7bf84603:0x184d197137886fe2", "name": "AZYRON TECH", "category": "Software company", "street": "G-12/509", "city": "Block G, Talimabad, Sangam Vihar", "phone": "", "website": "https://www.azyrontech.in/", "rating": 5, "review_count": "", "latitude": 28.5044048, "longitude": 77.2550619, "maps_url": "https://www.google.com/maps/place/?q=place_id:0x2af2d75c7bf84603:0x184d197137886fe2"}, {"place_id": "0x390ce65743459b7d:0x68b2d56bc0174f6c", "name": "Generous Technology - Tally Prime Sales , Services, Customization, Integration Tdl", "category": "Software company", "street": "B-194/2 -44", "city": "Jaitpur Extension Part II, Khadda Colony, Badarpur", "phone": "09873032133", "website": "http://www.generoustechnology.com/", "rating": 5, "review_count": "", "latitude": 28.507802299999998, "longitude": 77.3369402, "maps_url": "https://www.google.com/maps/place/?q=place_id:0x390ce65743459b7d:0x68b2d56bc0174f6c"}, {"place_id": "0x390ce1fd90fd6a05:0x3da727e8a7d67167", "name": "StartUp Delhi - Company Registration Consultancy in Delhi | Pvt. Ltd.", "category": "Registration office", "street": "Devli Rd", "city": "Pocket A, Jawahar Park, Khanpur", "phone": "08447371730", "website": "", "rating": 4.3, "review_count": "", "latitude": 28.5078376, "longitude": 77.2300901, "maps_url": "https://www.google.com/maps/place/?q=place_id:0x390ce1fd90fd6a05:0x3da727e8a7d67167"}, {"place_id": "0x4215c6da63b4b82f:0x794ba814a6ada964", "name": "Asha Tech | Website Design, App Development & IT Solutions Delhi", "category": "Software company", "street": "no 2", "city": "195, Lane No. 1", "phone": "07531080874", "website": "https://ashatech.co.in/", "rating": 4.7, "review_count": "", "latitude": 28.519994099999998, "longitude": 77.2008791, "maps_url": "https://www.google.com/maps/place/?q=place_id:0x4215c6da63b4b82f:0x794ba814a6ada964"}, {"place_id": "0x390ce3c50d455555:0x625e4cf2def0b6ac", "name": "Infonative Solutions Limited", "category": "Computer support and services", "street": "107, 108", "city": "DLF South Court", "phone": "08448141818", "website": "https://infonative.net/", "rating": 4.7, "review_count": "", "latitude": 28.5274255, "longitude": 77.2209031, "maps_url": "https://www.google.com/maps/place/?q=place_id:0x390ce3c50d455555:0x625e4cf2def0b6ac"}, {"place_id": "0x390ce191401e53c5:0xca2674cd9e53f2c1", "name": "BMC OUTSOURCING PVT LTD", "category": "Marketing consultant", "street": "F2/366", "city": "Block F 2, Sangam Vihar", "phone": "", "website": "", "rating": 3.6, "review_count": "", "latitude": 28.499833, "longitude": 77.2447597, "maps_url": "https://www.google.com/maps/place/?q=place_id:0x390ce191401e53c5:0xca2674cd9e53f2c1"}, {"place_id": "0x390ce1fb6d6fa48f:0x8be9b07790f41251", "name": "The Wellingston Company", "category": "Corporate office", "street": "K-2nd, 555", "city": "Bandh Rd", "phone": "09716881871", "website": "http://www.wellingston.com/", "rating": 5, "review_count": "", "latitude": 28.4954108, "longitude": 77.2369391, "maps_url": "https://www.google.com/maps/place/?q=place_id:0x390ce1fb6d6fa48f:0x8be9b07790f41251"}, {"place_id": "0x390ce7efbc7aff21:0x5d574e48430142e", "name": "AANYA TECHSOFT LLP", "category": "Software company", "street": "1st & 2nd Floor", "city": "Metro Station Tughlakabad", "phone": "09811393975", "website": "https://aanyatech.co.in/", "rating": 4.9, "review_count": "", "latitude": 28.4950084, "longitude": 77.30347809999999, "maps_url": "https://www.google.com/maps/place/?q=place_id:0x390ce7efbc7aff21:0x5d574e48430142e"}, {"place_id": "0x390ce18325e56bed:0x9b5150c1ad42ff14", "name": "MSB Web Services", "category": "Software company", "street": "F", "city": "1B", "phone": "09818476105", "website": "https://www.msbwebs.com/", "rating": 5, "review_count": "", "latitude": 28.502231199999997, "longitude": 77.2427198, "maps_url": "https://www.google.com/maps/place/?q=place_id:0x390ce18325e56bed:0x9b5150c1ad42ff14"}, {"place_id": "0x390ce3f8f4aa824f:0x11711854f86aeab0", "name": "Mindsmiratus Technologies Pvt Ltd", "category": "Software company", "street": "A-263, 1st Floor", "city": "Mindsmiratus Technologies Pvt Ltd", "phone": "01144786201", "website": "https://www.mindsmiratus.com/?utm_source=google&utm_medium=organic&utm_campaign=gmb", "rating": 4.9, "review_count": "", "latitude": 28.5017362, "longitude": 77.28707539999999, "maps_url": "https://www.google.com/maps/place/?q=place_id:0x390ce3f8f4aa824f:0x11711854f86aeab0"}, {"place_id": "0x390ce156a6da3edf:0x6249800715df0244", "name": "Unique Solution Private limited", "category": "Book publisher", "street": "12/32", "city": "Block C, phase 1, Sangam Vihar", "phone": "", "website": "", "rating": 1.9, "review_count": "", "latitude": 28.4989666, "longitude": 77.2390388, "maps_url": "https://www.google.com/maps/place/?q=place_id:0x390ce156a6da3edf:0x6249800715df0244"}, {"place_id": "0x390ce19295b87577:0x893eed38fdb3f553", "name": "Sarvajan Hitay co-op thrift & Credit Society", "category": "Computer support and services", "street": "F-3", "city": "813B", "phone": "09667804495", "website": "", "rating": 5, "review_count": "", "latitude": 28.4984081, "longitude": 77.2397919, "maps_url": "https://www.google.com/maps/place/?q=place_id:0x390ce19295b87577:0x893eed38fdb3f553"}, {"place_id": "0x390ce3c5130e43f3:0xce85951ee98d424e", "name": "MODI INFOSOL PVT. LTD.", "category": "Manufacturer", "street": "OFFICE # 168", "city": "D Block, Pocket D, Okhla Phase I, Okhla Industrial Estate", "phone": "01140746900", "website": "http://www.modiithub.com/", "rating": 3.6, "review_count": "", "latitude": 28.5209118, "longitude": 77.2783556, "maps_url": "https://www.google.com/maps/place/?q=place_id:0x390ce3c5130e43f3:0xce85951ee98d424e"}, {"place_id": "0x390ce10dc1430a1d:0xc60e79b5d1030cf", "name": "Sidh water solutions", "category": "Water purification company", "street": "B516", "city": "Block C, Devli, Sangam Vihar", "phone": "09910764176", "website": "", "rating": 4.9, "review_count": "", "latitude": 28.499086, "longitude": 77.2380922, "maps_url": "https://www.google.com/maps/place/?q=place_id:0x390ce10dc1430a1d:0xc60e79b5d1030cf"}, {"place_id": "0x390ce1b9de54d101:0xc5184256693b27dd", "name": "LCK Technologies - Website designing development company South Delhi", "category": "Website designer", "street": "439 1st floor", "city": "438", "phone": "09891337955", "website": "https://lckdigitalmedia.in/", "rating": 4.9, "review_count": "", "latitude": 28.5089698, "longitude": 77.20114769999999, "maps_url": "https://www.google.com/maps/place/?q=place_id:0x390ce1b9de54d101:0xc5184256693b27dd"}, {"place_id": "0x390ce3cfe91504eb:0x55346c5c499223d7", "name": "CCS Computers Private Limited", "category": "Computer support and services", "street": "2nd-3rd Floor Skipper House", "city": "Nehru Place", "phone": "01126463959", "website": "http://www.ccscomputers.co.in/", "rating": 4, "review_count": "", "latitude": 28.550090599999997, "longitude": 77.2537834, "maps_url": "https://www.google.com/maps/place/?q=place_id:0x390ce3cfe91504eb:0x55346c5c499223d7"}, {"place_id": "0x390ce45bcd61048f:0x5f6a5602f4155df7", "name": "JK Technosoft Limited", "category": "Software company", "street": "F", "city": "3", "phone": "01204606300", "website": "https://jktech.com/", "rating": 4.2, "review_count": "", "latitude": 28.5802509, "longitude": 77.31793329999999, "maps_url": "https://www.google.com/maps/place/?q=place_id:0x390ce45bcd61048f:0x5f6a5602f4155df7"}, {"place_id": "0x390ce1e92eec0d49:0x8b4c598e70e40b8", "name": "Kito Infocom Pvt. Ltd", "category": "Internet marketing service", "street": "2nd Floor", "city": "B-38", "phone": "08826845665", "website": "https://kitoinfocom.com/", "rating": 4.6, "review_count": "", "latitude": 28.5302415, "longitude": 77.2719123, "maps_url": "https://www.google.com/maps/place/?q=place_id:0x390ce1e92eec0d49:0x8b4c598e70e40b8"}, {"place_id": "0x390ce19d6aaaaaab:0x322f66cd91e8f6cd", "name": "Vikas Gupta Web Developer", "category": "Website designer", "street": "A-454 Dakshinpuri", "city": "New Delhi, Delhi 110062", "phone": "09643269244", "website": "https://itcrafterhub.com/website-developer-delhi/", "rating": 5, "review_count": "", "latitude": 28.522017599999998, "longitude": 77.2366923, "maps_url": "https://www.google.com/maps/place/?q=place_id:0x390ce19d6aaaaaab:0x322f66cd91e8f6cd"}, {"place_id": "0x390ce3d647f7d2d5:0x389ee7c78c3019f9", "name": "APPWRK IT Solutions- Bespoke Web & Mobile App Development Company I AI Powered Solutions", "category": "Software company", "street": "101, NH-19", "city": "CRRI, Ishwar Nagar, Okhla", "phone": "", "website": "https://appwrk.com/", "rating": 5, "review_count": "", "latitude": 28.5508191, "longitude": 77.2746251, "maps_url": "https://www.google.com/maps/place/?q=place_id:0x390ce3d647f7d2d5:0x389ee7c78c3019f9"}, {"place_id": "0x390ce10d84dadecb:0x1ee6cefe725e85fc", "name": "Pvrc Marketing India Pvt Ltd", "category": "Corporate office", "street": "C-155/8", "city": "Sewa Sadan, Block C, Devli, Sangam Vihar", "phone": "01132224562", "website": "", "rating": 5, "review_count": "", "latitude": 28.498876, "longitude": 77.23800899999999, "maps_url": "https://www.google.com/maps/place/?q=place_id:0x390ce10d84dadecb:0x1ee6cefe725e85fc"}, {"place_id": "0x390ce12dde00fc81:0x59f31abcf7bfb639", "name": "Dream solution studio - best architecture | interior designer | turnkey solution", "category": "Architecture firm", "street": "Block-I, Gali no. 4, house no-34A, Floor", "city": "Gali No. 1", "phone": "09910952809", "website": "", "rating": 5, "review_count": "", "latitude": 28.4968512, "longitude": 77.2457737, "maps_url": "https://www.google.com/maps/place/?q=place_id:0x390ce12dde00fc81:0x59f31abcf7bfb639"}, {"place_id": "0x390ce1ae5f457c15:0x6036c1e30bf9d283", "name": "WebTrafficIndia", "category": "Marketing agency", "street": "63/3 nai basti deoli", "city": "New Delhi, Delhi 110080", "phone": "09899770097", "website": "https://webtrafficindia.com/", "rating": 4.9, "review_count": "", "latitude": 28.494542, "longitude": 77.231839, "maps_url": "https://www.google.com/maps/place/?q=place_id:0x390ce1ae5f457c15:0x6036c1e30bf9d283"}, {"place_id": "0x390ce1f99938a4bf:0x94440b5e8f9049d7", "name": "Silk Circuit Solutions", "category": "Solar Energy Company", "street": "K-1", "city": "100/18-B", "phone": "", "website": "", "rating": 5, "review_count": "", "latitude": 28.4977232, "longitude": 77.2526663, "maps_url": "https://www.google.com/maps/place/?q=place_id:0x390ce1f99938a4bf:0x94440b5e8f9049d7"}, {"place_id": "0x390d1e186527b451:0x3d552630d3703e21", "name": "Inca Infotech Technologies Pvt Ltd", "category": "Computer support and services", "street": "D-23/405, UGF", "city": "100 Feet Rd", "phone": "18008891907", "website": "https://www.incainfotech.com/", "rating": 3.6, "review_count": "", "latitude": 28.506226899999998, "longitude": 77.1850521, "maps_url": "https://www.google.com/maps/place/?q=place_id:0x390d1e186527b451:0x3d552630d3703e21"}, {"place_id": "0x390ce1d7995df50d:0x6d97dab63f93c281", "name": "Indeed Pest Control Pvt Ltd", "category": "Pest control service", "street": "Ground Floor Shop", "city": "F-2/668", "phone": "09999213913", "website": "https://www.indeedpestcontrol.com/", "rating": 4.9, "review_count": "", "latitude": 28.4972098, "longitude": 77.24376269999999, "maps_url": "https://www.google.com/maps/place/?q=place_id:0x390ce1d7995df50d:0x6d97dab63f93c281"}, {"place_id": "0x390ce76e7a9dcdcb:0xc822fe40443dca04", "name": "Biro Infotech", "category": "Software company", "street": "A-15", "city": "Pocket-A Phase 2, Madanpur Khadar", "phone": "09560441610", "website": "http://biroinfotech.com/", "rating": 5, "review_count": "", "latitude": 28.532781099999998, "longitude": 77.3169934, "maps_url": "https://www.google.com/maps/place/?q=place_id:0x390ce76e7a9dcdcb:0xc822fe40443dca04"}, {"place_id": "0x390ce1b90129e91f:0x3bfc9febfd31974", "name": "Dynamic Network & Co.", "category": "Internet service provider", "street": "Street Number 7A, Block E", "city": "371", "phone": "", "website": "", "rating": 5, "review_count": "", "latitude": 28.503677, "longitude": 77.24388189999999, "maps_url": "https://www.google.com/maps/place/?q=place_id:0x390ce1b90129e91f:0x3bfc9febfd31974"}, {"place_id": "0x390ce36d8ce5d215:0x34a758640aa4cff7", "name": "Steel fabricator", "category": "Steel fabricator", "street": "H17 232 A ratiya Marg", "city": "Hanuman Mandir Marg", "phone": "09990330987", "website": "", "rating": 5, "review_count": "", "latitude": 28.495022, "longitude": 77.24491499999999, "maps_url": "https://www.google.com/maps/place/?q=place_id:0x390ce36d8ce5d215:0x34a758640aa4cff7"}, {"place_id": "0x390ce1d22060ff1d:0x410ffc83d4f4a717", "name": "SVA Marketing Solution", "category": "Website designer", "street": "sewa sadan", "city": "C-4/86, Sangam Vihar Rd", "phone": "08178232697", "website": "https://svamarketingsolution.com/", "rating": 5, "review_count": "", "latitude": 28.4991812, "longitude": 77.2364204, "maps_url": "https://www.google.com/maps/place/?q=place_id:0x390ce1d22060ff1d:0x410ffc83d4f4a717"}, {"place_id": "0x390ce15e3e0af063:0x278728c362df0caf", "name": "A S IT Solution", "category": "Computer support and services", "street": "Gali No -14", "city": "H. No. - 1252", "phone": "09315394784", "website": "", "rating": "", "review_count": "", "latitude": 28.4930372, "longitude": 77.24820869999999, "maps_url": "https://www.google.com/maps/place/?q=place_id:0x390ce15e3e0af063:0x278728c362df0caf"}, {"place_id": "0x390ce190c0915f97:0x1c402aa62c4eb221", "name": "Dream Space Design", "category": "Interior designer", "street": "941, Basement", "city": "Sangam Vihar Rd", "phone": "", "website": "https://dreamspacedesign.in/", "rating": 5, "review_count": "", "latitude": 28.4999796, "longitude": 77.2425906, "maps_url": "https://www.google.com/maps/place/?q=place_id:0x390ce190c0915f97:0x1c402aa62c4eb221"}, {"place_id": "0x390ce1de39e961a3:0xd28e750daa8e7430", "name": "Mahavir Business Accounting (OPC) Private Limited", "category": "Chartered accountant", "street": "House No. 707", "city": "Block F2", "phone": "08383859583", "website": "", "rating": 4.8, "review_count": "", "latitude": 28.4971291, "longitude": 77.24406689999999, "maps_url": "https://www.google.com/maps/place/?q=place_id:0x390ce1de39e961a3:0xd28e750daa8e7430"}, {"place_id": "0x390ce1a7d9dac699:0x974627b30d3c182", "name": "Unit Pest Control - pest control, termite control services Delhi", "category": "Pest control service", "street": "C1 249", "city": "near Serawat Gas Agency", "phone": "09911190068", "website": "https://www.unitpestcontrol.com/", "rating": 4.7, "review_count": "", "latitude": 28.4965199, "longitude": 77.23842929999999, "maps_url": "https://www.google.com/maps/place/?q=place_id:0x390ce1a7d9dac699:0x974627b30d3c182"}, {"place_id": "0x390ce1bef0c8c071:0xb0a64e46c6405fc6", "name": "Tech rise dynamics", "category": "Website designer", "street": "293, Lane-2, Westend Marg", "city": "near Saket Metro Station", "phone": "08750557052", "website": "https://www.techrisedynamics.com/", "rating": 5, "review_count": "", "latitude": 28.5177321, "longitude": 77.1986237, "maps_url": "https://www.google.com/maps/place/?q=place_id:0x390ce1bef0c8c071:0xb0a64e46c6405fc6"}, {"place_id": "0x390ce1106a322819:0xb1a2195a1122ff02", "name": "INNOVATIVE PIX", "category": "Automation company", "street": "Gali sitara musjit", "city": "745B, H 16 Rd", "phone": "09821182605", "website": "", "rating": 5, "review_count": "", "latitude": 28.5018918, "longitude": 77.25375249999999, "maps_url": "https://www.google.com/maps/place/?q=place_id:0x390ce1106a322819:0xb1a2195a1122ff02"}, {"place_id": "0xa3f7b500ba6bee9b:0xbf6f44de92b28de", "name": "Yuvocreations Private Limited ( \u092f\u0941\u0935\u094b\u0915\u094d\u0930\u093f\u090f\u0936\u0928\u094d\u0938 \u092a\u094d\u0930\u093e\u0907\u0935\u0947\u091f \u0932\u093f\u092e\u093f\u091f\u0947\u0921 ) - Website Designing & Digital Marketing Agency", "category": "Software company", "street": "Lane no.4", "city": "Khasra no. 258, Westend Marg", "phone": "07042123166", "website": "https://yuvocreations.com/", "rating": 5, "review_count": "", "latitude": 28.5169774, "longitude": 77.19925789999999, "maps_url": "https://www.google.com/maps/place/?q=place_id:0xa3f7b500ba6bee9b:0xbf6f44de92b28de"}, {"place_id": "0x390ce23eeab015ab:0x92d6a7e8dbc46e1a", "name": "Odyssey Website Development Company", "category": "Website designer", "street": "B-59", "city": "Block B, Soami Nagar South, Soami Nagar", "phone": "09654486464", "website": "http://odysseyin.com/?utm_source=GMB&utm_medium=Organic&utm_term=Odyssey&utm_content=Listing&utm_campaign=GMB1", "rating": 3.6, "review_count": "", "latitude": 28.541823599999997, "longitude": 77.2262008, "maps_url": "https://www.google.com/maps/place/?q=place_id:0x390ce23eeab015ab:0x92d6a7e8dbc46e1a"}, {"place_id": "0x390ce16ede0e02b5:0xc549800b46f74e0c", "name": "Usher Infotech", "category": "Software company", "street": "RZ-529/24", "city": "Tughlakabad Extension, Tughlakabad", "phone": "09718347896", "website": "http://www.usherinfotech.com/", "rating": 4.8, "review_count": "", "latitude": 28.521096399999998, "longitude": 77.2570176, "maps_url": "https://www.google.com/maps/place/?q=place_id:0x390ce16ede0e02b5:0xc549800b46f74e0c"}, {"place_id": "0x390ce100f5e94809:0xd78d6863269ad2a1", "name": "Taom Solutions", "category": "Software company", "street": "E- 44/3 Ground Floor", "city": "F Block, Pocket X, Okhla Phase II, Okhla Industrial Estate", "phone": "", "website": "https://www.taomsolutions.com/", "rating": 5, "review_count": "", "latitude": 28.535762799999997, "longitude": 77.2764329, "maps_url": "https://www.google.com/maps/place/?q=place_id:0x390ce100f5e94809:0xd78d6863269ad2a1"}, {"place_id": "0x390ce1a888379103:0x330bbd77dfe95d11", "name": "Global Language Solution - Language Translation, Russian, German, French, Spanish, Indonesian, Korean Interpretation Services", "category": "Translation service", "street": "K-5", "city": "47/2, Sangam Vihar Rd", "phone": "09899582710", "website": "http://www.glsgloballanguage.com/", "rating": 4.2, "review_count": "", "latitude": 28.497283099999997, "longitude": 77.2372841, "maps_url": "https://www.google.com/maps/place/?q=place_id:0x390ce1a888379103:0x330bbd77dfe95d11"}, {"place_id": "0x390ce13cf0b6d033:0xe1ef370b44bf2beb", "name": "DigitalPrachi", "category": "Marketing agency", "street": "Block k2", "city": "404", "phone": "", "website": "", "rating": 5, "review_count": "", "latitude": 28.4992399, "longitude": 77.2453965, "maps_url": "https://www.google.com/maps/place/?q=place_id:0x390ce13cf0b6d033:0xe1ef370b44bf2beb"}, {"place_id": "0x390ce171577a3939:0x65158df65d6c758b", "name": "YANTI SECURITY SERVICES PVT LTD", "category": "Computer support and services", "street": "K1ST 18D\\581", "city": "NAGIYA FORM", "phone": "", "website": "", "rating": "", "review_count": "", "latitude": 28.4965582, "longitude": 77.23863089999999, "maps_url": "https://www.google.com/maps/place/?q=place_id:0x390ce171577a3939:0x65158df65d6c758b"}, {"place_id": "0x390ce1fa219fb32b:0xb3ad12a0b44dc09a", "name": "Xerour", "category": "Software company", "street": "G-9/62", "city": "Talimabad, Sangam Vihar", "phone": "09871128653", "website": "https://xerour.com/", "rating": 5, "review_count": "", "latitude": 28.5077252, "longitude": 77.25073909999999, "maps_url": "https://www.google.com/maps/place/?q=place_id:0x390ce1fa219fb32b:0xb3ad12a0b44dc09a"}, {"place_id": "0x390ce39a24b89521:0x6e886c5e28fd05a9", "name": "Cloude Data Delhi | Best Cloud Service Provider company in India", "category": "Web hosting company", "street": "First Floor", "city": "A 212, Okhla Phase 3 Rd", "phone": "08882353612", "website": "https://cloudedata.com/", "rating": 4.4, "review_count": "", "latitude": 28.548515, "longitude": 77.2712834, "maps_url": "https://www.google.com/maps/place/?q=place_id:0x390ce39a24b89521:0x6e886c5e28fd05a9"}, {"place_id": "0x390ce107c80da4db:0x805afee28a52fa86", "name": "Panther Tour India", "category": "Sightseeing Tour Operator", "street": "F-3/327, Gali No. 3", "city": "Block C, Block F 3, Sangam Vihar", "phone": "08800777337", "website": "https://panther-tour-india.grexa.site/", "rating": 4.8, "review_count": "", "latitude": 28.4977357, "longitude": 77.24305989999999, "maps_url": "https://www.google.com/maps/place/?q=place_id:0x390ce107c80da4db:0x805afee28a52fa86"}, {"place_id": "0x390ce7e2e81abfd5:0x28e927dc5668406e", "name": "Ganesh Softwares", "category": "Computer support and services", "street": "Office No D-2", "city": "Gali No 26, Khajoor Rd", "phone": "09594126491", "website": "", "rating": 5, "review_count": "", "latitude": 28.495122499999997, "longitude": 77.3129817, "maps_url": "https://www.google.com/maps/place/?q=place_id:0x390ce7e2e81abfd5:0x28e927dc5668406e"}, {"place_id": "0x390ce1a874bd05a3:0x6facaa8efb41de1a", "name": "Air Travel Management Pvt Ltd", "category": "Corporate office", "street": "1077,Block-K2", "city": "Sangam Vihar", "phone": "09899903654", "website": "", "rating": 5, "review_count": "", "latitude": 28.498973399999997, "longitude": 77.2390437, "maps_url": "https://www.google.com/maps/place/?q=place_id:0x390ce1a874bd05a3:0x6facaa8efb41de1a"}, {"place_id": "0x390ce13a7ec3a4d5:0x3fc2df31607526a2", "name": "Sita Ram Demolishing Contractor", "category": "Demolition contractor", "street": "H-17", "city": "241, Ratiya Marg", "phone": "09899531934", "website": "", "rating": 4.9, "review_count": "", "latitude": 28.4969267, "longitude": 77.2453037, "maps_url": "https://www.google.com/maps/place/?q=place_id:0x390ce13a7ec3a4d5:0x3fc2df31607526a2"}, {"place_id": "0x390ce7ce156c005b:0x31085bed633b438f", "name": "Ajay IT Solutions", "category": "Computer Hardware Company", "street": "I-552 Hari Nagar, Jaitpur", "city": "Badarpur", "phone": "", "website": "", "rating": 5, "review_count": "", "latitude": 28.5051289, "longitude": 77.3166881, "maps_url": "https://www.google.com/maps/place/?q=place_id:0x390ce7ce156c005b:0x31085bed633b438f"}, {"place_id": "0x390ce1aad29e043f:0xa4d4b6e3bf5255ce", "name": "ABDUL FRIENDS DIGITAL POINT", "category": "Market", "street": "NEEM CHWOK", "city": "G-block, Devli, Sangam Vihar", "phone": "09718866545", "website": "http://abdulpyatmkycpoint.com/", "rating": 4.2, "review_count": "", "latitude": 28.4966977, "longitude": 77.2416171, "maps_url": "https://www.google.com/maps/place/?q=place_id:0x390ce1aad29e043f:0xa4d4b6e3bf5255ce"}, {"place_id": "0x390cfd309eebed77:0x73bf7628712e30f5", "name": "R.S. International", "category": "Unemployment office", "street": "3rd Floor", "city": "H-9/A", "phone": "09811668579", "website": "http://rsinternationalagency.com/", "rating": 4.7, "review_count": 161, "latitude": 28.501051399999998, "longitude": 77.24553379999999, "maps_url": "https://www.google.com/maps/place/?q=place_id:0x390cfd309eebed77:0x73bf7628712e30f5"}, {"place_id": "0x390ce1004a73bdb7:0x66da8cc3586156ca", "name": "Arun carpenter", "category": "Carpenter", "street": "Block C, Devli, Sangam Vihar", "city": "New Delhi, Delhi 110080", "phone": "", "website": "", "rating": 5, "review_count": "", "latitude": 28.499062499999997, "longitude": 77.2381875, "maps_url": "https://www.google.com/maps/place/?q=place_id:0x390ce1004a73bdb7:0x66da8cc3586156ca"}, {"place_id": "0x390ce1ab595e39d3:0xb0a316793d7c9048", "name": "Shiv shakti Appliances", "category": "Water purification company", "street": "F2", "city": "451, Ratiya Marg", "phone": "", "website": "https://www.plumint.com/delhi/shiv-shakti-appliances/11233", "rating": 5, "review_count": "", "latitude": 28.499195099999998, "longitude": 77.2457876, "maps_url": "https://www.google.com/maps/place/?q=place_id:0x390ce1ab595e39d3:0xb0a316793d7c9048"}, {"place_id": "0x390ce10972701b43:0x88fbfcfafdaf00f3", "name": "SearchingYard Group Corporate HQ", "category": "Software company", "street": "Tower 1st Floor, A", "city": "Nagpal Business", "phone": "", "website": "http://www.searchingyard.com/", "rating": 1.7, "review_count": "", "latitude": 28.538387699999998, "longitude": 77.27080029999999, "maps_url": "https://www.google.com/maps/place/?q=place_id:0x390ce10972701b43:0x88fbfcfafdaf00f3"}, {"place_id": "0x2c4e8a4f0540d6eb:0x2ddc5cfde96ced91", "name": "Unbox Studio | Creative & Digital Marketing Agency", "category": "Website designer", "street": "", "city": "", "phone": "09711707513", "website": "https://unboxstudio.info/", "rating": 5, "review_count": "", "latitude": 27.06468, "longitude": 77.99250119999999, "maps_url": "https://www.google.com/maps/place/?q=place_id:0x2c4e8a4f0540d6eb:0x2ddc5cfde96ced91"}, {"place_id": "0x390ce6d3e47c8b7f:0xde66622f445f3384", "name": "IZS Technocrats Private LTD", "category": "Website designer", "street": "GA - 56", "city": "Badarpur, Pul Pehladpur", "phone": "08882171675", "website": "", "rating": 5, "review_count": "", "latitude": 28.5012157, "longitude": 77.29197429999999, "maps_url": "https://www.google.com/maps/place/?q=place_id:0x390ce6d3e47c8b7f:0xde66622f445f3384"}, {"place_id": "0x639e7e286eacb39d:0x94e7ca480f5cadb8", "name": "Delhi Wala Pest Control", "category": "Pest control service", "street": "H. No. - 607", "city": "Blk. - B", "phone": "08700004230", "website": "https://delhiwalapestcontrol.in/", "rating": 5, "review_count": "", "latitude": 28.4991938, "longitude": 77.2383037, "maps_url": "https://www.google.com/maps/place/?q=place_id:0x639e7e286eacb39d:0x94e7ca480f5cadb8"}, {"place_id": "0x390ce1be2d2a7377:0x5020cce4790298e1", "name": "AJWA KAIF PVT LTD", "category": "Computer support and services", "street": "Ground Floor", "city": "Khirki Vill", "phone": "01142502100", "website": "https://www.ajwakaif.com/", "rating": 5, "review_count": "", "latitude": 28.5309287, "longitude": 77.2194186, "maps_url": "https://www.google.com/maps/place/?q=place_id:0x390ce1be2d2a7377:0x5020cce4790298e1"}, {"place_id": "0x390ce16fc7f143a7:0x92f2eae6f367dc36", "name": "Exploraa", "category": "Tour operator", "street": "deepmala Yamuna Apartment", "city": "187/3, Tigri Rd", "phone": "09873934735", "website": "https://www.exploraa.tours/", "rating": 5, "review_count": "", "latitude": 28.4965582, "longitude": 77.23863089999999, "maps_url": "https://www.google.com/maps/place/?q=place_id:0x390ce16fc7f143a7:0x92f2eae6f367dc36"}, {"place_id": "0x390ce7ff8d3b5849:0x700a05caae1790ad", "name": "Eyesys network pvt.ltd", "category": "Computer support and services", "street": "839A/15", "city": "Jaitpur Extension Part II, Jaitpur", "phone": "09911165896", "website": "", "rating": 4.8, "review_count": "", "latitude": 28.5041421, "longitude": 77.3355773, "maps_url": "https://www.google.com/maps/place/?q=place_id:0x390ce7ff8d3b5849:0x700a05caae1790ad"}, {"place_id": "0x390ce18c6963a4af:0xb99624ed3ba838ee", "name": "Royal mesh - The right mosquito door & windows - Great service guaranteed", "category": "Door manufacturer", "street": "Address B 1296", "city": "Block B, Devli, Sangam Vihar", "phone": "", "website": "http://royalmesh.in/", "rating": 4.7, "review_count": "", "latitude": 28.503000399999998, "longitude": 77.235463, "maps_url": "https://www.google.com/maps/place/?q=place_id:0x390ce18c6963a4af:0xb99624ed3ba838ee"}]}